     3.04           OBSERVATION DATA    M                   RINEX VERSION / TYPE
ssrcrin-15.6.1x                         20250102 234500 UTC PGM / RUN BY / DATE 
(00000000023479385599111004) Septentrio proprietary         COMMENT             
rref                                                        MARKER NAME         
01                                                          MARKER NUMBER       
geodetic                                                    MARKER TYPE         
NFB                 CLIMERS@TUW                             OBSERVER / AGENCY   
3297213             SEPT ASTERX SB3 PROB4.14.4              REC # / TYPE / VERS 
Unknown             Unknown                                 ANT # / TYPE        
  4127831.8640  1207193.2773  4695247.8382                  APPROX POSITION XYZ 
        0.0000        0.0000        0.0000                  ANTENNA: DELTA H/E/N
G   23 X1  C1C L1C D1C S1C C1W S1W C2W L2W D2W S2W C2L L2L  SYS / # / OBS TYPES 
       D2L S2L C5Q L5Q D5Q S5Q C1L L1L D1L S1L              SYS / # / OBS TYPES 
E   21 X1  C1C L1C D1C S1C C6C L6C D6C S6C C5Q L5Q D5Q S5Q  SYS / # / OBS TYPES 
       C7Q L7Q D7Q S7Q C8Q L8Q D8Q S8Q                      SYS / # / OBS TYPES 
S    9 X1  C1C L1C D1C S1C C5I L5I D5I S5I                  SYS / # / OBS TYPES 
R   17 X1  C1C L1C D1C S1C C2P L2P D2P S2P C2C L2C D2C S2C  SYS / # / OBS TYPES 
       C3Q L3Q D3Q S3Q                                      SYS / # / OBS TYPES 
C   25 X1  C1P L1P D1P S1P C5P L5P D5P S5P C2I L2I D2I S2I  SYS / # / OBS TYPES 
       C7I L7I D7I S7I C6I L6I D6I S6I C7D L7D D7D S7D      SYS / # / OBS TYPES 
J   17 X1  C1C L1C D1C S1C C2L L2L D2L S2L C5Q L5Q D5Q S5Q  SYS / # / OBS TYPES 
       C1L L1L D1L S1L                                      SYS / # / OBS TYPES 
I    5 X1  C5A L5A D5A S5A                                  SYS / # / OBS TYPES 
SEPTENTRIO RECEIVERS OUTPUT ALIGNED CARRIER PHASES.         COMMENT             
NO FURTHER PHASE SHIFT APPLIED IN THE RINEX ENCODER.        COMMENT             
G L1C                                                       SYS / PHASE SHIFT   
G L2W                                                       SYS / PHASE SHIFT   
G L2L  0.00000                                              SYS / PHASE SHIFT   
G L5Q  0.00000                                              SYS / PHASE SHIFT   
G L1L  0.00000                                              SYS / PHASE SHIFT   
E L1C  0.00000                                              SYS / PHASE SHIFT   
E L6C  0.00000                                              SYS / PHASE SHIFT   
E L5Q  0.00000                                              SYS / PHASE SHIFT   
E L7Q  0.00000                                              SYS / PHASE SHIFT   
E L8Q  0.00000                                              SYS / PHASE SHIFT   
S L1C                                                       SYS / PHASE SHIFT   
S L5I                                                       SYS / PHASE SHIFT   
R L1C                                                       SYS / PHASE SHIFT   
R L2P  0.00000                                              SYS / PHASE SHIFT   
R L2C                                                       SYS / PHASE SHIFT   
R L3Q  0.00000                                              SYS / PHASE SHIFT   
C L1P  0.00000                                              SYS / PHASE SHIFT   
C L5P  0.00000                                              SYS / PHASE SHIFT   
C L2I                                                       SYS / PHASE SHIFT   
C L7I                                                       SYS / PHASE SHIFT   
C L6I                                                       SYS / PHASE SHIFT   
C L7D                                                       SYS / PHASE SHIFT   
J L1C                                                       SYS / PHASE SHIFT   
J L2L  0.00000                                              SYS / PHASE SHIFT   
J L5Q  0.00000                                              SYS / PHASE SHIFT   
J L1L  0.00000                                              SYS / PHASE SHIFT   
I L5A                                                       SYS / PHASE SHIFT   
  2025     1     2    23    45    0.0000000     GPS         TIME OF FIRST OBS   
 C1C    0.000 C2C    0.000 C2P    0.000                     GLONASS COD/PHS/BIS 
DBHZ                                                        SIGNAL STRENGTH UNIT
    18                                                      LEAP SECONDS        
 24 R01  1 R02 -4 R03  5 R04  6 R05  1 R06 -4 R07  5 R08  6 GLONASS SLOT / FRQ #
    R09 -2 R10 -7 R11  0 R12 -1 R13 -2 R14 -7 R15  0 R16 -1 GLONASS SLOT / FRQ #
    R17  4 R18 -3 R19  3 R20  2 R21  4 R22 -3 R23  3 R24  2 GLONASS SLOT / FRQ #
                                                            END OF HEADER       
> 2025 01 02 23 45  0.0000000  0 52
G28         1.000    24393819.001 6 128190385.55306      2247.538 6        38.544                                    24393815.840 3  99888600.24403      1751.331 3        23.219    24393815.997 6  99888601.22906      1751.280 6        40.200
E08         2.000    25675370.607 7 134925001.61807      2590.151 7        43.503                                                                    25675368.817 7 100755686.57007      1934.203 7        46.377    25675368.169 7 103384094.84307      1984.663 7        47.484
G21         4.000    20892445.384 7 109790607.73007     -1362.415 7        44.769                                    20892439.786 6  85551129.39506     -1061.622 6        37.376
S21         5.000    38420918.480 7 201902940.31907      -274.163 7        42.419
E13         6.000    24565460.674 7 129092414.12907      1553.701 7        45.714                                                                    24565460.468 8  96400207.12808      1160.220 8        48.480    24565460.046 8  98914990.19008      1190.500 8        49.500
G10         7.000    24802656.988 6 130338902.61306     -3384.020 6        38.300                                    24802654.969 5 101562796.45805     -2636.898 5        31.011    24802654.935 5 101562790.47105     -2636.906 5        35.876
E15         8.000    23435724.091 7 123155675.71807      -863.989 7        47.863                                                                    23435724.058 8  91966970.62608      -645.160 8        50.751    23435723.590 8  94366096.64508      -661.976 8        51.467
G14        11.000    24473926.246 6 128611355.35006     -2110.854 6        37.493                                    24473923.549 3 100216633.03903     -1644.782 3        19.642    24473923.751 6 100216637.05506     -1644.864 6        36.231
G32        12.000    22499350.767 7 118234919.12207     -2282.711 7        47.590                                    22499349.048 7  92131106.86507     -1778.736 7        45.285    22499349.094 7  92131079.86807     -1778.742 7        42.770
G03        13.000    21221771.368 7 111521218.13507      2036.978 7        46.793                                    21221769.735 7  86899666.80207      1587.258 7        47.301    21221769.890 7  86899671.79807      1587.245 7        44.305
S36        14.000    38188511.912 7 200682508.28107      -273.349 7        43.736
C13        15.000                                                                                                                                    40787260.014 6 212390022.53206     -1016.682 6        36.922    40787261.856 6 164233471.60006      -786.052 6        37.641    40787259.931 6 172584313.15606      -825.944 6        36.374
G17        16.000    23407079.399 7 123005042.00407      2230.561 7        43.583                                    23407075.115 6  95848061.38806      1738.096 6        38.733    23407074.909 6  95848063.39806      1738.011 6        39.120
C16        17.000                                                                                                                                    39593168.242 6 206172033.70506      1013.790 6        40.298    39593167.971 6 159425301.41806       783.924 6        41.375    39593165.503 6 167531659.05106       823.790 6        38.024
E27        18.000    28727345.873 6 150963208.29406     -3085.336 6        36.246                                                                    28727347.726 6 112732261.31106     -2304.042 6        38.501    28727346.610 6 115673101.14106     -2364.053 6        38.210
E05        20.000    24802211.500 6 130336529.09606     -2394.205 6        40.934                                                                    24802211.287 7  97329231.73207     -1787.792 7        43.873    24802211.367 7  99868257.17907     -1834.463 7        45.589
C41        21.000                                                                                                                                    23068126.929 8 120121820.10008      1979.373 8        48.686                                                                    23068131.828 8  97608848.43708      1608.521 8        48.804
I06        22.000    38289196.236 7 150255265.97507       -98.102 7        42.965
E03        23.000    23989116.693 7 126063679.86407       239.367 7        47.254                                                                    23989116.133 8  94138492.38908       178.800 8        49.906    23989115.664 8  96594275.60808       183.468 8        50.871
R22        24.000    19295597.862 8 103001258.46108       848.893 8        51.860                                                                    19295595.812 8  80112105.82008       660.331 8        48.394
S23        25.000    38143451.479 7 200445150.37607      -271.135 7        44.635
S45        26.000    63390383.693 6 333119150.04606      -315.121 6        37.009
G02        27.000    20693694.945 8 108746154.85808       133.322 8        50.459                                    20693687.942 7  84737254.78007       103.885 7        43.498
S27        28.000    39078213.343 5 205357439.89605      -249.813 5        35.438
C39        29.000                                                                                                                                    39265406.751 7 204465295.27607       631.662 7        42.002                                                                    39265403.125 7 166144796.16307       513.357 7        42.334
E21        30.000    27552213.854 6 144787872.32506     -2145.761 6        38.670                                                                    27552214.381 6 108120819.99006     -1602.131 6        40.536    27552213.798 6 110941359.48206     -1643.933 6        41.459
C43        31.000                                                                                                                                    25489889.357 7 132732646.35507     -3608.293 7        42.085                                                                    25489888.864 7 107856188.79107     -2931.966 7        42.148
C42        32.000                                                                                                                                    25129591.729 7 130856399.39807     -3255.296 7        42.447                                                                    25129599.046 7 106331585.37607     -2645.041 7        44.334
C28        33.000                                                                                                                                    21610050.011 8 112529214.34708     -1148.277 8        51.117                                                                    21610048.625 8  91439205.69608      -932.946 8        48.689
E34        35.000    26619632.037 6 139887309.39006     -2664.646 6        40.810                                                                    26619632.251 7 104461411.00507     -1989.806 7        43.869    26619632.449 7 107186480.34407     -2041.782 7        45.571
C14        36.000                                                                                                                                    23000965.319 7 119772071.78407     -2375.508 7        46.475    23000959.861 8  92615351.22708     -1836.897 8        50.201    23000959.097 8  97324597.84608     -1930.167 8        48.515
R21        37.000    20677454.083 8 110649290.43008     -3184.295 8        50.382                                                                    20677453.498 7  86060580.34407     -2476.689 7        45.722
R06        38.000    19839377.827 6 105866752.36806     -2403.603 6        40.703
C27        40.000                                                                                                                                    22594338.398 8 117654691.01508      1573.543 8        48.487                                                                    22594336.989 8  95604090.02708      1278.795 8        48.097
C06        41.000                                                                                                                                    39295410.558 6 204621524.35006      1126.164 6        37.917    39295404.799 7 158226322.95907       870.731 7        42.466    39295404.481 6 166271727.59606       915.165 6        39.649
S44        42.000    40520164.628 6 212935104.04206      -333.316 6        38.270
G08        43.000    23261401.403 7 122239579.00807     -3821.712 7        42.743                                    23261399.601 6  95251659.83206     -2977.959 6        38.378    23261400.501 6  95251657.85506     -2978.020 6        39.462
C05        44.000                                                                                                                                    39106522.544 6 203637961.23706      -253.402 6        38.417    39106516.559 7 157465814.44007      -195.897 7        43.111    39106518.124 6 165472628.48806      -205.641 6        39.838
G04        45.000    24968779.274 6 131211826.15406      3578.074 6        36.246                                    24968776.816 2 102242966.33602      2788.085 2        17.962    24968777.454 6 102242968.36006      2788.004 6        37.074
C33        47.000                                                                                                                                    21919901.847 8 114142711.18708      -894.240 8        50.831                                                                    21919913.168 8  92750361.04208      -726.511 8        49.941
C09        48.000                                                                                                                                    40284244.420 6 209770642.66906      1406.934 6        39.015    40284241.691 7 162207957.45707      1088.014 7        42.550    40284239.326 6 170455808.78206      1143.318 6        38.486
R07        49.000    19496938.451 8 104368693.77408      1497.311 8        53.084                                                                    19496936.825 7  81175650.28007      1164.610 7        47.369
R15        50.000    24513296.583 5 130991631.21105      2131.233 5        35.852                                                                    24513296.511 5 101882358.10005      1657.207 5        30.641
S48        51.000    77175118.017 6 405559307.20306      -285.358 6        37.312
R14        53.000    23812020.790 7 126931480.05607      -625.773 7        42.978                                                                    23812020.821 6  98724424.35506      -486.669 6        40.064
C60        54.000                                                                                                                                    40520166.115 6 210999349.85106      -330.242 6        39.360                                                                    40520150.368 6 171454226.30806      -268.336 6        39.577
R08        55.000    22929724.087 7 122787653.59107      3867.439 7        42.512                                                                    22929721.832 6  95501555.75206      3008.044 6        40.605
I09        56.000    37123152.489 7 145679264.55207      -109.262 7        43.424
C02        57.000                                                                                                                                    40512953.477 5 210961634.31205      -295.396 5        33.790    40512947.402 6 163128912.99106      -228.558 6        40.708    40512950.626 6 171423612.94106      -240.204 6        36.329
I03        58.000    76404709.025 6 224043254.85506      1108.222 6        40.567
R23        59.000    22125920.905 7 118358773.06407      3504.708 7        44.582
C30        60.000                                                                                                                                    26727687.832 6 139178087.10406      2980.709 6        37.425                                                                    26727689.857 6 113093603.07906      2422.303 6        39.556
> 2025 01 02 23 45  5.0000000  0 52
G28         1.000    24391681.629 6 128179151.30106      2246.000 6        39.775                                    24391677.957 3  99879846.28103      1750.142 3        23.695    24391678.199 6  99879847.27606      1750.114 6        39.721
E08         2.000    25672906.724 7 134912053.47207      2589.089 7        43.697                                                                    25672904.840 7 100746017.49907      1933.443 7        46.191    25672904.287 7 103374173.53807      1983.877 7        47.282
G21         4.000    20893742.619 7 109797423.87907     -1364.203 7        45.308                                    20893736.860 6  85556440.68306     -1063.016 6        37.422
S21         5.000    38421180.777 7 201904310.22407      -274.089 7        42.717
E13         6.000    24563982.366 7 129084647.03607      1553.028 7        45.395                                                                    24563982.465 8  96394407.02008      1159.804 8        48.275    24563982.056 8  98909038.77708      1190.004 8        49.379
G10         7.000    24805876.586 6 130355822.94906     -3384.040 6        37.936                                    24805874.814 5 101575981.13405     -2636.919 5        31.162    24805875.128 6 101575975.15206     -2637.170 6        36.416
E15         8.000    23436546.588 7 123159998.40107      -865.179 7        47.681                                                                    23436546.644 8  91970198.60408      -646.080 8        50.579    23436546.164 8  94369408.83208      -662.938 8        51.368
G14        11.000    24475935.853 6 128621914.28606     -2112.585 6        37.603                                    24475932.828 3 100224860.77903     -1646.167 3        19.313    24475933.067 6 100224864.77106     -1646.232 6        36.960
G32        12.000    22501523.880 7 118246338.26007     -2285.010 7        47.299                                    22501522.019 7  92140004.89707     -1780.528 7        45.412    22501522.135 7  92139977.89907     -1780.593 7        42.741
G03        13.000    21219833.829 7 111511037.24007      2035.303 7        46.673                                    21219832.373 7  86891733.63907      1585.950 7        47.450    21219832.647 7  86891738.64707      1586.050 7        44.128
S36        14.000    38188770.801 7 200683874.20607      -273.004 7        43.524
C13        15.000                                                                                                                                    40788236.171 6 212395104.62006     -1016.522 6        36.801    40788237.639 6 164237401.38406      -785.778 6        37.161    40788236.011 6 172588442.78506      -825.931 6        36.541
G17        16.000    23404958.171 7 122993893.44507      2228.782 7        43.369                                    23404953.616 6  95839374.20706      1736.714 6        38.847    23404954.421 6  95839376.20006      1736.685 6        39.504
C16        17.000                                                                                                                                    39592194.269 6 206166966.49106      1013.169 6        40.229    39592194.494 6 159421383.14006       783.354 6        41.838    39592192.274 6 167527541.53106       823.233 6        37.754
E27        18.000    28730281.038 5 150978633.87505     -3085.026 5        35.386                                                                    28730283.175 6 112743780.37806     -2303.675 6        37.115    28730281.863 6 115684920.72006     -2363.756 6        37.750
E05        20.000    24804489.943 6 130348503.22706     -2395.651 6        40.574                                                                    24804490.004 7  97338173.45307     -1788.886 7        43.752    24804489.914 7  99877432.16707     -1835.665 7        45.326
C41        21.000                                                                                                                                    23066227.268 8 120111927.05108      1977.758 8        48.848                                                                    23066232.005 8  97600809.54308      1606.989 8        48.817
I06        22.000    38289321.474 7 150255756.81607       -98.112 7        42.732
E03        23.000    23988889.976 7 126062488.19507       237.215 7        46.979                                                                    23988889.373 8  94137602.51508       177.077 8        49.675    23988888.935 8  96593362.51808       181.690 8        50.748
R22        24.000    19294803.931 8 102997021.19308       845.907 8        51.958                                                                    19294802.042 8  80108810.16708       657.928 8        48.276
S23        25.000    38143709.491 7 200446505.70607      -271.061 7        44.370
S45        26.000    63390639.104 6 333120725.03106      -314.825 6        37.206
G02        27.000    20693569.007 8 108745492.64408       131.495 8        50.324                                    20693561.923 7  84736738.76907       102.463 7        43.566
S27        28.000    39078447.835 5 205358688.51405      -249.480 5        35.881
C39        29.000                                                                                                                                    39264800.611 6 204462139.15206       630.766 6        41.843                                                                    39264796.903 7 166142231.57007       512.462 7        42.404
E21        30.000    27554255.760 6 144798603.42806     -2147.081 6        38.363                                                                    27554256.299 6 108128833.47306     -1603.288 6        40.408    27554255.774 6 110949582.02706     -1645.194 6        41.425
C43        31.000                                                                                                                                    25493354.662 7 132750689.32807     -3608.988 7        42.089                                                                    25493353.992 7 107870850.20407     -2932.730 7        42.455
C42        32.000                                                                                                                                    25132717.438 7 130872676.67507     -3255.686 7        42.499                                                                    25132724.969 7 106344812.01807     -2645.673 7        44.311
C28        33.000                                                                                                                                    21611153.808 8 112534961.36708     -1150.568 8        51.127                                                                    21611152.211 8  91443875.63408      -935.086 8        48.678
E34        35.000    26622167.669 6 139900634.49806     -2665.317 6        40.999                                                                    26622167.970 7 104471361.58307     -1990.445 7        43.517    26622167.855 7 107196690.49407     -2042.327 7        45.357
C14        36.000                                                                                                                                    23003246.560 7 119783952.81207     -2376.936 7        46.459    23003241.835 8  92624538.38908     -1838.026 8        50.381    23003240.738 8  97334252.17008     -1931.615 8        48.569
R21        37.000    20680431.083 8 110665218.36208     -3186.896 8        50.234                                                                    20680429.634 7  86072968.74007     -2478.719 7        45.371
R06        38.000    19841631.414 6 105878777.03106     -2406.461 6        40.343
C27        40.000                                                                                                                                    22592828.345 8 117646827.48308      1571.808 8        48.662                                                                    22592826.855 8  95597700.28808      1277.109 8        48.158
C06        41.000                                                                                                                                    39294330.457 6 204615895.70306      1125.322 6        38.477    39294323.738 6 158221970.51806       870.265 6        41.976    39294323.793 6 166267153.86406       914.252 6        39.330
S44        42.000    40520480.262 6 212936770.13206      -333.143 6        38.435
G08        43.000    23265038.026 7 122258689.69207     -3822.515 7        42.529                                    23265036.081 6  95266551.27706     -2978.582 6        38.279    23265037.176 6  95266549.29306     -2978.621 6        40.021
C05        44.000                                                                                                                                    39106765.416 6 203639227.32606      -253.129 6        38.432    39106759.739 7 157466793.47307      -195.895 7        42.921    39106761.188 6 165473657.34006      -206.052 6        40.212
G04        45.000    24965374.775 6 131193936.35806      3577.925 6        36.363                                    24965372.574 2 102229026.24802      2787.967 2        17.962    24965373.261 6 102229028.25806      2787.956 6        36.677
C33        47.000                                                                                                                                    21920761.689 8 114147187.57108      -896.457 8        50.956                                                                    21920772.819 8  92753998.48608      -728.500 8        49.962
C09        48.000                                                                                                                                    40282893.727 6 209763608.70006      1406.465 6        38.541    40282890.827 7 162202518.36707      1087.597 7        42.758    40282888.762 6 170450093.13506      1142.847 6        38.685
R07        49.000    19495541.395 8 104361215.84408      1493.818 8        52.914                                                                    19495539.736 7  81169834.12607      1161.860 7        47.568
R15        50.000    24511304.573 6 130980980.50606      2129.050 6        36.159                                                                    24511303.880 5 101874074.14405      1655.489 5        31.260
S48        51.000    77175383.162 6 405560733.44106      -285.506 6        37.535
R14        53.000    23812609.413 7 126934618.65607      -629.671 7        44.173                                                                    23812609.992 6  98726865.48706      -489.786 6        40.577
C60        54.000                                                                                                                                    40520483.265 6 211001000.78906      -330.129 6        39.907                                                                    40520467.303 6 171455567.85806      -268.381 6        39.832
R08        55.000    22926112.671 7 122768318.30907      3866.528 7        42.466                                                                    22926110.821 6  95486517.20006      3007.260 6        40.713
I09        56.000    37123292.035 7 145679811.01307      -109.449 7        43.369
C02        57.000                                                                                                                                    40513238.096 5 210963112.14905      -295.635 5        34.148    40513230.970 6 163130055.74706      -228.564 6        40.269    40513234.471 6 171424813.79806      -240.253 6        36.340
I03        58.000    76403297.029 6 224037713.76106      1108.192 6        41.213
R23        59.000    22122646.407 7 118341252.15307      3503.831 7        45.050
C30        60.000                                                                                                                                    26724826.721 6 139163183.03406      2980.644 6        38.682                                                                    26724827.118 6 113081492.30406      2422.015 6        38.748
> 2025 01 02 23 45 10.0000000  0 52
G28         1.000    24389545.175 6 128167924.06706      2245.039 6        38.790                                    24389541.559 3  99871097.78403      1749.378 3        23.581    24389541.824 6  99871098.79906      1749.234 6        39.847
E08         2.000    25670443.460 7 134899110.18807      2588.398 7        43.471                                                                    25670441.803 7 100736352.06907      1932.858 7        46.369    25670441.163 7 103364255.96507      1983.262 7        47.260
G21         4.000    20895041.306 7 109804248.45207     -1365.666 7        44.886                                    20895035.562 6  85561758.53506     -1064.155 6        37.467
S21         5.000    38421437.068 7 201905679.32807      -273.412 7        42.370
E13         6.000    24562505.077 7 129076883.02807      1552.660 7        45.156                                                                    24562505.016 8  96388609.22908      1159.432 8        48.549    24562504.586 8  98903089.73608      1189.686 8        49.359
G10         7.000    24809096.639 6 130372743.15406     -3383.910 6        38.676                                    24809094.655 5 101589165.70905     -2636.808 5        31.509    24809094.851 6 101589159.72806     -2637.109 6        36.435
E15         8.000    23437370.378 7 123164327.21807      -866.186 7        47.357                                                                    23437370.335 8  91973431.16508      -646.834 8        50.815    23437369.888 8  94372725.71908      -663.716 8        51.362
G14        11.000    24477946.532 6 128632482.79106     -2114.504 6        38.300                                    24477944.025 3 100233095.97603     -1647.678 3        19.194    24477943.908 6 100233099.99106     -1647.486 6        36.363
G32        12.000    22503699.180 7 118257768.96807     -2287.107 7        46.820                                    22503697.173 7  92148911.94107     -1782.161 7        45.484    22503697.649 7  92148884.93307     -1782.191 7        42.650
G03        13.000    21217898.179 7 111500864.52607      2033.886 7        46.507                                    21217896.558 7  86883806.85507      1584.851 7        47.518    21217896.859 7  86883811.85707      1584.915 7        44.262
S36        14.000    38189032.136 7 200685239.50407      -272.786 7        43.759
C13        15.000                                                                                                                                    40789212.580 6 212400185.21606     -1015.495 6        37.338    40789213.094 6 164241330.05306      -785.377 6        37.588    40789211.468 6 172592571.21006      -825.634 6        36.575
G17        16.000    23402837.867 7 122982753.87407      2227.275 7        42.855                                    23402833.799 6  95830694.02506      1735.536 6        38.805    23402834.399 6  95830696.03706      1735.336 6        40.155
C16        17.000                                                                                                                                    39591222.205 6 206161902.68806      1012.717 6        40.083    39591222.494 6 159417467.49006       783.055 6        41.793    39591219.986 6 167523426.79106       822.786 6        37.898
E27        18.000    28733216.116 5 150994057.43305     -3084.268 5        35.086                                                                    28733218.021 6 112755297.95806     -2303.264 6        37.879    28733217.293 6 115696738.78006     -2363.196 6        37.834
E05        20.000    24806769.937 6 130360484.57506     -2396.831 6        40.253                                                                    24806769.994 7  97347120.57707     -1789.828 7        44.026    24806769.739 7  99886612.68707     -1836.462 7        45.248
C41        21.000                                                                                                                                    23064328.746 8 120102042.24908      1976.339 8        48.827                                                                    23064333.724 8  97592777.33008      1605.905 8        48.702
I06        22.000    38289446.454 7 150256247.20907       -97.913 7        43.012
E03        23.000    23988665.410 7 126061307.78207       235.152 7        46.867                                                                    23988664.766 8  94136721.03308       175.579 8        49.967    23988664.287 8  96592458.04108       180.171 8        50.757
R22        24.000    19294013.137 8 102992799.42108       842.993 8        51.987                                                                    19294010.924 8  80105526.56608       655.717 8        48.463
S23        25.000    38143963.314 7 200447860.39607      -270.688 7        44.530
S45        26.000    63390895.860 6 333122299.35106      -314.659 6        37.452
G02        27.000    20693444.696 8 108744839.77208       129.777 8        50.191                                    20693437.688 7  84736230.03807       101.127 7        43.651
S27        28.000    39078684.196 5 205359936.16305      -249.483 5        35.805
C39        29.000                                                                                                                                    39264195.671 6 204458987.19406       630.167 6        41.976                                                                    39264191.536 7 166139670.33807       512.004 7        42.279
E21        30.000    27556299.841 6 144809341.95006     -2148.343 6        38.291                                                                    27556299.869 6 108136852.51706     -1604.217 6        40.608    27556299.254 6 110957810.23606     -1646.048 6        41.564
C43        31.000                                                                                                                                    25496820.211 7 132768734.57407     -3609.097 7        42.095                                                                    25496819.446 7 107885513.42107     -2932.581 7        42.210
C42        32.000                                                                                                                                    25135844.467 7 130888956.36507     -3255.988 7        42.233                                                                    25135851.326 7 106358040.58507     -2645.733 7        44.202
C28        33.000                                                                                                                                    21612259.701 8 112540720.09608     -1152.742 8        51.219                                                                    21612258.138 8  91448555.06508      -936.674 8        48.558
E34        35.000    26624703.807 6 139913962.43006     -2665.829 6        40.346                                                                    26624704.349 7 104481314.24707     -1990.591 7        43.809    26624704.343 7 107206902.79607     -2042.561 7        45.416
C14        36.000                                                                                                                                    23005529.102 7 119795841.10207     -2378.215 7        46.363    23005524.776 8  92633731.17108     -1838.972 8        50.304    23005523.703 8  97343912.36708     -1932.500 8        48.536
R21        37.000    20683409.913 8 110681158.93208     -3189.222 8        50.628                                                                    20683408.437 7  86085366.95407     -2480.576 7        45.800
R06        38.000    19843887.869 6 105890816.83506     -2409.219 6        40.446
C27        40.000                                                                                                                                    22591320.232 8 117638972.99008      1570.162 8        48.884                                                                    22591318.460 8  95591317.86608      1275.867 8        48.040
C06        41.000                                                                                                                                    39293249.846 6 204610270.32506      1124.912 6        37.981    39293243.187 6 158217620.62806       869.813 6        41.943    39293243.160 6 166262582.79006       914.085 6        39.273
S44        42.000    40520800.439 6 212938435.65106      -332.890 6        38.123
G08        43.000    23268675.307 7 122277803.96907     -3823.026 7        42.311                                    23268673.433 6  95281445.51906     -2978.982 6        38.369    23268675.153 6  95281443.52606     -2979.014 6        40.563
C05        44.000                                                                                                                                    39107008.301 6 203640492.90206      -252.910 6        38.604    39107003.049 7 157467772.08807      -195.573 7        43.386    39107004.636 6 165474685.70806      -205.561 6        40.067
G04        45.000    24961970.312 5 131176045.81805      3578.054 5        35.938                                    24961968.140 2 102215085.57802      2788.102 2        17.585    24961968.312 6 102215087.57406      2788.087 6        36.926
C33        47.000                                                                                                                                    21921623.441 8 114151674.67208      -898.306 8        51.064                                                                    21921634.510 8  92757644.61408      -729.941 8        49.880
C09        48.000                                                                                                                                    40281543.470 6 209756576.74306      1406.143 6        38.919    40281540.100 7 162197080.80307      1087.518 7        42.707    40281538.217 6 170444379.07606      1142.835 6        38.504
R07        49.000    19494147.875 8 104353755.51408      1490.468 8        52.749                                                                    19494146.027 7  81164031.64107      1159.287 7        47.392
R15        50.000    24509313.007 5 130970343.60405      2126.069 5        35.614                                                                    24509314.251 5 101865800.97805      1653.739 5        31.396
S48        51.000    77175639.368 6 405562159.07506      -285.192 6        37.176
R14        53.000    23813202.518 7 126937776.77107      -633.337 7        43.581                                                                    23813202.482 6  98729321.83706      -492.699 6        40.789
C60        54.000                                                                                                                                    40520800.370 6 211002651.16706      -329.892 6        39.402                                                                    40520784.341 6 171456908.90406      -268.027 6        39.700
R08        55.000    22922503.700 7 122748988.69307      3865.520 7        43.380                                                                    22922501.846 6  95471483.04706      3006.661 6        40.479
I09        56.000    37123431.576 7 145680358.04507      -109.341 7        43.293
C02        57.000                                                                                                                                    40513522.312 5 210964589.36605      -295.349 5        34.248    40513514.547 6 163131198.02606      -228.245 6        40.398    40513518.120 5 171426014.15105      -239.860 5        35.990
I03        58.000    76401885.520 6 224032172.37106      1108.450 6        40.696
R23        59.000    22119372.368 7 118323735.10107      3503.313 7        44.883
C30        60.000                                                                                                                                    26721964.664 6 139148279.57106      2980.732 6        40.639                                                                    26721964.594 6 113069381.97106      2422.320 6        38.162
> 2025 01 02 23 45 15.0000000  0 52
G28         1.000    24387409.420 6 128156703.17206      2243.438 6        38.162                                    24387406.328 3  99862354.22903      1748.137 3        22.781    24387406.419 6  99862355.23206      1748.242 6        39.631
E08         2.000    25667981.247 7 134886171.04707      2587.200 7        43.300                                                                    25667979.521 7 100726689.72007      1932.018 7        46.488    25667978.905 7 103354341.55507      1982.406 7        47.170
G21         4.000    20896341.393 7 109811080.74507     -1367.390 7        44.835                                    20896335.718 6  85567082.40006     -1065.502 6        37.338
S21         5.000    38421698.684 7 201907046.95707      -273.764 7        42.493
E13         6.000    24561027.808 7 129069121.35207      1551.922 7        45.144                                                                    24561028.075 8  96382813.17408      1158.912 8        48.564    24561027.599 8  98897142.48208      1189.102 8        49.351
G10         7.000    24812316.081 6 130389662.47906     -3383.890 6        38.207                                    24812314.313 5 101602349.59805     -2636.789 5        31.411    24812314.757 6 101602343.57106     -2636.628 6        36.480
E15         8.000    23438195.217 7 123168661.42607      -867.576 7        47.527                                                                    23438195.104 8  91976667.74508      -647.858 8        50.807    23438194.706 8  94376046.73108      -664.742 8        51.356
G14        11.000    24479959.322 6 128643060.14106     -2116.692 6        37.750                                    24479956.917 3 100241338.06803     -1649.365 3        18.866    24479957.307 6 100241342.08306     -1649.355 6        36.533
G32        12.000    22505876.429 7 118269210.48507     -2289.485 7        46.597                                    22505874.379 7  92157827.40907     -1784.014 7        45.296    22505874.500 7  92157800.41907     -1784.128 7        42.866
G03        13.000    21215963.908 7 111490699.22807      2032.126 7        46.341                                    21215962.161 7  86875885.84307      1583.473 7        47.369    21215962.666 7  86875890.83907      1583.560 7        44.597
S36        14.000    38189290.229 7 200686603.95207      -272.923 7        43.403
C13        15.000                                                                                                                                    40790187.543 6 212405263.67706     -1015.745 6        36.998    40790188.254 6 164245257.01506      -785.314 6        38.306    40790186.820 6 172596697.81706      -825.206 6        36.174
G17        16.000    23400719.729 7 122971622.51107      2225.292 7        43.137                                    23400715.578 6  95822020.24406      1733.993 6        38.748    23400715.519 6  95822022.24806      1733.841 6        40.262
C16        17.000                                                                                                                                    39590250.403 6 206156841.56806      1011.735 6        40.153    39590250.295 7 159413553.90207       782.414 7        42.015    39590248.251 6 167519314.19406       822.174 6        37.546
E27        18.000    28736150.651 5 151009478.27505     -3084.089 5        34.786                                                                    28736152.964 6 112766813.49606     -2303.067 6        37.251    28736151.616 6 115708554.71506     -2363.094 6        38.255
E05        20.000    24809051.320 6 130372472.41706     -2398.488 6        40.088                                                                    24809051.046 7  97356072.52507     -1791.009 7        43.926    24809050.832 7  99895798.17407     -1837.700 7        45.211
C41        21.000                                                                                                                                    23062431.893 8 120092164.95608      1974.531 8        48.817                                                                    23062436.871 8  97584751.20708      1604.582 8        48.732
I06        22.000    38289571.355 7 150256736.52107       -97.794 7        43.191
E03        23.000    23988442.577 7 126060137.86607       232.798 7        46.822                                                                    23988442.120 8  94135847.39708       173.803 8        49.980    23988441.643 8  96591561.61408       178.328 8        50.751
R22        24.000    19293225.023 8 102988592.40808       839.719 8        51.687                                                                    19293222.993 8  80102254.45408       653.145 8        48.506
S23        25.000    38144221.613 7 200449213.61207      -270.579 7        44.691
S45        26.000    63391153.036 6 333123872.24906      -314.612 6        37.059
G02        27.000    20693322.106 8 108744195.46808       127.851 8        50.124                                    20693315.090 7  84735727.98307        99.624 7        43.515
S27        28.000    39078918.124 5 205361182.06605      -249.129 5        35.795
C39        29.000                                                                                                                                    39263591.173 7 204455838.64307       629.280 7        42.224                                                                    39263586.872 7 166137111.87707       511.370 7        42.453
E21        30.000    27558344.027 6 144820087.13506     -2149.844 6        38.351                                                                    27558344.672 6 108144876.51006     -1605.405 6        40.560    27558344.070 6 110966043.56106     -1647.277 6        41.497
C43        31.000                                                                                                                                    25500285.712 7 132786781.34307     -3609.607 7        42.155                                                                    25500284.804 6 107900177.89306     -2932.927 6        41.785
C42        32.000                                                                                                                                    25138970.684 7 130905237.70507     -3256.555 7        42.324                                                                    25138978.101 7 106371270.49107     -2646.145 7        44.278
C28        33.000                                                                                                                                    21613367.675 8 112546489.79808     -1155.185 8        51.314                                                                    21613366.152 8  91453243.41108      -938.595 8        48.610
E34        35.000    26627240.538 6 139927292.38906     -2666.353 6        40.913                                                                    26627240.882 7 104491268.44207     -1991.080 7        43.712    26627240.967 7 107217116.66607     -2043.029 7        45.404
C14        36.000                                                                                                                                    23007813.090 7 119807735.87207     -2379.717 7        46.399    23007809.037 8  92642928.95908     -1840.172 8        50.526    23007807.897 8  97353577.83308     -1933.664 8        48.541
R21        37.000    20686391.024 8 110697111.35408     -3191.832 8        50.365                                                                    20686389.408 7  86097774.39407     -2482.513 7        45.141
R06        38.000    19846146.581 6 105902870.98206     -2412.510 6        40.489
C27        40.000                                                                                                                                    22589813.441 8 117631126.80808      1568.237 8        48.961                                                                    22589811.754 8  95584942.19208      1274.436 8        48.130
C06        41.000                                                                                                                                    39292169.921 6 204604647.52506      1124.024 6        38.532    39292163.769 7 158213272.71607       869.206 7        42.591    39292163.557 6 166258013.79506       913.492 6        39.715
S44        42.000    40521114.588 6 212940099.79806      -332.708 6        38.096
G08        43.000    23272313.304 7 122296921.09807     -3823.784 7        42.311                                    23272311.455 6  95296341.98106     -2979.569 6        38.483    23272312.777 6  95296339.96606     -2979.580 6        40.830
C05        44.000                                                                                                                                    39107251.522 6 203641757.15006      -252.831 6        39.051    39107245.778 7 157468749.68007      -195.578 7        43.632    39107247.494 6 165475712.99106      -205.305 6        40.081
G04        45.000    24958565.496 6 131158153.80406      3578.528 6        36.563                                    24958563.442 2 102201143.75902      2788.457 2        17.547    24958563.746 6 102201145.77606      2788.290 6        36.945
C33        47.000                                                                                                                                    21922486.981 8 114156171.74208      -900.556 8        51.314                                                                    21922498.113 8  92761298.84708      -731.732 8        49.985
C09        48.000                                                                                                                                    40280193.192 6 209749546.10806      1405.684 6        38.832    40280190.081 7 162191644.28207      1087.083 7        42.586    40280187.986 6 170438666.10706      1142.512 6        38.739
R07        49.000    19492757.473 8 104346312.09008      1486.839 8        52.697                                                                    19492755.558 7  81158242.31707      1156.393 7        47.337
R15        50.000    24507324.610 5 130959719.78505      2122.997 5        34.671                                                                    24507322.800 5 101857538.00505      1651.234 5        31.977
S48        51.000    77175902.500 6 405563583.26606      -284.914 6        37.924
R14        53.000    23813797.680 7 126940953.80307      -637.521 7        44.108                                                                    23813798.127 6  98731792.86806      -495.735 6        40.682
C60        54.000                                                                                                                                    40521117.086 6 211004300.21706      -329.865 6        40.319                                                                    40521101.348 6 171458248.87306      -268.141 6        40.336
R08        55.000    22918896.273 7 122729663.77807      3864.441 7        44.260                                                                    22918892.533 6  95456452.53406      3005.716 6        40.565
I09        56.000    37123570.742 7 145680905.11907      -109.418 7        43.380
C02        57.000                                                                                                                                    40513804.637 5 210966065.30605      -295.072 5        34.238    40513798.263 6 163132339.32606      -228.178 6        41.070    40513801.621 6 171427213.47206      -239.708 6        36.378
I03        58.000    76400472.802 6 224026630.15406      1108.372 6        40.620
R23        59.000    22116097.619 7 118306221.12107      3502.388 7        44.767
C30        60.000                                                                                                                                    26719102.847 6 139133375.99106      2980.407 6        40.250                                                                    26719102.452 6 113057271.57806      2421.920 6        38.282
> 2025 01 02 23 45 20.0000000  0 52
G28         1.000    24385275.836 6 128145489.48806      2242.139 6        38.357                                    24385272.335 3  99853616.29903      1747.111 3        22.552    24385272.708 6  99853617.30206      1747.062 6        39.946
E08         2.000    25665520.158 7 134873236.94307      2586.402 7        43.378                                                                    25665518.164 7 100717031.15007      1931.408 7        46.375    25665517.752 7 103344431.01507      1981.841 7        47.219
G21         4.000    20897642.874 7 109817921.61507     -1368.929 7        44.734                                    20897637.506 6  85572412.94606     -1066.696 6        37.270
S21         5.000    38421963.539 7 201908413.97707      -272.964 7        42.809
E13         6.000    24559551.628 7 129061362.92607      1551.456 7        45.305                                                                    24559551.640 8  96377019.55208      1158.565 8        48.478    24559551.214 8  98891197.71908      1188.776 8        49.217
G10         7.000    24815535.659 6 130406581.79006     -3383.641 6        38.919                                    24815534.020 5 101615533.46405     -2636.605 5        31.426    24815534.139 6 101615527.47906     -2636.493 6        36.355
E15         8.000    23439020.940 7 123173001.92307      -868.594 7        47.476                                                                    23439021.130 8  91979909.02408      -648.633 8        50.754    23439020.656 8  94379372.57208      -665.574 8        51.277
G14        11.000    24481974.556 6 128653647.16606     -2118.365 6        37.588                                    24481971.450 3 100249587.70303     -1650.664 3        19.075    24481971.740 6 100249591.69806     -1650.637 6        36.628
G32        12.000    22508055.650 7 118280663.73907     -2291.726 7        46.893                                    22508053.817 7  92166752.02107     -1785.759 7        45.135    22508054.789 7  92166725.01807     -1785.715 7        43.520
G03        13.000    21214031.133 7 111480542.26607      2030.646 7        46.420                                    21214029.343 7  86867971.32807      1582.325 7        47.299    21214030.040 7  86867976.33107      1582.270 7        44.581
S36        14.000    38189545.747 7 200687968.65907      -272.933 7        43.225
C13        15.000                                                                                                                                    40791162.205 6 212410340.71106     -1015.282 6        36.405    40791163.334 6 164249182.91806      -785.182 6        38.087    40791161.611 6 172600823.35706      -824.887 6        36.495
G17        16.000    23398603.367 7 122960500.30707      2223.640 7        43.118                                    23398599.118 6  95813353.59906      1732.707 6        38.673    23398598.742 6  95813355.58906      1732.727 6        39.925
C16        17.000                                                                                                                                    39589279.546 6 206151783.99406      1011.180 6        40.038    39589279.157 6 159409643.07406       781.810 6        41.666    39589276.808 6 167515204.51006       821.783 6        37.747
E27        18.000    28739084.344 5 151024897.22005     -3083.502 5        35.462                                                                    28739086.662 6 112778327.61106     -2302.536 6        37.323    28739085.742 6 115720369.21406     -2362.656 6        37.936
E05        20.000    24811333.842 6 130384467.63606     -2399.673 6        40.095                                                                    24811333.702 7  97365030.00207     -1791.952 7        43.850    24811333.453 7  99904989.31107     -1838.708 7        45.059
C41        21.000                                                                                                                                    23060536.540 8 120082296.04608      1973.092 8        48.783                                                                    23060541.707 8  97576731.93508      1603.266 8        48.835
I06        22.000    38289695.732 7 150257225.49107       -97.644 7        42.868
E03        23.000    23988222.280 7 126058979.35807       230.645 7        46.765                                                                    23988221.675 8  94134982.27708       172.221 8        49.816    23988221.172 8  96590673.92808       176.733 8        50.641
R22        24.000    19292439.782 8 102984401.09908       836.877 8        52.082                                                                    19292437.786 8  80098994.54408       650.806 8        48.938
S23        25.000    38144478.351 7 200450566.25407      -270.400 7        44.650
S45        26.000    63391400.737 6 333125444.63006      -314.448 6        36.907
G02        27.000    20693201.356 8 108743560.64208       126.146 8        50.290                                    20693194.284 7  84735233.31107        98.297 7        43.378
S27        28.000    39079157.946 6 205362427.61206      -249.170 6        36.310
C39        29.000                                                                                                                                    39262987.545 7 204452694.43207       628.450 7        42.106                                                                    39262983.156 7 166134556.95907       510.752 7        42.677
E21        30.000    27560390.419 6 144830839.85206     -2151.253 6        38.550                                                                    27560390.953 6 108152906.13306     -1606.389 6        40.532    27560390.293 6 110974282.66006     -1648.212 6        41.244
C43        31.000                                                                                                                                    25503752.322 7 132804830.51407     -3609.881 7        42.068                                                                    25503751.117 6 107914844.35706     -2933.420 6        41.948
C42        32.000                                                                                                                                    25142097.391 7 130921521.57007     -3256.904 7        42.362                                                                    25142105.152 7 106384502.48507     -2646.568 7        44.315
C28        33.000                                                                                                                                    21614477.952 8 112552271.35808     -1157.356 8        51.064                                                                    21614476.490 8  91457941.41308      -940.416 8        48.746
E34        35.000    26629777.564 6 139940625.32906     -2666.803 6        40.658                                                                    26629778.022 7 104501224.85107     -1991.478 7        43.837    26629778.263 7 107227332.80507     -2043.326 7        45.822
C14        36.000                                                                                                                                    23010098.952 7 119819638.01907     -2381.024 7        46.218    23010094.635 8  92652132.44808     -1841.169 8        50.553    23010093.704 8  97363249.31308     -1934.778 8        48.592
R21        37.000    20689374.251 8 110713076.56608     -3194.213 8        50.282                                                                    20689372.854 7  86110191.77607     -2484.442 7        44.795
R06        38.000    19848408.929 6 105914940.36806     -2415.233 6        40.026
C27        40.000                                                                                                                                    22588308.163 8 117623289.82408      1566.687 8        48.894                                                                    22588306.725 8  95578574.01808      1272.968 8        48.169
C06        41.000                                                                                                                                    39291090.333 6 204599028.10106      1123.690 6        38.231    39291084.556 7 158208927.44207       868.949 7        42.506    39291084.603 6 166253447.58906       913.002 6        39.601
S44        42.000    40521433.585 6 212941763.54706      -332.493 6        38.649
G08        43.000    23275951.901 7 122316041.93007     -3824.255 7        42.751                                    23275950.225 6  95311241.32506     -2979.934 6        38.637    23275950.898 6  95311239.33306     -2980.149 6        40.868
C05        44.000                                                                                                                                    39107493.593 6 203643020.98506      -252.526 6        38.541    39107488.202 7 157469726.98307      -195.480 7        43.735    39107490.062 6 165476740.00706      -205.457 6        40.255
G04        45.000    24955160.841 6 131140261.27406      3578.562 6        36.711                                    24955158.869 3 102187201.53703      2788.491 3        18.179    24955158.993 6 102187203.53106      2788.708 6        36.609
C33        47.000                                                                                                                                    21923352.661 8 114160679.67508      -902.578 8        50.914                                                                    21923363.832 8  92764961.92508      -733.397 8        49.988
C09        48.000                                                                                                                                    40278843.183 6 209742517.64306      1405.626 6        38.673    40278839.998 7 162186209.42707      1086.849 7        42.787    40278838.354 6 170432954.92306      1142.046 6        38.967
R07        49.000    19491370.383 8 104338886.69108      1483.479 8        53.072                                                                    19491368.322 7  81152467.01107      1153.823 7        47.375
R15        50.000    24505338.639 5 130949109.77205      2120.659 5        34.810                                                                    24505340.102 5 101849285.81805      1649.336 5        31.872
S48        51.000    77176163.361 6 405565006.98606      -284.769 6        38.057
R14        53.000    23814397.476 7 126944150.55607      -641.163 7        42.694                                                                    23814398.015 6  98734279.22906      -498.655 6        40.984
C60        54.000                                                                                                                                    40521433.601 6 211005948.82406      -329.514 6        39.970                                                                    40521418.212 6 171459588.52006      -267.865 6        40.298
R08        55.000    22915288.017 7 122710344.48207      3863.357 7        43.450                                                                    22915285.155 6  95441426.44706      3004.796 6        41.287
I09        56.000    37123710.276 7 145681452.93007      -109.515 7        43.592
C02        57.000                                                                                                                                    40514087.807 5 210967540.90005      -294.986 5        33.713    40514081.679 6 163133480.35706      -228.256 6        40.989    40514084.925 6 171428412.53906      -239.729 6        36.382
I03        58.000    76399060.131 6 224021087.75906      1108.601 6        40.837
R23        59.000    22112823.702 7 118288711.28507      3501.801 7        44.349
C30        60.000                                                                                                                                    26716240.965 6 139118473.16606      2980.570 6        39.568                                                                    26716241.054 6 113045161.81806      2421.975 6        38.997
> 2025 01 02 23 45 25.0000000  0 52
G28         1.000    24383143.220 6 128134282.92106      2240.386 6        38.297                                    24383139.912 3  99844883.91403      1745.764 3        22.171    24383140.100 6  99844884.89906      1745.683 6        39.715
E08         2.000    25663059.869 7 134860307.74607      2585.218 7        43.998                                                                    25663057.999 7 100707376.22707      1930.490 7        46.385    25663057.459 7 103334524.22607      1980.899 7        47.386
G21         4.000    20898946.335 7 109824770.89907     -1370.776 7        44.789                                    20898940.859 6  85577750.05106     -1068.135 6        37.259
S21         5.000    38422218.403 7 201909780.50207      -273.346 7        42.436
E13         6.000    24558075.819 7 129053607.57107      1550.768 7        45.282                                                                    24558075.880 8  96371228.21408      1158.058 8        48.500    24558075.404 8  98885255.30608      1188.311 8        49.389
G10         7.000    24818755.345 6 130423501.05006     -3384.021 6        38.444                                    24818753.718 5 101628717.30405     -2636.901 5        31.200    24818753.441 6 101628711.27806     -2636.663 6        36.730
E15         8.000    23439848.352 7 123177348.56007      -870.038 7        47.376                                                                    23439848.257 8  91983154.89008      -649.726 8        50.749    23439847.833 8  94382703.11008      -666.698 8        51.390
G14        11.000    24483990.977 6 128664243.70006     -2120.123 6        37.868                                    24483988.031 3 100257844.73103     -1652.040 3        19.224    24483987.774 5 100257848.76405     -1652.281 5        35.771
G32        12.000    22510237.857 7 118292128.53107     -2294.405 7        46.818                                    22510235.477 7  92175685.62507     -1787.846 7        45.022    22510236.053 7  92175658.62907     -1787.876 7        43.685
G03        13.000    21212099.909 7 111470393.42207      2028.974 7        46.438                                    21212098.080 7  86860063.13907      1581.019 7        47.296    21212098.660 7  86860068.14207      1581.027 7        44.593
S36        14.000    38189811.249 7 200689333.26307      -272.947 7        44.179
C13        15.000                                                                                                                                    40792136.034 6 212415416.29506     -1015.180 6        36.688    40792137.985 6 164253107.64506      -784.820 6        38.060    40792136.299 6 172604947.68806      -824.894 6        36.476
G17        16.000    23396488.620 7 122949387.09507      2221.718 7        43.209                                    23396484.345 6  95804693.95506      1731.208 6        38.709    23396484.615 6  95804695.95706      1731.271 6        40.269
C16        17.000                                                                                                                                    39588308.690 6 206146729.84506      1010.267 6        39.520    39588308.236 7 159405734.88507       781.111 7        42.127    39588306.019 6 167511097.60706       820.985 6        37.535
E27        18.000    28742017.924 5 151040314.14205     -3083.129 5        34.805                                                                    28742020.377 6 112789840.23006     -2302.284 6        37.301    28742019.664 6 115732182.16206     -2362.342 6        38.285
E05        20.000    24813617.892 6 130396470.05506     -2401.278 6        40.381                                                                    24813617.804 7  97373992.85507     -1793.317 7        44.053    24813617.514 7  99914185.98307     -1839.981 7        45.070
C41        21.000                                                                                                                                    23058643.081 8 120072435.37308      1971.230 8        48.820                                                                    23058648.057 8  97568719.33008      1601.826 8        48.845
I06        22.000    38289819.936 7 150257713.99707       -97.796 7        42.588
E03        23.000    23988003.989 7 126057832.11307       228.199 7        46.811                                                                    23988003.279 8  94134125.56708       170.386 8        49.826    23988002.924 8  96589794.86708       174.821 8        50.809
R22        24.000    19291657.574 8 102980225.30908       833.534 8        51.922                                                                    19291655.462 8  80095746.69708       648.344 8        48.568
S23        25.000    38144735.268 7 200451918.22807      -270.414 7        44.739
S45        26.000    63391656.594 6 333125416.32616      -314.580 6        36.749
G02        27.000    20693082.387 8 108742935.13008       124.114 8        50.295                                    20693075.259 7  84734745.90007        96.712 7        43.395
S27        28.000    39079385.753 5 205363673.14905      -249.273 5        35.562
C39        29.000                                                                                                                                    39262384.899 6 204449554.38506       627.455 6        41.561                                                                    39262380.134 7 166132005.40907       509.937 7        42.927
E21        30.000    27562437.790 6 144841599.95006     -2152.767 6        38.586                                                                    27562438.432 6 108160941.25606     -1607.532 6        40.522    27562437.815 6 110982527.39606     -1649.510 6        41.542
C43        31.000                                                                                                                                    25507218.774 7 132822881.96807     -3610.728 7        42.036                                                                    25507217.683 6 107929512.64006     -2934.120 6        41.938
C42        32.000                                                                                                                                    25145225.499 7 130937807.81507     -3257.652 7        42.658                                                                    25145232.565 7 106397736.40307     -2647.134 7        44.325
C28        33.000                                                                                                                                    21615590.511 8 112558064.61608     -1159.923 8        51.037                                                                    21615589.003 8  91462648.92308      -942.555 8        48.726
E34        35.000    26632315.290 6 139953961.07506     -2667.595 6        40.322                                                                    26632315.954 7 104511183.36807     -1992.153 7        44.083    26632315.834 7 107237551.10807     -2044.024 7        45.974
C14        36.000                                                                                                                                    23012386.175 7 119831547.38507     -2382.722 7        46.121    23012381.787 8  92661341.53008     -1842.499 8        50.526    23012380.716 8  97372926.65408     -1936.135 8        48.600
R21        37.000    20692360.056 8 110729054.30808     -3196.992 8        49.939                                                                    20692359.131 7  86122618.92607     -2486.634 7        45.297
R06        38.000    19850673.297 6 105927024.81706     -2418.577 6        40.164
C27        40.000                                                                                                                                    22586805.030 8 117615461.87908      1564.610 8        48.777                                                                    22586803.475 8  95572213.17208      1271.421 8        48.270
C06        41.000                                                                                                                                    39290011.370 6 204593412.00506      1122.550 6        38.504    39290006.237 7 158204584.70207       868.231 7        42.853    39290006.154 6 166248884.02606       912.242 6        39.946
S44        42.000    40521749.268 6 212943426.71906      -332.762 6        38.898
G08        43.000    23279591.168 7 122335166.35007     -3825.420 7        42.832                                    23279589.620 6  95326143.45906     -2980.846 6        38.640    23279590.279 6  95326141.46106     -2980.930 6        40.384
C05        44.000                                                                                                                                    39107736.357 6 203644284.29706      -252.856 6        38.393    39107731.141 7 157470703.83207      -195.576 7        43.951    39107732.527 6 165477766.53006      -205.467 6        39.943
G04        45.000    24951756.378 6 131122368.03606      3578.630 6        36.064                                    24951753.943 3 102173258.78803      2788.549 3        18.328    24951754.120 6 102173260.77006      2788.503 6        37.573
C33        47.000                                                                                                                                    21924220.404 8 114165198.32108      -904.928 8        50.855                                                                    21924231.585 8  92768633.69408      -735.281 8        50.016
C09        48.000                                                                                                                                    40277494.198 6 209735491.20606      1404.935 6        38.814    40277491.020 7 162180776.15807      1086.292 7        42.844    40277488.881 6 170427245.39006      1141.617 6        38.736
R07        49.000    19489986.649 8 104331479.06908      1479.593 8        52.954                                                                    19489984.491 7  81146705.52507      1150.782 7        47.192
R15        50.000    24503356.537 5 130938513.72605      2117.911 5        35.329                                                                    24503357.104 5 101841044.41105      1647.217 5        31.872
S48        51.000    77176425.863 6 405566429.90206      -284.542 6        38.156
R14        53.000    23815000.263 7 126947366.75607      -645.193 7        43.058                                                                    23815001.391 6  98736780.71606      -501.913 6        40.596
C60        54.000                                                                                                                                    40521750.630 6 211007596.88206      -329.858 6        39.940                                                                    40521734.311 6 171460927.69606      -267.921 6        40.091
R08        55.000    22911679.661 7 122691030.73707      3862.108 7        43.272                                                                    22911678.687 6  95426404.66706      3003.913 6        41.085
I09        56.000    37123850.425 7 145682001.32307      -109.850 7        43.496
C02        57.000                                                                                                                                    40514371.000 5 210969015.98105      -295.217 5        33.641    40514364.826 6 163134620.96406      -228.256 6        41.120    40514368.148 5 171429611.15905      -239.934 5        35.833
I03        58.000    76397648.338 6 224015545.13906      1108.236 6        40.737
R23        59.000    22109551.871 7 118271205.30307      3500.671 7        44.701
C30        60.000                                                                                                                                    26713378.547 6 139103570.92506      2980.531 6        38.495                                                                    26713379.733 6 113033052.54306      2421.942 6        39.129
> 2025 01 02 23 45 30.0000000  0 52
G28         1.000    24381011.972 6 128123083.17206      2239.276 6        38.264                                    24381008.567 3  99836156.84803      1744.890 3        22.190    24381008.465 6  99836157.83406      1744.896 6        39.270
E08         2.000    25660600.346 7 134847383.23607      2584.291 7        44.229                                                                    25660598.500 7 100697724.80307      1929.826 7        46.518    25660597.933 7 103324621.03007      1980.155 7        47.435
G21         4.000    20900251.366 7 109831628.40807     -1372.458 7        44.968                                    20900245.803 6  85583093.56406     -1069.446 6        37.380
S21         5.000    38422476.572 7 201911146.15307      -273.400 7        42.262
E13         6.000    24556600.566 7 129045855.12307      1550.097 7        45.205                                                                    24556600.609 8  96365439.04508      1157.504 8        48.461    24556600.178 8  98879315.11308      1187.693 8        49.386
G10         7.000    24821974.923 6 130440419.86006     -3383.769 6        38.354                                    24821973.362 5 101641900.80205     -2636.705 5        31.260    24821973.140 6 101641894.80406     -2636.607 6        36.246
E15         8.000    23440676.658 7 123181701.11007      -871.202 7        47.344                                                                    23440676.511 8  91986405.17308      -650.601 8        50.710    23440676.095 8  94386038.18208      -667.577 8        51.430
G14        11.000    24486008.639 6 128674849.60906     -2122.132 6        38.381                                    24486006.227 3 100266109.06803     -1653.629 3        19.463    24486006.621 6 100266113.08206     -1653.770 6        36.265
G32        12.000    22512421.550 7 118303604.63707     -2296.501 7        47.059                                    22512419.274 7  92184628.04307     -1789.484 7        45.120    22512419.687 7  92184601.04007     -1789.409 7        43.041
G03        13.000    21210170.030 7 111460252.56907      2027.156 7        46.620                                    21210168.325 7  86852161.17607      1579.603 7        47.417    21210168.731 7  86852166.17707      1579.589 7        44.513
S36        14.000    38190067.218 7 200690697.01207      -272.985 7        43.591
C13        15.000                                                                                                                                    40793110.482 6 212420490.18806     -1014.746 6        36.836    40793112.739 6 164257031.12906      -784.495 6        38.195    40793110.792 6 172609070.65406      -824.688 6        36.597
G17        16.000    23394375.344 7 122938282.72007      2219.832 7        43.045                                    23394371.235 6  95796041.20306      1729.738 6        38.763    23394371.536 6  95796043.20606      1729.785 6        39.796
C16        17.000                                                                                                                                    39587338.097 6 206141678.86706      1009.763 6        39.589    39587338.422 7 159401829.13607       780.923 7        42.045    39587336.261 6 167506993.26906       820.609 6        37.739
E27        18.000    28744951.220 5 151055728.79005     -3082.706 5        34.267                                                                    28744953.455 6 112801351.16206     -2302.164 6        37.229    28744953.090 6 115743993.36306     -2362.146 6        38.129
E05        20.000    24815903.302 6 130408479.47506     -2402.653 6        40.567                                                                    24815903.056 7  97382960.91307     -1794.053 7        43.907    24815902.919 7  99923387.98607     -1840.931 7        45.302
C41        21.000                                                                                                                                    23056751.030 8 120062582.73708      1969.485 8        48.818                                                                    23056755.908 8  97560713.25508      1600.358 8        48.906
I06        22.000    38289944.055 7 150258201.83507       -97.651 7        42.802
E03        23.000    23987787.635 7 126056695.88007       226.011 7        46.751                                                                    23987787.101 8  94133277.08208       168.785 8        49.831    23987786.765 8  96588924.24808       173.193 8        50.779
R22        24.000    19290878.143 8 102976064.85808       830.479 8        52.020                                                                    19290876.049 8  80092510.80308       645.854 8        48.543
S23        25.000    38144995.897 7 200453269.37707      -270.460 7        45.222
S45        26.000    63391913.731 6 333126987.05406      -314.291 6        37.028
G02        27.000    20692964.912 8 108742318.74308       122.263 8        50.113                                    20692957.968 7  84734265.59607        95.268 7        43.503
S27        28.000    39079633.141 6 205364917.46806      -249.083 6        36.193
C39        29.000                                                                                                                                    39261782.250 6 204446418.29606       626.817 6        41.840                                                                    39261778.059 7 166129457.08507       509.198 7        42.855
E21        30.000    27564486.950 6 144852367.19506     -2154.411 6        38.550                                                                    27564487.300 6 108168981.74106     -1608.732 6        40.527    27564486.813 6 110990777.62906     -1650.740 6        41.483
C43        31.000                                                                                                                                    25510685.627 6 132840935.42106     -3611.000 6        41.445                                                                    25510684.558 6 107944182.54406     -2934.234 6        41.907
C42        32.000                                                                                                                                    25148353.192 7 130954096.20307     -3257.964 7        42.569                                                                    25148360.537 7 106410972.05307     -2647.382 7        44.360
C28        33.000                                                                                                                                    21616705.471 8 112563869.37208     -1162.247 8        51.200                                                                    21616703.772 8  91467365.75708      -944.425 8        48.778
E34        35.000    26634853.670 6 139967299.38906     -2667.956 6        40.141                                                                    26634854.150 7 104521143.79207     -1992.404 7        44.084    26634853.832 7 107247771.37807     -2044.386 7        45.503
C14        36.000                                                                                                                                    23014674.505 7 119843463.73907     -2384.028 7        46.326    23014670.268 8  92670556.00408     -1843.503 8        50.144    23014669.154 8  97382609.66408     -1937.290 8        48.670
R21        37.000    20695348.563 8 110745044.45008     -3199.387 8        50.411                                                                    20695347.177 7  86135055.67107     -2488.403 7        45.157
R06        38.000    19852939.971 6 105939124.13506     -2421.523 6        40.470
C27        40.000                                                                                                                                    22585303.459 8 117607642.79508      1562.720 8        48.542                                                                    22585301.858 8  95565859.52508      1269.808 8        48.232
C06        41.000                                                                                                                                    39288933.975 6 204587798.92806      1122.185 6        38.724    39288928.418 7 158200244.33207       867.850 7        42.794    39288928.039 6 166244322.95706       911.952 6        39.751
S44        42.000    40522066.829 6 212945089.06906      -332.444 6        38.787
G08        43.000    23283231.088 7 122354294.07007     -3826.192 7        42.370                                    23283229.499 6  95341048.17606     -2981.449 6        38.577    23283229.908 6  95341046.17306     -2981.294 6        39.961
C05        44.000                                                                                                                                    39107978.634 6 203645546.77406      -252.476 6        38.556    39107973.413 7 157471680.06607      -195.320 7        43.257    39107975.023 6 165478792.40406      -205.275 6        40.126
G04        45.000    24948350.978 6 131104473.91506      3578.584 6        36.779                                    24948348.789 3 102159315.31903      2788.518 3        18.537    24948348.877 6 102159317.29706      2788.737 6        37.013
C33        47.000                                                                                                                                    21925090.267 8 114169727.42708      -906.965 8        50.842                                                                    21925101.291 8  92772313.96308      -736.991 8        50.099
C09        48.000                                                                                                                                    40276146.303 6 209728466.58106      1404.663 6        38.838    40276141.945 7 162175344.27107      1086.216 7        42.626    40276139.637 6 170421537.30306      1141.364 6        38.670
R07        49.000    19488605.943 8 104324089.03808      1476.113 8        53.029                                                                    19488604.065 7  81140957.71507      1148.119 7        47.230
R15        50.000    24501377.322 6 130927931.22806      2115.039 6        36.106                                                                    24501375.113 5 101832813.62905      1644.910 5        31.713
S48        51.000    77176688.379 6 405566251.80716      -284.520 6        37.890
R14        53.000    23815607.886 7 126950602.44207      -649.029 7        42.296                                                                    23815608.488 6  98739297.36206      -504.835 6        40.851
C60        54.000                                                                                                                                    40522066.479 6 211009244.11406      -329.576 6        39.192                                                                    40522050.740 6 171462266.21706      -267.806 6        40.143
R08        55.000    22908074.140 7 122671722.35307      3860.904 7        43.139                                                                    22908072.311 6  95411387.00106      3003.081 6        39.339
I09        56.000    37123989.705 7 145682550.14707      -109.809 7        43.391
C02        57.000                                                                                                                                    40514654.836 5 210970490.30105      -294.781 5        33.269    40514647.732 6 163135760.99906      -227.919 6        41.032    40514651.108 6 171430809.15006      -239.624 6        36.053
I03        58.000    76396235.503 6 224010002.00506      1108.681 6        40.791
R23        59.000    22106279.913 7 118253703.05807      3499.917 7        44.889
C30        60.000                                                                                                                                    26710516.754 6 139088669.16006      2980.189 6        37.584                                                                    26710518.214 6 113020943.65706      2421.469 6        39.580
> 2025 01 02 23 45 35.0000000  0 52
G28         1.000    24378881.663 6 128111890.27206      2238.033 6        38.757                                    24378878.429 3  99827435.10403      1743.918 3        21.810    24378878.492 6  99827436.11706      1743.809 6        39.571
E08         2.000    25658141.652 7 134834463.34607      2583.493 7        44.015                                                                    25658140.023 7 100688076.84107      1929.260 7        46.635    25658139.329 7 103314721.38007      1979.611 7        47.496
G21         4.000    20901557.968 7 109838494.03407     -1373.917 7        44.855                                    20901552.264 6  85588443.40406     -1070.585 6        37.422
S21         5.000    38422737.375 7 201912510.62907      -272.448 7        42.419
E13         6.000    24555125.756 7 129038105.39207      1549.615 7        45.752                                                                    24555125.910 8  96359651.92208      1157.219 8        48.705    24555125.493 8  98873377.01908      1187.386 8        49.554
G10         7.000    24825194.389 6 130457338.25106     -3383.780 6        38.925                                    24825192.818 5 101655083.96305     -2636.715 5        31.245    24825192.159 6 101655077.96706     -2636.514 6        36.280
E15         8.000    23441505.965 7 123186059.48707      -872.314 7        47.895                                                                    23441505.884 8  91989659.80908      -651.402 8        50.945    23441505.479 8  94389377.71908      -668.353 8        51.507
G14        11.000    24488029.106 6 128685464.65106     -2123.964 6        38.153                                    24488026.278 3 100274380.53503     -1655.029 3        19.522    24488026.354 6 100274384.51306     -1655.078 6        36.306
G32        12.000    22514607.456 7 118315091.93607     -2298.716 7        46.797                                    22514605.195 7  92193579.18207     -1791.207 7        45.157    22514605.535 7  92193552.18907     -1791.266 7        42.427
G03        13.000    21208242.011 7 111450119.53807      2025.784 7        46.350                                    21208240.067 7  86844265.30707      1578.530 7        47.509    21208240.466 7  86844270.30007      1578.672 7        44.673
S36        14.000    38190326.653 7 200692060.47307      -272.727 7        43.604
C13        15.000                                                                                                                                    40794085.457 6 212425562.34506     -1014.331 6        36.888    40794086.710 6 164260953.21406      -784.341 6        37.648    40794085.005 6 172613192.17106      -824.480 6        36.654
G17        16.000    23392263.949 7 122927187.01107      2218.144 7        43.228                                    23392259.762 6  95787395.20206      1728.421 6        38.724    23392260.037 6  95787397.21406      1728.396 6        40.355
C16        17.000                                                                                                                                    39586369.480 6 206136631.01306      1009.237 6        40.350    39586369.429 6 159397925.82706       780.467 6        41.862    39586366.808 6 167502891.46206       820.000 6        37.951
E27        18.000    28747884.758 5 151071141.09205     -3082.115 5        35.305                                                                    28747886.265 6 112812860.32806     -2301.762 6        37.013    28747885.673 6 115755802.75106     -2361.519 6        37.497
E05        20.000    24818189.754 6 130420495.75506     -2404.001 6        40.653                                                                    24818189.639 7  97391934.11407     -1795.180 7        44.125    24818189.576 7  99932595.27707     -1842.089 7        45.329
C41        21.000                                                                                                                                    23054860.364 8 120052738.02508      1968.123 8        48.649                                                                    23054865.356 8  97552713.60708      1599.209 8        48.900
I06        22.000    38290068.408 7 150258688.97507       -97.396 7        42.326
E03        23.000    23987573.621 7 126055570.60007       223.903 7        46.941                                                                    23987572.968 8  94132436.77508       167.213 8        50.037    23987572.625 8  96588062.02208       171.528 8        50.892
R22        24.000    19290101.646 8 102971919.61708       827.492 8        52.238                                                                    19290099.393 8  80089286.72808       643.520 8        48.753
S23        25.000    38145252.568 7 200454619.47907      -269.959 7        44.703
S45        26.000    63392166.494 6 333128556.83306      -313.719 6        36.537
G02        27.000    20692849.357 8 108741711.33308       120.561 8        49.990                                    20692842.372 7  84733792.29107        93.943 7        43.549
S27        28.000    39079866.225 6 205366160.72106      -248.432 6        36.412
C39        29.000                                                                                                                                    39261180.400 7 204443286.04607       625.958 7        42.176                                                                    39261176.367 7 166126911.87907       508.527 7        42.823
E21        30.000    27566537.068 6 144863141.45006     -2155.375 6        38.925                                                                    27566537.597 6 108177027.45406     -1609.726 6        40.763    27566537.123 6 110999033.22106     -1651.541 6        41.545
C43        31.000                                                                                                                                    25514152.995 6 132858990.85406     -3611.420 6        41.726                                                                    25514151.853 6 107958854.03906     -2934.601 6        41.702
C42        32.000                                                                                                                                    25151481.712 7 130970386.64507     -3258.250 7        42.482                                                                    25151489.026 7 106424209.36407     -2647.796 7        44.169
C28        33.000                                                                                                                                    21617822.274 8 112569685.52208     -1164.400 8        51.107                                                                    21617820.608 8  91472091.84208      -946.260 8        48.802
E34        35.000    26637392.559 6 139980640.21906     -2668.449 6        40.601                                                                    26637392.657 7 104531106.10207     -1992.643 7        44.286    26637392.073 7 107257993.57407     -2044.663 7        45.064
C14        36.000                                                                                                                                    23016964.542 7 119855386.98707     -2385.473 7        46.559    23016959.850 8  92679775.80808     -1844.535 8        50.231    23016958.888 8  97392298.26108     -1938.450 8        48.650
R21        37.000    20698338.960 8 110761046.90608     -3201.705 8        50.044                                                                    20698337.531 7  86147502.02907     -2490.256 7        44.856
R06        38.000    19855210.320 6 105951238.14506     -2424.292 6        40.200
C27        40.000                                                                                                                                    22583803.456 8 117599832.41408      1561.227 8        48.416                                                                    22583801.954 8  95559512.94408      1268.508 8        48.217
C06        41.000                                                                                                                                    39287856.866 6 204582188.85706      1121.556 6        37.879    39287851.092 7 158195906.27307       867.230 7        42.863    39287850.623 6 166239764.31906       911.164 6        39.282
S44        42.000    40522382.960 6 212946750.57006      -332.314 6        38.508
G08        43.000    23286871.543 7 122373425.03807     -3826.510 7        42.273                                    23286869.994 6  95355955.42806     -2981.693 6        38.468    23286870.871 6  95355953.42906     -2981.715 6        40.403
C05        44.000                                                                                                                                    39108220.732 6 203646808.43906      -252.231 6        38.132    39108215.073 7 157472655.65807      -195.037 7        43.374    39108217.510 6 165479817.58606      -204.980 6        40.117
G04        45.000    24944946.042 6 131086578.82406      3579.093 6        36.783                                    24944943.600 3 102145371.10703      2788.918 3        18.000    24944943.479 6 102145373.10906      2788.845 6        37.486
C33        47.000                                                                                                                                    21925962.051 8 114174266.91708      -909.009 8        50.960                                                                    21925973.094 8  92776002.65708      -738.746 8        50.016
C09        48.000                                                                                                                                    40274797.194 6 209721443.70606      1404.278 6        38.733    40274793.223 7 162169913.73007      1085.942 7        42.480    40274791.043 6 170415830.62306      1140.976 6        38.625
R07        49.000    19487228.524 8 104316716.37708      1472.807 8        52.956                                                                    19487227.125 7  81135223.42907      1145.516 7        47.535
R15        50.000    24499397.250 6 130917362.24806      2112.496 6        36.775                                                                    24499398.697 5 101824593.38505      1642.683 5        32.263
S48        51.000    77176939.322 6 405567672.56306      -283.911 6        37.750
R14        53.000    23816218.393 7 126953857.31007      -653.030 7        43.397                                                                    23816218.960 6  98741828.90706      -507.571 6        40.672
C60        54.000                                                                                                                                    40522382.453 6 211010890.49806      -329.288 6        39.973                                                                    40522366.987 6 171463604.02806      -267.777 6        39.838
R08        55.000    22904469.658 7 122652419.25007      3860.053 7        43.175                                                                    22904467.595 6  95396373.51706      3002.384 6        40.634
I09        56.000    37124129.681 7 145683099.35507      -109.912 7        43.712
C02        57.000                                                                                                                                    40514936.745 5 210971963.79105      -294.627 5        33.216    40514930.397 6 163136900.40606      -227.820 6        40.224    40514933.938 6 171432006.47806      -239.465 6        36.019
I03        58.000    76394823.010 6 224004458.42706      1108.706 6        40.684
R23        59.000    22103008.600 7 118236204.40007      3499.451 7        44.552
C30        60.000                                                                                                                                    26707654.716 6 139073767.66506      2980.286 6        38.628                                                                    26707656.071 6 113008834.96406      2421.557 6        39.315
> 2025 01 02 23 45 40.0000000  0 52
G28         1.000    24376753.653 6 128100704.23806      2236.270 6        37.584                                    24376749.655 3  99818718.71203      1742.551 3        22.629    24376750.330 6  99818719.70706      1742.619 6        40.179
E08         2.000    25655683.719 7 134821548.07807      2582.552 7        44.194                                                                    25655682.249 7 100678432.33107      1928.455 7        46.595    25655681.639 7 103304825.27007      1978.781 7        47.556
G21         4.000    20902865.712 7 109845367.83707     -1375.607 7        44.807                                    20902860.321 6  85593799.61006     -1071.899 6        37.561
S21         5.000    38422995.616 7 201913874.00107      -272.790 7        42.184
E13         6.000    24553651.732 7 129030358.52907      1548.937 7        45.555                                                                    24553651.709 8  96353866.91808      1156.698 8        48.672    24553651.280 8  98867441.10208      1186.870 8        49.604
G10         7.000    24828413.890 6 130474256.18006     -3383.563 6        38.162                                    24828412.315 5 101668266.75805     -2636.540 5        31.502    24828412.277 6 101668260.77306     -2636.708 6        36.790
E15         8.000    23442336.437 7 123190423.73407      -873.561 7        47.816                                                                    23442336.385 8  91992918.82008      -652.344 8        50.847    23442335.947 8  94392721.75208      -669.383 8        51.652
G14        11.000    24490050.830 6 128696088.88106     -2125.682 6        36.938                                    24490047.912 3 100282659.15703     -1656.390 3        19.522    24490048.218 6 100282663.15606     -1656.331 6        36.741
G32        12.000    22516795.636 7 118326590.49307     -2300.938 7        46.652                                    22516793.236 7  92202539.09807     -1792.944 7        45.339    22516793.746 7  92202512.10507     -1792.930 7        42.370
G03        13.000    21206315.228 7 111439994.41107      2024.085 7        46.214                                    21206313.317 7  86836375.60007      1577.208 7        47.677    21206313.809 7  86836380.60007      1577.195 7        44.652
S36        14.000    38190583.485 7 200693423.05407      -272.610 7        43.606
C13        15.000                                                                                                                                    40795059.321 6 212430632.70106     -1014.020 6        36.715    40795060.577 6 164264873.95506      -784.221 6        37.868    40795058.718 6 172617312.24606      -824.053 6        36.669
G17        16.000    23390154.429 7 122916100.09607      2216.406 7        42.709                                    23390149.974 6  95778756.05706      1727.071 6        38.997    23390150.025 6  95778758.07306      1726.945 6        39.787
C16        17.000                                                                                                                                    39585401.217 6 206131586.28106      1008.350 6        40.272    39585400.627 6 159394024.92006       779.921 6        41.855    39585397.998 6 167498792.23306       819.385 6        37.970
E27        18.000    28750817.386 6 151086551.04006     -3081.852 6        36.215                                                                    28750819.254 6 112824367.75306     -2301.394 6        37.180    28750817.976 6 115767610.40006     -2361.644 6        37.278
E05        20.000    24820477.883 6 130432518.94806     -2405.495 6        40.584                                                                    24820477.699 7  97400912.47807     -1796.379 7        44.099    24820477.431 7  99941807.85807     -1843.167 7        45.469
C41        21.000                                                                                                                                    23052971.158 8 120042901.30408      1966.422 8        48.458                                                                    23052976.317 8  97544720.47808      1597.869 8        49.023
I06        22.000    38290192.186 7 150259175.44307       -97.317 7        42.688
E03        23.000    23987361.499 7 126054456.28407       221.593 7        47.063                                                                    23987360.940 8  94131604.65808       165.488 8        50.066    23987360.526 8  96587208.19208       169.825 8        50.937
R22        24.000    19289328.102 8 102967789.67108       824.331 8        51.970                                                                    19289325.806 8  80086074.53908       641.180 8        48.826
S23        25.000    38145508.980 7 200455968.56807      -269.777 7        44.965
S45        26.000    63392422.937 6 333130125.51706      -313.834 6        36.968
G02        27.000    20692735.706 8 108741113.00308       118.587 8        49.855                                    20692728.529 7  84733326.06107        92.404 7        43.735
S27        28.000    39080104.459 5 205367402.61605      -248.559 5        35.548
C39        29.000                                                                                                                                    39260579.828 7 204440157.70407       625.052 7        42.334                                                                    39260575.593 7 166124369.84207       507.921 7        42.832
E21        30.000    27568588.691 6 144873922.81606     -2157.090 6        38.541                                                                    27568589.262 6 108185078.47406     -1610.863 6        40.813    27568588.635 6 111007294.28606     -1652.947 6        41.635
C43        31.000                                                                                                                                    25517620.865 6 132877048.21606     -3611.871 6        41.366                                                                    25517619.562 6 107973527.13606     -2934.911 6        41.692
C42        32.000                                                                                                                                    25154610.511 6 130986679.16506     -3258.889 6        41.514                                                                    25154617.843 7 106437448.36907     -2648.062 7        44.366
C28        33.000                                                                                                                                    21618941.412 8 112575513.10708     -1166.838 8        50.894                                                                    21618939.763 8  91476827.24008      -948.153 8        48.752
E34        35.000    26639931.679 6 139993983.57006     -2669.101 6        40.863                                                                    26639931.777 7 104541070.28207     -1993.159 7        44.048    26639931.265 7 107268217.68907     -2045.251 7        44.951
C14        36.000                                                                                                                                    23019255.777 7 119867317.11807     -2386.854 7        46.225    23019251.163 8  92689000.94808     -1845.718 8        50.353    23019249.971 8  97401992.48508     -1939.532 8        48.742
R21        37.000    20701331.523 8 110777061.53308     -3204.296 8        50.118                                                                    20701330.502 7  86159957.86707     -2492.266 7        44.451
R06        38.000    19857483.743 6 105963366.97606     -2427.350 6        40.567
C27        40.000                                                                                                                                    22582305.152 8 117592030.87308      1559.359 8        48.338                                                                    22582303.743 8  95553173.56308      1267.045 8        48.340
C06        41.000                                                                                                                                    39286780.060 6 204576581.78206      1120.831 6        37.637    39286774.404 7 158191570.53207       866.735 7        42.732    39286773.684 6 166235208.09606       910.852 6        39.760
S44        42.000    40522697.489 6 212948411.16306      -332.259 6        37.648
G08        43.000    23290512.844 6 122392559.25106     -3827.256 6        41.943                                    23290511.066 6  95370865.20206     -2982.275 6        38.787    23290511.479 6  95370863.19606     -2982.177 6        40.684
C05        44.000                                                                                                                                    39108463.161 6 203648069.26406      -252.213 6        38.793    39108457.386 7 157473630.61807      -195.122 7        42.993    39108459.282 6 165480842.13006      -204.922 6        40.298
G04        45.000    24941540.648 6 131068682.78306      3579.142 6        37.032                                    24941538.097 3 102131426.15003      2788.938 3        18.627    24941537.906 6 102131428.14106      2789.013 6        37.535
C33        47.000                                                                                                                                    21926835.928 8 114178816.81008      -911.160 8        50.772                                                                    21926846.858 8  92779699.83508      -740.421 8        50.203
C09        48.000                                                                                                                                    40273448.641 6 209714422.57906      1403.693 6        38.655    40273444.745 7 162164484.55607      1085.640 7        42.830    40273442.473 6 170410125.38906      1140.889 6        38.880
R07        49.000    19485854.731 8 104309361.24308      1469.062 8        52.790                                                                    19485852.655 7  81129502.77607      1142.604 7        47.411
R15        50.000    24497422.536 6 130906806.95606      2109.356 6        37.100                                                                    24497423.299 5 101816383.68405      1640.711 5        32.802
S48        51.000    77177196.597 6 405569092.46606      -284.042 6        38.186
R14        53.000    23816833.029 7 126957131.39107      -656.833 7        43.420                                                                    23816833.086 6  98744375.42806      -510.868 6        40.634
C60        54.000                                                                                                                                    40522699.124 6 211012536.00506      -329.077 6        39.333                                                                    40522682.661 6 171464941.13706      -267.594 6        40.074
R08        55.000    22900866.159 7 122633121.39107      3858.945 7        42.834                                                                    22900863.813 6  95381364.06606      3001.457 6        40.975
I09        56.000    37124269.757 7 145683648.95107      -110.179 7        43.069
C02        57.000                                                                                                                                    40515219.678 5 210973436.49305      -294.509 5        33.114    40515212.919 6 163138039.17306      -227.797 6        40.060    40515216.764 6 171433203.13806      -239.253 6        36.106
I03        58.000    76393409.763 6 223998914.34606      1108.562 6        40.493
R23        59.000    22099738.062 7 118218709.35807      3498.411 7        44.153
C30        60.000                                                                                                                                    26704793.360 6 139058866.58806      2979.968 6        39.465                                                                    26704794.512 6 112996726.60606      2421.387 6        39.324
> 2025 01 02 23 45 45.0000000  0 52
G28         1.000    24374626.200 6 128089525.73306      2235.122 6        38.985                                    24374622.294 3  99810008.18103      1741.649 3        23.352    24374622.889 6  99810009.17606      1741.652 6        39.619
E08         2.000    25653227.216 7 134808638.17507      2581.501 7        44.197                                                                    25653225.330 7 100668791.81207      1927.765 7        46.614    25653224.876 7 103294933.25907      1978.031 7        47.539
G21         4.000    20904175.692 7 109852250.51007     -1377.292 7        44.981                                    20904170.041 6  85599162.73106     -1073.214 6        37.686
S21         5.000    38423258.874 7 201915237.07507      -272.591 7        42.182
E13         6.000    24552178.310 7 129022615.17807      1548.452 7        45.738                                                                    24552178.210 8  96348084.55308      1156.286 8        48.609    24552177.801 8  98861507.89408      1186.390 8        49.649
G10         7.000    24831632.657 6 130491174.39206     -3383.505 6        38.279                                    24831631.825 5 101681449.77805     -2636.497 5        31.441    24831631.241 6 101681443.78706     -2636.598 6        36.363
E15         8.000    23443168.005 7 123194794.54107      -874.717 7        47.879                                                                    23443168.094 8  91996182.73108      -653.128 8        50.869    23443167.697 8  94396070.80708      -670.198 8        51.642
G14        11.000    24492073.979 6 128706723.05406     -2127.733 6        38.054                                    24492071.589 3 100290945.51603     -1657.974 3        19.104    24492071.346 6 100290949.54706     -1658.075 6        36.741
G32        12.000    22518985.942 7 118338100.98807     -2303.188 7        47.140                                    22518983.558 7  92211508.31407     -1794.693 7        45.517    22518984.443 7  92211481.30807     -1794.641 7        42.483
G03        13.000    21204389.831 7 111429877.87107      2022.457 7        46.626                                    21204388.212 7  86828492.58307      1575.940 7        47.872    21204388.525 7  86828497.57607      1576.076 7        44.548
S36        14.000    38190845.272 7 200694784.86007      -272.325 7        43.740
C13        15.000                                                                                                                                    40796032.916 6 212435702.05006     -1013.459 6        37.338    40796033.627 6 164268793.88506      -783.818 6        37.871    40796032.006 6 172621431.49706      -823.637 6        36.480
G17        16.000    23388046.000 7 122905022.67507      2214.613 7        42.827                                    23388042.016 6  95770124.30306      1725.675 6        39.183    23388042.534 6  95770126.31406      1725.591 6        39.565
C16        17.000                                                                                                                                    39584432.704 6 206126545.38206      1007.845 6        39.958    39584432.320 6 159390126.97906       779.481 6        41.788    39584429.991 6 167494696.07306       819.045 6        37.905
E27        18.000    28753749.281 6 151101959.35806     -3081.372 6        36.378                                                                    28753751.431 6 112835873.92106     -2301.156 6        37.626    28753749.944 6 115779416.72006     -2361.123 6        37.259
E05        20.000    24822767.250 6 130444549.75806     -2406.765 6        40.236                                                                    24822766.935 7  97409896.51707     -1797.220 7        43.975    24822766.745 7  99951026.26207     -1844.105 7        45.445
C41        21.000                                                                                                                                    23051083.912 8 120033073.25008      1964.777 8        48.718                                                                    23051088.873 8  97536734.36708      1596.452 8        48.874
I06        22.000    38290316.039 7 150259661.72007       -97.228 7        42.157
E03        23.000    23987151.629 7 126053353.65307       219.476 7        47.016                                                                    23987151.100 8  94130781.26408       163.889 8        50.008    23987150.730 8  96586363.31908       168.178 8        50.980
R22        24.000    19288557.302 8 102963675.71508       821.320 8        52.249                                                                    19288555.138 8  80082874.80508       638.795 8        48.640
S23        25.000    38145761.832 7 200457317.44707      -269.643 7        44.199
S45        26.000    63392677.949 6 333131694.01906      -313.467 6        37.406
G02        27.000    20692623.644 8 108740524.44708       116.809 8        50.279                                    20692616.524 7  84732867.44407        91.020 7        43.890
S27        28.000    39080333.330 5 205368645.14805      -248.352 5        35.581
C39        29.000                                                                                                                                    39259979.672 6 204437033.96006       624.433 6        41.745                                                                    39259975.761 7 166121831.53007       507.267 7        42.658
E21        30.000    27570641.870 6 144884711.93806     -2158.381 6        38.562                                                                    27570642.124 6 108193135.28306     -1611.996 6        40.636    27570641.785 6 111015561.26706     -1653.925 6        41.600
C43        31.000                                                                                                                                    25521088.881 6 132895108.22306     -3612.039 6        41.540                                                                    25521088.007 7 107988202.36307     -2935.196 7        42.055
C42        32.000                                                                                                                                    25157739.480 7 131002974.46307     -3259.248 7        42.453                                                                    25157747.191 7 106450689.60707     -2648.340 7        44.287
C28        33.000                                                                                                                                    21620062.615 8 112581352.81008     -1169.086 8        50.923                                                                    21620061.262 8  91481572.45608      -950.031 8        48.812
E34        35.000    26642471.246 6 140007330.13106     -2669.563 6        41.063                                                                    26642471.536 7 104551036.86607     -1993.544 7        44.163    26642471.257 7 107278444.26307     -2045.462 7        45.156
C14        36.000                                                                                                                                    23021548.443 7 119879254.85907     -2388.130 7        46.551    23021543.624 8  92698231.96908     -1846.659 8        50.507    23021542.493 8  97411692.87308     -1940.672 8        48.693
R21        37.000    20704326.921 8 110793089.17108     -3206.681 8        50.299                                                                    20704325.545 7  86172423.80207     -2494.061 7        44.787
R06        38.000    19859759.340 6 105975511.20806     -2430.351 6        40.725
C27        40.000                                                                                                                                    22580808.982 8 117584238.81408      1557.572 8        48.436                                                                    22580807.357 8  95546841.86308      1265.520 8        48.277
C06        41.000                                                                                                                                    39285703.693 6 204570978.43006      1120.266 6        38.754    39285698.514 7 158187237.65807       866.427 7        42.792    39285697.624 6 166230654.90706       910.344 6        39.865
S44        42.000    40523015.171 6 212950071.62106      -331.794 6        38.048
G08        43.000    23294154.285 7 122411697.40007     -3827.938 7        42.463                                    23294152.961 6  95385778.04006     -2982.808 6        38.763    23294153.757 6  95385776.04306     -2982.641 6        40.493
C05        44.000                                                                                                                                    39108705.255 6 203649329.95706      -252.021 6        38.366    39108699.462 7 157474605.46007      -194.965 7        43.471    39108701.429 6 165481866.52706      -204.875 6        39.958
G04        45.000    24938134.763 6 131050786.50106      3579.352 6        37.524                                    24938132.438 3 102117481.00503      2789.111 3        19.343    24938132.390 6 102117483.00606      2788.960 6        37.361
C33        47.000                                                                                                                                    21927711.707 8 114183377.81508      -913.213 8        50.914                                                                    21927722.745 8  92783405.99708      -742.080 8        50.074
C09        48.000                                                                                                                                    40272100.854 6 209707403.91706      1403.602 6        39.162    40272097.112 7 162159057.27707      1085.436 7        43.503    40272094.844 6 170404422.14806      1140.387 6        38.718
R07        49.000    19484484.116 8 104302024.32608      1465.690 8        52.901                                                                    19484482.073 7  81123796.28007      1140.004 7        47.284
R15        50.000    24495450.573 6 130896265.95806      2106.884 6        36.397                                                                    24495448.554 5 101808185.19305      1638.845 5        32.413
S48        51.000    77177459.564 6 405570511.98506      -283.850 6        38.027
R14        53.000    23817450.775 7 126960425.46007      -660.904 7        44.528                                                                    23817450.968 6  98746937.44806      -513.918 6        40.532
C60        54.000                                                                                                                                    40523014.499 6 211014181.37406      -329.109 6        39.138                                                                    40522998.532 6 171466278.10106      -267.286 6        39.841
R08        55.000    22897263.194 7 122613829.61607      3857.863 7        43.407                                                                    22897261.566 6  95366359.37806      3000.524 6        40.343
I09        56.000    37124410.099 7 145684199.44007      -110.143 7        43.211
C02        57.000                                                                                                                                    40515503.219 5 210974909.08705      -294.353 5        33.281    40515496.397 6 163139177.87006      -227.663 6        40.691    40515499.482 5 171434399.73505      -239.331 5        35.957
I03        58.000    76391997.004 6 223993370.29506      1108.786 6        40.703
R23        59.000    22096467.918 7 118201218.80407      3497.667 7        44.646
C30        60.000                                                                                                                                    26701932.098 6 139043966.54306      2980.032 6        38.051                                                                    26701932.552 6 112984619.09906      2421.366 6        39.153
> 2025 01 02 23 45 50.0000000  0 52
G28         1.000    24372500.729 6 128078354.17806      2233.720 6        39.147                                    24372496.521 3  99801303.07303      1740.567 3        23.600    24372497.377 6  99801304.08306      1740.461 6        40.029
E08         2.000    25650771.440 7 134795732.95207      2580.645 7        44.287                                                                    25650769.535 7 100659154.79907      1927.065 7        46.477    25650769.111 7 103285044.85607      1977.348 7        47.580
G21         4.000    20905486.968 7 109859141.40507     -1379.043 7        44.912                                    20905481.313 6  85604532.26006     -1074.576 6        37.747
S21         5.000    38423520.669 7 201916599.58107      -272.159 7        42.711
E13         6.000    24550705.281 7 129014874.70007      1547.876 7        45.792                                                                    24550705.256 8  96342304.33708      1155.825 8        48.610    24550704.815 8  98855576.89008      1185.998 8        49.837
G10         7.000    24834851.828 6 130508092.22506     -3383.530 6        39.126                                    24834851.183 5 101694632.49805     -2636.522 5        31.426    24834850.812 6 101694626.48606     -2636.241 6        36.008
E15         8.000    23444000.816 8 123199171.26708      -875.926 8        48.090                                                                    23444000.934 8  91999451.07208      -654.095 8        50.797    23444000.566 8  94399424.40408      -671.143 8        51.769
G14        11.000    24494100.103 6 128717366.48806     -2129.538 6        36.824                                    24494097.046 3 100299239.11003     -1659.368 3        19.284    24494097.638 6 100299243.08006     -1659.353 6        36.189
G32        12.000    22521178.413 7 118349622.75207     -2305.474 7        46.998                                    22521176.061 7  92220486.31307     -1796.473 7        45.449    22521177.012 7  92220459.32007     -1796.464 7        42.866
G03        13.000    21202466.395 7 111419769.28707      2020.949 7        46.745                                    21202464.627 7  86820615.76807      1574.767 7        47.814    21202465.209 7  86820620.76607      1574.765 7        44.743
S36        14.000    38191105.668 7 200696145.77807      -272.042 7        44.400
C13        15.000                                                                                                                                    40797006.127 6 212440769.64506     -1013.450 6        37.561    40797006.817 6 164272712.48206      -783.815 6        37.285    40797005.367 6 172625549.32206      -823.351 6        36.144
G17        16.000    23385939.846 7 122893954.09307      2212.865 7        42.912                                    23385935.729 6  95761499.44106      1724.308 6        39.183    23385936.110 6  95761501.44806      1724.445 6        40.224
C16        17.000                                                                                                                                    39583465.309 6 206121507.70706      1007.033 6        40.281    39583464.853 6 159386231.54806       778.761 6        41.435    39583462.430 6 167490602.53906       818.453 6        37.921
E27        18.000    28756681.308 6 151117365.33206     -3081.009 6        36.408                                                                    28756683.167 6 112847378.35006     -2300.791 6        37.716    28756681.955 6 115791221.30806     -2360.818 6        36.979
E05        20.000    24825057.915 6 130456587.52306     -2408.277 6        40.279                                                                    24825057.692 7  97418885.75007     -1798.381 7        43.998    24825057.416 7  99960250.00007     -1845.229 7        45.387
C41        21.000                                                                                                                                    23049198.263 8 120023253.23208      1963.146 8        48.757                                                                    23049203.139 8  97528754.79908      1595.269 8        48.979
I06        22.000    38290440.184 7 150260147.36407       -97.138 7        42.385
E03        23.000    23986944.034 7 126052262.04407       217.181 7        47.194                                                                    23986943.404 8  94129966.10608       162.180 8        49.984    23986942.961 8  96585526.89508       166.444 8        51.165
R22        24.000    19287789.450 8 102959577.13108       818.149 8        51.977                                                                    19287787.207 8  80079687.01708       636.340 8        48.970
S23        25.000    38146020.650 7 200458665.43007      -269.686 7        44.473
S45        26.000    63392929.741 6 333133261.57006      -313.500 6        37.550
G02        27.000    20692513.305 8 108739945.01608       114.949 8        50.436                                    20692506.258 7  84732415.93907        89.567 7        43.831
S27        28.000    39080574.436 6 205369886.76706      -248.265 6        36.193
C39        29.000                                                                                                                                    39259380.802 7 204433914.17407       623.522 7        42.112                                                                    39259376.595 7 166119296.44807       506.612 7        42.819
E21        30.000    27572696.320 6 144895508.19606     -2160.006 6        38.979                                                                    27572696.564 6 108201197.40706     -1612.971 6        40.567    27572696.444 6 111023833.71006     -1655.023 6        41.928
C43        31.000                                                                                                                                    25524557.663 6 132913170.24106     -3612.735 6        41.306                                                                    25524556.737 6 108002879.23606     -2935.581 6        41.967
C42        32.000                                                                                                                                    25160869.076 7 131019271.85907     -3259.812 7        42.309                                                                    25160877.042 7 106463932.59407     -2648.744 7        44.221
C28        33.000                                                                                                                                    21621186.508 8 112587203.98208     -1171.399 8        50.871                                                                    21621184.898 8  91486327.02308      -951.919 8        48.828
E34        35.000    26645011.537 6 140020679.26406     -2670.065 6        40.892                                                                    26645011.690 7 104561005.38107     -1993.917 7        43.949    26645011.944 7 107288672.83107     -2045.961 7        45.564
C14        36.000                                                                                                                                    23023842.279 7 119891199.59707     -2389.707 7        46.301    23023837.506 8  92707468.39508     -1847.824 8        50.364    23023836.376 8  97421398.94508     -1941.802 8        48.660
R21        37.000    20707324.259 8 110809129.11508     -3209.185 8        50.357                                                                    20707323.243 7  86184899.31507     -2496.110 7        45.264
R06        38.000    19862038.225 6 105987670.21506     -2433.208 6        40.269
C27        40.000                                                                                                                                    22579314.268 8 117576455.62508      1555.776 8        48.496                                                                    22579312.676 8  95540517.38508      1264.194 8        48.337
C06        41.000                                                                                                                                    39284628.352 6 204565378.13406      1119.860 6        38.153    39284622.784 7 158182907.17407       865.776 7        43.211    39284622.306 6 166226104.22106       909.755 6        39.541
S44        42.000    40523329.544 6 212951731.25406      -331.930 6        38.138
G08        43.000    23297796.945 7 122430838.81007     -3828.771 7        42.061                                    23297795.451 6  95400693.42306     -2983.459 6        38.754    23297796.492 6  95400691.42306     -2983.374 6        39.814
C05        44.000                                                                                                                                    39108947.438 6 203650589.84506      -251.851 6        38.159    39108941.801 7 157475579.68107      -194.604 7        43.054    39108943.353 6 165482890.28506      -204.711 6        40.062
G04        45.000    24934729.104 6 131032889.34506      3579.515 6        38.021                                    24934726.707 3 102103535.19003      2789.244 3        19.791    24934726.806 6 102103537.18906      2789.251 6        38.300
C33        47.000                                                                                                                                    21928589.461 8 114187949.25608      -915.335 8        50.959                                                                    21928600.646 8  92787120.67708      -743.776 8        50.159
C09        48.000                                                                                                                                    40270752.591 6 209700387.06506      1403.126 6        38.255    40270750.243 7 162153631.43307      1085.030 7        43.477    40270747.209 6 170398720.40606      1140.179 6        38.192
R07        49.000    19483116.707 8 104294704.80508      1462.162 8        52.944                                                                    19483114.984 7  81118103.33107      1137.200 7        47.345
R15        50.000    24493480.268 6 130885738.72406      2104.018 6        37.399                                                                    24493480.962 5 101799997.39205      1636.639 5        33.395
S48        51.000    77177718.319 6 405571930.67206      -283.521 6        37.637
R14        53.000    23818072.409 7 126963738.92007      -664.571 7        43.020                                                                    23818073.350 6  98749514.58706      -516.873 6        40.992
C60        54.000                                                                                                                                    40523330.562 6 211015825.91306      -328.916 6        39.568                                                                    40523314.184 6 171467614.43306      -267.122 6        39.658
R08        55.000    22893662.072 7 122594543.17407      3856.689 7        42.527                                                                    22893660.144 6  95351358.81906      2999.732 6        40.362
I09        56.000    37124550.589 7 145684750.36607      -110.217 7        43.132
C02        57.000                                                                                                                                    40515785.338 5 210976380.92905      -294.136 5        33.144    40515778.776 6 163140316.00806      -227.585 6        40.317    40515782.196 6 171435595.74606      -239.033 6        36.405
I03        58.000    76390584.465 6 223987825.81606      1109.027 6        40.794
R23        59.000    22093200.090 7 118183732.03507      3496.998 7        45.071
C30        60.000                                                                                                                                    26699070.767 6 139029066.94806      2980.106 6        38.381                                                                    26699071.416 6 112972511.95706      2421.570 6        39.129
> 2025 01 02 23 45 55.0000000  0 52
G28         1.000    24370375.598 6 128067189.48506      2232.427 6        39.156                                    24370371.981 3  99792603.32603      1739.565 3        23.352    24370372.239 6  99792604.31706      1739.368 6        39.871
E08         2.000    25648316.590 7 134782832.38307      2579.666 7        44.221                                                                    25648314.780 7 100649521.26807      1926.272 7        46.540    25648314.388 7 103275160.00707      1976.610 7        47.756
G21         4.000    20906799.695 7 109866040.42707     -1380.595 7        44.871                                    20906794.173 6  85609908.12206     -1075.787 6        37.671
S21         5.000    38423776.786 7 201917961.02507      -272.454 7        42.827
E13         6.000    24549232.832 7 129007137.04607      1547.171 7        45.920                                                                    24549232.807 8  96336526.21008      1155.440 8        48.719    24549232.333 8  98849648.03308      1185.517 8        49.734
G10         7.000    24838071.726 6 130525009.56806     -3383.505 6        39.435                                    24838070.429 5 101707814.84905     -2636.500 5        31.706    24838070.130 6 101707808.84506     -2636.189 6        36.030
E15         8.000    23444834.804 8 123203553.84108      -877.081 8        48.118                                                                    23444834.934 8  92002723.77408      -654.959 8        50.822    23444834.538 8  94402782.48208      -672.048 8        51.689
G14        11.000    24496127.309 6 128728019.04106     -2131.461 6        38.291                                    24496124.319 3 100307539.79603     -1660.890 3        19.522    24496124.200 6 100307543.77806     -1660.730 6        37.346
G32        12.000    22523373.143 7 118361155.68807     -2307.545 7        46.827                                    22523370.694 7  92229473.01407     -1798.085 7        45.406    22523371.394 7  92229446.02307     -1798.208 7        42.986
G03        13.000    21200544.263 7 111409668.58207      2019.354 7        46.666                                    21200542.531 7  86812745.08907      1573.520 7        47.803    21200542.803 7  86812750.08907      1573.557 7        44.545
S36        14.000    38191369.507 7 200697505.26507      -271.796 7        44.235
C13        15.000                                                                                                                                    40797978.577 6 212445835.47206     -1012.911 6        37.516    40797979.511 6 164276629.69406      -783.256 6        37.584    40797977.914 6 172629665.73506      -822.980 6        36.049
G17        16.000    23383835.527 7 122882894.30807      2211.055 7        42.910                                    23383831.084 6  95752881.43606      1722.899 6        39.162    23383831.320 6  95752883.43906      1722.875 6        40.319
C16        17.000                                                                                                                                    39582498.983 6 206116473.11006      1006.668 6        40.596    39582497.804 6 159382338.46006       778.429 6        41.261    39582495.790 6 167486511.53406       817.999 6        37.724
E27        18.000    28759612.121 6 151132768.94006     -3080.586 6        36.669                                                                    28759614.153 6 112858881.02606     -2300.449 6        38.126    28759613.462 6 115803024.04706     -2360.485 6        37.369
E05        20.000    24827350.402 6 130468632.11806     -2409.469 6        40.820                                                                    24827349.580 7  97427880.10207     -1799.321 7        44.038    24827349.411 7  99969478.98407     -1846.304 7        45.365
C41        21.000                                                                                                                                    23047313.647 8 120013441.17908      1961.604 8        48.888                                                                    23047318.819 8  97520781.71308      1593.953 8        48.891
I06        22.000    38290563.532 7 150260632.28107       -96.886 7        42.620
E03        23.000    23986738.372 7 126051181.37907       215.074 7        47.478                                                                    23986737.749 8  94129159.11408       160.581 8        50.057    23986737.316 8  96584698.85208       164.803 8        51.046
R22        24.000    19287024.575 8 102955493.83408       815.155 8        51.894                                                                    19287022.622 8  80076511.11708       634.085 8        48.714
S23        25.000    38146278.009 7 200460012.57707      -269.138 7        44.343
S45        26.000    63393185.205 6 333134828.14506      -313.086 6        37.478
G02        27.000    20692404.786 8 108739374.65108       113.179 8        50.118                                    20692397.723 7  84731971.50007        88.192 7        43.805
S27        28.000    39080810.761 6 205371127.06606      -248.085 6        36.272
C39        29.000                                                                                                                                    39258782.483 7 204430798.22707       622.892 7        42.019                                                                    39258778.323 7 166116764.51007       506.056 7        42.859
E21        30.000    27574752.204 6 144906311.44806     -2161.255 6        38.886                                                                    27574752.554 6 108209264.78006     -1614.067 6        40.746    27574752.317 6 111032111.52506     -1656.091 6        41.714
C43        31.000                                                                                                                                    25528026.494 7 132931234.16007     -3613.101 7        42.176                                                                    25528025.546 7 108017557.63407     -2935.776 7        42.294
C42        32.000                                                                                                                                    25163999.743 7 131035571.27807     -3260.086 7        42.396                                                                    25164007.076 7 106477177.20707     -2649.092 7        44.229
C28        33.000                                                                                                                                    21622312.266 8 112593066.57408     -1173.638 8        51.221                                                                    21622310.738 8  91491090.86008      -953.707 8        48.755
E34        35.000    26647551.900 6 140034030.90906     -2670.590 6        40.548                                                                    26647552.430 7 104570975.74407     -1994.278 7        43.822    26647552.693 7 107298903.29607     -2046.204 7        45.487
C14        36.000                                                                                                                                    23026137.015 7 119903151.17307     -2390.935 7        46.484    23026132.685 8  92716710.11708     -1848.846 8        50.427    23026131.483 8  97431110.58708     -1942.861 8        48.612
R21        37.000    20710324.213 8 110825181.37308     -3211.637 8        50.309                                                                    20710322.809 7  86197384.38507     -2497.877 7        45.463
R06        38.000    19864319.035 6 105999843.86306     -2436.171 6        40.238
C27        40.000                                                                                                                                    22577821.338 8 117568681.24108      1553.944 8        48.604                                                                    22577819.708 8  95534200.06808      1262.726 8        48.236
C06        41.000                                                                                                                                    39283553.981 6 204559780.81906      1119.180 6        38.877    39283548.039 7 158178578.97907       865.395 7        42.713    39283547.049 6 166221555.94306       909.531 6        39.580
S44        42.000    40523643.613 6 212953390.02606      -331.788 6        38.405
G08        43.000    23301440.015 6 122449983.42506     -3829.292 6        41.754                                    23301438.424 6  95415611.31206     -2983.863 6        38.429    23301439.584 6  95415609.29006     -2983.757 6        40.181
C05        44.000                                                                                                                                    39109189.009 6 203651848.88406      -251.566 6        38.234    39109183.676 7 157476553.25207      -194.611 7        43.573    39109185.670 6 165483913.36006      -204.510 6        40.207
G04        45.000    24931323.559 6 131014991.29606      3579.529 6        37.565                                    24931320.967 3 102089588.65503      2789.232 3        19.761    24931320.784 6 102089590.65106      2789.471 6        37.055
C33        47.000                                                                                                                                    21929469.401 8 114192531.07108      -917.360 8        50.929                                                                    21929480.547 8  92790843.78208      -745.471 8        50.069
C09        48.000                                                                                                                                    40269404.928 6 209693371.95306      1402.838 6        38.003    40269402.852 7 162148206.90207      1084.731 7        43.086    40269399.912 6 170393020.04906      1139.838 6        38.141
R07        49.000    19481752.930 8 104287402.81508      1458.714 8        52.979                                                                    19481750.855 7  81112424.01007      1134.461 7        47.272
R15        50.000    24491512.045 6 130875225.02706      2101.338 6        37.149                                                                    24491513.809 5 101791820.05005      1634.323 5        33.006
S48        51.000    77177980.517 6 405573348.09806      -283.345 6        38.177
R14        53.000    23818697.340 7 126967071.57207      -668.361 7        43.172                                                                    23818698.127 6  98752106.66706      -519.841 6        40.820
C60        54.000                                                                                                                                    40523646.621 6 211017469.59706      -328.613 6        40.048                                                                    40523630.216 6 171468950.07206      -267.061 6        39.880
R08        55.000    22890061.183 7 122575261.98107      3855.614 7        42.487                                                                    22890059.848 6  95336362.34506      2998.841 6        40.698
I09        56.000    37124691.066 7 145685301.64507      -110.233 7        43.369
C02        57.000                                                                                                                                    40516066.822 5 210977851.94305      -294.092 5        33.557    40516060.837 6 163141453.47506      -227.412 6        39.805    40516065.192 6 171436791.07406      -238.890 6        36.227
I03        58.000    76389171.492 6 223982280.83306      1109.060 6        40.076
R23        59.000    22089931.436 7 118166248.91407      3496.326 7        45.097
C30        60.000                                                                                                                                    26696209.304 6 139014167.73006      2979.756 6        38.871                                                                    26696210.220 6 112960405.10706      2421.254 6        38.937
> 2025 01 02 23 46  0.0000000  0 52
G28         1.000    24368252.335 6 128056031.81306      2230.526 6        39.489                                    24368248.721 3  99783909.02503      1738.073 3        23.429    24368249.381 6  99783910.04106      1738.042 6        40.350
E08         2.000    25645862.673 7 134769936.61807      2578.466 7        44.150                                                                    25645860.885 7 100639891.30307      1925.531 7        46.652    25645860.335 7 103265278.83407      1975.719 7        47.545
G21         4.000    20908114.243 7 109872947.73407     -1382.463 7        44.826                                    20908108.593 6  85615290.43906     -1077.247 6        37.667
S21         5.000    38424034.338 7 201919321.55307      -272.259 7        43.162
E13         6.000    24547760.961 7 128999402.34907      1546.461 7        45.679                                                                    24547760.962 8  96330750.30308      1154.830 8        48.783    24547760.484 8  98843721.44608      1184.932 8        49.689
G10         7.000    24841290.882 6 130541926.58106     -3383.555 6        38.880                                    24841289.555 5 101720996.93905     -2636.540 5        31.879    24841288.814 5 101720990.95105     -2636.453 5        35.990
E15         8.000    23445670.024 7 123207942.40407      -878.508 7        47.755                                                                    23445670.051 8  92006000.94608      -655.988 8        50.981    23445669.641 8  94406145.14608      -673.098 8        51.652
G14        11.000    24498156.372 6 128738680.86706     -2133.374 6        37.921                                    24498153.148 3 100315847.73003     -1662.369 3        19.672    24498152.448 6 100315851.72606     -1662.297 6        36.193
G32        12.000    22525570.057 7 118372699.96807     -2310.176 7        46.164                                    22525567.490 7  92238468.55807     -1800.137 7        45.351    22525568.179 7  92238441.55707     -1800.180 7        42.811
G03        13.000    21198623.723 7 111399575.92707      2017.562 7        46.807                                    21198621.960 7  86804880.68607      1572.125 7        47.802    21198622.255 7  86804885.68407      1572.191 7        44.480
S36        14.000    38191621.049 7 200698863.94207      -271.672 7        43.829
C13        15.000                                                                                                                                    40798951.453 6 212450899.74906     -1012.899 6        37.622    40798951.954 6 164280545.71806      -783.166 6        38.066    40798950.502 5 172633780.89105      -823.210 5        35.929
G17        16.000    23381732.426 7 122871843.41607      2209.083 7        43.712                                    23381728.165 6  95744270.36006      1721.362 6        39.138    23381728.373 6  95744272.37906      1721.370 6        40.594
C16        17.000                                                                                                                                    39581532.956 6 206111441.79106      1005.855 6        40.584    39581531.628 6 159378447.95206       777.676 6        41.561    39581529.554 6 167482423.19606       817.291 6        37.690
E27        18.000    28762542.893 5 151148170.30205     -3080.479 5        35.705                                                                    28762545.061 6 112870382.01206     -2300.289 6        38.057    28762544.527 6 115814825.05806     -2360.175 6        38.045
E05        20.000    24829643.687 6 130480683.75206     -2411.386 6        40.620                                                                    24829642.984 7  97436879.68607     -1800.561 7        44.062    24829642.837 7  99978713.33607     -1847.561 7        45.302
C41        21.000                                                                                                                                    23045431.043 8 120003637.23108      1959.851 8        48.891                                                                    23045436.103 8  97512815.20808      1592.483 8        48.884
I06        22.000    38290687.080 7 150261116.61707       -96.917 7        42.798
E03        23.000    23986534.651 7 126050111.82007       212.623 7        46.954                                                                    23986534.174 8  94128360.41708       158.792 8        50.100    23986533.791 8  96583879.32008       162.909 8        51.015
R22        24.000    19286262.480 8 102951425.98008       811.777 8        52.096                                                                    19286260.313 8  80073347.23508       631.446 8        49.056
S23        25.000    38146535.888 7 200461359.03707      -269.367 7        44.527
S45        26.000    63393436.528 6 333136394.01306      -313.158 6        37.478
G02        27.000    20692297.774 8 108738813.47808       111.100 8        50.171                                    20692290.940 7  84731534.22407        86.570 7        43.742
S27        28.000    39081048.258 6 205372366.78806      -248.123 6        36.125
C39        29.000                                                                                                                                    39258184.751 7 204427686.33307       621.740 7        42.559                                                                    39258180.612 7 166114235.83207       505.210 7        42.840
E21        30.000    27576809.212 6 144917121.87006     -2162.968 6        38.589                                                                    27576809.602 6 108217337.49806     -1615.221 6        40.856    27576809.277 6 111040394.83506     -1657.280 6        41.619
C43        31.000                                                                                                                                    25531496.168 7 132949300.13107     -3613.613 7        42.409                                                                    25531495.037 7 108032237.72607     -2936.273 7        42.097
C42        32.000                                                                                                                                    25167130.088 7 131051872.85107     -3260.750 7        42.876                                                                    25167137.592 7 106490423.58407     -2649.606 7        44.026
C28        33.000                                                                                                                                    21623440.492 8 112598940.70608     -1176.205 8        51.150                                                                    21623438.771 8  91495864.07208      -955.684 8        48.803
E34        35.000    26650093.272 6 140047385.16906     -2671.279 6        40.095                                                                    26650093.791 7 104580948.09307     -1994.816 7        43.846    26650093.409 7 107309135.79407     -2046.819 7        45.005
C14        36.000                                                                                                                                    23028433.743 7 119915109.75507     -2392.629 7        46.539    23028429.147 8  92725957.24408     -1850.143 8        50.444    23028428.036 8  97440827.91608     -1944.216 8        48.633
R21        37.000    20713325.859 8 110841245.91108     -3214.380 8        50.591                                                                    20713324.542 7  86209879.02607     -2500.002 7        45.356
R06        38.000    19866602.528 6 106012032.35506     -2439.253 6        40.422
C27        40.000                                                                                                                                    22576329.989 8 117560915.79508      1551.981 8        48.800                                                                    22576328.367 8  95527890.01208      1261.195 8        48.234
C06        41.000                                                                                                                                    39282479.253 6 204554186.67006      1118.324 6        38.562    39282473.216 7 158174253.22507       864.820 7        42.815    39282473.028 6 166217010.24706       908.700 6        39.604
S44        42.000    40523962.225 6 212955048.02106      -331.701 6        38.721
G08        43.000    23305083.875 6 122469131.34806     -3830.138 6        41.735                                    23305082.077 6  95430531.76906     -2984.519 6        38.336    23305083.109 6  95430529.76306     -2984.524 6        40.389
C05        44.000                                                                                                                                    39109430.990 6 203653107.22706      -251.890 6        39.024    39109425.246 7 157477526.27607      -194.767 7        43.340    39109426.927 6 165484935.87706      -204.704 6        40.067
G04        45.000    24927917.094 6 130997092.44806      3579.620 6        37.815                                    24927914.901 3 102075641.54003      2789.313 3        19.701    24927914.699 6 102075643.51406      2789.375 6        37.251
C33        47.000                                                                                                                                    21930351.319 8 114197123.40108      -919.653 8        50.970                                                                    21930362.467 8  92794575.43308      -747.303 8        50.155
C09        48.000                                                                                                                                    40268057.666 6 209686358.76306      1402.326 6        38.685    40268055.555 7 162142783.85907      1084.227 7        43.192    40268053.133 6 170387321.25906      1139.364 6        38.165
R07        49.000    19480391.908 8 104280118.41508      1454.971 8        52.727                                                                    19480390.117 7  81106758.35907      1131.634 7        47.246
R15        50.000    24489548.127 6 130864725.17206      2098.449 6        37.531                                                                    24489547.118 5 101783653.47405      1631.899 5        32.635
S48        51.000    77178238.239 6 405574764.79706      -283.478 6        38.441
R14        53.000    23819325.670 7 126970423.66107      -672.455 7        42.006                                                                    23819326.633 6  98754713.84606      -523.071 6        41.185
C60        54.000                                                                                                                                    40523961.579 6 211019112.53306      -328.851 6        39.859                                                                    40523945.488 6 171470285.09706      -267.000 6        39.586
R08        55.000    22886462.073 7 122555986.30407      3854.446 7        42.925                                                                    22886460.189 6  95321370.14406      2998.031 6        40.596
I09        56.000    37124831.660 7 145685853.42507      -110.561 7        43.505
C02        57.000                                                                                                                                    40516350.520 5 210979322.25805      -294.170 5        33.120    40516343.631 6 163142590.43306      -227.357 6        40.276    40516347.025 5 171437985.86805      -239.209 5        35.976
I03        58.000    76387758.313 6 223976735.47106      1108.858 6        40.701
R23        59.000    22086663.880 7 118148769.57507      3495.296 7        45.099
C30        60.000                                                                                                                                    26693347.746 6 138999269.02906      2979.359 6        38.649                                                                    26693349.131 6 112948298.68006      2421.061 6        39.084
> 2025 01 02 23 46  5.0000000  0 52
G28         1.000    24366131.071 6 128044881.39006      2229.302 6        38.634                                    24366126.931 3  99775220.38303      1737.120 3        23.352    24366127.377 6  99775221.41006      1737.000 6        40.281
E08         2.000    25643409.897 7 134757045.86207      2577.633 7        44.069                                                                    25643407.880 7 100630265.10107      1924.878 7        46.612    25643407.274 7 103255401.50507      1975.032 7        47.787
G21         4.000    20909430.344 7 109879863.47907     -1384.030 7        44.978                                    20909424.622 6  85620679.33006     -1078.466 6        37.743
S21         5.000    38424295.642 7 201920681.55707      -271.850 7        42.959
E13         6.000    24546289.495 7 128991670.82107      1545.945 7        45.503                                                                    24546289.701 8  96324976.76208      1154.386 8        48.785    24546289.217 8  98837797.29008      1184.529 8        49.744
G10         7.000    24844510.091 6 130558843.50506     -3383.515 6        38.937                                    24844508.721 5 101734178.95905     -2636.513 5        31.940    24844508.600 6 101734172.96906     -2636.582 6        36.336
E15         8.000    23446506.362 7 123212337.17307      -879.627 7        47.733                                                                    23446506.349 8  92009282.75208      -656.837 8        50.911    23446505.924 8  94409512.56608      -673.979 8        51.713
G14        11.000    24500186.386 6 128749352.21106     -2135.260 6        37.516                                    24500183.765 3 100324163.04803     -1663.837 3        19.522    24500184.175 6 100324167.03706     -1663.646 6        36.132
G32        12.000    22527768.943 7 118384255.77207     -2312.332 7        46.714                                    22527766.513 7  92247473.07807     -1801.818 7        45.445    22527767.207 7  92247446.08307     -1801.794 7        42.768
G03        13.000    21196704.860 7 111389491.50307      2016.030 7        46.479                                    21196702.972 7  86797022.69707      1570.931 7        47.931    21196703.583 7  86797027.70207      1570.954 7        44.567
S36        14.000    38191879.513 7 200700221.12607      -271.434 7        43.680
C13        15.000                                                                                                                                    40799923.425 6 212455962.60206     -1012.512 6        37.694    40799924.961 6 164284460.61806      -782.820 6        37.924    40799922.806 5 172637894.85605      -822.473 5        35.990
G17        16.000    23379631.516 7 122860801.67907      2207.415 7        42.935                                    23379626.999 6  95735666.41506      1720.062 6        39.099    23379627.275 6  95735668.42306      1719.951 6        39.865
C16        17.000                                                                                                                                    39580566.770 6 206106413.98806      1005.018 6        40.903    39580566.277 6 159374560.11406       777.325 6        41.547    39580563.787 6 167478337.65606       816.905 6        37.985
E27        18.000    28765473.296 5 151163569.59305     -3079.861 5        35.571                                                                    28765475.158 6 112881881.46206     -2299.743 6        37.728    28765475.123 6 115826624.48506     -2359.608 6        38.390
E05        20.000    24831938.146 6 130492742.56206     -2412.538 6        40.613                                                                    24831937.658 7  97445884.65407     -1801.520 7        44.008    24831937.641 7  99987953.22207     -1848.573 7        45.389
C41        21.000                                                                                                                                    23043549.823 8 119993841.61808      1958.282 8        48.651                                                                    23043554.914 8  97504855.46508      1591.332 8        48.911
I06        22.000    38290810.249 7 150261600.52407       -96.674 7        42.595
E03        23.000    23986333.363 7 126049053.56707       210.556 7        47.032                                                                    23986332.846 8  94127570.17008       157.219 8        50.132    23986332.425 8  96583068.46008       161.258 8        51.075
R22        24.000    19285503.445 8 102947373.80008       808.833 8        51.950                                                                    19285501.486 8  80070195.54408       629.042 8        48.813
S23        25.000    38146790.582 7 200462704.98407      -269.100 7        44.871
S45        26.000    63393691.867 6 333136259.05316      -312.921 6        36.594
G02        27.000    20692192.943 8 108738261.72108       109.301 8        49.975                                    20692185.965 7  84731104.28707        85.168 7        43.894
S27        28.000    39081283.072 6 205373605.74806      -247.838 6        36.102
C39        29.000                                                                                                                                    39257588.092 7 204424578.64007       621.039 7        42.891                                                                    39257583.691 7 166111710.58307       504.754 7        42.618
E21        30.000    27578867.969 6 144927939.65606     -2164.406 6        38.402                                                                    27578868.347 6 108225415.70306     -1616.158 6        40.808    27578867.763 6 111048683.79406     -1658.492 6        41.688
C43        31.000                                                                                                                                    25534965.942 6 132967368.35706     -3613.901 6        41.745                                                                    25534964.858 7 108046919.62807     -2936.413 7        42.161
C42        32.000                                                                                                                                    25170261.381 7 131068176.81307     -3261.130 7        42.618                                                                    25170268.810 7 106503671.89007     -2649.828 7        44.123
C28        33.000                                                                                                                                    21624570.757 8 112604826.60308     -1178.427 8        51.092                                                                    21624569.155 8  91500646.84308      -957.508 8        48.774
E34        35.000    26652635.226 6 140060742.30106     -2671.805 6        40.448                                                                    26652635.661 7 104590922.56707     -1995.080 7        43.752    26652635.404 7 107319370.47707     -2047.202 7        45.111
C14        36.000                                                                                                                                    23030731.905 7 119927075.54807     -2393.983 7        46.534    23030727.340 8  92735209.95108     -1851.121 8        50.509    23030725.981 8  97450551.09508     -1945.191 8        48.641
R21        37.000    20716330.230 8 110857323.05908     -3216.693 8        50.336                                                                    20716329.394 7  86222383.47107     -2501.845 7        45.318
R06        38.000    19868889.560 6 106024235.85306     -2442.268 6        40.281
C27        40.000                                                                                                                                    22574840.675 8 117553159.52308      1550.285 8        48.848                                                                    22574838.869 8  95521587.40708      1259.837 8        48.293
C06        41.000                                                                                                                                    39281405.428 6 204548595.84406      1117.829 6        38.610    39281399.994 7 158169930.05707       864.346 7        43.291    39281399.428 6 166212467.25106       908.273 6        39.562
S44        42.000    40524277.948 6 212956705.51306      -331.359 6        38.727
G08        43.000    23308728.439 7 122488282.78107     -3830.538 7        42.152                                    23308726.529 6  95445454.95706     -2984.837 6        38.408    23308727.522 6  95445452.96506     -2984.792 6        40.355
C05        44.000                                                                                                                                    39109672.937 6 203654365.00806      -251.458 6        39.069    39109666.754 7 157478498.89107      -194.455 7        43.281    39109668.753 6 165485957.92606      -204.317 6        39.922
G04        45.000    24924511.479 6 130979193.05806      3579.795 6        37.304                                    24924508.736 3 102061693.95303      2789.448 3        19.821    24924509.156 6 102061695.92606      2789.598 6        36.389
C33        47.000                                                                                                                                    21931235.333 8 114201726.44708      -921.695 8        51.022                                                                    21931246.402 8  92798315.77908      -748.949 8        50.112
C09        48.000                                                                                                                                    40266712.005 6 209679347.69206      1401.872 6        38.679    40266709.352 7 162137362.46107      1084.128 7        43.302    40266706.865 6 170381624.16506      1139.436 6        38.294
R07        49.000    19479034.425 8 104272851.91808      1451.446 8        53.089                                                                    19479032.575 7  81101106.65307      1128.861 7        47.863
R15        50.000    24487585.305 6 130854239.28106      2095.561 6        37.323                                                                    24487585.538 5 101775497.80205      1629.943 5        33.383
S48        51.000    77178494.378 6 405576180.84006      -283.125 6        38.081
R14        53.000    23819958.918 7 126973795.36107      -676.367 7        44.423                                                                    23819959.518 6  98757336.27806      -525.928 6        40.303
C60        54.000                                                                                                                                    40524277.240 6 211020754.93506      -328.303 6        39.838                                                                    40524260.782 6 171471619.70706      -266.898 6        39.820
R08        55.000    22882863.016 7 122536716.35407      3853.437 7        42.417                                                                    22882861.310 6  95306382.42906      2997.143 6        40.191
I09        56.000    37124972.439 7 145686405.82707      -110.508 7        43.386
C02        57.000                                                                                                                                    40516632.603 5 210980792.16405      -293.881 5        33.341    40516626.171 6 163143727.05606      -227.232 6        41.125    40516629.247 6 171439180.25206      -238.724 6        36.310
I03        58.000    76386345.449 6 223971189.86106      1109.199 6        40.710
R23        59.000    22083396.725 7 118131294.35807      3494.551 7        44.235
C30        60.000                                                                                                                                    26690487.616 6 138984371.01206      2979.619 6        38.532                                                                    26690488.282 6 112936192.82506      2421.048 6        39.123
> 2025 01 02 23 46 10.0000000  0 52
G28         1.000    24364010.274 6 128033738.47606      2227.773 6        38.805                                    24364006.568 3  99766537.59003      1735.936 3        23.390    24364006.660 6  99766538.59406      1735.936 6        40.203
E08         2.000    25640957.684 7 134744160.32207      2576.484 7        44.172                                                                    25640955.852 7 100620642.78407      1924.043 7        46.667    25640955.258 7 103245528.17007      1974.253 7        47.456
G21         4.000    20910747.919 7 109886787.91807     -1385.765 7        44.849                                    20910742.311 6  85626075.00006     -1079.820 6        37.679
S21         5.000    38424559.329 7 201922041.16307      -271.978 7        42.876
E13         6.000    24544818.990 7 128983942.68307      1545.175 7        45.568                                                                    24544819.039 8  96319205.75908      1153.890 8        48.801    24544818.538 8  98831875.73708      1183.975 8        49.554
G10         7.000    24847729.549 6 130575760.50006     -3383.364 6        39.808                                    24847727.909 5 101747361.03505     -2636.383 5        31.962    24847727.407 5 101747355.03705     -2636.402 5        35.281
E15         8.000    23447343.797 7 123216738.35507      -880.856 7        47.861                                                                    23447343.870 8  92012569.35408      -657.814 8        50.939    23447343.451 8  94412884.90708      -674.974 8        51.456
G14        11.000    24502219.182 6 128760033.24606     -2137.189 6        37.297                                    24502216.122 3 100332485.93703     -1665.342 3        19.224    24502216.550 6 100332489.95606     -1665.363 6        36.219
G32        12.000    22529970.199 7 118395823.29707     -2314.688 7        47.097                                    22529967.737 7  92256486.73507     -1803.655 7        45.419    22529968.303 7  92256459.74907     -1803.696 7        42.895
G03        13.000    21194787.370 7 111379415.54007      2014.327 7        47.182                                    21194785.594 7  86789171.29807      1569.607 7        47.934    21194785.825 7  86789176.30607      1569.586 7        44.444
S36        14.000    38192138.778 7 200701578.25907      -271.314 7        43.577
C13        15.000                                                                                                                                    40800895.513 6 212461024.22406     -1012.321 6        37.645    40800897.118 6 164288374.59106      -782.765 6        37.773    40800894.901 5 172642007.83805      -822.375 5        35.757
G17        16.000    23377531.536 7 122849769.32707      2205.465 7        43.079                                    23377527.563 6  95727069.78106      1718.539 6        39.072    23377527.744 6  95727071.77806      1718.604 6        39.997
C16        17.000                                                                                                                                    39579602.164 6 206101389.83506      1004.449 6        41.249    39579601.065 6 159370675.13406       776.721 6        40.965    39579599.108 6 167474255.14606       816.268 6        37.826
E27        18.000    28768402.978 5 151178967.00405     -3079.268 5        35.324                                                                    28768405.019 6 112893379.52706     -2299.365 6        37.743    28768404.906 6 115838422.49106     -2359.306 6        38.336
E05        20.000    24834234.101 6 130504808.80706     -2414.019 6        40.882                                                                    24834233.900 7  97454895.15807     -1802.633 7        44.156    24834233.774 7  99997198.78307     -1849.719 7        45.166
C41        21.000                                                                                                                                    23041670.326 8 119984054.53708      1956.547 8        48.841                                                                    23041675.409 8  97496902.67208      1589.924 8        48.777
I06        22.000    38290933.261 7 150262084.15507       -96.706 7        42.779
E03        23.000    23986134.221 7 126048006.84107       208.198 7        46.910                                                                    23986133.609 8  94126788.52308       155.430 8        50.094    23986133.269 8  96582266.41808       159.499 8        50.838
R22        24.000    19284747.013 8 102943337.53208       805.692 8        51.952                                                                    19284745.236 8  80067056.22308       626.616 8        48.241
S23        25.000    38147047.352 7 200464050.46107      -269.053 7        44.901
S45        26.000    63393948.252 6 333137823.59506      -312.910 6        37.853
G02        27.000    20692089.663 8 108737719.59108       107.419 8        50.268                                    20692082.800 7  84730681.84607        83.703 7        43.890
S27        28.000    39081520.112 6 205374844.59106      -247.667 6        36.741
C39        29.000                                                                                                                                    39256992.050 7 204421475.40107       620.268 7        42.502                                                                    39256987.723 7 166109188.95207       504.040 7        42.593
E21        30.000    27580927.955 6 144938765.00506     -2165.814 6        38.586                                                                    27580928.488 6 108233499.57706     -1617.279 6        40.779    27580927.836 6 111056978.54006     -1659.516 6        41.428
C43        31.000                                                                                                                                    25538435.881 7 132985439.04107     -3614.425 7        42.100                                                                    25538435.275 7 108061603.54607     -2936.954 7        42.260
C42        32.000                                                                                                                                    25173393.373 7 131084483.36507     -3261.601 7        42.330                                                                    25173400.179 7 106516922.29507     -2650.252 7        44.193
C28        33.000                                                                                                                                    21625703.314 8 112610724.45408     -1180.795 8        51.292                                                                    21625701.731 8  91505439.34308      -959.388 8        48.695
E34        35.000    26655177.764 6 140074102.47806     -2672.334 6        41.039                                                                    26655177.929 7 104600899.33407     -1995.635 7        43.788    26655177.961 7 107329607.49607     -2047.645 7        45.472
C14        36.000                                                                                                                                    23033031.399 7 119939048.74507     -2395.386 7        46.866    23033026.487 8  92744468.38808     -1852.246 8        50.615    23033025.292 8  97460280.30208     -1946.319 8        48.496
R21        37.000    20719337.070 8 110873413.05308     -3219.304 8        50.199                                                                    20719335.791 7  86234897.91207     -2503.905 7        45.380
R06        38.000    19871180.469 6 106036454.64606     -2445.197 6        40.253
C27        40.000                                                                                                                                    22573352.712 8 117545412.63308      1548.442 8        48.970                                                                    22573351.248 8  95515292.43808      1258.276 8        48.147
C06        41.000                                                                                                                                    39280332.519 6 204543008.60406      1116.948 6        38.532    39280327.288 7 158165609.64207       863.777 7        42.610    39280326.236 6 166207927.15906       907.881 6        39.375
S44        42.000    40524588.838 6 212958362.68306      -331.548 6        38.333
G08        43.000    23312373.094 7 122507437.94707     -3831.458 7        42.844                                    23312371.707 6  95460381.05406     -2985.552 6        38.664    23312372.578 6  95460379.06506     -2985.689 6        40.615
C05        44.000                                                                                                                                    39109914.002 6 203655622.52706      -251.472 6        39.150    39109908.007 7 157479471.29107      -194.473 7        43.120    39109910.265 6 165486979.77406      -204.304 6        40.276
G04        45.000    24921105.147 6 130961293.30806      3579.933 6        38.033                                    24921102.460 3 102047746.10103      2789.565 3        19.791    24921102.304 6 102047748.10406      2789.602 6        37.399
C33        47.000                                                                                                                                    21932121.535 8 114206340.41008      -923.875 8        51.193                                                                    21932132.479 8  92802065.01008      -750.630 8        50.008
C09        48.000                                                                                                                                    40265366.425 6 209672338.92906      1401.313 6        38.369    40265363.377 7 162131942.83707      1083.737 7        43.154    40265360.952 6 170375928.99806      1138.773 6        38.318
R07        49.000    19477680.373 8 104265603.42408      1447.929 8        52.757                                                                    19477678.651 7  81095468.93407      1126.102 7        47.374
R15        50.000    24485625.843 6 130843767.70506      2092.626 6        37.112                                                                    24485626.869 5 101767353.24505      1627.682 5        33.293
S48        51.000    77178751.662 6 405577596.38206      -283.192 6        38.153
R14        53.000    23820595.549 7 126977186.83807      -680.249 7        43.433                                                                    23820595.604 6  98759974.10606      -529.228 6        41.128
C60        54.000                                                                                                                                    40524591.971 6 211022397.05506      -328.380 6        39.456                                                                    40524576.317 6 171472954.06206      -266.838 6        39.949
R08        55.000    22879265.315 7 122517452.27807      3852.142 7        43.172                                                                    22879262.945 6  95291399.27206      2996.078 6        40.563
I09        56.000    37125113.125 7 145686959.04407      -110.809 7        42.991
C02        57.000                                                                                                                                    40516914.485 5 210982261.81205      -294.015 5        34.090    40516908.138 6 163144863.46006      -227.283 6        40.408    40516911.804 6 171440374.45806      -238.685 6        36.083
I03        58.000    76384931.674 6 223965644.15906      1109.106 6        40.861
R23        59.000    22080130.503 7 118113823.39407      3493.706 7        45.077
C30        60.000                                                                                                                                    26687627.267 6 138969473.96006      2979.504 6        38.462                                                                    26687627.585 6 112924087.76806      2420.903 6        38.931
> 2025 01 02 23 46 15.0000000  0 52
G28         1.000    24361891.249 6 128022602.38706      2226.352 6        38.775                                    24361887.614 3  99757860.12403      1734.822 3        23.752    24361887.765 6  99757861.14606      1734.749 6        40.541
E08         2.000    25638506.611 7 134731279.37607      2575.679 7        44.435                                                                    25638504.769 7 100611023.89607      1923.402 7        46.848    25638503.952 7 103235658.36407      1973.514 7        47.429
G21         4.000    20912066.776 7 109893720.44607     -1387.316 7        44.775                                    20912061.543 6  85631476.96606     -1081.027 6        37.626
S21         5.000    38424808.989 7 201923399.88307      -271.590 7        42.717
E13         6.000    24543348.854 7 128976217.31007      1544.796 7        45.536                                                                    24543348.981 8  96313436.81108      1153.524 8        48.728    24543348.484 8  98825956.29808      1183.563 8        49.657
G10         7.000    24850948.380 6 130592676.95306     -3383.483 6        39.360                                    24850946.914 5 101760542.69305     -2636.487 5        31.426    24850947.053 5 101760536.70305     -2636.353 5        35.357
E15         8.000    23448182.401 7 123221145.32507      -882.017 7        47.749                                                                    23448182.477 8  92015860.27408      -658.689 8        50.911    23448182.092 8  94416261.67508      -675.871 8        51.513
G14        11.000    24504253.514 6 128770723.34306     -2139.010 6        38.526                                    24504250.536 3 100340815.87803     -1666.758 3        18.836    24504251.310 5 100340819.88005     -1666.831 5        35.767
G32        12.000    22532173.721 7 118407401.91607     -2316.948 7        47.314                                    22532171.075 7  92265509.03907     -1805.413 7        45.448    22532171.805 7  92265482.04007     -1805.407 7        42.472
G03        13.000    21192871.527 7 111369347.39207      2012.751 7        46.819                                    21192869.705 7  86781325.99407      1568.381 7        47.923    21192870.163 7  86781330.99707      1568.354 7        44.913
S36        14.000    38192395.552 7 200702934.17907      -271.156 7        44.038
C13        15.000                                                                                                                                    40801867.416 6 212466084.01306     -1011.840 6        37.448    40801868.392 6 164292287.14906      -782.493 6        37.996    40801866.142 5 172646119.34805      -822.205 5        35.857
G17        16.000    23375434.126 7 122838745.74707      2203.562 7        43.154                                    23375429.813 6  95718479.98506      1717.058 6        39.195    23375430.143 6  95718481.98206      1717.257 6        39.922
C16        17.000                                                                                                                                    39578638.139 6 206096368.74106      1003.838 6        40.949    39578636.906 6 159366792.49906       776.345 6        41.652    39578634.974 6 167470175.11706       815.657 6        37.962
E27        18.000    28771332.453 5 151194361.96405     -3078.817 5        34.552                                                                    28771334.739 6 112904875.72106     -2299.002 6        36.896    28771334.527 6 115850218.60506     -2358.971 6        39.192
E05        20.000    24836531.575 6 130516881.80806     -2415.250 6        40.806                                                                    24836531.424 7  97463910.71607     -1803.603 7        44.226    24836531.101 7 100006449.52907     -1850.672 7        45.180
C41        21.000                                                                                                                                    23039792.498 8 119974275.38608      1954.983 8        48.938                                                                    23039797.425 8  97488956.31708      1588.549 8        48.788
I06        22.000    38291056.717 7 150262567.00807       -96.477 7        43.164
E03        23.000    23985937.146 7 126046970.98807       206.027 7        46.972                                                                    23985936.505 8  94126015.00308       153.852 8        50.122    23985936.077 8  96581472.72008       157.876 8        50.947
R22        24.000    19283993.992 8 102939316.52308       802.614 8        52.023                                                                    19283991.928 8  80063928.77208       624.251 8        48.769
S23        25.000    38147303.960 7 200465394.91807      -268.961 7        44.617
S45        26.000    63394197.004 6 333139387.09406      -312.584 6        37.319
G02        27.000    20691988.237 8 108737186.48008       105.624 8        50.156                                    20691981.343 7  84730266.43607        82.303 7        43.882
S27        28.000    39081755.727 6 205376082.16906      -247.402 6        36.431
C39        29.000                                                                                                                                    39256396.821 7 204418375.99007       619.409 7        42.250                                                                    39256392.618 7 166106670.43207       503.264 7        42.588
E21        30.000    27582989.447 6 144949597.28506     -2167.282 6        39.084                                                                    27582989.638 6 108241588.61906     -1618.378 6        40.758    27582989.257 6 111065278.59406     -1660.553 6        41.673
C43        31.000                                                                                                                                    25541907.133 7 133003511.53507     -3614.822 7        42.351                                                                    25541905.985 7 108076288.93307     -2937.240 7        42.464
C42        32.000                                                                                                                                    25176524.684 7 131100791.82607     -3262.019 7        42.317                                                                    25176532.104 7 106530174.25907     -2650.617 7        44.275
C28        33.000                                                                                                                                    21626838.257 8 112616633.64608     -1183.068 8        51.536                                                                    21626836.518 8  91510241.04708      -961.318 8        48.755
E34        35.000    26657720.658 6 140087465.09206     -2672.743 6        40.772                                                                    26657720.814 7 104610877.89507     -1996.013 7        44.048    26657720.920 7 107339846.37407     -2048.037 7        45.651
C14        36.000                                                                                                                                    23035331.879 7 119951028.67107     -2396.713 7        46.552    23035326.992 8  92753732.02708     -1853.301 8        50.373    23035325.841 8  97470014.98308     -1947.492 8        48.510
R21        37.000    20722345.939 8 110889515.16808     -3221.782 8        50.260                                                                    20722345.001 7  86247421.77607     -2505.843 7        45.499
R06        38.000    19873472.698 6 106048687.94406     -2448.217 6        40.150
C27        40.000                                                                                                                                    22571866.734 8 117537674.51908      1546.676 8        48.970                                                                    22571865.152 8  95509004.59008      1256.808 8        48.233
C06        41.000                                                                                                                                    39279260.278 6 204537424.28206      1116.519 6        39.132    39279254.631 7 158161291.49407       863.304 7        42.821    39279254.025 6 166203389.44106       907.335 6        39.474
S44        42.000    40524905.465 6 212960018.91706      -331.219 6        38.234
G08        43.000    23316018.761 7 122526596.17707     -3831.981 7        42.239                                    23316017.506 6  95475309.54306     -2985.962 6        38.757    23316018.151 6  95475307.56106     -2986.013 6        40.720
C05        44.000                                                                                                                                    39110154.915 6 203656879.13506      -251.273 6        38.904    39110149.305 7 157480442.96807      -194.313 7        43.348    39110151.384 6 165488000.87606      -204.312 6        40.179
G04        45.000    24917698.431 6 130943392.63606      3580.199 6        38.129                                    24917696.049 3 102033797.52503      2789.777 3        20.024    24917696.461 6 102033799.52406      2789.752 6        36.862
C33        47.000                                                                                                                                    21933009.407 8 114210964.65908      -925.964 8        51.068                                                                    21933020.477 8  92805822.59008      -752.407 8        50.035
C09        48.000                                                                                                                                    40264020.294 6 209665331.85606      1401.041 6        38.309    40264017.808 7 162126524.53607      1083.396 7        43.225    40264015.481 6 170370235.18106      1138.553 6        38.631
R07        49.000    19476329.403 8 104258372.35208      1444.437 8        52.787                                                                    19476327.495 7  81089844.77007      1123.426 7        47.726
R15        50.000    24483669.047 6 130833309.80006      2090.288 6        36.794                                                                    24483669.002 5 101759219.38205      1625.535 5        34.038
S48        51.000    77179013.605 6 405579010.96006      -282.935 6        38.198
R14        53.000    23821234.605 7 126980597.40907      -684.094 7        42.618                                                                    23821235.763 6  98762626.75706      -532.257 6        41.290
C60        54.000                                                                                                                                    40524907.734 6 211024038.22206      -328.157 6        39.850                                                                    40524891.643 6 171474287.64306      -266.635 6        39.997
R08        55.000    22875669.520 7 122498193.56507      3851.289 7        43.520                                                                    22875667.271 6  95276420.26006      2995.390 6        40.627
I09        56.000    37125254.453 7 145687512.55907      -110.807 7        43.528
C02        57.000                                                                                                                                    40517196.587 5 210983730.54305      -293.525 5        33.467    40517190.319 6 163145999.18806      -227.082 6        40.236    40517194.200 6 171441567.93306      -238.638 6        36.318
I03        58.000    76383518.236 6 223960097.91906      1109.240 6        40.944
R23        59.000    22076865.556 7 118096356.19607      3493.025 7        45.707
C30        60.000                                                                                                                                    26684766.714 6 138954577.29006      2979.238 6        40.257                                                                    26684766.448 6 112911983.00106      2420.795 6        39.246
> 2025 01 02 23 46 20.0000000  0 52
G28         1.000    24359773.598 6 128011473.29206      2225.419 6        38.252                                    24359769.840 3  99749188.12403      1734.096 3        23.581    24359770.220 6  99749189.12706      1733.971 6        39.826
E08         2.000    25636056.236 7 134718403.19007      2575.012 7        44.618                                                                    25636054.469 7 100601408.56007      1922.892 7        46.721    25636053.733 7 103225792.18607      1973.014 7        47.505
G21         4.000    20913387.823 7 109900661.18407     -1388.777 7        44.861                                    20913382.308 6  85636885.33206     -1082.165 6        37.671
S21         5.000    38425066.661 7 201924757.52807      -270.970 7        42.409
E13         6.000    24541879.504 7 128968494.82007      1544.416 7        45.941                                                                    24541879.416 8  96307670.01308      1153.325 8        48.752    24541878.930 8  98820039.06208      1183.356 8        49.567
G10         7.000    24854167.577 6 130609592.96906     -3382.966 6        38.937                                    24854165.690 5 101773724.00605     -2636.079 5        30.672    24854164.832 5 101773718.01905     -2635.961 5        34.552
E15         8.000    23449022.396 8 123225558.21108      -882.936 8        48.044                                                                    23449022.250 8  92019155.60508      -659.353 8        50.854    23449021.804 8  94419642.97108      -676.537 8        51.472
G14        11.000    24506289.571 6 128781422.58406     -2140.636 6        38.060                                    24506286.350 3 100349152.94103     -1668.042 3        19.851    24506286.695 6 100349156.95606     -1668.181 6        36.072
G32        12.000    22534379.108 7 118418991.73607     -2318.874 7        46.863                                    22534376.569 7  92274540.06607     -1806.912 7        45.506    22534377.248 7  92274513.06607     -1807.033 7        42.948
G03        13.000    21190957.033 7 111359287.20007      2011.570 7        46.815                                    21190955.332 7  86773486.88407      1567.459 7        47.959    21190955.727 7  86773491.88407      1567.475 7        44.354
S36        14.000    38192654.732 7 200704289.27807      -270.859 7        43.803
C13        15.000                                                                                                                                    40802837.956 6 212471142.07206     -1011.134 6        38.120    40802839.964 6 164296198.33906      -781.871 6        38.189    40802837.772 5 172650229.41505      -821.629 5        35.219
G17        16.000    23373338.546 7 122827731.00407      2202.262 7        43.304                                    23373333.816 6  95709897.07206      1716.050 6        39.168    23373334.354 6  95709899.09506      1715.992 6        39.937
C16        17.000                                                                                                                                    39577674.101 6 206091350.85806      1003.279 6        40.880    39577673.861 6 159362912.34706       775.977 6        41.685    39577671.272 6 167466097.64006       815.394 6        37.403
E27        18.000    28774261.811 5 151209754.56905     -3078.093 5        35.543                                                                    28774263.677 6 112916370.15106     -2298.479 6        36.518    28774263.701 6 115862012.90506     -2358.394 6        39.276
E05        20.000    24838830.302 6 130528961.70606     -2416.414 6        41.023                                                                    24838830.160 7  97472931.41207     -1804.505 7        44.176    24838829.808 7 100015705.54307     -1851.539 7        45.255
C41        21.000                                                                                                                                    23037916.158 8 119964504.26108      1953.596 8        49.097                                                                    23037920.998 8  97481016.46208      1587.472 8        48.675
I06        22.000    38291179.491 7 150263049.22007       -96.229 7        42.451
E03        23.000    23985742.326 7 126045946.15207       204.111 7        46.807                                                                    23985741.505 8  94125249.70208       152.430 8        50.063    23985741.155 8  96580687.45708       156.385 8        50.893
R22        24.000    19283243.630 8 102935310.92208       799.798 8        51.973                                                                    19283241.330 8  80060813.30308       622.070 8        48.643
S23        25.000    38147560.023 7 200466738.35907      -268.302 7        44.922
S45        26.000    63394451.059 6 333140949.77706      -312.130 6        37.278
G02        27.000    20691888.617 8 108736662.49408       104.084 8        50.285                                    20691881.639 7  84729858.13607        81.107 7        43.881
S27        28.000    39081990.227 5 205377318.91205      -247.009 5        34.667
C39        29.000                                                                                                                                    39255802.408 7 204415280.50207       618.839 7        42.472                                                                    39255798.117 7 166104155.07707       502.952 7        42.455
E21        30.000    27585051.688 6 144960436.60106     -2168.267 6        38.904                                                                    27585052.208 6 108249682.90306     -1619.151 6        40.813    27585051.579 6 111073584.04606     -1661.393 6        41.569
C43        31.000                                                                                                                                    25545377.884 7 133021585.98307     -3614.799 7        42.554                                                                    25545376.757 6 108090975.89506     -2937.360 6        41.640
C42        32.000                                                                                                                                    25179656.895 7 131117102.35807     -3262.176 7        42.463                                                                    25179664.461 7 106543427.86707     -2650.699 7        44.042
C28        33.000                                                                                                                                    21627975.239 8 112622554.29208     -1185.018 8        51.454                                                                    21627973.523 8  91515052.04008      -962.944 8        48.559
E34        35.000    26660263.616 6 140100830.24006     -2673.079 6        40.875                                                                    26660263.982 7 104620858.37307     -1996.154 7        43.936    26660264.073 7 107350087.21107     -2048.209 7        45.353
C14        36.000                                                                                                                                    23037633.040 7 119963015.52307     -2397.838 7        46.726    23037628.988 8  92763001.01908     -1854.147 8        50.650    23037627.810 8  97479755.26908     -1948.495 8        48.358
R21        37.000    20725357.795 8 110905629.54808     -3223.796 8        50.043                                                                    20725356.268 7  86259955.18007     -2507.468 7        45.527
R06        38.000    19875767.441 6 106060936.00806     -2450.914 6        40.307
C27        40.000                                                                                                                                    22570382.354 8 117529945.29108      1545.198 8        48.880                                                                    22570380.834 8  95502723.94608      1255.546 8        48.045
C06        41.000                                                                                                                                    39278188.000 6 204531843.00306      1116.494 6        38.928    39278182.608 7 158156975.70507       863.066 7        42.910    39278182.244 6 166198854.19706       907.016 6        39.637
S44        42.000    40525222.158 6 212961674.30306      -330.634 6        38.159
G08        43.000    23319664.761 6 122545757.61906     -3832.490 6        41.990                                    23319663.904 6  95490240.52906     -2986.354 6        38.715    23319664.303 6  95490238.52706     -2986.284 6        40.331
C05        44.000                                                                                                                                    39110396.163 6 203658134.95406      -250.902 6        38.823    39110390.741 7 157481414.03807      -193.921 7        43.412    39110392.342 6 165489021.30006      -203.844 6        39.763
G04        45.000    24914291.840 6 130925491.13706      3580.592 6        37.701                                    24914289.008 3 102019848.30703      2790.085 3        19.493    24914289.745 6 102019850.32106      2789.946 6        36.922
C33        47.000                                                                                                                                    21933899.352 8 114215599.29608      -927.712 8        51.131                                                                    21933910.562 8  92809588.60008      -753.848 8        49.868
C09        48.000                                                                                                                                    40262675.121 6 209658326.56006      1401.190 6        38.682    40262672.515 7 162121107.59807      1083.483 7        42.840    40262670.294 6 170364542.78906      1138.616 6        38.784
R07        49.000    19474982.098 8 104251158.88008      1441.162 8        52.725                                                                    19474979.947 7  81084234.30107      1120.835 7        47.097
R15        50.000    24481713.917 6 130822865.51606      2087.513 6        38.138                                                                    24481715.346 5 101751096.05005      1623.459 5        33.162
S48        51.000    77179270.097 6 405580424.53606      -282.132 6        37.577
R14        53.000    23821878.913 7 126984027.37107      -687.699 7        44.072                                                                    23821878.939 6  98765294.50306      -534.879 6        40.503
C60        54.000                                                                                                                                    40525222.935 6 211025678.56406      -327.692 6        40.160                                                                    40525206.597 6 171475620.55306      -266.288 6        39.706
R08        55.000    22872074.427 7 122478940.22707      3850.291 7        43.545                                                                    22872071.510 6  95261445.44806      2994.747 6        40.768
I09        56.000    37125395.593 7 145688066.49907      -110.599 7        43.300
C02        57.000                                                                                                                                    40517478.889 5 210985198.49105      -292.982 5        34.143    40517472.121 6 163147134.30206      -226.727 6        40.477    40517475.846 5 171442760.74905      -238.440 5        35.852
I03        58.000    76382105.313 6 223954551.24106      1109.606 6        41.201
R23        59.000    22073601.029 7 118078892.75607      3492.424 7        45.297
C30        60.000                                                                                                                                    26681905.240 6 138939681.07806      2979.329 6        40.458                                                                    26681905.841 6 112899878.56706      2421.049 6        38.754
> 2025 01 02 23 46 25.0000000  0 52
G28         1.000    24357656.871 6 128000351.55006      2223.549 6        38.159                                    24357653.479 3  99740521.83803      1732.633 3        23.429    24357653.911 6  99740522.82306      1732.597 6        40.350
E08         2.000    25633606.747 7 134705532.04507      2573.786 7        44.184                                                                    25633604.995 7 100591797.00107      1922.014 7        46.889    25633604.462 7 103215929.89007      1972.122 7        47.512
G21         4.000    20914710.342 7 109907610.39507     -1390.646 7        45.126                                    20914704.674 6  85642300.30106     -1083.621 6        37.595
S21         5.000    38425326.941 7 201926114.39007      -271.491 7        42.584
E13         6.000    24540410.521 7 128960775.50907      1543.631 7        45.287                                                                    24540410.467 8  96301905.59708      1152.726 8        48.891    24540410.020 8  98814124.26808      1182.819 8        49.675
G10         7.000    24857386.084 6 130626508.89006     -3383.406 6        38.369                                    24857384.449 5 101786905.24805     -2636.431 5        30.189    24857383.751 5 101786899.23605     -2635.952 5        34.567
E15         8.000    23449863.349 7 123229977.30707      -884.385 7        47.513                                                                    23449863.159 8  92022455.58208      -660.377 8        51.071    23449862.750 8  94423029.03408      -677.606 8        51.534
G14        11.000    24508327.196 6 128792131.23606     -2142.557 6        36.979                                    24508324.095 3 100357497.35203     -1669.524 3        19.940    24508324.313 6 100357501.34206     -1669.763 6        36.934
G32        12.000    22536586.430 7 118430593.03507     -2321.356 7        47.027                                    22536584.289 7  92283580.03607     -1808.849 7        45.455    22536584.773 7  92283553.02907     -1808.853 7        42.815
G03        13.000    21189044.278 7 111349235.27307      2009.670 7        46.558                                    21189042.506 7  86765654.21207      1565.976 7        47.929    21189043.015 7  86765659.22707      1566.000 7        44.760
S36        14.000    38192913.813 7 200705643.92207      -270.749 7        43.710
C13        15.000                                                                                                                                    40803809.305 6 212476198.80006     -1010.941 6        38.063    40803811.274 6 164300108.54706      -781.753 6        38.228    40803808.992 5 172654338.44305      -821.686 5        35.733
G17        16.000    23371243.764 7 122816725.44807      2200.351 7        43.579                                    23371239.554 6  95701321.31506      1714.551 6        39.162    23371239.794 6  95701323.33006      1714.465 6        39.339
C16        17.000                                                                                                                                    39576710.574 6 206086336.42106      1002.682 6        40.923    39576711.006 6 159359034.88406       775.213 6        41.959    39576708.063 6 167462023.04106       814.532 6        37.879
E27        18.000    28777190.706 5 151225145.06405     -3077.928 5        34.990                                                                    28777192.406 6 112927863.03106     -2298.170 6        37.350    28777192.378 6 115873805.60106     -2358.363 6        39.078
E05        20.000    24841130.447 6 130541048.77106     -2418.008 6        40.787                                                                    24841130.172 7  97481957.46707     -1805.648 7        44.361    24841129.868 7 100024967.06407     -1852.780 7        45.216
C41        21.000                                                                                                                                    23036041.064 8 119954741.47508      1951.800 8        49.031                                                                    23036046.157 8  97473083.42608      1585.861 8        48.839
I06        22.000    38291301.904 7 150263530.97507       -96.266 7        42.487
E03        23.000    23985549.400 7 126044932.64007       201.608 7        47.028                                                                    23985548.584 8  94124492.86108       150.575 8        50.158    23985548.269 8  96579910.87108       154.538 8        50.960
R22        24.000    19282496.076 8 102931321.02408       796.578 8        51.828                                                                    19282494.181 8  80057710.04608       619.563 8        48.539
S23        25.000    38147812.259 7 200468080.96507      -268.220 7        44.653
S45        26.000    63394704.394 6 333142511.83706      -312.306 6        37.505
G02        27.000    20691790.814 8 108736147.94308       101.983 8        50.189                                    20691783.715 7  84729457.18607        79.468 7        43.833
S27        28.000    39082225.471 5 205378555.03005      -247.285 5        35.419
C39        29.000                                                                                                                                    39255208.630 7 204412189.24607       617.980 7        42.969                                                                    39255204.436 7 166101643.21507       501.931 7        42.533
E21        30.000    27587115.701 6 144971283.24906     -2169.911 6        38.694                                                                    27587116.243 6 108257782.67506     -1620.375 6        41.051    27587115.648 6 111081895.11506     -1662.735 6        41.602
C43        31.000                                                                                                                                    25548849.462 7 133039662.66307     -3615.541 7        42.593                                                                    25548848.313 7 108105664.70607     -2938.132 7        42.226
C42        32.000                                                                                                                                    25182789.675 7 131133415.21307     -3262.778 7        42.489                                                                    25182797.229 7 106556683.42107     -2651.298 7        44.324
C28        33.000                                                                                                                                    21629114.363 8 112628486.70908     -1187.585 8        51.399                                                                    21629112.778 8  91519872.63408      -965.132 8        48.680
E34        35.000    26662807.698 6 140114198.26206     -2673.938 6        40.772                                                                    26662807.855 7 104630840.98907     -1996.777 7        44.020    26662808.071 7 107360330.23207     -2048.811 7        45.806
C14        36.000                                                                                                                                    23039936.682 7 119975009.54507     -2399.466 7        46.937    23039932.227 8  92772275.55908     -1855.367 8        50.641    23039931.121 8  97489501.40708     -1949.846 8        48.501
R21        37.000    20728371.086 8 110921756.44108     -3226.544 8        50.142                                                                    20728369.833 7  86272498.31507     -2509.526 7        44.962
R06        38.000    19878066.595 6 106073198.97706     -2453.935 6        40.131
C27        40.000                                                                                                                                    22568900.047 8 117522225.25708      1543.135 8        49.098                                                                    22568898.254 8  95496450.80208      1253.925 8        48.202
C06        41.000                                                                                                                                    39277116.693 6 204526265.10906      1115.266 6        39.219    39277111.542 7 158152662.51007       862.443 7        42.785    39277111.042 6 166194321.70506       906.219 6        39.339
S44        42.000    40525539.250 6 212963329.18806      -330.679 6        38.018
G08        43.000    23323312.231 7 122564922.51807     -3833.294 7        42.618                                    23323310.937 6  95505174.21406     -2986.983 6        38.703    23323311.373 6  95505172.21706     -2986.842 6        40.186
C05        44.000                                                                                                                                    39110636.996 6 203659390.26606      -251.005 6        39.087    39110631.681 7 157482384.73907      -194.086 7        43.600    39110633.662 6 165490041.37806      -204.043 6        40.234
G04        45.000    24910885.273 6 130907589.14406      3580.519 6        37.803                                    24910882.329 3 102005898.72303      2790.016 3        19.821    24910882.822 6 102005900.70906      2790.046 6        37.331
C33        47.000                                                                                                                                    21934791.665 8 114220244.64308      -930.108 8        51.164                                                                    21934802.663 8  92813363.33908      -755.850 8        50.053
C09        48.000                                                                                                                                    40261330.638 6 209651323.38806      1400.606 6        38.574    40261327.364 7 162115692.33207      1082.908 7        43.122    40261325.446 6 170358852.16406      1138.131 6        38.904
R07        49.000    19473637.396 8 104243963.22808      1437.382 8        52.833                                                                    19473635.842 7  81078637.68407      1117.863 7        47.250
R15        50.000    24479761.866 6 130812435.34706      2084.856 6        38.270                                                                    24479761.789 5 101742983.70105      1621.314 5        32.862
S48        51.000    77179522.198 6 405581837.43206      -282.260 6        37.747
R14        53.000    23822525.792 7 126987476.88907      -691.791 7        43.153                                                                    23822525.180 6  98767977.47906      -538.029 6        40.260
C60        54.000                                                                                                                                    40525537.469 6 211027318.42506      -327.917 6        40.079                                                                    40525521.502 6 171476953.08206      -266.517 6        39.949
R08        55.000    22868478.278 7 122459692.61707      3848.930 7        44.342                                                                    22868477.718 6  95246475.07206      2993.833 6        41.004
I09        56.000    37125537.074 7 145688621.09607      -110.968 7        43.350
C02        57.000                                                                                                                                    40517760.816 5 210986665.96605      -293.389 5        34.343    40517753.654 6 163148269.05606      -226.816 6        40.029    40517757.406 6 171443953.23006      -238.700 6        36.060
I03        58.000    76380692.003 6 223949004.32906      1109.471 6        40.799
R23        59.000    22070337.237 7 118061433.55307      3491.492 7        45.664
C30        60.000                                                                                                                                    26679044.457 6 138924785.56706      2979.150 6        39.613                                                                    26679045.351 6 112887774.77606      2420.574 6        38.973
> 2025 01 02 23 46 30.0000000  0 52
G28         1.000    24355541.964 6 127989237.30906      2222.332 6        38.099                                    24355538.545 3  99731861.39603      1731.687 3        23.448    24355538.641 6  99731862.39906      1731.496 6        40.577
E08         2.000    25631158.441 7 134692666.16807      2572.738 7        44.152                                                                    25631156.603 7 100582189.35407      1921.281 7        46.803    25631156.251 7 103206071.61707      1971.323 7        47.480
G21         4.000    20916034.473 7 109914568.34807     -1392.345 7        44.921                                    20916028.744 6  85647722.07906     -1084.946 6        37.686
S21         5.000    38425585.960 7 201927470.69807      -271.144 7        42.233
E13         6.000    24538942.166 7 128953059.63807      1542.954 7        45.553                                                                    24538942.194 8  96296143.74808      1152.198 8        48.988    24538941.758 8  98808212.10708      1182.304 8        49.612
G10         7.000    24860605.146 6 130643424.86806     -3383.076 6        38.297                                    24860603.244 4 101800086.54004     -2636.165 4        29.934    24860603.488 5 101800080.54405     -2636.298 5        34.495
E15         8.000    23450705.323 7 123234402.84407      -885.607 7        47.976                                                                    23450705.335 8  92025760.36408      -661.368 8        51.119    23450704.951 8  94426420.03008      -678.595 8        51.553
G14        11.000    24510366.420 6 128802849.55206     -2144.432 6        38.099                                    24510363.830 3 100365849.26803     -1671.021 3        19.851    24510364.046 6 100365853.27906     -1671.020 6        37.452
G32        12.000    22538796.421 7 118442206.04307     -2323.623 7        47.139                                    22538794.241 7  92292629.13607     -1810.614 7        45.493    22538794.763 7  92292602.12807     -1810.594 7        43.204
G03        13.000    21187132.884 7 111339191.84307      2007.912 7        46.685                                    21187131.295 8  86757828.16508      1564.605 8        48.009    21187131.472 7  86757833.15907      1564.720 7        44.739
S36        14.000    38193168.691 7 200706997.97207      -270.796 7        44.146
C13        15.000                                                                                                                                    40804780.037 6 212481254.29206     -1010.731 6        37.682    40804782.429 6 164304017.78506      -781.616 6        37.686    40804779.796 5 172658446.44305      -821.350 5        35.476
G17        16.000    23369151.204 7 122805729.29207      2198.503 7        43.187                                    23369147.085 6  95692752.89406      1713.121 6        39.201    23369147.413 6  95692754.89906      1713.074 6        40.021
C16        17.000                                                                                                                                    39575748.675 6 206081325.72206      1001.882 6        41.187    39575748.612 6 159355160.28206       774.818 6        41.516    39575746.165 6 167457951.42306       814.070 6        37.834
E27        18.000    28780119.137 5 151240533.66405     -3077.409 5        35.638                                                                    28780120.610 6 112939354.54906     -2298.163 6        37.123    28780120.763 6 115885596.87806     -2358.069 6        38.820
E05        20.000    24843431.872 6 130553143.23606     -2419.456 6        40.760                                                                    24843431.546 7  97490989.04407     -1806.622 7        44.399    24843431.333 7 100034234.24707     -1853.836 7        45.120
C41        21.000                                                                                                                                    23034168.100 8 119944987.26108      1950.056 8        49.062                                                                    23034172.926 8  97465157.31508      1584.594 8        48.819
I06        22.000    38291424.982 7 150264012.46707       -96.239 7        43.065
E03        23.000    23985358.503 7 126043930.65307       199.360 7        47.002                                                                    23985357.984 8  94123744.62908       148.846 8        50.272    23985357.593 8  96579143.11908       152.773 8        50.926
R22        24.000    19281751.658 8 102927347.11208       793.291 8        51.739                                                                    19281749.467 8  80054619.22808       617.034 8        48.474
S23        25.000    38148070.236 7 200469423.14107      -268.328 7        45.049
S45        26.000    63394955.181 6 333144073.52306      -312.291 6        37.308
G02        27.000    20691694.612 8 108735643.05008       100.133 8        50.083                                    20691687.643 7  84729063.76207        78.025 7        43.898
S27        28.000    39082455.795 6 205379791.37706      -246.912 6        36.189
C39        29.000                                                                                                                                    39254615.584 7 204409102.45607       617.138 7        42.529                                                                    39254611.720 7 166099134.93807       501.441 7        42.440
E21        30.000    27589180.537 6 144982137.45706     -2171.549 6        38.333                                                                    27589181.614 6 108265888.07906     -1621.481 6        41.068    27589181.189 6 111090211.96606     -1663.847 6        41.554
C43        31.000                                                                                                                                    25552321.375 7 133057741.77307     -3615.948 7        42.762                                                                    25552320.363 7 108120355.45007     -2938.265 7        42.104
C42        32.000                                                                                                                                    25185922.685 7 131149730.60207     -3263.123 7        43.118                                                                    25185930.230 7 106569941.03407     -2651.656 7        44.108
C28        33.000                                                                                                                                    21630255.871 8 112634431.08808     -1189.987 8        51.381                                                                    21630254.379 8  91524702.92408      -966.936 8        48.644
E34        35.000    26665352.003 6 140127569.33106     -2674.385 6        41.197                                                                    26665352.404 7 104640825.87707     -1997.155 7        44.251    26665352.680 7 107370575.60207     -2049.231 7        45.803
C14        36.000                                                                                                                                    23042241.777 7 119987010.95107     -2400.912 7        46.949    23042237.055 8  92781555.80608     -1856.540 8        50.507    23042235.909 8  97499253.52308     -1950.844 8        48.367
R21        37.000    20731387.395 8 110937896.11908     -3229.092 8        50.448                                                                    20731386.234 7  86285051.38707     -2511.400 7        45.105
R06        38.000    19880366.328 6 106085477.07906     -2457.097 6        40.367
C27        40.000                                                                                                                                    22567419.456 8 117514514.67308      1541.311 8        48.956                                                                    22567417.526 8  95490185.31408      1252.484 8        48.120
C06        41.000                                                                                                                                    39276046.046 6 204520690.80606      1114.611 6        38.444    39276041.293 7 158148352.11007       861.846 7        42.313    39276040.279 6 166189792.12706       905.642 6        39.042
S44        42.000    40525853.502 6 212964983.79306      -330.851 6        37.958
G08        43.000    23326960.002 7 122584091.10707     -3834.047 7        42.910                                    23326958.515 6  95520110.77106     -2987.572 6        38.790    23326958.822 6  95520108.78106     -2987.626 6        39.462
C05        44.000                                                                                                                                    39110878.303 6 203660645.30206      -250.872 6        39.102    39110872.621 7 157483355.21907      -193.990 7        43.035    39110874.942 6 165491061.19506      -203.874 6        40.350
G04        45.000    24907478.801 6 130889686.86306      3580.474 6        37.735                                    24907475.597 3 101991948.90003      2789.972 3        19.910    24907476.039 6 101991950.89306      2790.135 6        37.009
C33        47.000                                                                                                                                    21935685.884 8 114224900.88608      -932.227 8        51.093                                                                    21935696.815 8  92817146.91508      -757.509 8        49.955
C09        48.000                                                                                                                                    40259986.259 6 209644322.59306      1400.041 6        38.943    40259982.613 7 162110278.85807      1082.786 7        42.478    40259981.073 6 170353163.44606      1137.768 6        39.174
R07        49.000    19472296.939 8 104236785.70508      1433.835 8        52.661                                                                    19472295.180 7  81073055.16107      1115.245 7        47.109
R15        50.000    24477813.140 6 130802019.57306      2081.958 6        38.432                                                                    24477813.118 5 101734882.58105      1619.253 5        33.216
S48        51.000    77179785.773 6 405583249.90206      -282.322 6        37.713
R14        53.000    23823176.383 7 126990946.22307      -695.743 7        43.556                                                                    23823176.858 6  98770675.86706      -541.093 6        40.014
C60        54.000                                                                                                                                    40525852.476 6 211028957.97006      -327.766 6        39.676                                                                    40525836.474 6 171478285.33006      -266.348 6        39.823
R08        55.000    22864886.543 7 122440450.98607      3847.864 7        43.361                                                                    22864883.657 6  95231509.38806      2992.519 6        40.372
I09        56.000    37125678.210 7 145689176.46607      -110.983 7        43.498
C02        57.000                                                                                                                                    40518042.130 5 210988133.22305      -293.480 5        33.958    40518036.230 6 163149403.62706      -226.701 6        40.682    40518039.301 6 171445145.48306      -238.315 6        36.268
I03        58.000    76379278.185 6 223943457.35706      1109.486 6        41.282
R23        59.000    22067074.392 7 118043978.62207      3490.735 7        45.228
C30        60.000                                                                                                                                    26676183.002 6 138909891.12706      2978.806 6        39.595                                                                    26676185.575 6 112875671.79706      2420.493 6        39.213
> 2025 01 02 23 46 35.0000000  0 52
G28         1.000    24353428.260 6 127978130.08906      2220.668 6        39.372                                    24353425.122 3  99723206.42303      1730.361 3        23.962    24353425.381 6  99723207.42406      1730.351 6        41.199
E08         2.000    25628711.058 7 134679804.99407      2571.799 7        43.992                                                                    25628709.194 7 100572585.25407      1920.395 7        46.887    25628708.918 7 103196216.96207      1970.535 7        47.603
G21         4.000    20917359.689 7 109921534.34107     -1394.116 7        44.977                                    20917354.334 6  85653150.12806     -1086.324 6        37.463
S21         5.000    38425842.434 7 201928825.90907      -270.906 7        42.542
E13         6.000    24537474.500 7 128945346.61007      1542.217 7        45.550                                                                    24537474.460 8  96290384.02608      1151.584 8        48.972    24537474.022 8  98802302.13008      1181.659 8        49.709
G10         7.000    24863824.121 6 130660340.36206     -3383.179 6        37.535                                    24863821.936 4 101813267.45004     -2636.242 4        29.915    24863822.447 5 101813261.47305     -2636.353 5        35.129
E15         8.000    23451548.698 7 123238834.26507      -886.978 7        47.822                                                                    23451548.533 8  92029069.54408      -662.358 8        51.097    23451548.165 8  94429815.53708      -679.641 8        51.611
G14        11.000    24512408.315 6 128813576.96306     -2146.582 6        38.147                                    24512405.340 3 100374208.31103     -1672.670 3        19.254    24512405.010 6 100374212.27606     -1672.523 6        36.476
G32        12.000    22541008.482 7 118453830.18407     -2326.099 7        46.789                                    22541006.286 7  92301686.90307     -1812.548 7        45.216    22541006.737 7  92301659.90707     -1812.617 7        43.007
G03        13.000    21185223.293 7 111329156.31507      2006.132 7        46.654                                    21185221.590 7  86750008.27707      1563.216 7        47.744    21185221.931 7  86750013.28807      1563.061 7        44.615
S36        14.000    38193429.324 7 200708351.65107      -270.863 7        43.786
C13        15.000                                                                                                                                    40805751.016 6 212486308.05206     -1010.687 6        37.728    40805752.403 6 164307925.64106      -781.504 6        38.168    40805750.308 5 172662553.02805      -821.313 5        35.243
G17        16.000    23367060.031 7 122794742.01307      2196.441 7        42.808                                    23367056.306 6  95684191.37506      1711.511 6        38.931    23367056.520 6  95684193.37806      1711.524 6        39.691
C16        17.000                                                                                                                                    39574786.692 6 206076318.15406      1001.283 6        40.610    39574786.581 6 159351288.13106       774.049 6        41.535    39574784.392 6 167453882.37106       813.598 6        37.750
E27        18.000    28783047.057 5 151255919.89105     -3076.989 5        35.281                                                                    28783048.822 6 112950844.21506     -2297.970 6        36.620    28783048.889 6 115897386.26506     -2357.798 6        39.198
E05        20.000    24845734.498 6 130565244.53406     -2421.104 6        40.250                                                                    24845734.514 7  97500025.72607     -1807.931 7        44.451    24845734.174 7 100043506.66807     -1855.085 7        45.115
C41        21.000                                                                                                                                    23032296.359 8 119935241.06008      1948.303 8        49.034                                                                    23032301.277 8  97457237.72908      1583.199 8        48.777
I06        22.000    38291547.514 7 150264493.28807       -96.115 7        42.736
E03        23.000    23985169.963 7 126042939.65107       196.981 7        46.903                                                                    23985169.379 8  94123004.59008       147.135 8        50.248    23985168.973 8  96578383.77608       150.940 8        50.951
R22        24.000    19281010.238 8 102923388.55308       790.049 8        52.041                                                                    19281008.221 8  80051540.34708       614.496 8        48.651
S23        25.000    38148324.291 7 200470764.17207      -268.181 7        44.795
S45        26.000    63395206.562 6 333145634.25206      -311.882 6        37.183
G02        27.000    20691600.345 8 108735147.27508        98.083 8        49.971                                    20691593.305 7  84728677.44607        76.430 7        43.649
S27        28.000    39082693.158 5 205381026.27105      -247.092 5        35.810
C39        29.000                                                                                                                                    39254023.502 7 204406019.57607       616.091 7        42.554                                                                    39254019.832 7 166096629.84307       500.573 7        42.516
E21        30.000    27591248.044 6 144992998.63906     -2172.797 6        38.435                                                                    27591248.405 6 108273998.70006     -1622.699 6        41.015    27591248.116 6 111098534.17606     -1665.079 6        41.464
C43        31.000                                                                                                                                    25555793.635 6 133075822.77606     -3616.469 6        41.983                                                                    25555792.590 7 108135047.74107     -2938.691 7        42.114
C42        32.000                                                                                                                                    25189057.074 7 131166048.00607     -3263.822 7        43.060                                                                    25189063.562 7 106583200.25807     -2652.144 7        44.126
C28        33.000                                                                                                                                    21631399.741 8 112640386.89508     -1192.351 8        51.391                                                                    21631398.090 8  91529542.50908      -968.952 8        48.690
E34        35.000    26667896.729 6 140140942.92706     -2674.982 6        40.479                                                                    26667897.157 7 104650812.64907     -1997.541 7        44.197    26667897.365 7 107380822.88907     -2049.639 7        45.851
C14        36.000                                                                                                                                    23044547.842 7 119999019.17107     -2402.471 7        47.188    23044543.533 8  92790841.33108     -1857.677 8        50.962    23044541.953 8  97509011.19908     -1952.224 8        48.426
R21        37.000    20734405.625 8 110954047.99108     -3231.646 8        50.343                                                                    20734404.583 7  86297613.96407     -2513.502 7        44.921
R06        38.000    19882670.554 6 106097769.83306     -2460.114 6        40.112
C27        40.000                                                                                                                                    22565940.105 8 117506812.95708      1539.375 8        48.877                                                                    22565938.486 8  95483927.04808      1250.840 8        48.136
C06        41.000                                                                                                                                    39274976.189 6 204515119.52806      1113.875 6        38.523    39274971.031 7 158144044.03807       861.273 7        42.878    39274970.639 6 166185265.00806       904.983 6        39.658
S44        42.000    40526166.395 6 212966637.49706      -330.727 6        38.303
G08        43.000    23330608.388 7 122603262.79107     -3834.760 7        42.737                                    23330606.568 6  95535049.74706     -2988.132 6        38.634    23330607.501 6  95535047.77306     -2988.030 6        39.751
C05        44.000                                                                                                                                    39111118.988 6 203661899.51206      -250.678 6        39.216    39111113.248 7 157484325.04907      -193.939 7        42.847    39111115.841 6 165492080.34206      -203.755 6        40.331
G04        45.000    24904072.186 6 130871783.73706      3580.631 6        37.505                                    24904068.681 3 101977998.41303      2790.095 3        19.433    24904069.271 6 101978000.40706      2790.185 6        36.703
C33        47.000                                                                                                                                    21936582.122 8 114229567.47608      -934.485 8        51.245                                                                    21936592.982 8  92820938.90308      -759.342 8        49.966
C09        48.000                                                                                                                                    40258642.633 6 209637323.57706      1399.647 6        38.847    40258638.981 7 162104866.79307      1082.161 7        42.686    40258636.789 6 170347476.19406      1137.118 6        39.144
R07        49.000    19470959.594 8 104229625.55408      1430.175 8        52.917                                                                    19470957.162 7  81067486.14907      1112.314 7        47.370
R15        50.000    24475866.618 6 130791617.51106      2078.996 6        37.996                                                                    24475867.131 5 101726792.06105      1617.211 5        33.371
S48        51.000    77180039.560 6 405584661.22006      -282.235 6        37.093
R14        53.000    23823830.075 7 126994434.75807      -699.806 7        43.156                                                                    23823831.582 6  98773389.14306      -544.413 6        40.510
C60        54.000                                                                                                                                    40526166.979 6 211030596.63106      -327.786 6        39.703                                                                    40526150.923 6 171479616.88906      -266.309 6        39.682
R08        55.000    22861294.580 7 122421214.77607      3846.624 7        43.323                                                                    22861291.481 6  95216547.88106      2991.893 6        40.501
I09        56.000    37125820.151 7 145689732.22907      -111.317 7        43.354
C02        57.000                                                                                                                                    40518323.690 5 210989599.67305      -293.098 5        33.162    40518317.150 6 163150537.60606      -226.814 6        40.262    40518321.103 6 171446337.11206      -238.359 6        36.231
I03        58.000    76377864.500 6 223937909.89006      1109.442 6        41.151
R23        59.000    22063811.622 7 118026527.59807      3489.672 7        44.567
C30        60.000                                                                                                                                    26673323.438 6 138894997.13706      2978.566 6        38.739                                                                    26673325.269 6 112863569.20306      2420.291 6        39.027
> 2025 01 02 23 46 40.0000000  0 52
G28         1.000    24351316.076 6 127967030.16006      2219.191 6        38.910                                    24351313.000 4  99714557.13004      1729.237 4        24.090    24351313.339 6  99714558.12806      1729.458 6        40.861
E08         2.000    25626264.705 7 134666948.83707      2570.800 7        43.738                                                                    25626262.963 7 100562984.87607      1919.728 7        46.899    25626262.443 7 103186366.14407      1969.861 7        47.668
G21         4.000    20918686.894 7 109928508.77307     -1395.696 7        44.804                                    20918681.534 6  85658584.75206     -1087.556 6        37.607
S21         5.000    38426102.522 7 201930180.30407      -270.725 7        42.995
E13         6.000    24536007.062 7 128937636.72907      1541.675 7        45.740                                                                    24536007.348 8  96284626.64408      1151.303 8        48.854    24536006.870 8  98796394.56308      1181.304 8        49.812
G10         7.000    24867043.087 6 130677255.66906     -3383.087 6        37.357                                    24867040.798 5 101826448.20605     -2636.167 5        30.158    24867041.868 5 101826442.21905     -2636.025 5        35.186
E15         8.000    23452392.985 7 123243271.82507      -888.026 7        47.724                                                                    23452393.012 8  92032383.30808      -663.192 8        50.996    23452392.625 8  94433215.74608      -680.498 8        51.679
G14        11.000    24514450.789 6 128824313.68106     -2148.232 6        38.658                                    24514448.456 3 100382574.57303     -1673.983 3        19.164    24514448.215 6 100382578.57506     -1673.808 6        36.907
G32        12.000    22543222.544 7 118465465.71207     -2328.287 7        46.563                                    22543220.499 7  92310753.55107     -1814.249 7        45.368    22543220.789 7  92310726.55107     -1814.242 7        43.615
G03        13.000    21183314.932 7 111319128.98407      2004.694 7        46.580                                    21183313.446 7  86742194.77307      1562.101 7        47.907    21183313.578 7  86742199.77907      1562.118 7        44.701
S36        14.000    38193684.086 7 200709704.75207      -270.635 7        43.956
C13        15.000                                                                                                                                    40806721.065 6 212491360.30206     -1010.377 6        37.811    40806722.908 6 164311832.35606      -781.301 6        38.471    40806720.286 5 172666658.37605      -821.067 5        35.729
G17        16.000    23364971.513 7 122783763.84007      2194.734 7        42.952                                    23364967.218 6  95675636.96206      1710.184 6        39.078    23364967.596 6  95675638.97106      1710.170 6        40.195
C16        17.000                                                                                                                                    39573825.658 6 206071314.04406      1000.378 6        40.553    39573825.703 6 159347418.62206       773.800 6        41.921    39573823.416 6 167449816.10506       812.998 6        37.656
E27        18.000    28785974.547 5 151271303.88105     -3076.477 5        35.195                                                                    28785976.242 6 112962332.26506     -2297.391 6        36.465    28785976.200 6 115909173.98106     -2357.215 6        38.988
E05        20.000    24848038.926 6 130577352.90906     -2422.328 6        40.446                                                                    24848038.711 7  97509067.69407     -1808.884 7        44.318    24848038.263 7 100052784.51807     -1856.080 7        44.980
C41        21.000                                                                                                                                    23030426.208 8 119925503.13508      1946.836 8        49.038                                                                    23030431.231 8  97449324.87508      1581.837 8        48.703
I06        22.000    38291670.079 7 150264973.61407       -95.914 7        43.033
E03        23.000    23984983.527 7 126041959.89207       194.885 7        47.057                                                                    23984982.895 8  94122272.94608       145.517 8        50.163    23984982.531 8  96577633.04608       149.301 8        51.044
R22        24.000    19280271.248 8 102919445.67608       787.069 8        51.866                                                                    19280269.604 8  80048473.67508       612.147 8        48.695
S23        25.000    38148577.304 7 200472104.44607      -267.880 7        44.447
S45        26.000    63395462.214 6 333145594.28816      -311.726 6        37.452
G02        27.000    20691507.648 8 108734660.86308        96.373 8        49.887                                    20691500.738 7  84728298.42407        75.099 7        43.839
S27        28.000    39082923.227 5 205382260.37605      -246.853 5        35.224
C39        29.000                                                                                                                                    39253432.085 7 204402940.84007       615.441 7        42.483                                                                    39253428.442 7 166094128.12407       499.928 7        42.472
E21        30.000    27593316.540 6 145003867.04306     -2174.427 6        38.697                                                                    27593316.633 6 108282114.72006     -1623.750 6        40.980    27593316.349 6 111106861.91806     -1666.130 6        41.757
C43        31.000                                                                                                                                    25559265.880 6 133093905.92606     -3616.744 6        41.471                                                                    25559265.075 7 108149741.78407     -2939.121 7        42.006
C42        32.000                                                                                                                                    25192191.203 7 131182367.65807     -3264.074 7        42.398                                                                    25192197.650 7 106596461.31207     -2652.410 7        43.863
C28        33.000                                                                                                                                    21632545.738 8 112646354.37508     -1194.570 8        51.110                                                                    21632544.081 8  91534391.56908      -970.784 8        48.643
E34        35.000    26670442.568 6 140154319.29406     -2675.500 6        40.953                                                                    26670442.748 7 104660801.48507     -1997.846 7        44.473    26670442.748 7 107391072.31307     -2050.083 7        45.830
C14        36.000                                                                                                                                    23046855.927 7 120011034.49007     -2403.769 7        46.702    23046850.587 8  92800132.33908     -1858.747 8        50.684    23046849.359 8  97518774.62008     -1953.306 8        48.392
R21        37.000    20737426.351 8 110970212.31908     -3234.059 8        50.399                                                                    20737425.277 7  86310186.22107     -2515.390 7        45.455
R06        38.000    19884975.728 6 106110077.39406     -2462.972 6        40.076
C27        40.000                                                                                                                                    22564462.689 8 117499120.40608      1537.600 8        48.933                                                                    22564461.248 8  95477676.21808      1249.348 8        48.112
C06        41.000                                                                                                                                    39273906.963 6 204509551.52906      1113.397 6        38.288    39273901.825 6 158139738.51006       860.869 6        41.928    39273901.750 6 166180740.55506       904.545 6        39.426
S44        42.000    40526482.731 6 212968290.59806      -330.621 6        38.592
G08        43.000    23334256.880 6 122622437.86006     -3835.316 6        41.869                                    23334255.349 6  95549991.36306     -2988.558 6        38.517    23334256.125 6  95549989.37506     -2988.666 6        39.790
C05        44.000                                                                                                                                    39111359.297 6 203663153.13406      -250.729 6        38.447    39111354.546 7 157485294.43107      -193.815 7        43.653    39111356.348 6 165493098.99606      -203.722 6        40.019
G04        45.000    24900664.751 6 130853880.06006      3580.972 6        36.885                                    24900661.752 3 101964047.51203      2790.383 3        19.791    24900662.759 6 101964049.50806      2790.346 6        37.758
C33        47.000                                                                                                                                    21937480.420 8 114234244.68108      -936.458 8        50.997                                                                    21937491.207 8  92824739.51208      -761.052 8        49.953
C09        48.000                                                                                                                                    40257298.730 6 209630326.60406      1399.408 6        38.973    40257295.352 7 162099456.30507      1081.935 7        42.675    40257293.320 6 170341790.57806      1136.982 6        39.249
R07        49.000    19469625.197 8 104222483.35408      1426.713 8        52.661                                                                    19469623.408 7  81061931.11207      1109.706 7        47.530
R15        50.000    24473921.996 6 130781229.48906      2076.273 6        38.835                                                                    24473922.469 5 101718712.49205      1614.982 5        34.190
S48        51.000    77180297.582 6 405586071.69606      -281.868 6        37.633
R14        53.000    23824488.386 7 126997942.85407      -703.451 7        43.333                                                                    23824489.305 6  98776117.65406      -547.202 6        41.440
C60        54.000                                                                                                                                    40526481.428 6 211032234.73206      -327.594 6        39.267                                                                    40526465.618 6 171480947.98306      -266.254 6        40.064
R08        55.000    22857703.107 7 122401984.27307      3845.489 7        43.151                                                                    22857701.399 6  95201590.84806      2991.025 6        40.768
I09        56.000    37125962.125 7 145690288.59207      -111.323 7        43.132
C02        57.000                                                                                                                                    40518605.550 5 210991065.64905      -293.094 5        33.964    40518598.746 6 163151671.16006      -226.706 6        40.517    40518602.140 6 171447528.29606      -238.280 6        36.064
I03        58.000    76376451.015 6 223932362.14906      1109.658 6        40.868
R23        59.000    22060550.245 7 118009080.59607      3489.023 7        45.263
C30        60.000                                                                                                                                    26670464.406 6 138880103.84506      2978.693 6        38.832                                                                    26670464.866 6 112851467.18306      2420.355 6        39.228
> 2025 01 02 23 46 45.0000000  0 52
G28         1.000    24349205.058 6 127955937.17306      2217.755 6        38.501                                    24349202.028 3  99705913.25003      1728.117 3        23.905    24349201.912 6  99705914.25006      1728.153 6        40.307
E08         2.000    25623819.531 7 134654097.32607      2569.739 7        43.835                                                                    25623817.533 7 100553387.97007      1918.948 7        46.977    25623816.731 7 103176518.88007      1968.940 7        47.317
G21         4.000    20920015.806 7 109935491.32407     -1397.460 7        44.882                                    20920010.281 6  85664025.69806     -1088.930 6        37.660
S21         5.000    38426358.339 7 201931534.05007      -270.848 7        42.419
E13         6.000    24534540.626 7 128929929.63507      1541.025 7        45.287                                                                    24534540.741 8  96278871.34708      1150.780 8        48.882    24534540.253 8  98790489.12208      1180.800 8        49.563
G10         7.000    24870261.868 6 130694170.39006     -3383.151 6        38.622                                    24870259.637 5 101839628.50605     -2636.228 5        30.340    24870260.248 5 101839622.50705     -2636.074 5        35.552
E15         8.000    23453238.508 7 123247715.19707      -889.335 7        47.458                                                                    23453238.557 8  92035701.40808      -664.085 8        51.010    23453238.156 8  94436620.40408      -681.455 8        51.447
G14        11.000    24516496.007 6 128835059.42706     -2150.095 6        38.282                                    24516493.235 3 100390947.87503     -1675.401 3        19.343    24516493.161 5 100390951.86705     -1675.355 5        35.990
G32        12.000    22545438.769 7 118477112.26707     -2330.548 7        46.831                                    22545436.796 7  92319828.78507     -1816.014 7        45.469    22545436.855 7  92319801.79307     -1815.983 7        42.832
G03        13.000    21181408.644 7 111309109.53307      2002.903 7        46.617                                    21181406.799 8  86734387.40908      1560.702 8        48.032    21181407.149 7  86734392.41407      1560.710 7        44.488
S36        14.000    38193943.069 7 200711056.85907      -270.376 7        43.958
C13        15.000                                                                                                                                    40807690.867 6 212496410.76306     -1010.019 6        37.902    40807692.840 6 164315737.71106      -781.153 6        38.694    40807690.490 5 172670762.30005      -820.667 5        35.829
G17        16.000    23362884.043 7 122772794.49807      2192.863 7        42.502                                    23362879.811 6  95667089.42606      1708.719 6        39.072    23362880.322 6  95667091.43606      1708.665 6        39.601
C16        17.000                                                                                                                                    39572865.382 6 206066312.98506       999.833 6        40.348    39572865.236 6 159343551.49206       773.158 6        41.762    39572863.168 6 167445752.32106       812.518 6        37.792
E27        18.000    28788901.512 5 151286685.41305     -3076.484 5        35.529                                                                    28788903.037 6 112973818.40206     -2297.010 6        36.578    28788903.192 6 115920959.77906     -2356.886 6        38.754
E05        20.000    24850344.315 6 130589468.02106     -2423.819 6        40.543                                                                    24850343.915 7  97518114.70407     -1809.959 7        44.211    24850343.721 7 100062067.52807     -1857.169 7        44.841
C41        21.000                                                                                                                                    23028557.732 8 119915773.16808      1945.029 8        49.135                                                                    23028562.644 8  97441418.46708      1580.642 8        48.756
I06        22.000    38291792.347 7 150265453.19607       -95.957 7        42.694
E03        23.000    23984799.172 7 126040991.01507       192.634 7        46.938                                                                    23984798.556 8  94121549.43808       143.857 8        50.158    23984798.209 8  96576890.66808       147.598 8        50.849
R22        24.000    19279535.599 8 102915518.16008       783.859 8        52.104                                                                    19279533.705 8  80045418.94208       609.639 8        48.790
S23        25.000    38148834.422 7 200473443.80807      -267.843 7        44.986
S45        26.000    63395717.633 6 333147153.27106      -311.925 6        37.788
G02        27.000    20691416.980 8 108734183.50208        94.470 8        49.733                                    20691409.897 7  84727926.45507        73.614 7        43.911
S27        28.000    39083161.909 6 205383493.47406      -246.782 6        36.389
C39        29.000                                                                                                                                    39252841.574 7 204399865.97407       614.545 7        42.491                                                                    39252837.916 7 166091629.51007       499.418 7        42.470
E21        30.000    27595385.567 6 145014742.33806     -2175.872 6        38.640                                                                    27595386.123 6 108290235.88906     -1624.814 6        40.703    27595385.794 6 111115194.93006     -1667.265 6        41.528
C43        31.000                                                                                                                                    25562739.617 6 133111990.84506     -3617.381 6        41.819                                                                    25562738.221 7 108164437.25407     -2939.255 7        42.353
C42        32.000                                                                                                                                    25195325.382 6 131198689.22906     -3264.633 6        41.855                                                                    25195332.111 7 106609723.90007     -2652.624 7        43.860
C28        33.000                                                                                                                                    21633693.695 8 112652333.19808     -1196.986 8        51.243                                                                    21633692.292 8  91539249.84108      -972.544 8        48.670
E34        35.000    26672988.430 6 140167698.08406     -2676.146 6        40.710                                                                    26672988.506 7 104670792.14907     -1998.341 7        44.227    26672988.430 7 107401323.59207     -2050.508 7        45.139
C14        36.000                                                                                                                                    23049163.885 7 120023056.50707     -2405.174 7        46.586    23049158.993 8  92809428.51908     -1859.814 8        50.530    23049158.111 8  97528543.48508     -1954.319 8        48.429
R21        37.000    20740449.637 8 110986388.81608     -3236.567 8        50.191                                                                    20740448.400 7  86322767.93207     -2517.362 7        45.123
R06        38.000    19887285.687 6 106122399.43106     -2466.006 6        40.217
C27        40.000                                                                                                                                    22562987.391 8 117491436.67308      1535.787 8        48.957                                                                    22562985.636 8  95471432.54408      1248.043 8        48.056
C06        41.000                                                                                                                                    39272838.348 6 204503986.51306      1112.484 6        38.508    39272832.826 6 158135435.27706       860.350 6        41.833    39272832.554 6 166176218.50806       904.194 6        39.483
S44        42.000    40526795.655 6 212969942.78906      -330.418 6        38.607
G08        43.000    23337906.451 6 122641615.93606     -3836.141 6        41.628                                    23337904.850 6  95564935.31006     -2989.202 6        38.423    23337905.758 6  95564933.31206     -2989.087 6        40.052
C05        44.000                                                                                                                                    39111600.519 6 203664405.85506      -250.653 6        38.378    39111594.963 7 157486263.09407      -193.748 7        43.484    39111597.046 6 165494116.92406      -203.508 6        40.091
G04        45.000    24897257.939 6 130835975.51506      3580.903 6        36.193                                    24897254.590 3 101950095.92603      2790.296 3        19.672    24897255.352 6 101950097.93106      2790.285 6        37.210
C33        47.000                                                                                                                                    21938380.428 8 114238932.15408      -938.632 8        50.986                                                                    21938391.375 8  92828548.45508      -762.604 8        49.896
C09        48.000                                                                                                                                    40255955.640 6 209623331.35906      1398.884 6        38.652    40255951.756 7 162094047.11607      1081.694 7        42.324    40255950.142 6 170336106.36106      1136.777 6        39.024
R07        49.000    19468294.104 8 104215358.50108      1423.099 8        52.760                                                                    19468292.490 7  81056389.56507      1106.858 7        47.368
R15        50.000    24471981.062 6 130770855.25806      2073.382 6        38.321                                                                    24471980.846 5 101710643.67205      1612.482 5        33.204
S48        51.000    77180559.038 6 405587481.03406      -281.939 6        37.633
R14        53.000    23825149.713 7 127001470.07807      -707.519 7        42.815                                                                    23825150.578 6  98778861.06306      -550.324 6        40.584
C60        54.000                                                                                                                                    40526796.329 6 211033871.90306      -327.502 6        39.760                                                                    40526779.987 6 171482278.28606      -265.884 6        40.098
R08        55.000    22854112.398 7 122382759.10207      3844.366 7        44.429                                                                    22854110.655 6  95186637.92506      2990.145 6        39.982
I09        56.000    37126103.807 7 145690845.26207      -111.369 7        43.498
C02        57.000                                                                                                                                    40518887.741 5 210992530.68005      -293.164 5        33.958    40518879.967 6 163152804.02206      -226.692 6        40.331    40518883.705 5 171448718.75305      -237.941 5        35.838
I03        58.000    76375036.607 6 223926813.85006      1109.770 6        40.505
R23        59.000    22057289.131 7 117991637.46607      3488.234 7        44.483
C30        60.000                                                                                                                                    26667604.766 6 138865210.92906      2978.478 6        39.321                                                                    26667604.743 6 112839365.46506      2420.249 6        38.865
> 2025 01 02 23 46 50.0000000  0 52
G28         1.000    24347095.944 6 127944851.52806      2216.494 6        39.438                                    24347092.549 3  99697275.09603      1727.140 3        23.962    24347092.257 6  99697276.07706      1726.949 6        40.336
E08         2.000    25621374.703 7 134641250.83907      2568.813 7        44.111                                                                    25621372.752 7 100543794.81607      1918.220 7        46.842    25621372.118 7 103166675.47207      1968.274 7        47.233
G21         4.000    20921346.171 7 109942482.32407     -1399.090 7        44.321                                    20921340.651 6  85669473.23206     -1090.201 6        37.762
S21         5.000    38426616.749 7 201932887.34607      -270.435 7        42.870
E13         6.000    24533074.432 7 128922225.71307      1540.526 7        45.336                                                                    24533074.701 8  96273118.41808      1150.381 8        48.858    24533074.256 8  98784586.12008      1180.367 8        49.481
G10         7.000    24873480.217 6 130711084.92106     -3383.067 6        38.165                                    24873478.476 5 101852808.66505     -2636.157 5        30.566    24873478.965 5 101852802.66905     -2635.965 5        35.781
E15         8.000    23454085.300 7 123252164.74507      -890.476 7        47.659                                                                    23454085.276 8  92039024.12008      -664.981 8        50.974    23454084.847 8  94440029.79808      -682.348 8        51.347
G14        11.000    24518542.467 6 128845814.46806     -2151.940 6        37.784                                    24518539.906 3 100399328.42903     -1676.818 3        19.821    24518539.283 6 100399332.42506     -1676.852 6        36.378
G32        12.000    22547657.589 7 118488770.22607     -2332.770 7        46.143                                    22547655.208 7  92328912.91007     -1817.742 7        45.467    22547655.407 7  92328885.92407     -1817.760 7        42.686
G03        13.000    21179503.525 7 111299098.27807      2001.417 7        46.225                                    21179501.718 8  86726586.43108      1559.548 8        48.093    21179502.371 7  86726591.42607      1559.609 7        44.542
S36        14.000    38194201.269 7 200712407.54407      -270.074 7        43.515
C13        15.000                                                                                                                                    40808661.019 6 212501459.72506     -1009.530 6        37.577    40808662.488 6 164319641.87006      -780.711 6        39.258    40808660.387 5 172674864.99505      -820.173 5        35.371
G17        16.000    23360798.178 7 122761834.40007      2191.128 7        42.260                                    23360794.157 6  95658549.09406      1707.369 6        38.997    23360794.501 6  95658551.10306      1707.335 6        40.188
C16        17.000                                                                                                                                    39571905.753 6 206061315.38306       999.141 6        40.260    39571905.278 6 159339687.02406       772.658 6        41.919    39571903.111 6 167441691.40406       811.847 6        37.739
E27        18.000    28791828.225 6 151302064.71006     -3075.662 6        36.076                                                                    28791829.972 6 112985302.95106     -2296.758 6        36.900    28791829.568 6 115932743.90406     -2356.710 6        38.375
E05        20.000    24852651.070 6 130601590.23406     -2425.242 6        41.037                                                                    24852650.779 7  97527167.00107     -1810.986 7        44.200    24852650.546 7 100071355.97307     -1858.249 7        44.790
C41        21.000                                                                                                                                    23026690.709 8 119906051.50408      1943.514 8        49.001                                                                    23026695.723 8  97433518.84808      1579.318 8        48.870
I06        22.000    38291914.068 7 150265932.29007       -95.758 7        42.796
E03        23.000    23984617.160 7 126040033.42907       190.354 7        47.191                                                                    23984616.275 8  94120834.35608       142.173 8        50.117    23984615.943 8  96576156.92708       145.859 8        50.762
R22        24.000    19278802.961 8 102911606.36108       780.819 8        51.903                                                                    19278800.784 8  80042376.42308       607.316 8        48.725
S23        25.000    38149089.157 7 200474782.56707      -267.796 7        44.847
S45        26.000    63395966.063 6 333148711.62406      -311.506 6        37.516
G02        27.000    20691327.935 8 108733715.54908        92.631 8        49.495                                    20691320.849 7  84727561.81507        72.181 7        43.905
S27        28.000    39083397.215 6 205384726.53806      -246.524 6        36.318
C39        29.000                                                                                                                                    39252251.850 7 204396795.26207       613.724 7        42.385                                                                    39252248.433 7 166089134.34607       498.682 7        42.535
E21        30.000    27597456.593 6 145025624.87706     -2177.182 6        38.288                                                                    27597457.057 6 108298362.46106     -1625.823 6        40.760    27597456.639 6 111123533.51006     -1668.323 6        41.249
C43        31.000                                                                                                                                    25566212.701 7 133130077.92007     -3617.675 7        42.036                                                                    25566211.699 7 108179134.50707     -2939.659 7        42.093
C42        32.000                                                                                                                                    25198459.566 6 131215013.04506     -3264.958 6        41.373                                                                    25198466.893 7 106622988.36307     -2653.092 7        43.812
C28        33.000                                                                                                                                    21634844.342 8 112658323.73708     -1199.292 8        51.441                                                                    21634842.720 8  91544117.66308      -974.419 8        48.769
E34        35.000    26675534.745 6 140181079.66606     -2676.645 6        40.765                                                                    26675535.052 7 104680784.87807     -1998.734 7        44.551    26675534.886 7 107411577.00807     -2050.901 7        44.995
C14        36.000                                                                                                                                    23051473.854 7 120035085.62907     -2406.518 7        46.654    23051469.382 8  92818730.18908     -1860.905 8        50.604    23051468.235 8  97538318.15008     -1955.504 8        48.466
R21        37.000    20743474.660 8 111002577.75108     -3239.030 8        50.312                                                                    20743473.642 7  86335359.32107     -2519.239 7        45.395
R06        38.000    19889597.864 6 106134736.29706     -2468.993 6        39.877
C27        40.000                                                                                                                                    22561513.733 8 117483762.13608      1533.979 8        49.033                                                                    22561511.895 8  95465196.37908      1246.481 8        48.157
C06        41.000                                                                                                                                    39271770.224 6 204498424.79106      1111.820 6        38.805    39271764.597 7 158131134.60607       859.864 7        42.195    39271764.651 6 166171699.17606       903.660 6        39.769
S44        42.000    40527111.204 6 212971594.39206      -330.172 6        38.195
G08        43.000    23341556.479 7 122660797.35707     -3836.523 7        42.108                                    23341554.960 6  95579881.86806     -2989.502 6        38.363    23341556.012 6  95579879.89206     -2989.733 6        39.721
C05        44.000                                                                                                                                    39111840.726 6 203665658.01406      -250.413 6        38.628    39111835.183 7 157487231.35607      -193.639 7        43.291    39111837.356 6 165495134.42706      -203.392 6        40.243
G04        45.000    24893850.798 5 130818070.43605      3580.972 5        35.548                                    24893847.402 3 101936143.93103      2790.361 3        19.224    24893847.765 6 101936145.92106      2790.445 6        37.769
C33        47.000                                                                                                                                    21939282.508 8 114243630.24208      -940.709 8        50.914                                                                    21939293.624 8  92832366.06108      -764.371 8        50.004
C09        48.000                                                                                                                                    40254612.027 6 209616338.17506      1398.385 6        38.583    40254608.697 6 162088639.55506      1081.210 6        41.979    40254606.956 6 170330423.85806      1136.292 6        39.417
R07        49.000    19466966.355 8 104208251.60508      1419.594 8        52.685                                                                    19466964.939 7  81050861.98307      1104.135 7        47.644
R15        50.000    24470042.424 6 130760495.08306      2070.511 6        38.658                                                                    24470041.890 5 101702585.73105      1610.592 5        34.462
S48        51.000    77180812.073 6 405588889.61906      -281.607 6        37.444
R14        53.000    23825815.652 7 127005016.84607      -711.312 7        43.045                                                                    23825816.519 6  98781619.62806      -553.286 6        41.211
C60        54.000                                                                                                                                    40527110.201 6 211035508.48506      -327.263 6        39.718                                                                    40527094.391 6 171483608.17406      -265.780 6        39.781
R08        55.000    22850523.033 7 122363539.70607      3843.269 7        43.376                                                                    22850520.617 6  95171689.51706      2989.227 6        39.583
I09        56.000    37126245.752 7 145691402.53807      -111.461 7        43.327
C02        57.000                                                                                                                                    40519168.876 5 210993995.21805      -292.810 5        34.190    40519161.630 6 163153936.50006      -226.495 6        40.238    40519165.153 6 171449908.83906      -238.083 6        36.257
I03        58.000    76373622.329 6 223921265.29806      1109.665 6        40.691
R23        59.000    22054028.925 7 117974198.52107      3487.354 7        45.546
C30        60.000                                                                                                                                    26664744.191 6 138850318.79106      2978.315 6        39.607                                                                    26664745.071 6 112827264.39206      2420.266 6        39.138
> 2025 01 02 23 46 55.0000000  0 52
G28         1.000    24344987.822 6 127933773.29806      2214.787 6        39.748                                    24344984.443 4  99688642.70704      1725.809 4        24.045    24344984.225 6  99688643.68806      1725.767 6        39.604
E08         2.000    25618930.860 7 134628409.47607      2567.660 7        44.116                                                                    25618929.054 7 100534205.49507      1917.414 7        46.772    25618928.542 7 103156835.99007      1967.457 7        47.472
G21         4.000    20922678.274 7 109949481.83607     -1400.697 7        44.727                                    20922672.614 6  85674927.39806     -1091.452 6        37.713
S21         5.000    38426873.742 7 201934240.19207      -270.565 7        42.620
E13         6.000    24531609.330 7 128914525.02907      1539.662 7        45.529                                                                    24531609.335 8  96267367.92108      1149.780 8        48.826    24531608.859 8  98778685.60608      1179.787 8        49.634
G10         7.000    24876699.234 6 130727999.30306     -3382.835 6        38.210                                    24876697.266 5 101865988.69905     -2635.971 5        30.913    24876697.873 6 101865982.70306     -2636.065 6        36.038
E15         8.000    23454933.302 7 123256620.53507      -891.897 7        47.556                                                                    23454933.172 8  92042351.50008      -666.019 8        50.905    23454932.810 8  94443443.97708      -683.329 8        51.534
G14        11.000    24520591.130 6 128856578.90406     -2153.911 6        38.009                                    24520588.128 3 100407716.31703     -1678.385 3        19.672    24520588.140 5 100407720.30005     -1678.114 5        35.410
G32        12.000    22549878.206 7 118500439.62507     -2335.148 7        46.170                                    22549875.785 7  92338005.95207     -1819.594 7        45.357    22549876.230 7  92337978.94907     -1819.552 7        42.673
G03        13.000    21177599.684 7 111289095.34107      1999.642 7        46.396                                    21177598.229 8  86718791.94308      1558.161 8        48.040    21177598.766 7  86718796.93907      1558.280 7        44.575
S36        14.000    38194455.307 7 200713757.84007      -270.078 7        43.634
C13        15.000                                                                                                                                    40809630.060 6 212506507.33306     -1009.563 6        37.558    40809631.771 6 164323545.00106      -780.593 6        39.300    40809629.451 6 172678966.56106      -820.118 6        36.049
G17        16.000    23358714.557 7 122750883.58607      2189.227 7        42.931                                    23358710.273 6  95650016.00406      1705.894 6        39.096    23358710.730 6  95650018.00206      1705.938 6        40.269
C16        17.000                                                                                                                                    39570946.809 6 206056321.26806       998.406 6        40.284    39570946.439 6 159335825.27206       772.010 6        41.824    39570944.018 6 167437633.25306       811.289 6        37.769
E27        18.000    28794754.513 5 151317441.88205     -3075.186 5        35.438                                                                    28794756.051 6 112996785.89906     -2296.542 6        36.745    28794755.224 6 115944526.41806     -2356.409 6        38.255
E05        20.000    24854959.159 6 130613719.57206     -2426.571 6        40.882                                                                    24854958.979 7  97536224.64607     -1812.168 7        44.149    24854958.769 7 100080649.89807     -1859.417 7        45.068
C41        21.000                                                                                                                                    23024825.074 8 119896338.23908      1941.769 8        48.907                                                                    23024830.381 8  97425626.00808      1577.829 8        48.804
I06        22.000    38292036.366 7 150266410.98907       -95.785 7        42.885
E03        23.000    23984436.911 7 126039087.15607       188.045 7        47.008                                                                    23984436.233 8  94120127.73508       140.409 8        50.153    23984435.909 8  96575431.87208       144.118 8        50.903
R22        24.000    19278072.919 8 102907710.36408       777.482 8        51.986                                                                    19278070.950 8  80039346.20908       604.736 8        48.937
S23        25.000    38149343.128 7 200476120.78607      -267.606 7        44.813
S45        26.000    63396219.644 6 333150269.40906      -311.850 6        37.304
G02        27.000    20691240.621 8 108733257.04708        90.665 8        49.994                                    20691233.599 7  84727204.54207        70.648 7        43.907
S27        28.000    39083632.435 5 205385958.65605      -246.372 5        35.814
C39        29.000                                                                                                                                    39251663.324 7 204393728.80807       612.766 7        42.595                                                                    39251659.404 7 166086642.57107       498.018 7        42.555
E21        30.000    27599529.145 6 145036514.74806     -2178.895 6        38.132                                                                    27599529.331 6 108306494.50206     -1627.099 6        40.739    27599528.941 6 111131877.68406     -1669.540 6        41.421
C43        31.000                                                                                                                                    25569686.471 6 133148167.20906     -3618.244 6        41.609                                                                    25569685.509 6 108193833.51406     -2940.061 6        41.886
C42        32.000                                                                                                                                    25201594.495 7 131231339.14407     -3265.560 7        42.419                                                                    25201602.348 7 106636254.64107     -2653.596 7        43.958
C28        33.000                                                                                                                                    21635997.035 8 112664326.03908     -1201.705 8        51.359                                                                    21635995.427 8  91548995.01208      -976.465 8        48.727
E34        35.000    26678081.692 6 140194464.11306     -2677.339 6        40.715                                                                    26678081.950 7 104690779.75607     -1999.241 7        44.169    26678082.158 7 107421832.63207     -2051.428 7        45.562
C14        36.000                                                                                                                                    23053785.095 7 120047121.88507     -2408.103 7        46.753    23053781.015 8  92828037.39808     -1862.037 8        50.557    23053779.619 8  97548098.58308     -1956.736 8        48.395
R21        37.000    20746502.478 8 111018779.22008     -3241.641 8        50.341                                                                    20746500.922 7  86347960.46707     -2521.335 7        45.347
R06        38.000    19891912.307 6 106147088.06106     -2471.928 6        39.925
C27        40.000                                                                                                                                    22560041.550 8 117476096.86208      1532.014 8        49.242                                                                    22560039.841 8  95458967.70308      1244.958 8        48.146
C06        41.000                                                                                                                                    39270703.091 6 204492866.45206      1111.264 6        39.111    39270697.287 7 158126836.56107       859.296 7        42.172    39270697.106 6 166167182.56106       902.943 6        39.904
S44        42.000    40527422.608 6 212973245.49406      -330.294 6        37.732
G08        43.000    23345207.508 7 122679982.25107     -3837.374 7        42.159                                    23345205.691 6  95594831.14006     -2990.162 6        38.405    23345206.532 6  95594829.13506     -2990.000 6        39.937
C05        44.000                                                                                                                                    39112081.281 6 203666909.69706      -250.416 6        38.766    39112076.087 7 157488199.23707      -193.561 7        43.613    39112077.504 6 165496151.52106      -203.372 6        40.081
G04        45.000    24890442.837 6 130800164.97006      3581.045 6        36.057                                    24890440.119 3 101922191.62703      2790.424 3        19.015    24890440.851 6 101922193.62406      2790.336 6        37.584
C33        47.000                                                                                                                                    21940186.831 8 114248339.01408      -942.899 8        50.947                                                                    21940197.902 8  92836192.30508      -766.191 8        49.930
C09        48.000                                                                                                                                    40253269.440 6 209609347.15606      1397.987 6        38.904    40253265.965 6 162083233.65006      1081.079 6        41.492    40253264.219 6 170324743.06506      1135.917 6        39.231
R07        49.000    19465642.135 8 104201162.66808      1415.999 8        52.929                                                                    19465640.493 7  81045348.36707      1101.323 7        47.601
R15        50.000    24468106.185 6 130750149.09706      2067.766 6        38.859                                                                    24468108.025 5 101694538.81805      1608.241 5        35.367
S48        51.000    77181070.395 6 405590297.64906      -281.678 6        38.117
R14        53.000    23826484.716 7 127008583.26507      -715.299 7        43.257                                                                    23826485.407 6  98784393.54606      -556.328 6        40.882
C60        54.000                                                                                                                                    40527424.426 6 211037144.56906      -327.284 6        39.742                                                                    40527408.835 6 171484937.61006      -265.936 6        40.255
R08        55.000    22846935.168 7 122344326.20107      3841.968 7        43.429                                                                    22846933.560 6  95156745.70606      2988.149 6        40.689
I09        56.000    37126387.936 7 145691960.47307      -111.681 7        43.160
C02        57.000                                                                                                                                    40519449.806 5 210995459.28305      -292.722 5        33.665    40519442.296 6 163155068.59806      -226.313 6        40.365    40519446.199 6 171451098.47406      -237.950 6        36.268
I03        58.000    76372208.642 6 223915716.51806      1109.707 6        40.689
R23        59.000    22050769.879 7 117956763.73207      3486.570 7        44.841
C30        60.000                                                                                                                                    26661884.109 6 138835427.48106      2978.155 6        39.153                                                                    26661885.438 6 112815163.99606      2419.877 6        39.300
