     3.04           OBSERVATION DATA    M                   RINEX VERSION / TYPE
ssrcrin-15.6.1x                         20250101 074500 UTC PGM / RUN BY / DATE 
(00000000023479385599111004) Septentrio proprietary         COMMENT             
ract                                                        MARKER NAME         
01                                                          MARKER NUMBER       
geodetic                                                    MARKER TYPE         
NFB                 CLIMERS@TUW                             OBSERVER / AGENCY   
3296359             SEPT ASTERX SB3 PROB4.14.4              REC # / TYPE / VERS 
Unknown             Unknown                                 ANT # / TYPE        
  4127445.9938  1206915.3247  4695543.4987                  APPROX POSITION XYZ 
        0.0000        0.0000        0.0000                  ANTENNA: DELTA H/E/N
G   23 X1  C1C L1C D1C S1C C1W S1W C2W L2W D2W S2W C2L L2L  SYS / # / OBS TYPES 
       D2L S2L C5Q L5Q D5Q S5Q C1L L1L D1L S1L              SYS / # / OBS TYPES 
E   21 X1  C1C L1C D1C S1C C6C L6C D6C S6C C5Q L5Q D5Q S5Q  SYS / # / OBS TYPES 
       C7Q L7Q D7Q S7Q C8Q L8Q D8Q S8Q                      SYS / # / OBS TYPES 
S    9 X1  C1C L1C D1C S1C C5I L5I D5I S5I                  SYS / # / OBS TYPES 
R   17 X1  C1C L1C D1C S1C C2P L2P D2P S2P C2C L2C D2C S2C  SYS / # / OBS TYPES 
       C3Q L3Q D3Q S3Q                                      SYS / # / OBS TYPES 
C   25 X1  C1P L1P D1P S1P C5P L5P D5P S5P C2I L2I D2I S2I  SYS / # / OBS TYPES 
       C7I L7I D7I S7I C6I L6I D6I S6I C7D L7D D7D S7D      SYS / # / OBS TYPES 
J   17 X1  C1C L1C D1C S1C C2L L2L D2L S2L C5Q L5Q D5Q S5Q  SYS / # / OBS TYPES 
       C1L L1L D1L S1L                                      SYS / # / OBS TYPES 
I    5 X1  C5A L5A D5A S5A                                  SYS / # / OBS TYPES 
SEPTENTRIO RECEIVERS OUTPUT ALIGNED CARRIER PHASES.         COMMENT             
NO FURTHER PHASE SHIFT APPLIED IN THE RINEX ENCODER.        COMMENT             
G L1C                                                       SYS / PHASE SHIFT   
G L2W                                                       SYS / PHASE SHIFT   
G L2L  0.00000                                              SYS / PHASE SHIFT   
G L5Q  0.00000                                              SYS / PHASE SHIFT   
G L1L  0.00000                                              SYS / PHASE SHIFT   
E L1C  0.00000                                              SYS / PHASE SHIFT   
E L6C  0.00000                                              SYS / PHASE SHIFT   
E L5Q  0.00000                                              SYS / PHASE SHIFT   
E L7Q  0.00000                                              SYS / PHASE SHIFT   
E L8Q  0.00000                                              SYS / PHASE SHIFT   
S L1C                                                       SYS / PHASE SHIFT   
S L5I                                                       SYS / PHASE SHIFT   
R L1C                                                       SYS / PHASE SHIFT   
R L2P  0.00000                                              SYS / PHASE SHIFT   
R L2C                                                       SYS / PHASE SHIFT   
R L3Q  0.00000                                              SYS / PHASE SHIFT   
C L1P  0.00000                                              SYS / PHASE SHIFT   
C L5P  0.00000                                              SYS / PHASE SHIFT   
C L2I                                                       SYS / PHASE SHIFT   
C L7I                                                       SYS / PHASE SHIFT   
C L6I                                                       SYS / PHASE SHIFT   
C L7D                                                       SYS / PHASE SHIFT   
J L1C                                                       SYS / PHASE SHIFT   
J L2L  0.00000                                              SYS / PHASE SHIFT   
J L5Q  0.00000                                              SYS / PHASE SHIFT   
J L1L  0.00000                                              SYS / PHASE SHIFT   
I L5A                                                       SYS / PHASE SHIFT   
  2025     1     1     7    45    0.0000000     GPS         TIME OF FIRST OBS   
 C1C    0.000 C2C    0.000 C2P    0.000                     GLONASS COD/PHS/BIS 
DBHZ                                                        SIGNAL STRENGTH UNIT
    18                                                      LEAP SECONDS        
 24 R01  1 R02 -4 R03  5 R04  6 R05  1 R06 -4 R07  5 R08  6 GLONASS SLOT / FRQ #
    R09 -2 R10 -7 R11  0 R12 -1 R13 -2 R14 -7 R15  0 R16 -1 GLONASS SLOT / FRQ #
    R17  4 R18 -3 R19  3 R20  2 R21  4 R22 -3 R23  3 R24  2 GLONASS SLOT / FRQ #
                                                            END OF HEADER       
> 2025 01 01 07 45  0.0000000  0 32
G18         1.000                                                                                                                                                                    24974704.634 5 102267253.36305      -651.979 5        33.413
G13         2.000    20692919.821 6 108741997.17606      1121.718 6        41.959                                    20692915.388 3  84733941.91403       874.068 3        20.643
G30         3.000    20772050.262 7 109157825.76207     -2031.497 7        47.430                                    20772049.964 7  85057991.53907     -1582.986 7        42.629    20772051.134 6  85058090.54506     -1583.024 6        40.906
G14         4.000    21140767.959 7 111095507.95707      1119.006 7        47.666                                    21140767.169 6  86567943.35006       871.956 6        36.601    21140767.957 7  86567900.33507       871.972 7        46.561
G07         5.000    23009044.653 6 120913492.74406     -3326.757 6        40.300                                    23009051.167 3  94218216.79003     -2592.275 3        20.714    23009056.457 5                     -2592.191 5        31.109
G15         6.000    23167353.203 6 121745292.12606      2683.021 6        38.712                                    23167365.687 1  94866520.10101      2090.706 1        11.704    23167347.315 4  94866424.31204      2090.655 4        27.126
G05         7.000    21118364.661 7 110978091.56007     -1456.596 7        44.989                                    21118361.563 6  86476153.64606     -1135.007 6        38.787    21118362.745 6  86476181.63506     -1135.018 6        40.939
G08         9.000    24195596.979 4 127148787.21704      -898.968 4        25.940
G20        11.000    21997579.144 5 115598029.59905     -3581.580 5        32.503                                    21997576.710 1  90076403.92301     -2790.836 1         4.429
E02        13.000    27118077.087 4                      2407.642 4        25.579                                                                    27118070.861 4 106417153.31304      1798.178 4        27.653    27118083.649 5 109193260.85005      1844.711 5        32.234
E25        14.000    24218971.424 6 127271540.75506       829.465 6        40.608                                                                    24218975.581 7  95040557.11507       619.506 7        45.443    24218973.254 7  97519801.15707       635.584 7        43.820
E24        15.000    25407034.131 7 133514882.54807     -2035.165 7        46.006                                                                    25407038.201 7  99702626.96807     -1519.833 7        43.354    25407036.900 7 102303680.93507     -1559.450 7        46.320
E15        16.000                                                                                                                                    27899309.360 4                     -2709.938 4        28.929    27899346.583 4                     -2780.869 4        28.095
E08        17.000    26061942.294 6 136956563.39506      1495.099 6        38.114                                                                    26061952.079 6 102272647.87506      1116.454 6        36.208    26061941.897 5 104940651.69005      1145.676 5        35.043
E05        21.000    23547553.153 5 123743338.64305     -2737.612 5        35.557                                                                    23547561.468 7  92405684.29807     -2044.312 7        42.082    23547595.198 4                     -2097.571 4        28.322
E13        22.000                                                                                                                                    27161635.275 4 106588073.13104     -1472.142 4        28.256    27161611.455 5 109368576.26605     -1510.200 5        32.479
S23        24.000    38165178.398 6 200559307.97306      -815.253 6        38.865
E03        27.000    23315540.303 7 122523970.23107      -451.075 7        46.990                                                                    23315543.523 8  91495154.50408      -336.937 8        48.738    23315542.568 7  93882004.47807      -345.631 7        47.271
R11        28.000    19318013.987 8 103229666.85808       420.191 8        49.862                                                                    19318014.178 7  80289694.29907       326.761 7        46.124
R17        29.000    24096172.341 5 128943670.26305     -3432.974 5        31.608
R10        30.000    20580391.734 6 109705042.95906     -3733.121 6        37.667
R12        31.000    23119005.319 6 123497804.92706      3401.879 6        39.901                                                                    23119011.373 6  96053697.14506      2645.917 6        36.726
R08        35.000    20284253.757 7 108621249.04807     -3332.208 7        44.414                                                                    20284258.444 6  84483204.13606     -2591.606 6        41.578
C26        37.000                                                                                                                                    24825334.991 5 129272089.90605      2262.186 5        34.010                                                                    24825344.854 5                      1838.433 5        31.894
R01        38.000    19503982.933 7 104259930.39407       880.362 7        46.042                                                                    19503984.145 6  81091087.11806       684.596 6        36.722
R18        39.000    23618930.948 5 126079398.01205      -831.244 5        32.060                                                                    23618922.739 4                      -646.619 4        27.856
C42        41.000                                                                                                                                    24754387.010 6 128902546.81906      2035.769 6        38.444                                                                    24754392.776 7 104743933.72407      1654.341 7        42.590
C36        42.000                                                                                                                                    23051473.920 6 120035111.12106     -2998.726 6        41.092                                                                    23051481.380 7  97538322.07407     -2436.775 7        43.173
C40        44.000                                                                                                                                    39497187.224 4 205672113.77204       357.523 4        29.081
C21        47.000                                                                                                                                    22005675.135 8 114589274.54108      -384.539 8        49.872                                                                    22005670.390 7  93113160.53707      -312.437 7        44.948
C45        49.000                                                                                                                                    21686043.950 8 112924866.72608      -143.304 8        48.394                                                                    21686037.716 7  91760692.78907      -116.432 7        46.638
C22        50.000                                                                                                                                    23039084.457 6 119970416.27706     -3363.965 6        38.222                                                                    23039076.196 6  97485763.80306     -2733.408 6        41.836
> 2025 01 01 07 45  5.0000000  0 32
G18         1.000                                                                                                                                                                    24975503.091 5 102270519.36605      -654.594 5        33.509
G13         2.000    20691853.528 7 108736391.71907      1120.225 7        42.074                                    20691848.880 3  84729574.00703       872.874 3        20.000
G30         3.000    20773984.118 8 109167987.02708     -2033.015 8        48.332                                    20773983.766 7  85065909.39807     -1584.169 7        43.338    20773984.682 6  85066008.39706     -1584.329 6        41.244
G14         4.000    21139704.610 7 111089918.61307      1116.608 7        47.987                                    21139703.499 6  86563588.00806       870.090 6        36.578    21139704.046 7  86563545.01107       869.997 7        45.729
G07         5.000    23012209.493 6 120930127.31606     -3327.192 6        38.976                                    23012217.282 3  94231178.76703     -2592.585 3        20.095    23012216.472 5                     -2592.823 5        30.332
G15         6.000    23164800.423 6 121731878.17806      2682.320 6        40.265                                    23164812.587 1  94856067.67101      2090.114 1        11.037    23164795.258 4  94855971.75704      2090.482 4        24.075
G05         7.000    21119752.157 7 110985382.24207     -1459.763 7        44.770                                    21119749.442 6  86481834.69006     -1137.475 6        38.538    21119750.504 6  86481862.68606     -1137.539 6        41.366
G08         9.000    24196452.961 4                      -903.328 4        25.173
E02        13.000    27115784.433 4                      2407.890 4        27.665                                                                    27115781.707 4 106408163.30604      1798.236 4        28.417    27115793.677 5 109184036.27005      1844.834 5        31.623
E25        14.000    24218183.646 6 127267396.96506       827.828 6        41.688                                                                    24218187.018 7  95037462.72807       618.226 7        45.211    24218184.647 7  97516626.04607       634.280 7        43.706
E24        15.000    25408971.638 7 133525062.95107     -2037.080 7        46.299                                                                    25408975.368 7  99710229.19707     -1521.259 7        43.661    25408974.232 7 102311481.48707     -1560.908 7        46.526
E15        16.000                                                                                                                                    27902765.495 4                     -2710.208 4        29.137    27902795.819 4                     -2781.087 4        28.095
E08        17.000    26060520.349 6 136949088.14406      1494.790 6        37.822                                                                    26060528.825 6 102267065.66006      1116.231 6        37.388    26060520.221 5 104934923.89405      1145.481 5        35.357
E05        21.000    23550157.157 5 123757028.22905     -2738.373 5        34.762                                                                    23550166.150 6  92415907.00306     -2044.847 6        41.919    23550202.159 4                     -2098.515 4        27.521
E13        22.000                                                                                                                                    27163512.283 4 106595436.84304     -1473.953 4        25.429    27163488.815 5 109376132.07305     -1511.878 5        32.072
S23        24.000    38165952.373 6 200563384.03906      -815.194 6        38.468
E03        27.000    23315969.887 7 122526228.04407      -452.093 7        46.962                                                                    23315973.119 8  91496840.51508      -337.631 8        48.691    23315972.375 7  93883734.48907      -346.475 7        47.437
R11        28.000    19317622.046 8 103227574.90308       416.546 8        49.449                                                                    19317622.412 7  80288067.22307       323.915 7        44.773
R17        29.000    24099384.598 5 128960839.84205     -3435.007 5        34.662
R10        30.000    20583894.680 6 109723713.71006     -3735.358 6        39.559
R12        31.000    23115822.127 6 123480797.14006      3401.071 6        40.150                                                                    23115826.636 6  96040468.89106      2645.414 6        36.556
R08        35.000    20287365.422 7 108637915.93007     -3334.794 7        43.784                                                                    20287369.663 6  84496167.24506     -2593.704 6        40.367
C26        37.000                                                                                                                                    24823165.093 5 129260779.95305      2261.726 5        34.810                                                                    24823172.379 5                      1837.597 5        32.245
R01        38.000    19503160.531 7 104255535.53107       877.442 7        45.439                                                                    19503162.134 5  81087668.90205       682.381 5        35.490
R18        39.000                                                                                                                                    23619702.997 5                      -649.770 5        31.087
C42        41.000                                                                                                                                    24752431.658 6 128892368.92906      2035.140 6        36.541                                                                    24752438.341 7 104735663.31107      1653.669 7        42.472
C36        42.000                                                                                                                                    23054356.219 7 120050107.77907     -2999.955 7        42.489                                                                    23054361.499 7  97550508.05607     -2437.692 7        42.897
R02        43.000                                                                                                                                    23123335.667 4  95970542.74114      2444.949 4        25.940
C40        44.000                                                                                                                                    39496844.426 5 205670327.50205       356.741 5        31.208
C21        47.000                                                                                                                                    22006045.264 8 114591202.32808      -386.679 8        50.494                                                                    22006040.618 7  93114727.01207      -314.282 7        44.506
C45        49.000                                                                                                                                    21686183.261 8 112925588.05408      -145.405 8        48.072                                                                    21686176.260 7  91761278.92107      -118.169 7        46.608
C22        50.000                                                                                                                                    23042312.868 6 119987238.71406     -3365.197 6        38.168                                                                    23042306.917 6  97499433.36706     -2734.523 6        41.387
> 2025 01 01 07 45 10.0000000  0 31
G18         1.000    24976263.329 4                      -842.668 4        28.483                                                                                                    24976302.889 5 102273797.39605      -656.826 5        32.862
G13         2.000    20690789.599 6 108730795.02106      1118.333 6        39.913                                    20690784.289 3  84725212.96103       871.448 3        18.657
G30         3.000    20775919.883 8 109178157.42308     -2034.972 8        48.556                                    20775919.263 7  85073834.37607     -1585.685 7        43.708    20775919.972 6  85073933.36206     -1585.486 6        41.130
G14         4.000    21138643.472 7 111084342.61207      1113.830 7        47.114                                    21138642.330 6  86559243.05806       867.929 6        36.318    21138642.862 7  86559200.05807       867.960 7        44.895
G07         5.000    23015375.926 6 120946765.46306     -3328.114 6        36.537                                    23015383.656 3  94244143.51503     -2593.334 3        18.836    23015379.448 5                     -2592.887 5        30.408
G15         6.000    23162247.065 6 121718468.33206      2681.639 6        39.865                                    23162260.315 1  94845618.37701      2089.591 1         9.524
G05         7.000    21121142.878 7 110992690.49607     -1463.494 7        43.331                                    21121140.765 6  86487529.42106     -1140.383 6        38.336    21121141.512 7  86487557.41807     -1140.354 7        42.036
G08         9.000    24197315.184 4                      -905.272 4        25.835
E02        13.000                                                                                                                                    27113491.671 5 106399174.57605      1797.427 5        30.015    27113503.312 5 109174812.98905      1844.387 5        31.547
E25        14.000    24217397.114 7 127263263.51207       825.628 7        42.254                                                                    24217400.492 7  95034376.04907       616.535 7        45.049    24217397.962 7  97513458.85007       632.604 7        43.600
E24        15.000    25410911.001 7 133535254.09307     -2039.260 7        46.372                                                                    25410914.499 7  99717839.44107     -1522.816 7        43.790    25410913.611 7 102319290.27007     -1562.564 7        46.741
E15        16.000                                                                                                                                    27906225.445 4                     -2710.499 4        29.469    27906251.556 4                     -2781.094 4        27.629
E08        17.000    26059098.619 6 136941614.72906      1494.560 6        37.486                                                                    26059106.501 6 102261484.82106      1116.095 6        38.486    26059098.769 5 104929197.54105      1144.977 5        35.148
E05        21.000    23552762.300 5 123770722.71905     -2739.327 5        35.271                                                                    23552771.822 7  92426133.40007     -2045.720 7        42.045    23552807.894 4                     -2099.077 4        27.952
E13        22.000                                                                                                                                    27165389.279 4 106602808.82804     -1475.172 4        24.602    27165368.856 5 109383696.40605     -1513.686 5        32.018
S23        24.000    38166727.565 6 200567459.97806      -815.254 6        38.342
E03        27.000    23316400.686 7 122528492.36007      -453.564 7        46.793                                                                    23316403.921 8  91498531.38908      -338.721 8        48.506    23316403.414 7  93885469.46707      -347.516 7        47.564
R11        28.000    19317233.853 8 103225502.53708       412.429 8        48.999                                                                    19317234.325 7  80286455.37507       320.769 7        43.280
R10        30.000    20587402.163 6 109742397.67406     -3738.094 6        40.567
R12        31.000    23112639.425 6 123463794.68506      3399.921 6        40.465                                                                    23112642.844 6  96027244.78706      2644.257 6        36.541
R08        35.000    20290482.958 7 108654597.21607     -3337.734 7        44.211                                                                    20290483.383 6  84509141.57306     -2596.047 6        38.838
C26        37.000                                                                                                                                    24820994.531 5 129249474.79805      2260.438 5        34.471                                                                    24821001.304 5                      1836.900 5        32.335
R01        38.000    19502341.173 7 104251155.99407       874.408 7        46.236                                                                    19502341.691 5  81084262.61805       680.031 5        34.390
R18        39.000                                                                                                                                    23620492.002 5                      -653.052 5        33.737
C42        41.000                                                                                                                                    24750476.111 5 128882195.95005      2033.936 5        34.571                                                                    24750484.902 7 104727396.85907      1653.049 7        42.116
C36        42.000                                                                                                                                    23057238.408 7 120065111.93007     -3001.576 7        44.448                                                                    23057242.936 7  97562700.14107     -2438.901 7        42.711
R02        43.000                                                                                                                                    23120401.208 4  95958320.67404      2444.374 4        29.611
C40        44.000                                                                                                                                    39496501.405 5 205668545.85405       355.917 5        31.396
C21        47.000                                                                                                                                    22006417.958 8 114593142.45908      -389.253 8        50.991                                                                    22006413.135 7  93116303.49607      -316.184 7        44.202
C45        49.000                                                                                                                                    21686323.753 7 112926321.23607      -147.806 7        47.663                                                                    21686317.072 7  91761874.66807      -120.008 7        46.653
C22        50.000                                                                                                                                    23045543.269 6 120004069.66806     -3367.086 6        39.237                                                                    23045539.305 6  97513109.85206     -2735.795 6        41.325
> 2025 01 01 07 45 15.0000000  0 32
G18         1.000                                                                                                                                                                    24977107.306 5 102277087.02205      -659.086 5        33.263
G13         2.000    20689728.872 6 108725206.51606      1116.573 6        37.070                                    20689720.700 2  84720858.26402       870.041 2        15.667
G30         3.000    20777856.180 8 109188336.35808     -2036.663 8        48.150                                    20777856.334 7  85081766.00407     -1587.007 7        43.507    20777856.862 6  85081865.00206     -1587.012 6        41.061
G14         4.000    21137584.904 7 111078779.41407      1111.328 7        47.272                                    21137583.570 5  86554908.08805       865.974 5        35.824    21137584.470 7  86554865.09107       866.049 7        44.581
G07         5.000    23018541.973 5 120963406.56505     -3328.664 5        32.886                                    23018550.262 3  94257110.58303     -2593.775 3        18.418    23018545.737 4                     -2593.623 4        29.109
G15         6.000    23159693.624 6 121705062.12506      2680.973 6        39.021                                    23159708.762 1  94835172.05301      2089.083 1         9.238    23159692.776 4  94835076.17804      2088.790 4        25.203
G05         7.000    21122537.350 7 111000015.77307     -1466.728 7        42.667                                    21122535.362 6  86493237.42006     -1142.895 6        38.387    21122535.853 7  86493265.40007     -1142.889 7        42.713
G08         9.000    24198172.399 4                      -907.294 4        26.132
G20        11.000    22007835.384 6 115651797.84906     -3587.661 6        36.457                                    22007807.782 1  90118300.87301     -2795.591 1         5.714
E02        13.000    27111190.838 4                      2407.113 4        29.943                                                                    27111202.659 5 106390186.62305      1797.768 5        30.958    27111214.071 5 109165590.56505      1844.258 5        31.374
E25        14.000    24216612.516 7 127259139.82307       823.706 7        42.006                                                                    24216615.887 7  95031296.65807       615.121 7        45.070    24216613.398 7  97510299.12507       631.128 7        43.642
E24        15.000    25412852.233 7 133545455.41407     -2041.303 7        46.296                                                                    25412855.663 7  99725457.29407     -1524.380 7        44.122    25412854.821 7 102327106.85007     -1564.186 7        46.790
E15        16.000    27909677.374 3                     -3632.822 3        19.164                                                                    27909684.263 5                     -2710.962 5        30.272    27909712.726 4                     -2781.662 4        28.161
E08        17.000    26057676.890 6 136934142.65606      1494.230 6        37.410                                                                    26057684.547 6 102255904.97206      1115.895 6        39.258    26057677.542 5 104923472.14605      1144.946 5        35.367
E05        21.000    23555370.108 5 123784421.60105     -2740.352 5        35.595                                                                    23555378.502 7  92436363.05507     -2046.273 7        42.040    23555413.459 4                     -2099.771 4        28.919
E13        22.000                                                                                                                                    27167268.525 4 106610188.83404     -1477.109 4        24.030    27167251.233 5 109391268.86405     -1515.045 5        31.630
S23        24.000    38167501.272 6 200571535.39506      -815.039 6        38.240
E03        27.000    23316832.536 7 122530762.60607      -454.692 7        46.636                                                                    23316835.935 8  91500226.69508      -339.588 8        48.371    23316835.508 7  93887209.00307      -348.388 7        47.686
R11        28.000    19316849.441 8 103223449.17508       408.754 8        49.002                                                                    19316850.679 7  80284858.31507       317.830 7        42.231
R10        30.000    20590908.563 6 109761094.11006     -3740.654 6        41.132
R12        31.000    23109458.359 6 123446797.12506      3399.010 6        40.617                                                                    23109460.373 5  96014024.48605      2643.715 5        35.886
R08        35.000    20293601.331 7 108671292.36807     -3340.413 7        44.181                                                                    20293600.496 6  84522126.65706     -2598.191 6        38.276
C26        37.000                                                                                                                                    24818823.973 5 129238173.82705      2259.670 5        33.060                                                                    24818831.247 5                      1836.241 5        32.802
R01        38.000    19501525.555 7 104246791.31407       871.360 7        46.771                                                                    19501525.247 5  81080867.81005       677.713 5        34.548
R18        39.000                                                                                                                                    23621281.457 5  98071555.07515      -656.465 5        35.705
C42        41.000                                                                                                                                    24748520.929 5 128872027.30605      2033.248 5        32.958                                                                    24748531.976 6 104719133.99006      1652.247 6        41.936
C36        42.000                                                                                                                                    23060120.548 7 120080123.00407     -3002.943 7        46.002                                                                    23060125.856 7  97574897.91107     -2440.189 7        42.161
R02        43.000                                                                                                                                    23117456.643 5  95946099.41205      2444.233 5        31.887
C40        44.000                                                                                                                                    39496158.900 5 205666768.22105       355.459 5        30.747
C21        47.000                                                                                                                                    22006792.925 8 114595094.38008      -391.594 8        51.317                                                                    22006787.927 7  93117889.59707      -318.125 7        44.256
C45        49.000                                                                                                                                    21686466.249 7 112927065.70707      -150.081 7        47.462                                                                    21686459.971 7  91762479.63207      -121.858 7        46.611
C22        50.000                                                                                                                                    23048777.571 6 120020908.57806     -3368.700 6        39.682                                                                    23048773.532 6  97526792.85206     -2737.227 6        41.251
> 2025 01 01 07 45 20.0000000  0 32
G18         1.000                                                                                                                                                                    24977913.435 5 102280388.25805      -661.633 5        33.018
G13         2.000    20688669.920 5 108719626.14905      1115.059 5        34.062                                    20688658.882 2  84716510.01502       868.852 2        14.000
G30         3.000    20779794.077 7 109198523.84907     -2038.365 7        47.317                                    20779794.944 7  85089704.29707     -1588.332 7        43.310    20779795.684 6  85089803.27706     -1588.300 6        40.694
G14         4.000    21136529.111 7 111073229.02807      1108.772 7        47.969                                    21136527.310 5  86550583.09705       863.976 5        35.643    21136528.187 7  86550540.11507       864.006 7        44.369
G07         5.000    23021708.946 5 120980050.59605     -3328.703 5        32.060                                    23021717.244 3  94270079.92603     -2593.792 3        18.298    23021712.276 4                     -2594.039 4        28.303
G15         6.000    23157141.701 6 121691659.53606      2680.216 6        39.655                                    23157157.809 2  94824728.47402      2088.461 2        12.545    23157145.266 4  94824632.53104      2089.027 4        25.083
G05         7.000    21123934.799 7 111007358.08307     -1470.200 7        44.325                                    21123933.155 6  86498958.68306     -1145.608 6        38.919    21123932.656 7  86498986.65607     -1145.578 7        42.432
G20        11.000    22011246.275 5 115669740.84205     -3589.788 5        34.219                                    22011221.924 1  90132282.38901     -2797.118 1         7.250
E02        13.000    27108901.787 5                      2406.892 5        30.370                                                                    27108913.737 5 106381199.59105      1797.403 5        31.834    27108925.379 5 109156368.99705      1844.550 5        31.268
E25        14.000    24215829.596 7 127255025.89707       821.732 7        42.248                                                                    24215833.233 7  95028224.56507       613.540 7        45.172    24215830.670 7  97507146.88207       629.642 7        43.445
E24        15.000    25414795.522 7 133555666.92807     -2043.384 7        46.390                                                                    25414798.719 7  99733082.75307     -1525.891 7        44.346    25414797.925 7 102334931.23207     -1565.672 7        46.834
E15        16.000                                                                                                                                    27913137.393 4                     -2711.256 4        29.621    27913170.851 4                     -2781.989 4        27.545
E08        17.000    26056255.347 6 136926671.90106      1493.983 6        37.437                                                                    26056261.866 6 102250326.12706      1115.584 6        39.613    26056258.072 5 104917747.78905      1144.612 5        35.414
E05        21.000    23557978.626 6 123798124.86406     -2741.085 6        36.578                                                                    23557985.957 7  92446595.99907     -2046.867 7        42.163    23558020.160 4                     -2100.442 4        29.460
E13        22.000                                                                                                                                    27169151.693 3                     -1478.608 3        23.924    27169134.083 5 109398849.49105     -1516.907 5        32.036
S23        24.000    38168280.805 6 200575610.32206      -814.863 6        38.435
E03        27.000    23317265.461 7 122533038.80807      -455.885 7        46.512                                                                    23317269.020 8  91501926.44008      -340.433 8        48.269    23317268.667 7  93888953.09207      -349.275 7        47.819
R11        28.000    19316469.370 8 103221414.92308       404.901 8        49.233                                                                    19316470.287 6  80283276.09106       314.870 6        41.452
R17        29.000    24109065.646 5 129012429.99405     -3443.418 5        30.491                                                                    24109023.871 3                     -2679.379 3        23.143
R10        30.000    20594418.155 6 109779803.03106     -3743.030 6        40.760
R12        31.000    23106276.908 6 123429804.44906      3397.976 6        40.381                                                                    23106279.069 5  96000807.98705      2642.896 5        34.448
R08        35.000    20296721.471 7 108688001.32707     -3343.119 7        43.691                                                                    20296720.960 6  84535122.48206     -2600.146 6        38.465
C26        37.000                                                                                                                                    24816651.680 5 129226877.08505      2259.150 5        30.181                                                                    24816662.256 5                      1835.625 5        33.114
R01        38.000    19500712.232 7 104242441.44107       868.479 7        47.195                                                                    19500712.216 6  81077484.54306       675.617 6        36.253
R18        39.000                                                                                                                                    23622077.288 5  98074844.24205      -659.481 5        34.976
C42        41.000                                                                                                                                    24746565.954 5 128861862.99005      2032.418 5        33.281                                                                    24746579.845 6 104710874.60906      1651.676 6        41.180
C36        42.000                                                                                                                                    23063003.495 7 120095141.03907     -3004.318 7        46.861                                                                    23063009.835 6  97587101.26906     -2441.323 6        41.981
R02        43.000                                                                                                                                    23114512.832 5                      2444.173 5        32.862
C40        44.000                                                                                                                                    39495816.588 5 205664994.72605       353.801 5        31.102
C21        47.000                                                                                                                                    22007170.063 8 114597058.10808      -393.932 8        51.637                                                                    22007164.983 7  93119485.25907      -320.126 7        44.126
C45        49.000                                                                                                                                    21686611.439 7 112927821.47907      -152.293 7        47.641                                                                    21686605.051 7  91763093.72707      -123.808 7        46.766
C22        50.000                                                                                                                                    23052012.692 6 120037755.46306     -3370.359 6        39.036                                                                    23052009.339 6  97540482.26506     -2738.434 6        41.630
> 2025 01 01 07 45 25.0000000  0 32
G18         1.000    24978734.356 5                      -852.168 5        30.913                                                                                                    24978722.414 5 102283701.82105      -663.659 5        31.660
G13         2.000    20687611.343 5 108714055.05905      1113.593 5        32.790                                    20687598.893 1  84712169.01001       867.627 1        11.481
G30         3.000    20781734.438 7 109208720.94407     -2040.308 7        46.690                                    20781735.315 7  85097650.07207     -1589.844 7        42.950    20781736.040 6  85097749.05406     -1589.941 6        40.822
G14         4.000    21135475.543 8 111067692.51408      1106.015 8        48.266                                    21135473.765 5  86546268.92205       861.833 5        35.429    21135474.217 7  86546225.93707       861.846 7        44.001
G07         5.000    23024878.200 5 120996698.68005     -3329.761 5        32.850                                    23024884.932 3  94283052.43003     -2594.618 3        19.254    23024880.040 4                     -2594.628 4        27.521
G15         6.000    23154593.870 6 121678261.58506      2679.217 6        41.356                                    23154607.289 2  94814288.47202      2087.708 2        14.762    23154596.955 4  94814192.47604      2088.027 4        27.820
G05         7.000    21125335.936 7 111014718.46907     -1473.825 7        45.490                                    21125334.204 6  86504694.03606     -1148.434 6        39.784    21125333.401 7  86504722.02407     -1148.359 7        42.190
G20        11.000    22014663.729 4 115687694.88204     -3591.643 4        27.042                                    22014638.293 1  90146272.35101     -2798.438 1         4.571
E02        13.000    27106613.287 5                      2406.224 5        31.042                                                                    27106623.747 5 106372214.14505      1797.094 5        32.760    27106636.426 5 109147149.15305      1843.460 5        31.019
E25        14.000    24215048.456 7 127250922.79607       819.545 7        42.055                                                                    24215052.442 7  95025160.53507       612.088 7        45.333    24215050.064 7  97504002.94407       627.971 7        43.236
E24        15.000    25416740.819 7 133565889.65907     -2045.595 7        46.375                                                                    25416743.955 7  99740716.59007     -1527.539 7        44.628    25416743.270 7 102342764.21007     -1567.319 7        46.679
E15        16.000                                                                                                                                    27916591.998 4                     -2711.690 4        29.232    27916626.337 4                     -2782.672 4        26.994
E08        17.000    26054833.729 6 136919203.49306      1493.569 6        37.505                                                                    26054839.969 6 102244749.04906      1115.140 6        40.122    26054841.816 5 104912025.19905      1144.590 5        35.967
E05        21.000    23560588.550 6 123811833.55006     -2742.122 6        38.105                                                                    23560594.371 7  92456833.00407     -2047.794 7        42.140    23560628.851 4                     -2101.474 4        26.299
E13        22.000    27171015.826 5 142784655.71215     -1982.469 5        32.072                                                                    27171043.793 4                     -1479.693 4        24.105    27171019.701 5 109406439.03405     -1518.790 5        31.102
S23        24.000    38169054.664 6 200579685.59206      -815.019 6        38.063
E03        27.000    23317699.916 7 122535321.99507      -457.244 7        46.603                                                                    23317703.431 8  91503631.40008      -341.464 8        48.103    23317703.171 7  93890702.54107      -350.350 7        47.806
R11        28.000    19316092.629 8 103219400.70008       400.911 8        49.550                                                                    19316093.422 6  80281709.45906       311.920 6        41.306
R17        29.000    24112288.066 5 129029654.40605     -3446.479 5        31.502                                                                    24112246.918 4                     -2680.819 4        27.856
R10        30.000    20597929.742 6 109798525.54806     -3745.708 6        40.508
R12        31.000    23103097.476 6 123412817.77606      3396.921 6        40.262                                                                    23103099.772 5  95987596.15705      2641.679 5        33.245
R08        35.000    20299844.379 6 108704725.19306     -3346.189 6        41.371                                                                    20299844.062 6  84548129.95206     -2602.665 6        38.426
C26        37.000                                                                                                                                    24814479.795 4 129215585.62304      2257.913 4        25.789                                                                    24814493.054 5                      1834.445 5        33.138
R01        38.000    19499901.299 7 104238107.46107       865.264 7        46.793                                                                    19499902.251 6  81074113.67606       672.801 6        36.783
R18        39.000                                                                                                                                    23622877.023 5  98078150.23405      -662.937 5        33.748
C42        41.000                                                                                                                                    24744617.775 6 128851704.09106      2031.380 6        36.284                                                                    24744628.583 6 104702619.70906      1650.618 6        40.570
C36        42.000                                                                                                                                    23065888.168 7 120110167.05507     -3005.928 7        47.238                                                                    23065895.206 6  97599311.14606     -2442.598 6        41.235
R02        43.000    23111561.423 3                      3144.037 3        22.210                                                                    23111568.988 5  95921660.13715      2443.504 5        33.539
C40        44.000                                                                                                                                    39495480.588 5 205663226.22105       353.029 5        30.143
C21        47.000                                                                                                                                    22007549.558 8 114599034.67608      -396.536 8        51.657                                                                    22007544.532 7  93121091.39107      -322.214 7        43.920
C45        49.000                                                                                                                                    21686758.749 7 112928589.58807      -154.841 7        47.499                                                                    21686752.641 7  91763717.89507      -125.796 7        46.868
C22        50.000                                                                                                                                    23055246.375 6 120054611.32806     -3371.905 6        38.721                                                                    23055246.737 6  97554179.05606     -2740.092 6        41.633
> 2025 01 01 07 45 30.0000000  0 32
G18         1.000    24979531.298 5                      -855.429 5        30.075                                                                                                    24979533.680 5 102287027.81905      -666.584 5        32.341
G13         2.000    20686551.070 5 108708493.20105      1111.658 5        34.505                                    20686540.505 1  84707835.14601       866.210 1        10.518
G30         3.000    20783676.592 7 109218927.48007     -2042.114 7        46.667                                    20783677.484 7  85105603.20207     -1591.253 7        42.466    20783678.168 6  85105702.17806     -1591.173 6        41.044
G14         4.000    21134424.454 8 111062169.72708      1103.209 8        48.736                                    21134422.728 5  86541965.44305       859.645 5        35.157    21134423.538 7  86541922.46107       859.643 7        43.314
G07         5.000    23028047.905 5 121013350.62805     -3330.685 5        34.286                                    23028053.001 3  94296027.93103     -2595.333 3        19.403    23028047.778 5                     -2595.463 5        30.204
G15         6.000    23152047.852 7 121664868.14807      2678.281 7        42.404                                    23152056.604 3  94803852.01503      2086.979 3        18.448    23152050.916 5  94803756.02705      2086.924 5        30.498
G05         7.000    21126739.840 7 111022096.71807     -1477.470 7        45.571                                    21126738.423 6  86510443.31106     -1151.274 6        40.169    21126736.821 6  86510471.30506     -1151.248 6        41.769
G20        11.000    22018082.231 3                     -3594.913 3        23.181
E02        13.000    27104324.192 5                      2406.013 5        31.223                                                                    27104334.286 5 106363230.25105      1796.496 5        33.425    27104348.268 5 109137930.83205      1843.609 5        30.853
E25        14.000    24214269.433 7 127246830.37407       817.441 7        42.157                                                                    24214273.700 7  95022104.50307       610.427 7        45.761    24214271.327 7  97500867.17707       626.460 7        43.261
E24        15.000    25418688.071 7 133576123.46207     -2047.870 7        45.988                                                                    25418691.237 7  99748358.69607     -1529.227 7        44.626    25418690.586 7 102350605.67907     -1569.111 7        46.574
E15        16.000                                                                                                                                    27920048.223 4                     -2711.690 4        29.100    27920082.020 4                     -2782.350 4        26.395
E08        17.000    26053412.943 6 136911737.35206      1492.987 6        37.792                                                                    26053419.323 6 102239173.62806      1114.902 6        40.646    26053424.949 5 104906304.33405      1144.094 5        35.848
E05        21.000    23563199.284 6 123825547.54606     -2743.348 6        39.670                                                                    23563203.956 7  92467073.94607     -2048.515 7        42.045    23563238.186 3                     -2102.105 3        22.667
E13        22.000    27172905.042 5 142794572.18905     -1984.406 5        32.820                                                                    27172937.128 4                     -1481.969 4        27.413    27172906.403 5 109414037.37505     -1520.326 5        30.204
S23        24.000    38169831.524 6 200583761.11906      -815.218 6        38.703
E03        27.000    23318135.561 7 122537612.02807      -458.619 7        46.887                                                                    23318139.232 8  91505341.48108      -342.481 8        48.014    23318138.927 7  93892457.23207      -351.384 7        47.885
R11        28.000    19315719.571 8 103217406.45008       396.926 8        50.109                                                                    19315720.253 7  80280158.39707       308.667 7        42.779
R17        29.000                                                                                                                                    24115467.094 4                     -2682.374 4        28.900
R10        30.000    20601444.477 6 109817261.31506     -3748.421 6        41.471
R12        31.000    23099916.379 6 123395836.90906      3395.538 6        39.604                                                                    23099922.000 5  95974388.81605      2640.908 5        33.114
R08        35.000    20302972.597 6 108721463.78306     -3349.125 6        41.552                                                                    20302971.116 6  84561148.85706     -2604.982 6        37.762
C26        37.000                                                                                                                                    24812312.066 4 129204299.06004      2257.838 4        25.654                                                                    24812324.661 5                      1833.903 5        33.671
R01        38.000    19499092.975 7 104233789.33107       862.089 7        46.785                                                                    19499094.294 6  81070755.12406       670.497 6        37.168
R18        39.000                                                                                                                                    23623682.614 5  98081472.95305      -666.177 5        31.434
C42        41.000                                                                                                                                    24742667.390 6 128841550.46206      2030.164 6        38.820                                                                    24742678.249 6 104694369.05406      1649.938 6        39.616
C36        42.000                                                                                                                                    23068774.352 7 120125200.91107     -3007.566 7        47.062                                                                    23068781.858 6  97611527.36006     -2443.701 6        40.150
R02        43.000    23108620.852 4                      3141.160 4        26.515                                                                    23108621.028 5  95909442.79515      2443.401 5        32.114
C40        44.000                                                                                                                                    39495146.308 4 205661462.63804       352.574 4        29.858
C21        47.000                                                                                                                                    22007931.501 8 114601023.96308      -399.138 8        51.071                                                                    22007926.594 7  93122707.83007      -324.203 7        43.970
C45        49.000                                                                                                                                    21686908.521 7 112929369.88507      -157.250 7        47.247                                                                    21686902.409 7  91764351.94807      -127.712 7        46.974
C22        50.000                                                                                                                                    23058483.951 6 120071476.07006     -3373.831 6        37.422                                                                    23058485.515 6  97567883.00106     -2741.461 6        41.268
> 2025 01 01 07 45 35.0000000  0 31
G18         1.000    24980347.016 5                      -858.596 5        30.491                                                                                                    24980351.184 5 102290365.31805      -668.748 5        33.880
G13         2.000    20685490.060 5 108702939.56605      1110.007 5        34.781                                    20685483.565 2  84703507.64202       864.942 2        13.394
G30         3.000    20785621.006 7 109229142.55807     -2043.885 7        46.359                                    20785621.303 7  85113562.99107     -1592.632 7        42.267    20785621.840 6  85113661.97106     -1592.609 6        41.092
G14         4.000    21133375.983 8 111056659.75608      1100.745 8        49.525                                    21133373.994 5  86537671.95505       857.723 5        35.052    21133374.540 7  86537628.97207       857.786 7        42.311
G07         5.000    23031217.104 6 121030005.50506     -3331.223 6        37.346                                    23031221.633 3  94309005.71403     -2595.758 3        20.286    23031219.978 5                     -2595.728 5        31.411
G15         6.000    23149499.220 7 121651478.36007      2677.738 7        43.376                                    23149505.611 3  94793418.37403      2086.569 3        21.952    23149504.591 5  94793322.36905      2086.378 5        32.204
G05         7.000    21128147.103 7 111029491.94507     -1480.783 7        45.976                                    21128145.589 6  86516205.81706     -1153.854 6        40.574    21128144.257 6  86516233.80006     -1153.818 6        40.713
G20        11.000    22021500.666 5                     -3596.125 5        32.707
E02        13.000    27102033.706 5                      2405.889 5        31.170                                                                    27102044.490 5 106354247.18405      1796.577 5        33.545    27102060.464 5 109128713.39605      1843.505 5        30.770
E25        14.000    24213492.566 7 127242747.71107       815.462 7        42.753                                                                    24213496.762 7  95019055.75207       609.013 7        45.872    24213494.655 7  97497738.90707       624.874 7        43.331
E24        15.000    25420637.590 7 133586367.41007     -2049.788 7        45.527                                                                    25420640.458 7  99756008.37807     -1530.633 7        44.433    25420639.921 7 102358454.92407     -1570.595 7        46.338
E15        16.000    27923520.713 3                     -3632.073 3        23.410                                                                    27923504.022 4                     -2712.140 4        28.161    27923536.389 4                     -2783.147 4        26.251
E08        17.000    26051992.585 6 136904272.48906      1492.888 6        37.864                                                                    26051998.835 6 102233599.19406      1114.873 6        40.641    26052003.651 5 104900584.53105      1143.707 5        35.224
E05        21.000    23565809.882 6 123839265.89006     -2744.028 6        40.584                                                                    23565814.569 7  92477318.15607     -2049.125 7        42.061    23565811.077 6  94889756.61016     -2102.669 6        38.468
E13        22.000    27174800.089 5 142804499.24405     -1986.423 5        32.180                                                                    27174827.010 5                     -1483.514 5        30.174    27174795.924 4 109421643.84804     -1522.475 4        28.502
S23        24.000    38170611.419 6 200587835.94206      -814.891 6        38.976
E03        27.000    23318572.421 7 122539908.01607      -459.749 7        46.708                                                                    23318576.162 7  91507056.00407      -343.352 7        47.701    23318575.959 7  93894216.47907      -352.272 7        47.876
R11        28.000    19315349.918 8 103215431.21608       393.184 8        50.349                                                                    19315349.881 7  80278622.08607       305.783 7        43.278
R17        29.000                                                                                                                                    24118686.828 4                     -2684.678 4        28.417
R10        30.000    20604963.533 7 109836009.44007     -3750.858 7        42.174
R12        31.000    23096736.503 6 123378860.93506      3394.633 6        38.168                                                                    23096745.010 5  95961185.32605      2640.107 5        34.310
R08        35.000    20306101.697 7 108738216.26507     -3351.812 7        42.457                                                                    20306097.025 6  84574178.51106     -2606.766 6        36.847
C26        37.000                                                                                                                                    24810145.468 3                      2256.322 3        22.876                                                                    24810158.813 5 104979897.08615      1832.974 5        34.800
R01        38.000    19498288.007 7 104229485.97507       859.149 7        47.005                                                                    19498289.339 6  81067408.07306       668.208 6        37.561
R18        39.000                                                                                                                                    23624490.687 5  98084811.48205      -669.407 5        31.140
C42        41.000                                                                                                                                    24740718.212 6 128831401.21206      2029.444 6        40.903                                                                    24740728.529 6 104686121.95906      1649.047 6        38.691
C36        42.000                                                                                                                                    23071661.637 7 120140241.66807     -3008.823 7        46.846                                                                    23071668.996 6  97623749.16406     -2444.901 6        38.799
R02        43.000    23105671.156 4                      3141.300 4        26.012                                                                    23105676.596 5  95897226.26215      2443.213 5        33.539
C21        47.000                                                                                                                                    22008315.076 8 114603025.05908      -401.383 8        50.299                                                                    22008310.773 7  93124333.83307      -326.169 7        44.011
C45        49.000                                                                                                                                    21687060.575 7 112930161.47207      -159.451 7        46.885                                                                    21687054.439 7  91764995.14007      -129.515 7        47.179
C22        50.000                                                                                                                                    23061723.522 6 120088348.71006     -3375.135 6        36.866                                                                    23061725.632 6  97581593.38706     -2742.809 6        40.732
> 2025 01 01 07 45 40.0000000  0 32
G18         1.000    24981166.986 5                      -861.264 5        30.936                                                                                                    24981168.961 5 102293714.88505      -671.177 5        34.057
G13         2.000    20684435.988 6 108697394.79006      1107.890 6        36.004                                    20684428.280 2  84699187.06902       863.281 2        15.619
G30         3.000    20787566.040 7 109239366.74607     -2045.831 7        45.567                                    20787566.973 6  85121529.87406     -1594.145 6        41.604    20787567.881 6  85121628.85106     -1594.177 6        41.209
G14         4.000    21132329.783 8 111051163.23108      1097.908 8        50.100                                    21132327.724 5  86533388.93905       855.507 5        34.348    21132328.725 6  86533345.97506       855.509 6        40.825
G07         5.000    23034388.254 6 121046663.92106     -3332.100 6        38.724                                    23034391.177 3  94321986.25103     -2596.438 3        20.833    23034390.372 5                     -2596.331 5        32.509
G15         6.000    23146950.442 7 121638092.79307      2676.659 7        43.227                                    23146956.701 4  94782988.03904      2085.711 4        24.195    23146956.677 5  94782892.02105      2085.726 5        32.820
G05         7.000    21129557.714 7 111036904.77307     -1484.450 7        47.009                                    21129555.818 6  86521982.03906     -1156.710 6        40.501    21129555.413 6  86522010.03006     -1156.706 6        40.293
G20        11.000    22024920.992 5                     -3598.232 5        35.805
E02        13.000    27099745.045 5                      2405.304 5        30.641                                                                    27099755.378 5 106345265.47205      1796.216 5        33.784    27099772.199 5 109119497.38305      1842.990 5        31.132
E25        14.000    24212717.620 7 127238675.43707       813.245 7        43.107                                                                    24212721.997 7  95016014.76807       607.366 7        46.197    24212719.978 7  97494618.59607       623.179 7        43.424
E24        15.000    25422588.966 7 133596622.11407     -2052.102 7        45.052                                                                    25422591.690 7  99763666.09307     -1532.404 7        44.346    25422591.273 7 102366312.40907     -1572.447 7        46.197
E15        16.000    27926977.393 4                     -3632.366 4        24.316                                                                    27926959.813 4                     -2712.406 4        26.383    27926990.105 4                     -2783.148 4        26.874
E08        17.000    26050572.958 6 136896809.54406      1492.262 6        37.803                                                                    26050578.755 6 102228026.20606      1114.354 6        40.591    26050579.300 5 104894866.17005      1143.542 5        34.714
E05        21.000    23568421.723 6 123852989.21406     -2745.083 6        41.070                                                                    23568426.183 7  92487566.07907     -2049.956 7        42.099    23568424.302 6  94900271.84506     -2103.508 6        38.775
E13        22.000    27176694.819 5 142814437.48105     -1988.633 5        32.269                                                                    27176717.411 5                     -1485.063 5        32.042    27176689.621 4 109429258.86404     -1524.356 4        26.455
S23        24.000    38171385.699 6 200591910.93806      -815.178 6        38.988
E03        27.000    23319010.625 7 122542210.54407      -461.256 7        46.472                                                                    23319014.368 7  91508775.41507      -344.465 7        47.363    23319014.143 7  93895980.74707      -353.431 7        47.932
R11        28.000    19314983.945 8 103213475.64608       388.987 8        50.382                                                                    19314984.445 7  80277101.09107       302.600 7        43.539
R17        29.000                                                                                                                                    24121915.943 4                     -2686.576 4        29.943
R10        30.000    20608483.037 7 109854770.64107     -3753.686 7        42.015
R12        31.000    23093558.601 6 123361890.45206      3393.469 6        37.599                                                                    23093568.071 6  95947986.08406      2639.376 6        36.060
R08        35.000    20309231.066 6 108754983.09606     -3354.996 6        40.420                                                                    20309229.210 6  84587219.42206     -2609.521 6        37.085
C26        37.000                                                                                                                                    24807982.133 4                      2254.144 4        24.180                                                                    24807992.610 5 104970733.23405      1832.367 5        35.976
R01        38.000    19497486.181 7 104225198.16507       855.947 7        47.112                                                                    19497487.513 6  81064073.09006       665.733 6        37.909
R18        39.000                                                                                                                                    23625294.285 5  98088166.57405      -672.799 5        30.113
C42        41.000                                                                                                                                    24738771.474 7 128821256.94507      2028.266 7        42.152                                                                    24738779.882 6 104677878.96006      1648.230 6        37.637
C36        42.000                                                                                                                                    23074550.866 7 120155289.93607     -3010.479 7        46.279                                                                    23074557.165 6  97635977.08806     -2446.164 6        36.556
R02        43.000    23102731.645 4                      3140.918 4        28.834                                                                    23102737.601 5  95885011.08615      2443.083 5        34.533
C40        44.000                                                                                                                                    39494490.441 4 205657948.28004       350.905 4        28.607
C21        47.000                                                                                                                                    22008701.211 8 114605038.55708      -404.058 8        49.951                                                                    22008697.462 7  93125969.96307      -328.229 7        43.873
C45        49.000                                                                                                                                    21687214.768 7 112930964.93907      -161.918 7        47.005                                                                    21687208.747 7  91765648.03607      -131.508 7        47.056
C22        50.000                                                                                                                                    23064964.720 6 120105229.89506     -3377.170 6        36.181                                                                    23064966.419 6  97595310.75606     -2744.158 6        40.012
> 2025 01 01 07 45 45.0000000  0 32
G18         1.000    24981986.281 4                      -865.172 4        27.090                                                                                                    24981989.627 5 102297076.17105      -673.383 5        32.958
G13         2.000    20683383.872 6 108691858.39406      1106.606 6        37.747                                    20683374.448 2  84694872.99702       862.263 2        16.604
G30         3.000    20789513.360 7 109249599.56507     -2047.207 7        45.652                                    20789514.253 6  85129503.47506     -1595.216 6        41.142    20789514.424 6  85129602.45006     -1595.188 6        41.120
G14         4.000    21131286.110 8 111045679.65208      1095.649 8        50.441                                    21131283.743 5  86529116.02005       853.750 5        33.850    21131285.366 6  86529073.06306       853.721 6        40.236
G07         5.000    23037560.169 6 121063325.37406     -3332.352 6        39.808                                    23037561.155 3  94334969.16403     -2596.617 3        20.619    23037562.143 5                     -2596.814 5        32.844
G15         6.000    23144403.361 7 121624711.02507      2676.156 7        43.763                                    23144409.262 4  94772560.66004      2085.329 4        25.368    23144409.580 5  94772464.65105      2085.072 5        32.389
G05         7.000    21130971.875 8 111044334.67108     -1487.483 8        48.234                                    21130969.115 6  86527771.56806     -1159.077 6        40.584    21130969.230 6  86527799.55206     -1159.141 6        40.117
G20        11.000    22028334.592 6 115759744.89416     -3600.061 6        37.403
E02        13.000    27097455.319 4                      2405.093 4        29.128                                                                    27097466.706 5 106336284.69105      1796.259 5        34.490    27097484.032 5 109110282.27405      1843.152 5        30.068
E25        14.000    24211944.414 7 127234613.03007       811.622 7        43.120                                                                    24211948.934 7  95012981.15507       606.157 7        46.582    24211947.190 7  97491505.84907       622.000 7        43.335
E24        15.000    25424542.138 7 133606887.05407     -2053.696 7        44.426                                                                    25424544.826 7  99771331.45907     -1533.693 7        44.122    25424544.643 7 102374177.73707     -1573.683 7        45.941
E15        16.000    27930431.132 4                     -3632.888 4        24.406                                                                    27930416.847 4                     -2712.586 4        24.827    27930444.518 4                     -2783.514 4        26.719
E08        17.000    26049153.393 6 136889348.04806      1492.426 6        37.214                                                                    26049158.806 6 102222454.27806      1114.380 6        40.338
E05        21.000    23571034.441 6 123866717.03606     -2745.898 6        41.170                                                                    23571038.616 7  92497817.34907     -2050.439 7        42.256    23571036.548 6  94910790.53906     -2103.862 6        38.973
E13        22.000    27178590.335 5 142824386.39605     -1990.989 5        31.758                                                                    27178609.551 5                     -1486.686 5        33.144
S23        24.000    38172162.084 6 200595985.43706      -814.565 6        39.207
E03        27.000    23319449.577 7 122544519.13207      -462.171 7        46.302                                                                    23319453.642 7  91510499.34307      -345.041 7        47.203    23319453.535 7  93897749.65407      -354.154 7        47.738
R11        28.000    19314621.576 8 103211539.21108       385.567 8        50.623                                                                    19314621.752 7  80275594.96607       299.841 7        43.797
R17        29.000                                                                                                                                    24125147.482 5                     -2688.817 5        32.144
R10        30.000    20612003.957 6 109873544.38306     -3755.730 6        40.827
R12        31.000    23090384.895 6 123344924.99806      3392.789 6        38.517                                                                    23090391.668 6  95934790.74806      2638.921 6        37.456
R08        35.000    20312362.767 6 108771763.85606     -3357.260 6        38.757                                                                    20312362.710 6  84600271.10306     -2611.122 6        37.146
C26        37.000                                                                                                                                    24805813.870 4                      2254.569 4        26.539                                                                    24805827.842 6 104961572.90806      1831.967 6        37.093
R01        38.000    19496687.004 7 104220925.30407       853.266 7        46.882                                                                    19496687.270 6  81060749.77106       663.573 6        37.304
R18        39.000                                                                                                                                    23626109.119 5  98091537.71605      -675.525 5        30.257
C42        41.000                                                                                                                                    24736825.280 7 128811117.20107      2027.750 7        43.240                                                                    24736832.243 6 104669639.59706      1647.724 6        37.161
C36        42.000                                                                                                                                    23077441.985 7 120170345.19707     -3011.531 7        46.022                                                                    23077446.934 5  97648210.68405     -2447.147 5        34.333
R02        43.000    23099791.656 5                      3140.730 5        30.808                                                                    23099795.660 5  95872796.79805      2443.101 5        33.814
C40        44.000                                                                                                                                    39494157.210 4 205656197.60404       349.924 4        28.142
C21        47.000                                                                                                                                    22009090.194 8 114607063.95508      -406.075 8        50.043                                                                    22009086.491 7  93127615.76607      -330.018 7        43.968
C45        49.000                                                                                                                                    21687371.204 7 112931779.79607      -163.947 7        47.485                                                                    21687365.277 7  91766310.17807      -133.292 7        47.081
C22        50.000                                                                                                                                    23068209.313 6 120122119.10306     -3378.475 6        37.059                                                                    23068208.693 6  97609034.63506     -2745.385 6        39.162
> 2025 01 01 07 45 50.0000000  0 31
G18         1.000    24982808.877 3                      -868.546 3        23.295                                                                                                    24982812.478 4 102300449.30304      -675.966 4        29.403
G13         2.000    20682331.365 6 108686330.67206      1104.500 6        38.186                                    20682322.647 2  84690565.67602       860.643 2        17.887
G30         3.000    20791462.479 7 109259841.30607     -2049.345 7        44.775                                    20791463.187 6  85137484.02706     -1596.883 6        40.837    20791463.355 6  85137583.00906     -1596.878 6        40.965
G14         4.000    21130244.817 8 111040209.33008      1092.666 8        49.981                                    21130242.181 5  86524853.43705       851.424 5        33.725    21130244.100 6  86524810.48106       851.416 6        39.673
G07         5.000    23040729.427 6 121079990.14206     -3333.488 6        40.010                                    23040732.063 3  94347954.67403     -2597.528 3        21.000    23040732.457 5                     -2597.263 5        33.018
G15         6.000    23141858.143 7 121611333.30807      2675.193 7        43.418                                    23141863.040 4  94762136.44104      2084.577 4        25.639    23141863.810 5  94762040.40305      2084.496 5        31.902
G05         7.000    21132389.186 8 111051781.95308     -1491.299 8        48.622                                    21132385.702 6  86533574.64006     -1162.052 6        40.901    21132386.591 6  86533602.60906     -1162.054 6        39.480
E02        13.000    27095166.103 4                      2404.723 4        28.550                                                                    27095178.366 5 106327305.09105      1795.734 5        34.619    27095195.490 5 109101068.36305      1842.901 5        30.423
E25        14.000    24211173.155 7 127230560.82807       809.284 7        43.532                                                                    24211177.867 7  95009955.15507       604.385 7        46.740    24211176.264 7  97488400.91607       620.139 7        43.517
E24        15.000    25426497.817 7 133617162.52107     -2056.317 7        44.223                                                                    25426500.161 7  99779004.67907     -1535.626 7        43.886    25426500.110 7 102382051.13907     -1575.565 7        45.806
E15        16.000    27933884.364 4                     -3632.927 4        24.707                                                                    27933874.596 3                     -2714.052 3        21.405    27933901.445 4                     -2784.299 4        27.641
E08        17.000    26047733.588 6 136881888.30206      1491.579 6        36.306                                                                    26047738.819 6 102216883.64806      1113.930 6        39.910    26047726.904 5 104883433.01405      1142.907 5        34.957
E05        21.000    23573647.554 6 123880449.62506     -2747.048 6        40.980                                                                    23573652.065 7  92508072.18107     -2051.352 7        42.559    23573650.135 6  94921312.89706     -2104.963 6        39.294
E13        22.000    27180484.629 5 142834346.26705     -1993.000 5        30.808                                                                    27180503.265 5                     -1488.319 5        32.814
S23        24.000    38172935.366 6 200600059.59606      -814.829 6        38.703
E03        27.000    23319889.993 7 122546834.07007      -463.741 7        45.976                                                                    23319894.107 7  91512228.02007      -346.204 7        46.913    23319894.059 7  93899523.42007      -355.347 7        47.790
R11        28.000    19314263.161 8 103209622.18908       381.390 8        50.739                                                                    19314263.714 7  80274103.93507       296.599 7        43.869
R17        29.000    24128364.293 6 129115981.77716     -3459.765 6        36.087                                                                    24128379.714 5                     -2691.059 5        32.024
R10        30.000    20615527.208 6 109892330.88906     -3758.714 6        39.426
R12        31.000    23087210.898 6 123327964.93906      3391.303 6        39.913                                                                    23087216.040 6  95921599.62906      2637.574 6        38.366
R08        35.000    20315498.868 6 108788558.82906     -3360.598 6        38.622                                                                    20315499.492 6  84613333.86706     -2613.875 6        37.002
C26        37.000                                                                                                                                    24803652.699 4                      2253.258 4        29.706                                                                    24803663.803 6 104952416.37806      1830.761 6        38.000
R01        38.000    19495890.826 7 104216667.91507       849.807 7        46.514                                                                    19495890.659 6  81057438.44506       661.062 6        36.484
R18        39.000                                                                                                                                    23626930.667 4                      -678.803 4        29.213
C42        41.000                                                                                                                                    24734879.753 7 128800982.28807      2026.410 7        44.274                                                                    24734885.602 6 104661404.15506      1646.561 6        36.631
C36        42.000                                                                                                                                    23080334.862 7 120185407.73907     -3013.346 7        45.901                                                                    23080338.672 5  97660450.21705     -2448.742 5        32.748
R02        43.000    23096850.303 5                      3140.571 5        33.234                                                                    23096849.783 5  95860583.65305      2442.399 5        32.880
C40        44.000                                                                                                                                    39493825.273 4 205654451.36904       349.214 4        26.479
C21        47.000                                                                                                                                    22009481.145 8 114609101.58408      -408.904 8        49.795                                                                    22009477.978 7  93129271.49707      -332.293 7        44.281
C45        49.000                                                                                                                                    21687529.712 7 112932606.32807      -166.604 7        47.828                                                                    21687524.021 7  91766981.80607      -135.343 7        47.403
C22        50.000                                                                                                                                    23071456.932 6 120139016.63306     -3380.550 6        38.045                                                                    23071453.720 6  97622765.27606     -2746.710 6        39.345
> 2025 01 01 07 45 55.0000000  0 32
G18         1.000    24983636.069 4                      -870.407 4        24.301                                                                                                    24983639.339 4 102303834.79804      -678.007 4        26.012
G13         2.000    20681279.958 6 108680812.22406      1102.581 6        37.645                                    20681272.620 3  84686265.58703       859.164 3        18.090
G30         3.000    20793413.254 7 109270092.60407     -2051.244 7        44.008                                    20793413.856 6  85145472.02006     -1598.367 6        40.310    20793414.473 6  85145571.01106     -1598.402 6        41.399
G14         4.000    21129206.472 8 111034752.91408      1089.862 8        49.551                                    21129203.325 5  86520601.69005       849.245 5        33.299    21129205.686 6  86520558.73306       848.989 6        39.634
G07         5.000    23043900.071 6 121096658.88206     -3334.146 6        39.889                                    23043903.776 3  94360943.26803     -2598.004 3        22.019    23043904.532 5                     -2598.035 5        32.671
G15         6.000    23139313.175 7 121597960.30807      2674.111 7        42.337                                    23139317.980 4  94751715.88004      2083.730 4        25.143    23139319.485 5  94751619.81705      2083.603 5        32.222
G05         7.000    21133809.137 8 111059247.32308     -1494.985 8        48.242                                    21133805.867 6  86539391.80506     -1164.924 6        41.056    21133807.119 6  86539419.77206     -1164.891 6        38.880
G20        11.000    22035176.775 6 115795768.12006     -3604.446 6        38.862
E02        13.000    27092876.954 4                      2404.765 4        27.018                                                                    27092890.432 5 106318327.17505      1795.313 5        34.300    27092908.916 4 109091856.21504      1842.312 4        29.943
E25        14.000    24210403.822 7 127226519.46007       807.133 7        43.818                                                                    24210408.994 7  95006937.25407       602.722 7        46.934    24210407.354 7  97485304.29307       618.373 7        43.879
E24        15.000    25428455.699 7 133627449.18307     -2058.460 7        44.051                                                                    25428457.863 7  99786686.26007     -1537.214 7        43.532    25428457.633 7 102389933.11507     -1577.267 7        45.902
E15        16.000    27937343.151 4                     -3633.927 4        25.444                                                                    27937330.007 3                     -2714.844 3        21.571    27937359.462 4                     -2784.261 4        27.988
E08        17.000    26046314.133 5 136874430.93605      1491.226 5        35.729                                                                    26046318.658 6 102211314.79106      1113.527 6        38.982    26046309.890 5 104877718.90205      1142.434 5        35.195
E05        21.000    23576261.566 6 123894187.64706     -2748.189 6        41.330                                                                    23576266.470 7  92518331.08407     -2052.234 7        42.595    23576264.601 6  94931839.39606     -2105.775 6        39.856
E13        22.000    27182372.406 4 142844317.82904     -1995.500 4        28.948                                                                    27182398.701 5                     -1490.139 5        32.497    27182424.727 3                     -1528.089 3        21.738
S23        24.000    38173711.689 6 200604134.16606      -815.042 6        38.691
E03        27.000    23320331.854 7 122549156.00307      -465.177 7        45.261                                                                    23320335.919 7  91513961.92607      -347.366 7        46.671    23320335.863 7  93901302.55907      -356.495 7        47.909
R11        28.000    19313908.427 8 103207725.26408       377.307 8        50.499                                                                    19313908.675 7  80272628.55107       293.525 7        44.098
R17        29.000    24131606.788 5                     -3463.023 5        34.986                                                                    24131609.652 4                     -2693.375 4        28.720
R10        30.000    20619054.233 6 109911130.88606     -3761.492 6        38.045
R12        31.000    23084039.018 6 123311010.97106      3390.168 6        41.137                                                                    23084043.256 6  95908413.21806      2636.869 6        39.066
R08        35.000    20318638.092 6 108805368.69306     -3363.317 6        38.132                                                                    20318638.871 6  84626408.19606     -2616.090 6        37.641
C26        37.000                                                                                                                                    24801494.931 5                      2252.144 5        33.042                                                                    24801500.633 6 104943264.05506      1830.025 6        38.622
R01        38.000    19495095.812 7 104212426.35807       846.620 7        44.680                                                                    19495097.552 6  81054139.45406       658.607 6        36.813
R18        39.000                                                                                                                                    23627755.840 3                      -681.421 3        21.214
C42        41.000                                                                                                                                    24732935.370 7 128790852.81807      2025.324 7        44.513                                                                    24732940.266 6 104653173.11906      1645.471 6        36.030
C36        42.000                                                                                                                                    23083229.373 7 120200478.18607     -3014.924 7        45.931                                                                    23083231.367 5  97672696.14805     -2450.079 5        31.283
R02        43.000    23093909.760 5 123233524.47015      3139.658 5        34.971                                                                    23093907.251 4  95848372.29304      2441.667 4        29.706
C40        44.000                                                                                                                                    39493497.371 4 205652710.20404       347.672 4        26.168
C21        47.000                                                                                                                                    22009874.505 8 114611152.07408      -411.479 8        49.611                                                                    22009871.859 7  93130937.66307      -334.318 7        44.418
C45        49.000                                                                                                                                    21687690.289 7 112933445.18507      -169.081 7        47.987                                                                    21687685.188 7  91767663.42307      -137.262 7        47.433
C22        50.000                                                                                                                                    23074706.461 6 120155923.10306     -3382.319 6        38.676                                                                    23074701.024 6  97636503.17506     -2748.352 6        39.781
> 2025 01 01 07 46  0.0000000  0 32
G18         1.000    24984468.340 4                      -873.486 4        28.104                                                                                                    24984465.218 3                      -679.388 3        21.619
G13         2.000    20680231.134 6 108675302.60306      1100.845 6        37.550                                    20680224.445 2  84681972.38002       857.781 2        17.623
G30         3.000    20795366.024 7 109280352.95607     -2053.273 7        43.524                                    20795366.171 6  85153467.07406     -1599.947 6        40.305    20795366.562 6  85153566.04906     -1599.874 6        40.760
G14         4.000    21128171.083 8 111029309.91908      1087.042 8        49.516                                    21128167.134 5  86516360.40105       847.048 5        33.383    21128169.955 6  86516317.43106       846.868 6        39.790
G07         5.000    23047072.598 6 121113331.14406     -3334.928 6        39.291                                    23047076.450 3  94373934.61803     -2598.634 3        22.171    23047077.537 5                     -2598.561 5        32.485
G15         6.000    23136769.461 7 121584591.52307      2673.229 7        42.083                                    23136773.703 4  94741298.60604      2083.032 4        24.917    23136776.550 5  94741202.55205      2082.675 5        32.461
G05         7.000    21135232.849 7 111066730.18807     -1498.545 7        47.146                                    21135229.516 6  86545222.60506     -1167.697 6        40.825    21135231.460 6  86545250.57006     -1167.688 6        38.742
G20        11.000    22038609.542 6 115813795.77206     -3606.817 6        38.880
E02        13.000    27090588.593 4                      2403.896 4        25.383                                                                    27090603.067 5 106309350.53005      1795.154 5        34.486    27090621.295 4 109082645.35604      1842.412 4        28.919
E25        14.000    24209636.786 7 127222488.45107       805.001 7        43.594                                                                    24209642.138 7  95003927.07707       601.129 7        46.910    24209640.317 7  97482215.59507       616.723 7        43.915
E24        15.000    25430415.396 7 133637746.54607     -2060.635 7        44.251                                                                    25430417.646 7  99794375.82707     -1538.764 7        43.024    25430417.140 7 102397823.28907     -1578.965 7        45.676
E15        16.000    27940802.752 4                     -3633.917 4        26.108                                                                    27940785.614 3                     -2713.938 3        22.629    27940819.930 4                     -2784.570 4        27.365
E08        17.000    26044895.343 5 136866975.45905      1490.610 5        34.467                                                                    26044898.637 6 102205747.35506      1113.114 6        37.675    26044891.938 5 104872006.21905      1142.361 5        35.586
E05        21.000    23578876.384 6 123907930.59106     -2749.287 6        41.390                                                                    23578881.820 7  92528593.64507     -2053.053 7        42.684    23578880.012 6  94942369.67606     -2106.595 6        40.088
E13        22.000    27184268.035 4 142854300.43404     -1997.919 4        27.102                                                                    27184294.083 5                     -1491.631 5        31.796
S23        24.000    38174485.960 6 200608208.83906      -814.984 6        38.688
E03        27.000    23320775.139 7 122551484.46607      -466.577 7        45.073                                                                    23320778.995 7  91515700.70207      -348.387 7        46.362    23320778.959 7  93903086.68707      -357.482 7        47.863
R11        28.000    19313557.108 8 103205847.96608       373.269 8        50.932                                                                    19313557.773 7  80271168.43407       290.347 7        43.723
R17        29.000    24134841.933 5 129150608.84915     -3466.027 5        31.057                                                                    24134842.823 4                     -2696.571 4        26.168
R10        30.000    20622583.424 6 109929943.68706     -3763.969 6        37.626
R12        31.000    23080867.339 6 123294062.49206      3388.890 6        41.709                                                                    23080869.238 6  95895231.11106      2635.773 6        39.345
R08        35.000    20321779.039 6 108822192.81806     -3366.403 6        38.081                                                                    20321781.672 6  84639493.62606     -2618.374 6        38.048
C26        37.000                                                                                                                                    24799339.085 5                      2251.287 5        34.310                                                                    24799338.470 6 104934115.65906      1829.200 6        39.093
R01        38.000    19494303.157 7 104208200.34207       843.365 7        42.140                                                                    19494308.103 6  81050852.54406       656.027 6        38.459
R18        39.000    23628582.696 5                      -881.914 5        30.053                                                                    23628583.264 3                      -686.443 3        22.000
C42        41.000                                                                                                                                    24730991.770 7 128780728.34807      2024.199 7        44.912                                                                    24730996.233 5 104644946.10905      1644.994 5        35.700
C36        42.000                                                                                                                                    23086124.911 7 120215556.05307     -3016.548 7        46.093                                                                    23086125.727 5  97684948.15705     -2451.021 5        30.709
R02        43.000    23090962.590 4 123217825.84604      3139.509 4        28.882                                                                    23090966.202 5  95836162.22805      2442.052 5        30.008
C40        44.000                                                                                                                                    39493170.553 4 205650973.60304       346.702 4        27.186
C21        47.000                                                                                                                                    22010270.452 8 114613214.92608      -414.033 8        49.889                                                                    22010268.016 7  93132613.88107      -336.333 7        44.501
C45        49.000                                                                                                                                    21687852.964 7 112934295.88407      -171.552 7        47.757                                                                    21687848.636 7  91768354.66807      -139.291 7        47.578
C22        50.000                                                                                                                                    23077954.264 6 120172838.04906     -3384.020 6        37.860                                                                    23077950.008 6  97650247.93306     -2749.691 6        40.057
> 2025 01 01 07 46  5.0000000  0 31
G18         1.000    24985303.139 5                      -876.778 5        31.094
G13         2.000    20679184.338 6 108669802.68006      1099.211 6        36.764                                    20679177.844 2  84677686.74302       856.494 2        17.057
G30         3.000    20797320.512 7 109290623.24007     -2054.999 7        43.647                                    20797320.301 6  85161469.86306     -1601.291 6        40.160    20797320.907 6  85161568.85806     -1601.250 6        39.952
G14         4.000    21127138.199 8 111023881.22908      1084.446 8        49.569                                    21127133.997 5  86512130.26005       845.022 5        33.305    21127136.644 6  86512087.26906       844.993 6        40.338
G07         5.000    23050247.289 6 121130007.74106     -3335.468 6        38.429                                    23050250.046 3  94386929.32603     -2599.055 3        21.786    23050250.086 5                     -2599.043 5        31.789
G15         6.000    23134227.052 6 121571227.93006      2672.364 6        40.484                                    23134230.570 4  94730885.34804      2082.376 4        24.406    23134233.465 5  94730789.26205      2082.452 5        32.449
G05         7.000    21136660.066 7 111074231.36907     -1501.938 7        45.222                                    21136656.773 6  86551067.67306     -1170.342 6        40.303    21136659.320 6  86551095.64406     -1170.315 6        39.207
G20        11.000    22042042.770 6 115831834.78706     -3608.806 6        38.105
E02        13.000    27088301.362 4                      2403.423 4        24.647                                                                    27088315.728 5 106300375.87205      1794.946 5        34.210    27088332.522 4 109073436.50204      1841.479 4        28.123
E25        14.000    24208871.710 7 127218468.69407       802.975 7        43.680                                                                    24208877.182 7  95000925.29307       599.640 7        47.019    24208875.452 7  97479135.50307       615.166 7        44.327
E24        15.000    25432377.143 7 133648055.44907     -2062.803 7        44.036                                                                    25432379.678 7  99802074.02007     -1540.411 7        42.726    25432378.844 7 102405722.32107     -1580.615 7        45.831
E15        16.000    27944265.634 4                     -3634.787 4        27.210                                                                    27944243.967 4                     -2715.522 4        25.248    27944278.288 4                     -2784.939 4        26.311
E08        17.000    26043476.736 5 136859522.76205      1490.064 5        33.701                                                                    26043479.700 6 102200181.99506      1112.927 6        36.813    26043474.244 5 104866295.66705      1142.097 5        35.767
E05        21.000    23581491.937 6 123921679.33606     -2750.135 6        41.449                                                                    23581498.243 7  92538860.53407     -2053.743 7        42.942    23581496.601 6  94952904.41006     -2107.347 6        40.615
E13        22.000    27186179.100 4 142864295.11604     -1999.998 4        26.790                                                                    27186191.357 5                     -1493.533 5        31.698
S23        24.000    38175261.683 6 200612284.37206      -814.953 6        38.649
E03        27.000    23321219.928 7 122553820.31707      -467.794 7        44.867                                                                    23321223.417 7  91517444.99307      -349.294 7        45.997    23321223.359 7  93904876.48207      -358.469 7        47.791
R11        28.000    19313209.671 8 103203991.15208       369.415 8        51.020                                                                    19313209.815 7  80269724.22907       287.377 7        43.464
R17        29.000    24138083.328 4 129167943.67514     -3468.304 4        28.180                                                                    24138084.047 5                     -2697.523 5        30.015
R10        30.000    20626115.887 6 109948770.29806     -3766.620 6        39.126
R12        31.000    23077694.484 6 123277120.47606      3387.902 6        41.006                                                                    23077697.212 6  95882053.99906      2635.051 6        39.267
R08        35.000    20324921.362 6 108839032.15706     -3369.245 6        38.790                                                                    20324925.680 6  84652590.84506     -2620.577 6        38.441
C26        37.000                                                                                                                                    24797181.921 5 129125400.48815      2250.031 5        34.248                                                                    24797177.282 6 104924971.88006      1828.268 6        38.889
R01        38.000    19493515.343 6 104203990.84606       840.227 6        40.570                                                                    19493520.268 6  81047578.46606       653.797 6        39.526
R18        39.000    23629422.208 5 126135437.11515      -886.267 5        35.024
C42        41.000                                                                                                                                    24729048.675 7 128770609.73007      2023.255 7        44.766                                                                    24729053.890 6 104636723.88606      1644.155 6        36.174
C36        42.000                                                                                                                                    23089022.165 7 120230642.20407     -3017.824 7        46.423                                                                    23089023.254 5  97697206.87305     -2452.470 5        30.362
R02        43.000    23088017.578 4 123202129.67804      3138.828 4        26.383                                                                    23088028.338 5  95823954.07805      2441.570 5        33.018
C21        47.000                                                                                                                                    22010669.127 8 114615291.03408      -416.349 8        50.061                                                                    22010666.684 7  93134300.89107      -338.386 7        44.734
C45        49.000                                                                                                                                    21688018.160 7 112935159.29807      -173.818 7        47.213                                                                    21688014.440 7  91769056.25407      -141.301 7        47.872
C22        50.000                                                                                                                                    23081201.850 6 120189762.33706     -3385.768 6        37.108                                                                    23081200.571 6  97664000.29206     -2751.009 6        40.338
> 2025 01 01 07 46 10.0000000  0 33
G18         1.000    24986139.846 5                      -879.891 5        31.268
G13         2.000    20678144.315 6 108664311.49606      1097.155 6        36.450                                    20678132.839 2  84673407.88802       854.923 2        15.524
G30         3.000    20799277.200 7 109300902.51507     -2056.817 7        43.778                                    20799276.167 6  85169479.66306     -1602.713 6        40.238    20799277.565 6  85169578.67306     -1602.821 6        39.631
G14         4.000    21126107.923 8 111018465.91308      1081.631 8        49.597                                    21126103.699 5  86507910.53705       842.829 5        33.461    21126106.394 6  86507867.54306       842.843 6        41.228
G07         5.000    23053421.966 6 121146687.71706     -3336.419 6        36.665                                    23053424.375 3  94399926.67103     -2599.791 3        20.048    23053424.071 5                     -2599.749 5        31.291
G15         6.000    23131683.982 6 121557868.53806      2671.352 6        37.028                                    23131688.077 4  94720475.37004      2081.581 4        24.271    23131688.637 5  94720379.34105      2081.544 5        32.731
G05         7.000    21138090.736 7 111081749.98107     -1505.502 7        43.323                                    21138087.406 6  86556926.31706     -1173.122 6        39.327    21138090.298 6  86556954.29306     -1173.245 6        39.580
G20        11.000    22045475.933 6 115849884.22006     -3611.007 6        38.273
E02        13.000    27086015.585 4                      2403.949 4        24.707                                                                    27086029.074 5 106291402.48205      1794.309 5        34.419
E25        14.000    24208108.682 7 127214459.23107       800.716 7        44.078                                                                    24208114.148 7  94997931.19907       597.966 7        46.813    24208112.439 7  97476063.29707       613.558 7        44.492
E24        15.000    25434341.119 7 133658374.94607     -2065.110 7        44.337                                                                    25434343.877 7  99809780.12507     -1542.027 7        42.650    25434342.604 7 102413629.46407     -1582.345 7        46.109
E15        16.000    27947720.043 4                     -3635.087 4        26.838                                                                    27947701.403 4                     -2715.543 4        25.850    27947734.288 4                     -2786.053 4        26.084
E08        17.000    26042058.379 5 136852071.84105      1489.939 5        32.850                                                                    26042062.373 5 102194617.96105      1112.943 5        35.957    26042056.722 6 104860586.51806      1141.691 6        36.790
E05        21.000    23584108.334 6 123935432.95506     -2751.224 6        41.828                                                                    23584115.673 7  92549131.06407     -2054.617 7        43.450    23584114.069 6  94963442.86106     -2108.179 6        41.063
E13        22.000    27188089.761 4 142874300.73504     -2002.496 4        27.054                                                                    27188092.329 5                     -1495.129 5        31.336    27188081.321 5 109475122.36015     -1534.463 5        34.738
S23        24.000    38176036.982 6 200616359.68406      -815.138 6        38.435
E03        27.000    23321665.635 7 122556162.62007      -469.201 7        45.223                                                                    23321669.150 7  91519194.10207      -350.342 7        45.636    23321668.898 7  93906671.22207      -359.526 7        47.920
R11        28.000    19312865.597 8 103202153.88008       365.481 8        50.977                                                                    19312866.354 7  80268295.24007       284.148 7        43.606
R17        29.000    24141324.499 4 129185292.26204     -3471.619 4        29.450                                                                    24141328.558 5                     -2699.658 5        30.785
R10        30.000    20629650.945 6 109967609.82606     -3769.167 6        41.044
R12        31.000    23074522.796 6 123260183.95906      3386.583 6        39.715                                                                    23074527.366 6  95868881.18106      2633.922 6        39.000
R08        35.000    20328068.297 6 108855885.90606     -3372.278 6        40.741                                                                    20328072.844 6  84665699.27806     -2622.910 6        38.438
C26        37.000                                                                                                                                                                                                                                                                    24795017.282 6 104915831.92206      1827.573 6        38.823
R01        38.000    19492731.571 6 104199796.65206       837.211 6        40.698                                                                    19492736.463 6  81044316.31506       651.217 6        40.236
R18        39.000    23630255.517 5 126139878.12015      -890.402 5        33.557                                                                    23630232.533 4                      -692.128 4        26.778
C42        41.000                                                                                                                                    24727106.805 7 128760496.03807      2022.162 7        44.867                                                                    24727112.544 6 104628505.67006      1643.166 6        36.318
C36        42.000                                                                                                                                    23091920.970 7 120245735.69807     -3019.523 7        46.736                                                                    23091922.447 5  97709471.54705     -2453.191 5        30.558
R02        43.000    23085079.584 3 123186434.87803      3139.498 3        23.638                                                                    23085091.030 5  95811747.07505      2441.401 5        35.490
C40        44.000                                                                                                                                    39492525.945 4 205647516.14604       344.781 4        26.527
C21        47.000                                                                                                                                    22011070.157 8 114617379.47908      -419.019 8        49.917                                                                    22011067.588 7  93135997.90307      -340.493 7        44.736
C45        49.000                                                                                                                                    21688186.361 7 112936034.47007      -176.290 7        46.461                                                                    21688182.583 8  91769767.38108      -143.205 8        48.160
C22        50.000                                                                                                                                    23084452.470 6 120206694.99406     -3387.583 6        36.696                                                                    23084452.204 6  97677759.46106     -2752.533 6        40.436
I02        56.000    38039469.662 5                        38.614 5        35.995
> 2025 01 01 07 46 15.0000000  0 32
G18         1.000    24986981.831 5                      -883.235 5        32.731                                                                                                    24986972.537 3                      -689.530 3        22.229
G13         2.000    20677105.128 6 108658829.17806      1095.889 6        36.854                                    20677089.672 2  84669136.03602       853.901 2        13.515
G30         3.000    20801234.771 7 109311190.95607     -2058.423 7        44.131                                    20801233.901 6  85177496.60206     -1603.962 6        40.427    20801235.966 6  85177595.60806     -1603.955 6        40.126
G14         4.000    21125079.666 8 111013064.16008      1079.257 8        49.674                                    21125076.250 5  86503701.37605       840.982 5        33.503    21125078.577 7  86503658.36807       840.957 7        42.303
G07         5.000    23056593.804 5 121163371.25805     -3336.950 5        33.970                                    23056599.406 3  94412926.79703     -2600.196 3        18.298    23056597.765 5                     -2600.294 5        30.777
G15         6.000    23129139.545 5 121544513.53705      2670.767 5        33.234                                    23129146.666 4  94710068.84504      2081.131 4        24.872    23129148.510 5  94709972.72705      2081.355 5        32.898
G05         7.000    21139525.570 7 111089286.19307     -1508.738 7        42.775                                    21139521.370 6  86562798.68906     -1175.643 6        38.387    21139524.066 6  86562826.67906     -1175.617 6        39.595
G20        11.000    22048913.554 6 115867944.25006     -3612.831 6        38.928
E02        13.000    27083730.067 3                      2401.929 3        23.790                                                                    27083742.976 5 106282430.46905      1794.667 5        33.916    27083737.497 5 109055022.75805      1841.510 5        31.026
E25        14.000    24207347.976 7 127210460.23007       798.957 7        44.263                                                                    24207352.972 7  94994944.92507       596.617 7        46.738    24207351.407 7  97472999.11807       612.224 7        44.944
E24        15.000    25436306.963 7 133668705.25007     -2066.876 7        44.631                                                                    25436310.268 7  99817494.29807     -1543.425 7        42.415    25436308.446 7 102421544.88007     -1583.734 7        46.336
E15        16.000    27951177.560 4                     -3636.308 4        26.204                                                                    27951161.008 4                     -2715.585 4        27.186    27951192.494 4                     -2786.162 4        26.024
E08        17.000    26040640.036 5 136844622.98305      1489.651 5        31.321                                                                    26040646.399 5 102189055.46305      1112.317 5        35.462    26040639.561 6 104854878.91606      1141.318 6        37.543
E05        21.000    23586726.170 7 123949191.61807     -2752.008 7        42.000                                                                    23586734.052 7  92559405.34507     -2055.084 7        43.934    23586732.433 6  94973985.17306     -2108.531 6        41.766
E13        22.000                                                                                                                                    27189996.574 5                     -1496.976 5        30.770    27189988.566 5 109482797.58205     -1535.575 5        35.976
S23        24.000    38176811.159 6 200620435.03506      -814.685 6        38.435
E03        27.000    23322112.785 7 122558511.55007      -470.218 7        45.953                                                                    23322115.995 7  91520948.17107      -351.037 7        45.326    23322115.798 7  93908471.04007      -360.312 7        47.808
R11        28.000    19312524.836 8 103200336.30008       361.807 8        50.652                                                                    19312526.037 7  80266881.56907       281.493 7        42.991
R17        29.000    24144569.185 5 129202654.51415     -3473.480 5        31.042                                                                    24144575.859 5                     -2701.790 5        31.260
R10        30.000    20633188.108 7 109986462.16107     -3771.502 7        42.061
R12        31.000    23071351.681 6 123243253.10906      3385.883 6        38.207                                                                    23071358.069 6  95855712.77406      2633.521 6        37.928
R08        35.000    20331219.396 6 108872754.03906     -3374.825 6        41.673                                                                    20331221.194 6  84678818.90506     -2624.883 6        37.085
C26        37.000                                                                                                                                                                                                                                                                    24792858.381 6 104906695.97606      1826.862 6        38.526
R01        38.000    19491950.276 6 104195618.11206       834.428 6        40.086                                                                    19491954.406 6  81041066.31406       649.095 6        40.276
R18        39.000                                                                                                                                    23631067.049 4                      -695.792 4        28.000
C42        41.000                                                                                                                                    24725166.220 7 128750387.44907      2021.452 7        44.938                                                                    24725172.011 6 104620291.61306      1642.435 6        36.926
C36        42.000                                                                                                                                    23094821.385 7 120260836.69707     -3020.648 7        47.274                                                                    23094823.574 5  97721742.33605     -2454.723 5        30.815
R02        43.000    23082134.059 4                      3138.762 4        26.228                                                                    23082150.605 6  95799541.61906      2441.238 6        37.267
C21        47.000                                                                                                                                    22011473.583 8 114619480.41308      -421.163 8        49.772                                                                    22011470.934 7  93137705.05507      -342.281 7        44.915
C45        49.000                                                                                                                                    21688357.231 7 112936921.57807      -178.328 7        46.117                                                                    21688352.972 8  91770488.21108      -144.989 8        48.475
C22        50.000                                                                                                                                    23087705.121 6 120223636.21706     -3388.698 6        36.412                                                                    23087705.191 6  97691525.59306     -2753.771 6        40.369
I02        56.000    38039420.967 6                        38.441 6        36.465
> 2025 01 01 07 46 20.0000000  0 33
G18         1.000    24987827.249 5                      -886.234 5        32.120                                                                                                    24987813.935 3                      -690.895 3        20.071
G13         2.000    20676071.065 5 108653356.13905      1093.695 5        35.943                                    20676048.317 2  84664871.36102       852.200 2        13.394
G30         3.000    20803194.501 7 109321488.84707     -2060.544 7        44.531                                    20803193.657 6  85185520.91006     -1605.613 6        40.701    20803195.867 6  85185619.92506     -1605.799 6        40.265
G14         4.000    21124054.320 8 111007676.29408      1076.063 8        49.134                                    21124051.573 5  86499503.04105       838.493 5        33.557    21124053.159 7  86499460.02707       838.541 7        43.172
G07         5.000    23059769.225 4 121180058.65704     -3337.813 4        28.161                                    23059774.915 2  94425929.97002     -2600.873 2        15.524    23059773.918 5                     -2600.912 5        30.355
G15         6.000    23126599.694 5 121531163.19205      2669.669 5        34.095                                    23126606.257 4  94699665.93604      2080.287 4        26.240    23126609.148 5  94699569.86005      2080.419 5        34.010
G05         7.000    21140963.503 7 111096840.42207     -1512.684 7        42.461                                    21140958.858 6  86568685.09406     -1178.717 6        37.301    21140962.002 6  86568713.05306     -1178.774 6        39.559
G20        11.000    22052352.201 6 115886015.13506     -3615.338 6        38.246
E02        13.000    27081443.507 4                      2402.643 4        24.150                                                                    27081457.188 5 106273460.12905      1793.832 5        34.057    27081454.099 5 109045818.45905      1840.765 5        32.365
E25        14.000    24206588.749 7 127206472.03907       796.498 7        44.122                                                                    24206593.814 7  94991966.72607       594.753 7        46.360    24206592.274 7  97469943.22607       610.338 7        45.156
E24        15.000    25438274.702 7 133679046.64407     -2069.526 7        44.417                                                                    25438278.367 7  99825216.75207     -1545.353 7        42.239    25438276.434 7 102429468.79807     -1585.694 7        46.647
E15        16.000    27954639.168 4                     -3637.113 4        24.436                                                                    27954621.485 4                     -2715.816 4        27.018    27954653.270 4                     -2786.808 4        24.857
E08        17.000    26039222.539 5 136837176.43005      1489.405 5        30.936                                                                    26039231.432 5 102183494.67705      1111.854 5        34.448    26039223.240 6 104849173.09206      1140.846 6        38.243
E05        21.000    23589345.214 6 123962955.64006     -2753.443 6        41.793                                                                    23589353.527 7  92569683.64207     -2056.192 7        44.295    23589351.685 7  94984531.61207     -2109.810 7        42.222
E13        22.000                                                                                                                                    27191902.218 5                     -1498.728 5        30.408    27191896.375 6 109490481.65306     -1537.853 6        36.261
S23        24.000    38177588.971 6 200624510.82906      -815.272 6        38.589
E03        27.000    23322561.287 7 122560867.46007      -471.992 7        46.264                                                                    23322564.218 7  91522707.44307      -352.445 7        44.853    23322564.001 7  93910276.20207      -361.633 7        47.561
R11        28.000    19312188.024 8 103198538.79408       357.396 8        50.456                                                                    19312189.260 7  80265483.50607       277.928 7        42.076
R17        29.000    24147816.567 5                     -3476.771 5        33.790                                                                    24147828.218 5                     -2703.949 5        33.347
R10        30.000    20636727.353 7 110005327.84607     -3774.546 7        43.312
R12        31.000    23068180.459 6 123226328.26606      3384.253 6        36.098                                                                    23068188.688 6  95842549.03306      2632.177 6        36.870
R08        35.000    20334372.129 6 108889636.92006     -3378.098 6        40.493                                                                    20334376.115 6  84691950.01906     -2627.264 6        36.862
C26        37.000                                                                                                                                    24790737.521 5 129091671.32105      2246.527 5        32.275                                                                    24790700.998 6 104897564.30706      1825.966 6        38.252
R01        38.000    19491172.245 6 104191455.62906       830.783 6        41.785                                                                    19491174.968 6  81037828.81006       646.018 6        40.453
R18        39.000                                                                                                                                    23631912.003 5                      -699.351 5        30.928
C42        41.000                                                                                                                                    24723227.065 7 128740284.31707      2020.014 7        44.953                                                                    24723233.284 6 104612082.01506      1641.387 6        38.087
C36        42.000                                                                                                                                    23097723.054 7 120275945.50907     -3022.630 7        47.791                                                                    23097726.889 5  97734019.48505     -2456.073 5        31.849
R02        43.000    23079201.945 6                      3137.896 6        36.473                                                                    23079209.028 6  95787337.96206      2440.515 6        38.168
C40        44.000                                                                                                                                    39491856.206 4 205644077.57904       342.792 4        25.188
C21        47.000                                                                                                                                    22011879.304 8 114621594.16908      -424.076 8        50.105                                                                    22011876.831 7  93139422.65607      -344.614 7        44.874
C45        49.000                                                                                                                                    21688530.707 7 112937820.95507      -181.128 7        46.649                                                                    21688525.858 8  91771219.03308      -147.210 8        48.778
C22        50.000                                                                                                                                    23090959.722 6 120240586.32906     -3391.051 6        36.439                                                                    23090960.065 6  97705298.94106     -2755.375 6        39.958
I02        56.000    38039372.859 6                        37.918 6        36.435
> 2025 01 01 07 46 25.0000000  0 32
G18         1.000                                                                                                                                                                    24988659.063 3                      -691.858 3        23.638
G13         2.000    20675029.581 5 108647891.55405      1092.216 5        33.994                                    20675008.436 2  84660613.31602       851.066 2        12.485
G30         3.000    20805155.955 7 109331795.37307     -2062.000 7        45.586                                    20805155.188 6  85193551.94506     -1606.751 6        41.278    20805156.907 6  85193650.95206     -1606.674 6        40.613
G14         4.000    21123031.586 8 111002301.45508      1073.855 8        49.069                                    21123029.427 5  86495314.84605       836.771 5        33.719    21123030.204 7  86495271.82907       836.799 7        43.850
G07         5.000    23062940.217 3                     -3341.248 3        19.642                                                                                                    23062949.248 4                     -2601.328 4        29.450
G15         6.000    23124065.255 6 121517816.57306      2669.185 6        37.958                                    23124066.689 4  94689265.93404      2079.897 4        26.850    23124069.668 5  94689169.92505      2079.865 5        34.067
G05         7.000    21142403.645 7 111104411.74507     -1515.716 7        43.297                                    21142399.704 6  86574584.81706     -1181.077 6        36.677    21142401.935 6  86574612.76706     -1181.100 6        38.919
G20        11.000    22055791.546 6 115904096.08306     -3617.014 6        38.619
E02        13.000    27079157.489 3                      2402.612 3        23.714                                                                    27079171.467 5 106264490.78105      1794.235 5        33.359    27079169.730 5 109036615.13705      1840.841 5        32.623
E25        14.000    24205831.311 7 127202493.81407       794.796 7        44.086                                                                    24205836.382 7  94988995.95207       593.599 7        45.872    24205835.090 7  97466894.95907       608.992 7        45.133
E24        15.000    25440244.240 7 133689398.25907     -2071.165 7        43.896                                                                    25440248.389 7  99832946.84307     -1546.706 7        42.150    25440246.317 7 102437400.54907     -1586.989 7        46.915
E15        16.000    27958102.534 4                     -3637.646 4        24.421                                                                    27958080.871 4                     -2715.699 4        26.120    27958113.327 3                     -2787.675 3        22.286
E08        17.000    26037805.642 5 136829731.36405      1488.878 5        30.664                                                                    26037817.004 5 102177934.96805      1112.076 5        33.515    26037807.006 6 104843468.40706      1140.958 6        38.736
E05        21.000    23591966.035 7 123976724.15207     -2753.938 7        42.294                                                                    23591973.801 7  92579965.28507     -2056.572 7        44.611    23591971.797 7  94995081.48507     -2110.209 7        42.487
E13        22.000                                                                                                                                    27193807.612 5                     -1500.465 5        30.294    27193801.226 6 109498173.89106     -1538.957 6        36.231
S23        24.000    38178362.691 6 200628586.38406      -815.010 6        38.703
E03        27.000    23323011.020 7 122563229.46107      -472.790 7        46.778                                                                    23323013.718 7  91524471.26407      -353.216 7        44.665    23323013.327 7  93912086.03007      -362.327 7        47.313
R11        28.000    19311855.478 8 103196760.47508       353.906 8        49.644                                                                    19311856.778 7  80264100.38007       275.315 7        42.136
R17        29.000    24151067.442 5 129237420.43615     -3478.938 5        34.286                                                                    24151084.248 5 100517903.25115     -2705.954 5        34.976
R10        30.000    20640269.877 7 110024205.95007     -3776.603 7        43.733
R12        31.000    23065014.082 5 123209408.64805      3383.296 5        34.319                                                                    23065020.512 6  95829389.30406      2631.717 6        36.004
R08        35.000    20337528.126 6 108906533.70606     -3380.624 6        39.781                                                                    20337531.758 6  84705091.95906     -2629.262 6        36.794
C26        37.000                                                                                                                                    24788576.389 5 129080437.82305      2246.306 5        32.192                                                                    24788544.841 6 104888436.19506      1825.227 6        37.645
R01        38.000    19490397.978 7 104187308.26307       828.220 7        43.287                                                                    19490398.636 6  81034603.02606       644.143 6        40.334
R18        39.000    23632735.117 6 126153327.83516      -902.689 6        41.182                                                                    23632764.620 5                      -702.254 5        31.781
C42        41.000                                                                                                                                    24721287.691 7 128730185.77507      2019.492 7        44.904                                                                    24721297.164 6 104603876.15506      1640.759 6        39.165
C36        42.000                                                                                                                                    23100625.650 8 120291061.28908     -3023.675 8        48.092                                                                    23100632.173 5  97746302.27905     -2457.151 5        32.778
R02        43.000    23076265.187 6 123139346.54316      3137.999 6        40.543                                                                    23076269.357 6  95775135.09006      2440.605 6        39.303
C21        47.000                                                                                                                                    22012287.704 8 114623719.91208      -426.201 8        50.872                                                                    22012285.163 7  93141149.97507      -346.438 7        44.921
C45        49.000                                                                                                                                    21688705.937 7 112938731.73507      -183.096 7        47.158                                                                    21688700.863 8  91771959.11808      -148.954 8        49.181
C22        50.000                                                                                                                                    23094214.683 5 120257544.47505     -3392.352 5        34.829                                                                    23094216.243 6  97719078.79806     -2756.684 6        39.003
I02        56.000    38039324.381 6 149274487.46316        38.149 6        36.397
> 2025 01 01 07 46 30.0000000  0 32
G18         1.000                                                                                                                                                                    24989508.394 4                      -694.992 4        25.699
G13         2.000    20673982.708 5 108642435.57405      1090.645 5        33.198                                    20673970.282 1  84656361.88601       849.826 1        11.037
G30         3.000    20807119.108 7 109342110.67307     -2063.809 7        46.788                                    20807118.485 7  85201589.82307     -1608.159 7        42.028    20807120.163 6  85201688.82706     -1608.232 6        41.223
G14         4.000    21122011.161 8 110996939.83508      1071.190 8        49.359                                    21122009.736 5  86491136.95105       834.694 5        33.868    21122009.870 7  86491093.93707       834.658 7        44.155
G07         5.000                                                                                                                                                                    23066127.767 4                     -2601.901 4        28.919
G15         6.000    23121527.851 6 121504474.05706      2668.265 6        40.894                                    23121527.903 4  94678869.13204      2079.182 4        26.970    23121530.160 5  94678773.10805      2079.063 5        33.138
G05         7.000    21143846.854 7 111112000.31207     -1519.250 7        43.936                                    21143843.976 6  86580497.97506     -1183.828 6        36.197    21143845.724 6  86580525.94506     -1183.816 6        38.294
G20        11.000    22059232.875 6 115922187.20806     -3618.938 6        38.832
E02        13.000    27076872.740 3                      2401.820 3        23.981                                                                    27076886.048 5 106255522.59305      1793.791 5        33.168    27076883.774 5 109027412.97405      1840.445 5        32.802
E25        14.000    24205075.141 7 127198525.70007       792.738 7        43.435                                                                    24205081.076 7  94986032.73907       591.965 7        45.475    24205079.845 7  97463854.43807       607.423 7        45.245
E24        15.000    25442215.822 7 133699760.26507     -2073.254 7        43.024                                                                    25442220.260 7  99840684.69607     -1548.220 7        42.171    25442218.310 7 102445340.27307     -1588.622 7        47.231
E15        16.000    27961565.845 4                     -3637.199 4        24.812                                                                    27961540.784 4                     -2716.461 4        26.754    27961575.092 3                     -2786.900 3        21.024
E08        17.000    26036390.897 5 136822287.89305      1489.044 5        32.629                                                                    26036403.105 5 102172376.52105      1111.831 5        32.731    26036391.219 6 104837764.99606      1140.762 6        39.153
E05        21.000    23594587.986 7 123990497.33907     -2755.069 7        42.809                                                                    23594594.869 7  92590250.41407     -2057.306 7        44.971    23594592.770 7  95005634.92807     -2110.985 7        42.730
E13        22.000                                                                                                                                    27195718.015 4                     -1501.942 4        29.867    27195713.030 6 109505874.41206     -1540.749 6        36.272
S23        24.000    38179139.689 6 200632661.67106      -814.881 6        38.580
E03        27.000    23323461.829 7 122565597.73807      -474.101 7        47.455                                                                    23323464.387 7  91526239.76807      -354.078 7        44.387    23323464.000 7  93913900.66907      -363.307 7        47.156
R11        28.000    19311526.391 8 103195001.49008       349.949 8        49.068                                                                    19311528.088 7  80262732.29907       272.134 7        43.081
R17        29.000    24154317.259 5 129254823.34005     -3481.902 5        33.922                                                                    24154336.339 5 100531438.93305     -2708.237 5        34.586
R10        30.000    20643813.785 7 110043096.72407     -3779.293 7        43.812
R12        31.000    23061849.732 5 123192494.36305      3382.342 5        33.653                                                                    23061855.816 5  95816233.79205      2630.677 5        35.295
R08        35.000    20340687.015 6 108923444.43706     -3383.455 6        40.105                                                                    20340689.071 6  84718244.76106     -2631.661 6        36.919
C26        37.000                                                                                                                                    24786418.041 5 129069208.86905      2245.588 5        30.551                                                                    24786388.970 6 104879311.77706      1824.496 6        36.136
R01        38.000    19489625.231 7 104183176.08907       825.012 7        44.152                                                                    19489626.494 6  81031389.10306       641.624 6        40.253
R18        39.000                                                                                                                                    23633613.884 5                      -705.476 5        30.158
C42        41.000                                                                                                                                    24719348.687 7 128720092.01807      2018.472 7        44.179                                                                    24719360.955 6 104595674.13406      1640.141 6        39.856
C36        42.000                                                                                                                                    23103528.944 8 120306184.18308     -3025.119 8        48.079                                                                    23103537.124 5  97758590.83405     -2458.082 5        33.874
R02        43.000    23073325.673 7 123123658.76507      3137.535 7        42.686                                                                    23073330.543 6  95762933.45706      2440.211 6        39.414
C21        47.000                                                                                                                                    22012698.369 8 114625857.79308      -428.643 8        51.527                                                                    22012695.975 7  93142887.16507      -348.316 7        44.763
C45        49.000                                                                                                                                    21688882.650 7 112939654.09407      -185.466 7        46.959                                                                    21688877.999 8  91772708.59308      -150.748 8        49.299
C22        50.000                                                                                                                                    23097470.574 5 120274510.82705     -3393.830 5        32.910                                                                    23097474.054 6  97732865.29206     -2757.966 6        38.498
I02        56.000    38039276.274 6 149274298.04306        37.987 6        36.476
> 2025 01 01 07 46 35.0000000  0 32
G18         1.000    24990424.041 4                      -895.402 4        28.597                                                                                                    24990357.694 4                      -697.666 4        26.910
G13         2.000    20672942.015 5 108636989.00205      1088.110 5        31.298                                    20672933.925 1  84652117.83001       847.928 1        11.556
G30         3.000    20809083.864 7 109352435.54407     -2066.081 7        47.087                                    20809083.647 7  85209635.15707     -1609.928 7        42.593    20809085.597 6  85209734.17006     -1609.937 6        41.740
G14         4.000    21120993.463 8 110991592.24508      1067.981 8        49.528                                    21120992.621 5  86486969.98605       832.195 5        34.143    21120992.391 7  86486926.98307       832.109 7        43.755
G07         5.000    23069300.036 4                     -3339.639 4        24.331                                                                                                    23069305.374 4                     -2602.586 4        27.545
G15         6.000    23118989.270 6 121491136.43406      2666.906 6        41.385                                    23118989.926 4  94668476.13704      2078.121 4        27.162    23118993.185 5  94668380.09005      2078.272 5        31.555
G05         7.000    21145293.759 7 111119606.99207     -1523.272 7        42.288                                    21145291.695 5  86586425.24005     -1186.960 5        35.690    21145293.706 6  86586453.20406     -1186.852 6        37.913
G20        11.000    22062678.389 6 115940289.32906     -3621.624 6        38.847
E02        13.000    27074588.591 3                      2401.947 3        23.752                                                                    27074600.947 5 106246556.18605      1792.786 5        32.383    27074598.832 5 109018212.65105      1839.880 5        32.665
E25        14.000    24204321.591 7 127194568.51107       790.126 7        42.434                                                                    24204328.119 7  94983077.68407       590.122 7        45.026    24204326.519 7  97460822.30407       605.394 7        45.111
E24        15.000    25444189.453 6 133710133.47006     -2075.958 6        41.602                                                                    25444193.995 7  99848430.90807     -1550.147 7        42.186    25444192.383 7 102453288.57707     -1590.659 7        47.506
E15        16.000    27965028.120 3                     -3637.544 3        23.657                                                                    27965002.553 4                     -2716.699 4        26.778    27965033.194 3                     -2790.061 3        20.714
E08        17.000    26034976.325 5 136814846.98705      1487.807 5        33.784                                                                    26034988.602 5 102166819.94405      1110.794 5        31.192    26034975.225 6 104832063.47306      1140.020 6        39.535
E05        21.000    23597210.594 7 124004275.96207     -2756.348 7        42.366                                                                    23597216.939 7  92600539.62207     -2058.381 7        45.275    23597214.816 7  95016192.56707     -2112.056 7        42.919
E13        22.000    27197645.468 5 142924620.36615     -2013.487 5        30.981                                                                    27197634.091 5                     -1503.494 5        30.279    27197628.587 6 109513583.82006     -1542.595 6        36.053
S23        24.000    38179911.768 6 200636737.34506      -815.432 6        38.592
E03        27.000    23323913.851 7 122567973.09707      -475.945 7        47.711                                                                    23323916.370 7  91528013.56907      -355.436 7        44.190    23323916.028 7  93915720.73407      -364.668 7        47.099
R11        28.000    19311201.479 8 103193262.67308       345.670 8        49.140                                                                    19311202.381 7  80261379.88007       268.767 7        42.940
R17        29.000    24157572.930 5 129272240.38705     -3484.904 5        35.367                                                                    24157595.360 5 100544985.52305     -2710.770 5        32.425
R10        30.000    20647359.352 7 110062000.74507     -3782.312 7        43.367
R12        31.000    23058685.408 5 123175586.26205      3380.933 5        33.886                                                                    23058690.868 5  95803083.05905      2629.436 5        35.338
R08        35.000    20343848.078 7 108940370.09207     -3386.833 7        42.758                                                                    20343850.804 6  84731409.13906     -2634.185 6        37.032
C26        37.000                                                                                                                                                                                                                                                                    24784237.069 5 104870191.67305      1823.416 5        34.238
R01        38.000    19488855.334 7 104179060.10107       821.421 7        44.823                                                                    19488855.982 6  81028187.77606       638.863 6        39.553
R18        39.000    23634459.707 6 126162399.24816      -911.643 6        37.259
C42        41.000                                                                                                                                    24717411.115 7 128710003.86107      2016.801 7        42.855                                                                    24717423.123 6 104587476.65306      1638.982 6        40.184
C36        42.000                                                                                                                                    23106434.387 7 120321314.99207     -3027.112 7        47.663                                                                    23106443.588 5  97770885.81505     -2459.594 5        34.581
R02        43.000    23070388.997 7 123107973.29407      3136.677 7        43.524                                                                    23070389.997 6  95750733.59906      2439.684 6        39.069
C21        47.000                                                                                                                                    22013111.260 8 114628008.63408      -431.636 8        51.657                                                                    22013109.146 7  93144634.87407      -350.614 7        44.959
C45        49.000                                                                                                                                    21689061.991 7 112940588.83807      -188.372 7        46.432                                                                    21689057.499 8  91773468.12708      -153.005 8        49.552
C22        50.000                                                                                                                                    23100732.851 5 120291486.07905     -3396.385 5        30.996                                                                    23100733.831 6  97746659.04306     -2759.402 6        38.276
I02        56.000    38039228.016 6 149274109.90906        37.322 6        36.858
> 2025 01 01 07 46 40.0000000  0 33
G18         1.000                                                                                                                                                                    24991212.802 4                      -700.193 4        29.166
G13         2.000    20671906.855 5 108631551.13005      1086.497 5        33.383                                    20671899.277 1  84647880.58001       846.621 1        10.963
G30         3.000    20811049.932 7 109362769.21107     -2067.716 7        46.997                                    20811050.553 7  85217687.34407     -1611.203 7        43.283    20811052.080 7  85217786.35707     -1611.233 7        42.220
G14         4.000    21119978.215 8 110986257.92708      1065.431 8        49.354                                    21119977.903 5  86482813.35805       830.209 5        34.319    21119977.174 7  86482770.36507       830.178 7        43.536
G07         5.000    23072476.341 4                     -3340.012 4        25.880                                                                                                    23072480.910 4                     -2602.478 4        26.323
G15         6.000    23116450.750 6 121477802.92706      2666.150 6        41.843                                    23116452.741 4  94658086.33904      2077.521 4        26.922    23116455.856 5  94657990.35605      2077.755 5        31.170
G05         7.000    21146743.431 6 111127230.90906     -1526.652 6        38.682                                    21146742.723 5  86592365.93005     -1189.592 5        34.971    21146744.464 6  86592393.88006     -1189.564 6        38.120
G20        11.000    22066126.731 6 115958401.61706     -3623.621 6        38.682
E02        13.000    27072304.794 3                      2400.404 3        22.933                                                                    27072316.217 5 106237590.93805      1792.667 5        32.138    27072314.006 5 109009013.52705      1839.676 5        32.838
E25        14.000    24203570.852 6 127190621.49706       788.259 6        41.507                                                                    24203576.948 7  94980130.23907       588.680 7        44.384    24203575.269 7  97457797.95007       604.083 7        44.975
E24        15.000    25446165.283 6 133720517.07706     -2077.997 6        39.868                                                                    25446169.655 7  99856184.91207     -1551.669 7        42.082    25446168.398 7 102461244.85507     -1592.111 7        47.704
E15        16.000    27968492.362 3                     -3638.386 3        23.105                                                                    27968462.476 4                     -2716.803 4        25.564    27968488.207 3                     -2788.446 3        23.810
E08        17.000    26033561.390 5 136807407.77305      1487.412 5        35.105                                                                    26033575.269 4 102161264.63204      1110.620 4        29.763    26033560.178 6 104826363.26506      1139.759 6        39.772
E05        21.000    23599832.729 6 124018059.32906     -2757.302 6        41.635                                                                    23599839.920 7  92610832.35807     -2059.035 7        45.573    23599837.791 7  95026753.81307     -2112.707 7        43.149
E13        22.000    27199554.582 5 142934692.69905     -2015.548 5        31.434                                                                    27199551.487 5                     -1505.320 5        30.098    27199546.395 6 109521301.57606     -1544.647 6        36.057
S23        24.000    38180689.898 6 200640812.71106      -815.222 6        38.634
E03        27.000    23324367.233 7 122570354.77807      -477.159 7        47.633                                                                    23324369.642 7  91529792.08807      -356.309 7        43.803    23324369.339 7  93917545.64107      -365.586 7        46.834
R11        28.000    19310879.428 8 103191543.29208       341.761 8        48.329                                                                    19310880.046 7  80260042.58407       265.763 7        42.476
R17        29.000    24160831.564 5 129289670.78405     -3487.695 5        35.581                                                                    24160848.106 5 100558542.48305     -2712.540 5        31.343
R10        30.000    20650907.885 7 110080917.31207     -3784.686 7        43.156
R12        31.000    23055523.977 5 123158683.60505      3380.043 5        35.662                                                                    23055525.986 5  95789936.53405      2628.953 5        35.114
R08        35.000    20347012.556 7 108957309.88707     -3389.461 7        44.351                                                                    20347014.699 6  84744584.51406     -2636.373 6        39.093
C26        37.000                                                                                                                                                                                                                                                                    24782088.074 5 104861075.31405      1823.005 5        32.635
R01        38.000    19488087.790 7 104174959.55107       818.413 7        45.309                                                                    19488088.223 6  81024998.44106       636.601 6        38.535
R18        39.000    23635312.331 5 126166966.61305      -915.764 5        30.468                                                                    23635307.909 3                      -710.580 3        23.143
C42        41.000                                                                                                                                    24715474.757 6 128699920.54306      2016.019 6        40.536                                                                    24715484.609 6 104579283.12806      1638.183 6        40.369
C36        42.000                                                                                                                                    23109341.387 7 120336452.94707     -3028.424 7        47.568                                                                    23109350.562 5  97783186.65105     -2461.005 5        35.743
R02        43.000    23067450.961 7 123092289.36007      3136.544 7        43.716                                                                    23067451.063 6  95738534.97906      2439.620 6        38.892
C40        44.000                                                                                                                                    39490487.678 4 205637255.16904       339.524 4        27.713
C21        47.000                                                                                                                                    22013526.799 8 114630171.66608      -433.948 8        52.081                                                                    22013524.612 7  93146392.54007      -352.680 7        44.999
C45        49.000                                                                                                                                    21689244.542 7 112941535.19907      -190.588 7        46.423                                                                    21689239.257 8  91774237.12608      -154.837 8        49.692
C22        50.000                                                                                                                                                                                                                                                                    23103995.361 6  97760459.51306     -2760.706 6        37.784
I02        56.000    38039181.420 6 149273922.65906        37.320 6        37.183
> 2025 01 01 07 46 45.0000000  0 32
G18         1.000                                                                                                                                                                    24992068.939 4                      -702.252 4        29.137
G13         2.000    20670873.652 5 108626122.37105      1085.194 5        33.665                                    20670866.243 1  84643650.35701       845.546 1        10.370
G30         3.000    20813017.711 7 109373112.15507     -2069.513 7        47.452                                    20813019.225 7  85225746.76107     -1612.607 7        43.835    20813020.096 7  85225845.76407     -1612.532 7        42.226
G14         4.000    21118965.638 8 110980937.36508      1062.734 8        49.164                                    21118965.702 5  86478667.46305       828.107 5        34.457    21118965.347 7  86478624.46307       828.101 7        43.585
G07         5.000    23075657.024 4                     -3341.456 4        25.684                                                                                                    23075656.437 4                     -2604.469 4        24.737
G15         6.000    23113912.715 7 121464474.01507      2665.320 7        42.243                                    23113916.548 4  94647700.11904      2076.866 4        26.263    23113919.542 4  94647604.09304      2077.356 4        29.232
G05         7.000    21148198.689 6 111134872.55806     -1530.204 6        37.021                                    21148197.074 5  86598320.43005     -1192.360 5        33.988    21148198.317 6  86598348.39506     -1192.385 6        38.090
G20        11.000    22069577.029 6 115976524.55106     -3625.597 6        40.586
E02        13.000    27070019.862 4                      2400.626 4        24.090                                                                    27070031.858 5 106228627.25005      1792.573 5        31.268    27070029.551 5 108999815.96205      1839.736 5        32.335
E25        14.000    24202822.910 6 127186685.15506       786.124 6        41.354                                                                    24202827.838 7  94977190.75007       587.149 7        44.084    24202826.176 7  97454781.78307       602.338 7        44.778
E24        15.000    25448143.913 6 133730911.60306     -2080.003 6        39.483                                                                    25448147.287 7  99863947.05707     -1553.258 7        42.082    25448146.527 7 102469209.49607     -1593.815 7        47.822
E15        16.000    27971951.712 3                     -3639.667 3        22.229                                                                    27971925.953 4                     -2717.293 4        26.862    27971945.692 3                     -2788.699 3        23.714
E08        17.000    26032145.825 5 136799970.74605      1487.077 5        35.405                                                                    26032160.714 4 102155710.93504      1110.344 4        28.227    26032145.238 6 104820664.73006      1139.546 6        39.883
E05        21.000    23602456.177 6 124031847.86206     -2758.291 6        40.546                                                                    23602463.892 7  92621128.96507     -2059.768 7        45.717    23602461.695 7  95037319.02407     -2113.381 7        43.469
E13        22.000    27201470.203 5 142944776.41405     -2017.848 5        30.408                                                                    27201471.070 5                     -1506.897 5        30.415    27201465.675 6 109529028.00806     -1546.050 6        36.008
S23        24.000    38181467.298 6 200644888.43406      -815.260 6        39.267
E03        27.000    23324821.588 7 122572743.26807      -478.392 7        47.707                                                                    23324824.308 7  91531575.68707      -357.193 7        43.253    23324823.831 7  93919375.76307      -366.554 7        46.591
R11        28.000    19310560.547 7 103189843.73407       337.938 7        47.608                                                                    19310562.442 7  80258720.73407       262.790 7        42.616
R17        29.000    24164099.403 6 129307114.95606     -3490.283 6        36.087                                                                    24164099.149 5 100572110.16505     -2714.797 5        30.830
R10        30.000    20654459.144 7 110099846.78707     -3787.260 7        42.121
R12        31.000    23052360.496 6 123141786.84506      3378.704 6        37.127                                                                    23052362.601 5  95776794.64805      2627.837 5        35.443
R08        35.000    20350181.005 7 108974264.21707     -3392.290 7        44.152                                                                    20350180.877 6  84757771.19906     -2638.403 6        40.482
C26        37.000                                                                                                                                                                                                                                                                    24779937.035 5 104851963.07205      1821.922 5        31.487
R01        38.000    19487323.438 7 104170874.80407       815.351 7        45.199                                                                    19487324.444 6  81021821.41606       634.017 6        38.988
R18        39.000    23636174.752 4 126171555.22404      -919.427 4        25.053
C42        41.000                                                                                                                                    24713539.560 6 128689842.56406      2015.349 6        38.739                                                                    24713547.848 6 104571093.89706      1637.517 6        40.405
C36        42.000                                                                                                                                    23112250.046 7 120351598.50307     -3029.812 7        47.363                                                                    23112258.626 6  97795493.61306     -2462.102 6        36.106
R02        43.000    23064511.351 7 123076607.54507      3136.096 7        43.528                                                                    23064513.028 6  95726337.99806      2439.372 6        37.905
C21        47.000                                                                                                                                    22013944.948 8 114632347.38308      -436.415 8        52.237                                                                    22013942.367 7  93148160.46407      -354.546 7        45.132
C45        49.000                                                                                                                                    21689429.586 7 112942493.64007      -192.884 7        46.251                                                                    21689423.313 8  91775015.92408      -156.666 8        49.903
C22        50.000                                                                                                                                    23107308.360 5 120325462.01805     -3399.098 5        34.838                                                                    23107258.829 6  97774267.01106     -2762.196 6        37.501
I02        56.000    38039133.378 6 149273736.68406        37.084 6        37.100
> 2025 01 01 07 46 50.0000000  0 32
G18         1.000    24992954.586 4                      -904.512 4        24.812                                                                                                    24992928.305 5                      -704.894 5        30.513
G13         2.000    20669842.789 5 108620702.90405      1082.690 5        32.946                                    20669835.006 1  84639427.40301       843.681 1         8.857
G30         3.000    20814988.109 8 109383464.46508     -2071.398 8        48.310                                    20814989.690 7  85233813.48307     -1614.073 7        44.265    20814989.553 6  85233912.47706     -1614.040 6        41.957
G14         4.000    21117955.672 8 110975630.64608      1059.908 8        48.484                                    21117956.005 5  86474532.35105       825.905 5        34.586    21117955.656 7  86474489.35007       825.871 7        43.683
G07         5.000    23078835.270 4                     -3341.997 4        28.578                                                                                                    23078834.361 3                     -2604.602 3        22.952
G15         6.000    23111377.791 7 121451149.79807      2664.384 7        42.679                                    23111381.465 4  94637317.56904      2076.152 4        25.263    23111384.800 4  94637221.48004      2076.723 4        27.078
G05         7.000    21149656.689 6 111142531.95706     -1533.661 6        38.255                                    21149654.568 5  86604288.76905     -1195.057 5        33.174    21149655.374 6  86604316.76306     -1195.243 6        38.213
G20        11.000    22073028.724 6 115994658.21506     -3627.876 6        41.006
E02        13.000    27067735.310 3                      2399.276 3        19.791                                                                    27067747.586 5 106219665.21005      1791.764 5        30.641    27067745.898 5 108990620.10405      1839.012 5        32.665
E25        14.000    24202076.217 6 127182759.54206       784.234 6        41.139                                                                    24202080.892 7  94974259.27207       585.470 7        43.691    24202079.092 7  97451773.83207       600.636 7        44.623
E24        15.000    25450124.673 6 133741317.10906     -2082.114 6        40.563                                                                    25450126.995 6  99871717.39406     -1554.875 6        41.816    25450126.617 7 102477182.53007     -1595.408 7        47.843
E15        16.000                                                                                                                                    27975388.411 4                     -2717.966 4        25.880    27975410.547 3                     -2788.963 3        22.686
E08        17.000    26030730.757 5 136792536.00305      1486.462 5        34.924                                                                    26030747.324 4 102150158.90104      1110.715 4        24.180    26030730.552 6 104814967.92606      1139.114 6        39.703
E05        21.000    23605080.915 6 124045641.65806     -2759.149 6        39.709                                                                    23605088.697 7  92631429.49507     -2060.576 7        45.466    23605086.853 7  95047888.28107     -2114.304 7        43.956
E13        22.000    27203393.711 4 142954871.39304     -2020.145 4        29.213                                                                    27203393.908 5                     -1508.478 5        30.483    27203387.501 5 109536763.18205     -1548.171 5        35.305
S23        24.000    38182243.469 6 200648964.55306      -815.232 6        38.580
E03        27.000    23325277.367 7 122575138.64407      -479.867 7        47.655                                                                    23325279.922 7  91533364.43207      -358.279 7        42.688    23325279.636 7  93921211.16707      -367.725 7        46.375
R11        28.000    19310246.114 7 103188164.19207       333.821 7        47.346                                                                    19310247.596 7  80257414.41807       259.706 7        42.789
R17        29.000                                                                                                                                    24167355.998 4 100585688.61604     -2716.845 4        29.090
R10        30.000    20658011.399 6 110118789.38006     -3789.964 6        40.176
R12        31.000    23049198.370 6 123124896.06406      3377.497 6        38.513                                                                    23049200.725 6  95763657.37206      2626.791 6        36.140
R08        35.000    20353349.903 7 108991233.17307     -3395.293 7        43.947                                                                    20353350.034 6  84770969.25606     -2640.755 6        40.617
C26        37.000                                                                                                                                                                                                                                                                    24777784.222 5 104842855.05205      1821.285 5        32.036
R01        38.000    19486561.787 7 104166806.05407       811.984 7        45.302                                                                    19486563.900 6  81018656.84206       631.449 6        38.724
R18        39.000    23637040.676 4 126176165.29704      -924.379 4        29.289
C42        41.000                                                                                                                                    24711604.622 6 128679769.99606      2013.918 6        37.754                                                                    24711612.083 6 104562909.08006      1636.473 6        40.167
C36        42.000                                                                                                                                    23115160.329 7 120366751.74007     -3031.444 7        47.372                                                                    23115167.947 6  97807806.84606     -2463.337 6        36.023
R02        43.000    23061571.563 7 123060927.87607      3135.771 7        42.978                                                                    23061573.400 5  95714142.72205      2438.742 5        34.124
C21        47.000                                                                                                                                    22014365.602 8 114634535.86108      -438.972 8        52.464                                                                    22014362.609 7  93149938.78407      -356.666 7        45.079
C45        49.000                                                                                                                                    21689616.882 7 112943464.24907      -195.388 7        46.712                                                                    21689609.748 8  91775804.62208      -158.672 8        50.038
C22        50.000                                                                                                                                                                                                                                                                    23110523.924 6  97788081.59506     -2763.397 6        36.938
I02        56.000    38039085.182 6 149273551.83506        36.864 6        37.399
> 2025 01 01 07 46 55.0000000  0 33
G18         1.000                                                                                                                                                                    24993791.623 5                      -707.282 5        31.766
G13         2.000    20668813.304 5 108615292.28205      1081.547 5        33.000                                    20668805.424 1  84635211.32701       842.751 1         7.625
G30         3.000    20816960.076 8 109393825.72808     -2072.960 8        49.008                                    20816961.810 7  85241887.17507     -1615.290 7        44.272    20816960.967 6  85241986.16806     -1615.302 6        41.342
G14         4.000    21116948.547 8 110970337.37608      1057.387 8        48.238                                    21116948.687 5  86470407.71205       823.941 5        34.405    21116948.636 7  86470364.71807       823.943 7        43.907
G07         5.000    23082022.893 5                     -3342.673 5        31.328                                                                                                    23082016.658 3                     -2605.757 3        23.086
G15         6.000    23108844.007 7 121437829.86507      2663.691 7        42.400                                    23108847.199 3  94626938.33403      2075.613 3        23.276    23108849.994 4  94626842.30104      2075.313 4        26.371
G05         7.000    21151118.897 6 111150208.84506     -1536.968 6        40.122                                    21151115.241 5  86610270.73205     -1197.632 5        32.808    21151116.786 6  86610298.73806     -1197.736 6        37.898
G20        11.000    22076480.184 6 116012802.17906     -3629.656 6        40.226
E02        13.000                                                                                                                                    27065464.401 5 106210704.44205      1791.986 5        30.468    27065461.901 5 108981425.55105      1839.187 5        31.811
E25        14.000    24201331.270 6 127178844.28306       782.104 6        41.480                                                                    24201335.962 7  94971335.53007       584.064 7        43.386    24201333.781 7  97448773.80507       599.292 7        44.482
E24        15.000    25452107.310 6 133751733.18006     -2084.225 6        41.523                                                                    25452108.738 6  99879495.62506     -1556.297 6        41.726    25452108.663 7 102485163.66907     -1596.895 7        47.738
E15        16.000                                                                                                                                    27978851.978 4                     -2717.854 4        25.925    27978878.500 3                     -2788.690 3        23.333
E08        17.000    26029316.093 5 136785103.07705      1486.377 5        34.348                                                                                                                                    26029316.006 6 104809272.55706      1138.968 6        39.919
E05        21.000    23607706.790 6 124059440.35306     -2760.306 6        38.634                                                                    23607714.450 7  92641733.65207     -2060.985 7        45.472    23607712.749 7  95058461.25507     -2114.948 7        44.498
E13        22.000    27205318.234 4 142964977.36604     -2022.505 4        26.778                                                                    27205319.179 5                     -1510.164 5        30.166    27205310.446 5 109544506.71705     -1549.298 5        34.848
S23        24.000    38183017.028 6 200653040.43006      -815.050 6        38.396
E03        27.000    23325734.300 7 122577540.50007      -480.889 7        47.248                                                                    23325736.876 7  91535158.01807      -359.163 7        42.281    23325736.760 7  93923051.53507      -368.422 7        46.302
R11        28.000    19309935.450 7 103186504.20207       330.213 7        47.811                                                                    19309936.512 7  80256123.30307       256.823 7        43.723
R17        29.000                                                                                                                                    24170622.876 4 100599277.63204     -2718.583 4        28.540
R10        30.000    20661566.961 6 110137744.65106     -3792.202 6        38.255
R12        31.000    23046037.541 6 123108010.92806      3376.633 6        38.874                                                                    23046040.666 6  95750524.53606      2626.135 6        36.888
R08        35.000    20356519.960 7 109008216.33107     -3397.876 7        45.160                                                                    20356522.775 6  84784178.37006     -2642.853 6        40.689
C26        37.000                                                                                                                                                                                                                                                                    24775630.908 5 104833750.92205      1820.666 5        34.490
R01        38.000    19485804.123 7 104162752.92307       809.213 7        46.444                                                                    19485804.407 6  81015504.37706       629.413 6        38.793
R18        39.000                                                                                                                                    23637906.669 3                      -725.423 3        21.500
C42        41.000                                                                                                                                    24709668.803 6 128669702.41606      2013.139 6        36.934                                                                    24709677.125 6 104554728.32406      1636.027 6        40.060
C36        42.000                                                                                                                                    23118071.711 7 120381912.26307     -3032.700 7        47.315                                                                    23118079.088 5  97820125.97205     -2464.314 5        35.719
R02        43.000    23058632.106 7 123045249.97507      3135.588 7        42.798
C40        44.000                                                                                                                                    39489548.644 4 205632188.62904       336.165 4        29.725
C21        47.000                                                                                                                                    22014788.595 8 114636736.71808      -441.272 8        52.416                                                                    22014785.154 7  93151727.14007      -358.485 7        45.074
C45        49.000                                                                                                                                    21689805.507 7 112944446.63607      -197.512 7        46.783                                                                    21689798.443 8  91776602.88008      -160.437 8        50.016
C22        50.000                                                                                                                                    23113826.242 4 120359472.17404     -3402.623 4        29.896                                                                    23113790.419 6  97801902.97006     -2764.888 6        36.401
I02        56.000    38039039.184 6 149273367.88206        36.742 6        37.853
> 2025 01 01 07 47  0.0000000  0 32
G18         1.000                                                                                                                                                                    24994658.858 5                      -709.741 5        33.886
G13         2.000    20667784.373 4 108609890.42904      1079.431 4        29.867                                    20667777.496 1  84631002.05801       841.145 1         7.500
G30         3.000    20818933.386 8 109404195.84008     -2074.865 8        49.171                                    20818935.477 7  85249967.76807     -1616.774 7        44.415    20818933.804 6  85250066.74906     -1616.776 6        40.820
G14         4.000    21115944.249 8 110965057.46208      1054.673 8        48.551                                    21115943.864 5  86466293.48805       821.825 5        34.705    21115943.824 7  86466250.48907       821.836 7        44.003
G07         5.000    23085205.902 5                     -3343.282 5        34.176                                                                                                    23085203.633 4                     -2604.861 4        26.275
G15         6.000    23106309.524 6 121424514.14106      2662.726 6        41.449                                    23106313.649 3  94616562.38903      2074.873 3        21.929    23106316.060 4  94616466.37404      2074.873 4        26.347
G05         7.000    21152582.565 6 111157903.06606     -1540.467 6        40.763                                    21152579.152 5  86616266.20705     -1200.355 5        33.042    21152579.804 6  86616294.20306     -1200.421 6        37.894
G20        11.000    22079933.434 6 116030956.38706     -3631.861 6        39.622
E02        13.000    27063169.533 3                      2399.425 3        19.433                                                                    27063180.991 5 106201744.94705      1791.920 5        30.106    27063178.953 5 108972232.36005      1838.578 5        31.615
E25        14.000    24200588.574 7 127174939.27107       780.076 7        42.057                                                                    24200592.884 7  94968419.43907       582.487 7        43.266    24200590.608 7  97445781.64207       597.694 7        44.336
E24        15.000    25454091.278 7 133762159.70507     -2086.383 7        42.351                                                                    25454092.792 6  99887281.67706     -1557.966 6        41.609    25454092.665 7 102493152.83107     -1598.658 7        47.403
E15        16.000                                                                                                                                    27982315.746 4                     -2718.617 4        25.489    27982343.932 3                     -2788.764 3        23.848
E08        17.000    26027902.166 5 136777671.94505      1485.906 5        35.490                                                                                                                                    26027901.790 6 104803578.53306      1138.859 6        39.934
E05        21.000    23610333.740 6 124073243.78106     -2761.112 6        37.989                                                                    23610341.057 7  92652041.38807     -2061.898 7        45.452    23610339.473 7  95069037.88307     -2115.697 7        44.993
E13        22.000    27207242.142 4 142975094.21804     -2024.616 4        26.443                                                                    27207246.663 4                     -1511.911 4        28.777    27207235.226 5 109552258.64505     -1551.178 5        34.329
S23        24.000    38183791.066 6 200657116.10506      -815.094 6        38.423
E03        27.000    23326192.445 7 122579948.76307      -482.240 7        46.932                                                                    23326195.180 6  91536956.38406      -360.107 6        41.919    23326195.044 7  93924896.81207      -369.505 7        46.183
R11        28.000    19309628.355 7 103184863.67807       326.155 7        47.747                                                                    19309629.272 7  80254847.35407       253.768 7        43.414
R17        29.000                                                                                                                                    24173894.103 4 100612876.91404     -2720.651 4        26.874
R10        30.000    20665126.498 6 110156712.53406     -3794.918 6        36.442
R12        31.000    23042877.280 6 123091131.24006      3375.337 6        38.138                                                                    23042879.756 6  95737395.90206      2625.264 6        37.077
R08        35.000    20359696.008 7 109025213.59107     -3400.819 7        44.814                                                                    20359697.149 6  84797398.45006     -2645.181 6        41.251
C26        37.000                                                                                                                                                                                                                                                                    24773477.399 6 104824650.69206      1819.390 6        36.556
R01        38.000    19485048.683 7 104158715.16507       806.057 7        46.283                                                                    19485049.115 6  81012363.88806       626.878 6        38.324
C42        41.000                                                                                                                                    24707735.828 6 128659639.75006      2012.084 6        37.338                                                                    24707743.888 6 104546551.61506      1634.780 6        39.679
C36        42.000                                                                                                                                    23120984.642 7 120397079.94507     -3034.243 7        47.323                                                                    23120991.645 5  97832450.97205     -2465.573 5        35.595
R02        43.000    23055695.546 7 123029573.79107      3135.096 7        43.128                                                                    23055692.302 4  95689756.25904      2438.360 4        25.444
C40        44.000                                                                                                                                    39489222.999 4 205630508.86804       335.265 4        29.175
C21        47.000                                                                                                                                    22015213.893 8 114638949.83808      -443.805 8        52.289                                                                    22015210.106 7  93153525.50307      -360.808 7        45.070
C45        49.000                                                                                                                                    21689995.818 7 112945440.69007      -199.937 7        46.794                                                                    21689989.410 8  91777410.65108      -162.579 8        50.068
C22        50.000                                                                                                                                                                                                                                                                    23117058.143 5  97815731.07005     -2766.430 5        35.438
I02        56.000    38038993.137 6 149273184.77406        36.524 6        37.716
> 2025 01 01 07 47  5.0000000  0 33
G18         1.000                                                                                                                                                                    24995525.830 5 102352506.50415      -712.282 5        35.443
G13         2.000    20666756.892 4 108604497.47404      1077.759 4        26.647                                    20666751.277 1  84626799.74501       839.904 1         4.714
G30         3.000    20820908.530 8 109414574.97508     -2076.716 8        49.196                                    20820910.686 7  85258055.39007     -1618.217 7        44.459    20820909.129 6  85258154.37106     -1618.092 6        39.904
G14         4.000    21114942.330 8 110959791.11008      1051.877 8        49.517                                    21114941.590 5  86462189.83505       819.646 5        35.024    21114941.738 7  86462146.83407       819.605 7        43.769
G07         5.000    23088382.355 5 121330294.14815     -3343.906 5        35.395                                    23088392.038 1  94543105.77311     -2605.644 1        11.037    23088385.975 4                     -2605.862 4        28.853
G15         6.000    23103775.607 6 121411202.79006      2661.917 6        39.480                                    23103780.824 3  94606189.84603      2074.224 3        20.405    23103781.638 4  94606093.79504      2074.535 4        26.204
G05         7.000    21154049.752 6 111165614.86606     -1544.126 6        41.647                                    21154046.368 5  86622275.37805     -1203.208 5        33.407    21154047.516 6  86622303.37006     -1203.168 6        37.955
G20        11.000    22083391.326 6 116049120.90706     -3633.781 6        37.917
E02        13.000    27060889.252 3                      2400.063 3        22.419                                                                    27060898.478 5 106192786.83305      1791.928 5        30.709    27060895.876 5 108963040.57505      1838.070 5        30.777
E25        14.000    24199847.495 7 127171044.70907       777.766 7        42.214                                                                    24199851.747 7  94965511.15207       580.778 7        43.458    24199849.467 7  97442797.48207       596.000 7        44.309
E24        15.000    25456076.543 7 133772596.88307     -2088.440 7        42.878                                                                    25456078.890 6  99895075.66306     -1559.546 6        41.805    25456078.666 7 102501150.14107     -1600.299 7        47.234
E15        16.000    27985748.143 3                     -3640.209 3        22.971                                                                    27985780.381 3                     -2719.730 3        23.905    27985808.500 3                     -2790.169 3        22.800
E08        17.000    26026489.441 6 136770242.77606      1485.547 6        36.246                                                                    26026533.260 4                      1109.215 4        29.697    26026487.908 6 104797886.04506      1138.452 6        39.661
E05        21.000    23612962.105 6 124087052.16706     -2762.277 6        37.917                                                                    23612968.713 7  92662352.81307     -2062.693 7        45.514    23612967.155 7  95079618.30507     -2116.466 7        45.312
E13        22.000    27209166.356 3 142985222.06303     -2026.213 3        23.771                                                                    27209177.925 4                     -1513.307 4        26.599    27209163.065 5 109560019.06605     -1553.167 5        33.563
S23        24.000    38184566.964 6 200661191.79006      -815.283 6        38.159
E03        27.000    23326652.087 7 122582363.61807      -483.651 7        46.075                                                                    23326654.457 6  91538759.66206      -361.134 6        41.790    23326654.486 7  93926747.13907      -370.589 7        46.081
R11        28.000    19309324.593 7 103183242.85307       322.130 7        47.344                                                                    19309325.373 6  80253586.70806       250.573 6        41.940
R17        29.000    24177210.670 4 129377027.84604     -3501.019 4        29.754                                                                    24177168.001 4 100626486.60804     -2722.290 4        26.826
R10        30.000    20668686.351 6 110175693.00706     -3797.218 6        37.210
R12        31.000    23039717.182 6 123074257.36406      3374.208 6        36.261                                                                    23039720.567 6  95724271.78406      2624.433 6        37.123
R08        35.000    20362872.956 7 109042225.23107     -3403.766 7        43.636                                                                    20362875.072 7  84810629.71407     -2647.319 7        42.021
C26        37.000                                                                                                                                                                                                                                                                    24771324.898 6 104815554.40106      1818.894 6        38.366
R01        38.000    19484295.315 7 104154693.20407       802.787 7        46.384                                                                    19484296.906 6  81009235.70206       624.256 6        36.957
R18        39.000    23639607.473 5 126190121.74305      -936.252 5        31.396                                                                    23639649.421 4                      -728.083 4        24.707
C42        41.000                                                                                                                                    24705804.892 6 128649582.22306      2010.927 6        39.318                                                                    24705812.370 6 104538379.03606      1634.040 6        39.453
C36        42.000                                                                                                                                    23123899.339 7 120412254.97707     -3035.702 7        47.339                                                                    23123906.129 5  97844781.91305     -2466.963 5        35.614
R02        43.000    23052758.907 7 123013899.32707      3134.688 7        42.305                                                                    23052756.946 4  95677565.07704      2437.419 4        26.731
C40        44.000                                                                                                                                    39488903.110 5 205628833.78705       334.428 5        30.053
C21        47.000                                                                                                                                    22015641.569 8 114641175.43808      -446.397 8        52.074                                                                    22015637.409 7  93155333.94107      -362.770 7        44.909
C45        49.000                                                                                                                                    21690189.305 7 112946446.61007      -202.359 7        47.027                                                                    21690182.684 8  91778228.01108      -164.503 8        50.110
C22        50.000                                                                                                                                    23120328.954 5                     -3406.176 5        35.771                                                                    23120327.618 5  97829565.97005     -2767.958 5        34.814
I02        56.000    38038946.684 6 149273002.88606        36.231 6        37.849
> 2025 01 01 07 47 10.0000000  0 32
G18         1.000    24996486.895 4                      -916.926 4        27.545                                                                                                    24996400.224 5 102356073.35605      -714.544 5        34.862
G30         3.000    20822885.429 8 109424963.20408     -2078.462 8        49.458                                    20822887.434 7  85266150.09807     -1619.577 7        44.175    20822885.684 6  85266249.09106     -1619.562 6        39.165
G14         4.000    21113942.772 8 110954538.39108      1049.223 8        50.100                                    21113941.910 5  86458096.80505       817.574 5        35.233    21113941.658 7  86458053.80107       817.640 7        43.456
G07         5.000    23091564.379 6 121347016.12306     -3344.821 6        37.365                                    23091571.367 2  94556135.82002     -2606.344 2        14.048    23091567.776 5                     -2606.240 5        31.457
G15         6.000    23101242.883 6 121397895.95106      2661.136 6        36.363                                    23101248.370 2  94595820.82302      2073.622 2        17.623    23101247.587 4  94595724.80404      2073.838 4        26.371
G05         7.000    21155520.654 7 111173344.23607     -1547.564 7        42.279                                    21155516.990 5  86628298.24205     -1205.894 5        33.623    21155518.064 6  86628326.23706     -1206.141 6        38.351
G20        11.000    22086851.398 6 116067295.90706     -3636.019 6        37.274
E02        13.000    27058607.499 4                      2398.726 4        24.872                                                                    27058615.756 5 106183830.24305      1791.310 5        30.989    27058611.791 5 108953850.32005      1837.530 5        30.158
E25        14.000    24199108.549 7 127167160.66707       775.798 7        42.870                                                                    24199112.431 7  94962610.72507       579.254 7        43.609    24199110.526 7  97439821.39307       594.440 7        44.116
E24        15.000    25458064.558 7 133783044.78807     -2090.618 7        42.921                                                                    25458067.130 6  99902877.67006     -1561.144 6        41.707    25458066.680 7 102509155.66107     -1601.862 7        46.472
E15        16.000    27989223.909 3                     -3642.303 3        21.762                                                                    27989244.516 3                     -2718.848 3        23.962    27989270.354 4                     -2790.469 4        24.030
E08        17.000    26025077.551 6 136762815.61806      1485.396 6        36.915                                                                    26025116.311 5                      1108.918 5        30.649    26025073.868 6 104792195.13606      1138.172 6        39.216
E05        21.000    23615591.163 6 124100865.59206     -2763.164 6        39.123                                                                    23615597.298 7  92672667.99007     -2063.310 7        45.475    23615595.661 7  95090202.59207     -2117.183 7        45.287
E13        22.000    27211089.075 4 142995361.10104     -2030.034 4        25.850                                                                    27211110.757 4                     -1514.800 4        24.556    27211092.498 5 109567787.98605     -1554.531 5        32.832
S23        24.000    38185343.869 6 200665267.60306      -814.916 6        38.111
E03        27.000    23327112.734 7 122584785.13007      -484.857 7        45.649                                                                    23327115.117 6  91540567.92606      -362.008 6        41.597    23327115.023 7  93928602.57107      -371.569 7        45.664
R11        28.000    19309024.861 7 103181641.72407       318.266 7        46.752                                                                    19309026.624 6  80252341.38006       247.660 6        40.944
R17        29.000    24180482.889 5 129394539.73205     -3503.725 5        32.964
R10        30.000    20672249.317 6 110194686.39306     -3799.896 6        40.067
R12        31.000    23036555.649 5 123057389.30105      3373.043 5        33.413                                                                    23036561.972 6  95711152.22806      2623.586 6        37.002
R08        35.000    20366049.487 7 109059251.17807     -3406.436 7        42.764                                                                    20366054.874 7  84823872.11807     -2649.465 7        42.121
C26        37.000                                                                                                                                                                                                                                                                    24769173.961 6 104806462.20506      1817.963 6        39.354
R01        38.000    19483545.247 7 104150687.00607       799.766 7        46.680                                                                    19483547.731 6  81006119.77906       621.987 6        36.783
R18        39.000                                                                                                                                    23640534.208 4                      -732.173 4        27.737
C42        41.000                                                                                                                                    24703874.625 6 128639529.90206      2010.056 6        40.682                                                                    24703882.237 6 104530210.69906      1633.034 6        39.598
C36        42.000                                                                                                                                    23126815.818 7 120427437.44007     -3037.128 7        46.652                                                                    23126822.172 5  97857118.87405     -2467.870 5        35.667
R02        43.000    23049821.292 6 122998226.87306      3134.418 6        40.710                                                                    23049814.698 4  95665375.34604      2437.982 4        26.299
C40        44.000                                                                                                                                    39488583.215 5 205627163.42205       333.920 5        30.091
C21        47.000                                                                                                                                    22016071.548 8 114643413.57908      -448.837 8        51.799                                                                    22016067.042 7  93157152.61207      -364.764 7        44.606
C45        49.000                                                                                                                                    21690385.097 7 112947464.45007      -204.702 7        47.129                                                                    21690378.146 8  91779055.09308      -166.422 8        50.106
C22        50.000                                                                                                                                    23123601.802 6 120410636.56616     -3407.536 6        39.517                                                                    23123598.805 5  97843407.77405     -2769.055 5        34.505
I02        56.000    38038899.208 6 149272821.88306        36.069 6        38.066
> 2025 01 01 07 47 15.0000000  0 32
G18         1.000                                                                                                                                                                    24997277.776 5 102359651.41105      -716.773 5        32.341
G30         3.000    20824863.890 8 109435359.44108     -2080.412 8        49.511                                    20824865.555 7  85274251.04507     -1621.097 7        44.068    20824864.345 6  85274350.03406     -1621.232 6        38.991
G14         4.000    21112945.455 8 110949298.22408      1046.422 8        50.099                                    21112944.608 5  86454013.55405       815.395 5        35.586    21112944.319 7  86453970.55507       815.404 7        43.500
G07         5.000    23094747.311 6 121363740.52306     -3345.466 6        37.879                                    23094751.772 2  94569167.80102     -2606.820 2        17.019    23094750.592 5                     -2606.682 5        32.808
G15         6.000    23098711.811 5 121384592.52905      2660.194 5        32.778                                    23098716.555 2  94585454.45602      2072.942 2        15.429    23098718.903 4  94585358.39904      2073.247 4        28.853
G05         7.000    21156994.934 6 111181090.15406     -1551.243 6        41.321                                    21156990.725 5  86634333.99905     -1208.759 5        33.946    21156991.580 6  86634361.99106     -1208.692 6        38.117
G20        11.000    22090312.815 6 116085480.26706     -3638.136 6        38.207
E02        13.000    27056324.275 4                      2398.499 4        25.714                                                                    27056333.532 5 106174874.27205      1790.759 5        31.185    27056328.858 4 108944660.69904      1837.575 4        29.517
E25        14.000    24198371.100 7 127163286.06707       773.554 7        43.589                                                                    24198375.013 7  94959717.33907       577.656 7        43.513    24198373.370 7  97436852.52907       592.725 7        43.875
E24        15.000    25460054.521 7 133793502.29307     -2092.788 7        42.652                                                                    25460057.239 7  99910686.83907     -1562.835 7        42.047    25460056.583 7 102517168.55007     -1603.688 7        46.031
E15        16.000                                                                                                                                    27992709.536 3                     -2718.721 3        22.419    27992735.021 4                     -2789.638 4        25.774
E08        17.000    26023664.491 6 136755389.47706      1484.650 6        37.974                                                                    26023706.681 5                      1108.752 5        31.132    26023660.466 6 104786504.93606      1137.585 6        38.745
E05        21.000    23618220.478 6 124114682.92606     -2764.317 6        39.883                                                                    23618226.618 7  92682986.11507     -2064.279 7        45.424    23618224.889 7  95100789.87607     -2118.089 7        45.505
E13        22.000    27213013.213 4 143005510.24004     -2031.740 4        27.365                                                                                                                                    27213024.188 5 109575564.62405     -1556.471 5        32.395
S23        24.000    38186120.817 6 200669342.31406      -815.123 6        38.303
E03        27.000    23327574.507 7 122587212.21607      -486.334 7        45.795                                                                    23327576.786 6  91542380.34106      -363.171 6        41.092    23327576.781 7  93930462.27007      -372.600 7        45.848
R11        28.000    19308728.842 7 103180059.28607       314.136 7        46.955                                                                    19308731.348 6  80251110.59206       244.396 6        41.626
R17        29.000    24183755.460 5 129412063.95205     -3506.521 5        32.635                                                                    24183702.289 4 100653737.04704     -2727.219 4        27.545
R10        30.000    20675815.462 6 110213691.44406     -3802.565 6        41.325
R12        31.000    23033395.930 5 123040525.95705      3371.762 5        31.275                                                                    23033404.905 6  95698036.25406      2622.536 6        36.389
R08        35.000    20369230.781 7 109076290.43907     -3409.612 7        43.898                                                                    20369237.104 6  84837124.84506     -2651.798 6        41.209
C26        37.000                                                                                                                                                                                                                                                                    24767024.511 6 104797373.18606      1817.313 6        40.222
R01        38.000    19482798.227 7 104146695.50307       796.379 7        46.374                                                                    19482801.453 6  81003015.28306       619.241 6        37.474
R18        39.000                                                                                                                                    23641412.622 4                      -735.240 4        26.395
C42        41.000                                                                                                                                    24701943.992 7 128629481.72007      2008.811 7        42.064                                                                    24701953.041 6 104522045.72106      1632.478 6        39.565
C36        42.000                                                                                                                                    23129733.577 7 120442626.22607     -3038.722 7        46.637                                                                    23129739.138 6  97869461.01006     -2469.031 6        36.015
R02        43.000    23046881.194 6 122982555.24206      3133.986 6        38.135                                                                    23046875.740 4  95653186.34604      2437.482 4        28.313
C40        44.000                                                                                                                                    39488266.983 5 205625496.72005       332.663 5        30.038
C21        47.000                                                                                                                                    22016503.778 8 114645663.20008      -451.491 8        51.620                                                                    22016498.894 7  93158980.59107      -366.626 7        44.448
C45        49.000                                                                                                                                    21690582.861 7 112948493.14307      -207.188 7        47.768                                                                    21690575.575 8  91779890.98308      -168.184 8        49.994
C22        50.000                                                                                                                                    23126878.535 6 120427678.39906     -3409.481 6        41.321                                                                    23126872.061 5  97857255.63005     -2770.314 5        34.338
I02        56.000    38038854.837 6 149272641.20306        35.910 6        38.231
> 2025 01 01 07 47 20.0000000  0 34
G18         1.000                                                                                                                                                                    24998153.199 4 102363241.92504      -719.204 4        27.940
G13         2.000    20663720.715 4 108588370.67004      1072.415 4        27.665                                    20663682.389 1  84614233.80901       835.712 1         3.400
G30         3.000    20826844.216 8 109445765.32908     -2082.108 8        49.632                                    20826845.379 7  85282359.50707     -1622.417 7        43.587    20826844.809 6  85282458.49606     -1622.540 6        39.039
G14         4.000    21111950.677 8 110944072.26708      1043.849 8        49.877                                    21111950.021 5  86449941.37205       813.384 5        35.686    21111949.985 7  86449898.37907       813.380 7        43.371
G07         5.000    23097931.276 6 121380469.00006     -3346.188 6        38.468                                    23097934.043 3  94582202.95103     -2607.407 3        18.955    23097933.148 5                     -2607.323 5        33.509
G15         6.000    23096175.977 4 121371294.12604      2659.280 4        25.985                                    23096185.500 2  94575091.98902      2072.188 2        13.091    23096188.511 4  94574995.94604      2072.032 4        29.678
G05         7.000    21158472.050 6 111188854.23106     -1554.713 6        41.440                                    21158467.836 5  86640383.90705     -1211.464 5        33.766    21158468.549 6  86640411.90606     -1211.396 6        37.274
G20        11.000    22093775.953 6 116103675.53506     -3640.154 6        39.297
E26        12.000                                                                                                                                                                                                    28473391.481 5 114650549.95115       248.870 5        34.376
E02        13.000    27054043.604 4                      2397.345 4        26.611                                                                    27054051.321 5 106165920.19005      1790.540 5        32.048    27054046.912 4 108935473.00604      1837.435 4        27.820
E25        14.000    24197635.656 7 127159422.54007       771.611 7        43.718                                                                    24197639.565 7  94956832.24007       576.222 7        43.579    24197638.598 7  97433892.17007       591.226 7        43.875
E24        15.000    25462046.644 7 133803971.09207     -2094.712 7        42.698                                                                    25462049.408 7  99918504.45007     -1564.398 7        42.580    25462048.620 7 102525190.08107     -1605.139 7        45.762
E15        16.000                                                                                                                                    27996175.044 3                     -2721.506 3        20.881    27996199.862 4                     -2790.571 4        27.760
E08        17.000    26022251.387 6 136747965.90306      1484.474 6        38.060                                                                    26022298.388 5                      1108.574 5        31.185    26022247.549 6 104780816.73506      1137.530 6        38.964
E05        21.000    23620850.774 6 124128505.85906     -2765.062 6        40.153                                                                    23620856.881 7  92693308.40307     -2064.882 7        45.232    23620855.212 7  95111381.44607     -2118.692 7        45.544
E13        22.000    27214947.776 4 143015671.02804     -2033.642 4        25.474                                                                    27215014.086 4                     -1518.142 4        26.156    27214958.311 5 109583350.20805     -1557.820 5        33.216
S23        24.000    38186895.772 6 200673417.60106      -815.233 6        38.066
E03        27.000    23328037.772 7 122589646.53507      -487.669 7        45.389                                                                    23328039.947 6  91544198.15906      -364.115 6        41.073    23328039.941 7  93932327.51307      -373.586 7        45.743
R11        28.000    19308437.208 8 103178497.17308       310.478 8        48.623                                                                    19308439.793 7  80249895.61807       241.494 7        43.553
R17        29.000                                                                                                                                    24186987.553 5 100667378.03405     -2729.439 5        30.053
R10        30.000    20679382.983 6 110232709.62106     -3804.881 6        41.387
R12        31.000    23030240.647 4 123023668.90004      3371.217 4        26.144                                                                    23030249.867 5  95684925.32705      2621.797 5        34.986
R08        35.000    20372416.063 7 109093344.68207     -3412.262 7        44.650                                                                    20372422.151 6  84850389.26106     -2654.096 6        39.586
C26        37.000                                                                                                                                                                                                                                                                    24764877.284 6 104788288.67206      1816.496 6        40.756
R01        38.000    19482054.466 7 104142720.31307       793.392 7        46.435                                                                    19482057.919 6  80999923.46006       617.049 6        37.153
R18        39.000                                                                                                                                    23642287.509 4                      -738.862 4        24.015
C42        41.000                                                                                                                                    24700014.442 7 128619439.31307      2007.996 7        42.734                                                                    24700025.176 6 104513885.45806      1631.608 6        39.814
C36        42.000                                                                                                                                    23132652.957 7 120457822.96007     -3040.119 7        46.801                                                                    23132658.145 6  97881809.61906     -2470.496 6        36.215
R02        43.000    23043941.437 5 122966886.08905      3133.643 5        35.048                                                                    23043940.121 4  95640999.16504      2437.361 4        29.991
C40        44.000                                                                                                                                    39487945.263 5 205623835.29805       331.810 5        30.415
C21        47.000                                                                                                                                    22016938.168 8 114647925.91808      -453.864 8        51.816                                                                    22016933.276 7  93160819.24807      -368.818 7        44.152
C45        49.000                                                                                                                                    21690782.575 8 112949534.31808      -209.533 8        48.548                                                                    21690775.430 8  91780737.04608      -170.160 8        49.783
C22        50.000                                                                                                                                    23130155.850 7 120444729.24807     -3410.948 7        42.557                                                                    23130146.875 5  97871110.79705     -2771.588 5        34.900
I02        56.000    38038809.066 6 149272462.03806        35.618 6        38.387
> 2025 01 01 07 47 25.0000000  0 32
G30         3.000    20828826.092 8 109456179.92508     -2083.688 8        49.430                                    20828826.719 7  85290474.75507     -1623.646 7        43.056    20828826.049 6  85290573.76306     -1623.807 6        38.691
G14         4.000    21110958.502 8 110938859.60708      1041.282 8        49.949                                    21110957.983 5  86445879.56005       811.385 5        35.648    21110957.897 7  86445836.56807       811.444 7        43.617
G07         5.000    23101115.747 6 121397200.57806     -3346.517 6        38.712                                    23101117.413 3  94595240.51803     -2607.643 3        20.667    23101116.914 5  94595213.51315     -2607.609 5        34.633
G15         6.000    23093641.922 3                      2658.862 3        23.200                                                                                                    23093658.043 5  94564636.77005      2070.970 5        31.079
G05         7.000    21159953.640 6 111196635.52406     -1557.849 6        41.404                                    21159948.100 5  86646447.23305     -1213.903 5        33.742    21159950.052 6  86646475.23806     -1213.855 6        36.567
G20        11.000    22097240.510 6 116121880.85406     -3641.990 6        40.181
E26        12.000                                                                                                                                                                                                    28473080.525 5 114649310.11105       247.035 5        34.724
E02        13.000    27051758.614 4                      2397.480 4        26.874                                                                    27051769.672 5 106156967.29905      1790.468 5        32.629    27051763.831 4 108926286.55704      1837.338 4        27.401
E25        14.000    24196902.514 7 127155569.18707       769.750 7        44.143                                                                    24196906.369 7  94953954.72407       574.878 7        43.670    24196905.660 7  97430939.58507       589.854 7        43.676
E24        15.000    25464040.586 7 133814450.20807     -2096.641 7        42.690                                                                    25464043.589 7  99926329.73407     -1565.678 7        42.605    25464042.816 7 102533219.51607     -1606.572 7        45.285
E15        16.000                                                                                                                                    27999639.500 3                     -2719.122 3        21.810    27999662.785 4                     -2791.181 4        28.550
E08        17.000    26020838.288 6 136740544.02406      1484.248 6        38.859                                                                    26020886.026 5                      1108.287 5        30.921    26020835.066 6 104775129.83506      1137.389 6        38.634
E05        21.000    23623481.635 6 124142333.43306     -2765.854 6        40.076                                                                    23623487.936 7  92703634.15707     -2065.520 7        44.831    23623486.535 7  95121976.57607     -2119.274 7        45.639
E13        22.000    27216882.647 4 143025842.55604     -2035.532 4        25.654                                                                                                                                    27216894.180 5 109591144.01705     -1559.275 5        34.109
S23        24.000    38187670.981 6 200677492.49506      -814.843 6        38.108
E03        27.000    23328502.619 7 122592087.13507      -488.654 7        45.308                                                                    23328504.435 6  91546020.67406      -364.807 6        40.629    23328504.177 7  93934197.57307      -374.466 7        45.725
R11        28.000    19308149.660 8 103176954.33408       306.757 8        49.881                                                                    19308150.714 7  80248695.63307       238.600 7        44.631
R17        29.000                                                                                                                                    24190266.618 5 100681029.15705     -2731.093 5        31.147
R10        30.000    20682951.817 6 110251740.13106     -3807.287 6        41.483
R12        31.000                                                                                                                                    23027094.381 5  95671818.63905      2621.099 5        33.766
R08        35.000    20375603.464 7 109110412.82007     -3414.915 7        43.268                                                                    20375610.413 6  84863664.46106     -2655.936 6        38.691
C26        37.000                                                                                                                                                                                                                                                                    24762730.845 6 104779207.90406      1815.784 6        40.894
R01        38.000    19481314.256 7 104138760.61407       790.484 7        47.058                                                                    19481316.770 6  80996843.67106       614.866 6        37.652
R18        39.000    23643198.939 5 126209023.69515      -953.515 5        32.479                                                                    23643180.103 3                      -743.781 3        21.524
C42        41.000                                                                                                                                    24698086.880 7 128609401.76807      2007.226 7        43.088                                                                    24698098.079 6 104505729.13306      1630.780 6        40.317
C36        42.000                                                                                                                                    23135573.054 7 120473026.69607     -3041.339 7        47.512                                                                    23135577.931 6  97894163.87506     -2471.267 6        36.518
R02        43.000    23041003.535 5 122951218.55405      3133.426 5        34.600                                                                    23041009.691 5  95628813.35505      2436.907 5        30.657
C40        44.000                                                                                                                                    39487626.119 4 205622178.24004       330.634 4        29.886
C21        47.000                                                                                                                                    22017374.857 8 114650200.80508      -456.140 8        51.748                                                                    22017369.937 7  93162667.78907      -370.780 7        43.920
C45        49.000                                                                                                                                    21690984.110 8 112950587.04708      -211.629 8        49.321                                                                    21690977.512 8  91781592.48308      -172.074 8        49.323
C22        50.000                                                                                                                                    23133432.039 7 120461788.19707     -3412.447 7        42.882                                                                    23133423.692 6  97884972.56806     -2773.108 6        36.004
I02        56.000    38038763.896 6 149272283.64806        35.602 6        38.676
> 2025 01 01 07 47 30.0000000  0 33
G18         1.000                                                                                                                                                                    24999900.655 3                      -720.651 3        19.851
G30         3.000    20830809.187 8 109466603.63908     -2085.676 8        49.320                                    20830809.633 7  85298597.10307     -1625.197 7        42.440    20830809.173 6  85298696.08506     -1625.061 6        37.297
G14         4.000    21109968.958 8 110933660.65908      1038.411 8        49.531                                    21109968.636 5  86441828.43405       809.149 5        35.643    21109968.541 7  86441785.44307       809.138 7        43.433
G07         5.000    23104298.541 6 121413935.67706     -3347.525 6        37.410                                    23104301.700 3  94608280.80603     -2608.453 3        21.500    23104301.362 5  94608253.82405     -2608.211 5        35.690
G15         6.000    23091122.472 4                      2657.645 4        28.787                                                                                                    23091130.868 5  94554281.05805      2070.894 5        32.623
G05         7.000    21161437.906 6 111204434.37906     -1561.540 6        41.740                                    21161431.695 5  86652524.24905     -1216.783 5        33.240    21161434.047 6  86652552.24306     -1216.648 6        36.333
G20        11.000    22100706.575 6 116140096.65106     -3644.321 6        41.039
E26        12.000                                                                                                                                                                                                    28472774.177 5 114648078.89605       245.194 5        34.862
E02        13.000    27049478.494 4                      2397.263 4        27.341                                                                    27049488.706 5 106148015.90405      1790.340 5        33.509    27049481.518 4 108917101.65804      1836.771 4        26.144
E25        14.000    24196171.628 7 127151726.41807       767.431 7        44.080                                                                    24196175.153 7  94951085.11707       573.121 7        43.748    24196174.982 7  97427995.12407       588.040 7        43.689
E24        15.000    25466037.117 7 133824940.06807     -2099.018 7        42.999                                                                    25466039.806 7  99934163.06707     -1567.554 7        42.813    25466039.013 7 102541257.18707     -1608.389 7        44.996
E15        16.000                                                                                                                                    28003108.156 3                     -2719.694 3        20.905    28003127.644 5                     -2791.283 5        30.219
E08        17.000    26019425.733 6 136733124.26706      1483.667 6        38.357                                                                    26019473.771 5                      1108.219 5        30.800    26019423.076 6 104769444.56806      1136.681 6        38.444
E05        21.000    23626113.382 6 124156166.06506     -2767.000 6        39.532                                                                    23626120.008 7  92713963.68807     -2066.259 7        44.429    23626118.983 7  95132575.58507     -2120.145 7        45.565
E13        22.000    27218817.412 3 143036025.26903     -2038.348 3        23.010                                                                    27218870.578 3                     -1519.498 3        18.298    27218831.537 5 109598946.40805     -1561.618 5        34.286
S23        24.000    38188444.648 6 200681567.74106      -815.132 6        38.111
E03        27.000    23328968.476 7 122594534.46107      -490.127 7        45.139                                                                    23328970.465 6  91547848.20506      -366.051 6        40.658    23328969.939 7  93936072.78707      -375.592 7        45.857
R11        28.000    19307865.026 8 103175431.33108       302.550 8        50.347                                                                    19307865.428 7  80247511.04007       235.277 7        44.179
R17        29.000    24193568.478 5                     -3514.331 5        34.805                                                                    24193544.855 4 100694690.82104     -2733.419 4        29.308
R10        30.000    20686524.635 6 110270783.58406     -3810.071 6        41.948
R12        31.000                                                                                                                                    23023941.829 5  95658716.54705      2619.674 5        32.838
R08        35.000    20378791.011 6 109127495.38806     -3418.001 6        41.099                                                                    20378802.680 6  84876950.89606     -2658.391 6        37.134
C26        37.000                                                                                                                                                                                                                                                                    24760584.739 6 104770131.21306      1814.816 6        41.397
R01        38.000    19480577.461 7 104134816.82107       787.097 7        47.151                                                                    19480579.704 6  80993776.27706       612.118 6        37.701
R18        39.000    23644091.705 5 126213801.63905      -957.717 5        34.186
C42        41.000                                                                                                                                    24696160.446 7 128599369.53507      2005.854 7        43.179                                                                    24696171.682 6 104497577.09806      1629.857 6        40.586
C36        42.000                                                                                                                                    23138493.855 7 120488237.86007     -3043.047 7        47.926                                                                    23138499.401 6  97906524.18606     -2472.811 6        37.372
R02        43.000    23038068.423 5 122935553.10805      3132.779 5        33.144
C40        44.000                                                                                                                                    39487308.528 4 205620525.97804       329.544 4        28.834
C21        47.000                                                                                                                                    22017814.035 8 114652488.30808      -458.800 8        51.342                                                                    22017809.298 7  93164526.54707      -372.852 7        44.099
C45        49.000                                                                                                                                    21691187.631 8 112951651.75608      -214.156 8        49.328                                                                    21691181.905 8  91782457.63508      -174.097 8        49.246
C22        50.000                                                                                                                                    23136705.795 7 120478855.66507     -3414.456 7        42.133                                                                    23136701.911 6  97898841.23906     -2774.426 6        37.093
I02        56.000    38038718.933 6 149272106.39106        35.274 6        38.853
> 2025 01 01 07 47 35.0000000  0 31
G30         3.000    20832794.433 8 109477036.01508     -2087.562 8        49.227                                    20832794.068 6  85306726.20506     -1626.666 6        41.685    20832794.406 6  85306825.21406     -1626.531 6        37.051
G14         4.000    21108982.466 8 110928474.99108      1035.689 8        49.376                                    21108981.843 5  86437787.65905       807.032 5        35.352    21108981.874 7  86437744.66507       807.058 7        43.977
G07         5.000    23107479.437 6 121430673.90206     -3348.236 6        36.106                                    23107486.850 3  94621323.52703     -2609.003 3        23.200    23107486.945 6  94621296.53306     -2608.845 6        36.692
G15         6.000    23088601.626 5                      2656.722 5        31.675                                                                                                    23088609.543 5  94543928.57805      2070.067 5        32.946
G05         7.000    21162925.503 6 111212250.45306     -1565.208 6        41.595                                    21162918.706 5  86658614.67405     -1219.636 5        33.024    21162922.019 6  86658642.66806     -1219.485 6        37.198
G20        11.000    22104174.948 6 116158322.40106     -3646.352 6        41.185
E26        12.000    28472500.243 4 149624005.28814       317.739 4        29.242                                                                                                                                    28472469.938 5 114646856.06605       243.659 5        35.381
E02        13.000    27047195.708 4                      2397.234 4        27.413                                                                    27047207.688 5 106139065.71505      1789.878 5        34.162    27047200.855 4 108907918.02304      1836.704 4        25.850
E25        14.000    24195442.085 7 127147893.77907       765.362 7        44.479                                                                    24195445.801 7  94948223.08707       571.466 7        43.591    24195446.086 7  97425058.43507       586.392 7        43.807
E24        15.000    25468035.249 7 133835440.19807     -2101.196 7        42.847                                                                    25468037.984 7  99942004.06507     -1569.056 7        42.999    25468037.153 7 102549302.72207     -1609.976 7        44.868
E15        16.000                                                                                                                                    28006576.404 3                     -2724.105 3        20.357    28006592.955 5                     -2791.707 5        30.958
E08        17.000    26018013.687 6 136725706.13806      1483.284 6        38.459                                                                    26018061.230 5                      1107.937 5        30.800    26018011.498 6 104763760.52506      1136.432 6        38.303
E05        21.000    23628745.555 6 124170003.34806     -2767.946 6        38.462                                                                    23628752.768 7  92724296.67607     -2066.944 7        43.651    23628752.131 7  95143178.13807     -2120.944 7        45.482
E13        22.000                                                                                                                                    27220767.293 6 106820137.03216     -1523.306 6        37.176    27220770.459 5 109606756.96005     -1563.129 5        34.781
S23        24.000    38189222.473 6 200685642.52006      -815.186 6        38.102
E03        27.000    23329435.301 7 122596988.06307      -491.445 7        44.822                                                                    23329437.544 6  91549680.42706      -366.951 6        40.291    23329436.871 7  93937952.79807      -376.635 7        45.774
R11        28.000    19307583.481 8 103173927.65408       298.629 8        50.287                                                                    19307583.734 7  80246341.50007       232.315 7        44.315
R17        29.000    24196853.164 6 129482247.20716     -3517.000 6        36.605                                                                    24196832.761 5 100708362.60805     -2734.907 5        30.106
R10        30.000    20690100.419 7 110289839.25807     -3812.581 7        43.401
R12        31.000    23020796.263 5                      3367.552 5        33.114                                                                    23020788.994 5                      2619.133 5        33.006
R08        35.000    20381984.611 6 109144591.92506     -3420.762 6        40.608                                                                    20381994.448 5  84890248.18405     -2660.782 5        34.867
C26        37.000                                                                                                                                                                                                                                                                    24758439.666 6 104761058.25706      1814.186 6        41.797
R01        38.000    19479843.284 7 104130888.48007       783.959 7        47.130                                                                    19479844.659 6  80990720.89806       609.836 6        39.147
C42        41.000                                                                                                                                    24694235.196 7 128589342.15307      2004.736 7        43.714                                                                    24694246.207 6 104489429.00506      1629.155 6        40.951
C36        42.000                                                                                                                                    23141415.794 8 120503455.99108     -3044.481 8        48.222                                                                    23141422.344 6  97918890.15106     -2473.741 6        37.974
R02        43.000    23035132.232 4 122919889.40114      3132.534 4        26.335
C40        44.000                                                                                                                                    39486992.824 4 205618877.98304       329.318 4        28.493
C21        47.000                                                                                                                                    22018255.648 8 114654787.97608      -461.280 8        50.993                                                                    22018251.095 7  93166395.20307      -374.773 7        44.477
C45        49.000                                                                                                                                    21691393.304 8 112952727.99708      -216.525 8        49.279                                                                    21691388.610 8  91783332.14408      -175.817 8        49.152
C22        50.000                                                                                                                                    23139980.939 6 120495931.21606     -3416.076 6        41.449                                                                    23139981.233 6  97912716.48806     -2775.820 6        37.565
I02        56.000    38038673.488 6 149271930.05706        35.162 6        38.883
> 2025 01 01 07 47 40.0000000  0 32
G13         2.000    20659636.015 4                      1064.879 4        27.425
G30         3.000    20834781.506 8 109487478.47508     -2089.427 8        48.734                                    20834780.305 6  85314863.16506     -1628.119 6        40.574    20834781.396 6  85314962.17206     -1628.282 6        36.631
G14         4.000    21107998.249 8 110923304.00108      1032.869 8        48.516                                    21107997.858 5  86433758.32405       804.838 5        34.981    21107998.025 7  86433715.32007       804.890 7        44.360
G07         5.000    23110664.133 5 121447416.57805     -3348.854 5        35.252                                    23110672.917 4  94634369.71504     -2609.476 4        24.857    23110672.549 6  94634342.71706     -2609.225 6        37.410
G15         6.000    23086078.146 5                      2655.241 5        32.216
G05         7.000    21164415.971 6 111220085.08806     -1568.637 6        41.449                                    21164409.259 5  86664719.56105     -1222.302 5        33.042    21164412.530 6  86664747.56006     -1222.327 6        37.490
G20        11.000    22107644.767 6 116176559.52506     -3648.487 6        40.052
E26        12.000    28472195.098 5 149622421.71905       316.014 5        30.332                                                                                                                                    28472168.034 5 114645642.77305       242.011 5        35.367
E02        13.000    27044916.830 4                      2396.040 4        27.533                                                                    27044927.780 5 106130117.77305      1789.545 5        34.571    27044920.715 4 108898736.64704      1835.988 4        25.609
E25        14.000    24194715.391 7 127144072.69807       763.138 7        45.473                                                                    24194718.872 7  94945369.66507       569.938 7        43.636    24194719.523 7  97422130.58607       584.809 7        43.841
E24        15.000    25470034.996 7 133845952.02207     -2103.563 7        42.849                                                                    25470038.412 7  99949853.77907     -1570.735 7        43.291    25470037.453 7 102557357.22007     -1611.651 7        44.510
E15        16.000    28010021.653 3                     -3643.297 3        22.857                                                                                                                                    28010060.345 5                     -2791.920 5        31.555
E08        17.000    26016602.852 6 136718291.09706      1482.699 6        39.787                                                                    26016649.553 5                      1107.187 5        30.672    26016600.202 6 104758078.86106      1136.199 6        38.111
E05        21.000    23631380.723 6 124183846.60906     -2769.166 6        37.939                                                                    23631386.658 7  92734634.15907     -2067.870 7        42.705    23631386.524 7  95153785.30407     -2121.863 7        45.326
E13        22.000    27222700.025 3                     -2041.469 3        22.895                                                                    27222708.853 6 106827758.03806     -1524.865 6        38.631    27222712.354 5 109614576.78305     -1564.861 5        35.048
S23        24.000    38189995.644 6 200689718.29506      -815.063 6        38.096
E03        27.000    23329903.633 7 122599449.34707      -492.951 7        44.969                                                                    23329906.004 6  91551518.37406      -367.984 6        40.079    23329905.369 7  93939838.69307      -377.619 7        45.752
R11        28.000    19307305.358 8 103172444.73608       294.674 8        49.805                                                                    19307306.332 7  80245188.11407       229.165 7        44.873
R17        29.000    24200138.596 6 129499839.72506     -3519.779 6        38.201
R10        30.000    20693678.074 7 110308908.60607     -3815.234 7        44.889
R12        31.000    23017652.730 5 122956148.95715      3366.005 5        35.262                                                                    23017638.253 5  95632526.27815      2618.090 5        32.850
R08        35.000    20385180.806 6 109161703.74506     -3423.807 6        41.576                                                                    20385188.489 5  84903557.25305     -2662.834 5        32.395
C26        37.000                                                                                                                                                                                                                                                                    24756296.295 7 104751990.19407      1813.288 7        42.008
R01        38.000    19479112.280 7 104126976.94407       780.705 7        47.710                                                                    19479113.649 6  80987678.57006       607.322 6        40.381
C42        41.000                                                                                                                                    24692311.535 7 128579321.00407      2003.795 7        44.176                                                                    24692321.906 6 104481286.00106      1628.391 6        41.216
C36        42.000                                                                                                                                    23144339.474 8 120518682.48508     -3045.998 8        48.439                                                                    23144346.690 6  97931262.93706     -2475.174 6        38.453
R02        43.000    23032189.505 3                      3132.914 3        19.552                                                                    23032198.868 4                      2435.486 4        25.398
C40        44.000                                                                                                                                    39486676.607 4 205617235.74004       328.040 4        29.915
C21        47.000                                                                                                                                    22018699.659 8 114657101.20408      -463.869 8        50.505                                                                    22018695.531 7  93168274.89307      -376.853 7        44.805
C45        49.000                                                                                                                                    21691602.307 8 112953817.14908      -219.013 8        49.230                                                                    21691597.804 8  91784217.17808      -177.847 8        49.039
C22        50.000                                                                                                                                    23143261.459 6 120513016.21606     -3417.897 6        41.352                                                                    23143261.527 6  97926599.43306     -2777.233 6        38.288
I02        56.000    38038628.741 6 149271755.28806        34.883 6        38.745
> 2025 01 01 07 47 45.0000000  0 34
G18         1.000    25002593.526 4                      -939.287 4        25.925
G13         2.000    20658628.518 5                      1063.271 5        31.472
G30         3.000    20836770.181 7 109497930.42407     -2091.251 7        47.995                                    20836768.308 6  85323007.52206     -1629.542 6        39.339    20836769.975 6  85323106.54106     -1629.510 6        36.378
G14         4.000    21107017.230 7 110918147.13507      1030.017 7        47.767                                    21107016.610 5  86429739.99505       802.604 5        34.448    21107016.918 7  86429696.99907       802.596 7        44.515
G07         5.000    23113853.930 5 121464163.21505     -3349.550 5        34.967                                    23113859.865 4  94647419.00404     -2610.043 4        26.659    23113859.471 6  94647392.00506     -2610.129 6        38.330
G15         6.000    23083545.804 5                      2654.516 5        32.461
G05         7.000    21165910.117 6 111227937.69706     -1572.308 6        41.542                                    21165903.492 5  86670838.45205     -1225.167 5        33.084    21165906.290 6  86670866.45606     -1225.287 6        37.569
G20        11.000    22111117.187 6 116194807.44806     -3650.671 6        38.628
E26        12.000    28471893.873 4 149620850.01704       313.593 4        29.962                                                                                                                                    28471868.324 5 114644438.50805       239.981 5        35.710
E02        13.000    27042637.957 4                      2395.690 4        27.880                                                                    27042648.440 5 106121171.62905      1789.220 5        35.152    27042641.987 4 108889557.22304      1834.729 4        26.275
E25        14.000    24193990.896 7 127140262.60207       760.887 7        46.314                                                                    24193994.060 7  94942524.45607       568.320 7        43.678    24193994.791 7  97419211.16307       583.119 7        44.209
E24        15.000    25472036.888 7 133856474.92807     -2105.722 7        42.751                                                                    25472041.244 7  99957711.78507     -1572.480 7        43.678    25472039.969 7 102565420.21907     -1613.453 7        44.859
E15        16.000    28013489.540 4                     -3643.407 4        24.887                                                                    28013537.616 4                     -2721.678 4        24.602    28013529.345 5                     -2792.587 5        32.048
E08        17.000    26015192.302 6 136710878.52706      1482.340 6        40.365                                                                    26015238.340 5                      1106.756 5        30.196    26015189.926 6 104752399.09006      1135.837 6        38.126
E05        21.000    23634016.160 6 124197695.32906     -2770.208 6        37.588                                                                    23634021.659 6  92744975.71106     -2068.579 6        41.816    23634021.836 7  95164396.64107     -2122.600 7        45.466
E13        22.000    27224643.920 3                     -2045.172 3        22.305                                                                    27224653.851 6 106835387.65406     -1526.745 6        39.877    27224657.182 5 109622405.41805     -1566.502 5        34.748
S23        24.000    38190771.001 6 200693794.57906      -815.240 6        37.879
E03        27.000    23330373.295 7 122601917.72707      -494.342 7        45.267                                                                    23330376.011 6  91553361.64906      -369.268 6        40.262    23330375.267 7  93941730.04307      -378.792 7        46.165
R11        28.000    19307031.223 8 103170981.98308       290.583 8        49.790                                                                    19307032.722 7  80244050.42107       225.975 7        46.234
R17        29.000    24203430.268 6 129517446.15206     -3522.725 6        40.584
R10        30.000    20697258.403 7 110327991.08907     -3817.834 7        45.877
R12        31.000    23014499.519 6 122939321.99306      3364.818 6        36.132                                                                    23014490.589 5  95619438.74705      2616.997 5        32.551
R08        35.000    20388378.961 7 109178830.43007     -3426.747 7        42.353                                                                    20388385.145 5  84916877.94905     -2665.103 5        31.343
C26        37.000                                                                                                                                    24754154.708 6 128901383.43016      2230.615 6        36.658                                                                    24754154.111 7 104742926.54607      1812.191 7        42.453
R01        38.000    19478383.776 8 104123081.69008       777.437 8        48.376                                                                    19478385.775 6  80984648.93606       604.690 6        41.037
R18        39.000    23646758.434 5 126228264.31605      -970.769 5        34.471                                                                    23646774.688 4                      -754.441 4        26.311
C42        41.000                                                                                                                                    24690389.208 7 128569305.56307      2002.572 7        44.024                                                                    24690398.638 6 104473147.62406      1627.322 6        41.707
C36        42.000                                                                                                                                    23147264.543 8 120533916.76808     -3047.547 8        48.335                                                                    23147272.720 6  97943642.02506     -2476.435 6        38.961
R02        43.000    23029328.346 4                      3131.732 4        27.976                                                                    23029267.330 4                      2435.602 4        29.204
C40        44.000                                                                                                                                    39486358.990 5 205615598.73805       326.617 5        30.536
C21        47.000                                                                                                                                    22019145.820 8 114659427.42308      -466.497 8        50.180                                                                    22019142.543 7  93170165.12707      -379.050 7        45.463
C45        49.000                                                                                                                                    21691814.044 8 112954918.64808      -221.525 8        49.366                                                                    21691809.311 8  91785112.23408      -180.027 8        48.884
C22        50.000                                                                                                                                    23146545.181 6 120530110.07306     -3419.482 6        41.404                                                                    23146544.261 6  97940489.58306     -2778.795 6        38.889
I02        56.000    38038585.074 6 149271582.11606        34.511 6        38.655
> 2025 01 01 07 47 50.0000000  0 34
G18         1.000                                                                                                                                                                    25003549.016 3                      -730.698 3        20.048
G13         2.000    20657622.618 5                      1061.348 5        32.754
G30         3.000    20838760.967 7 109508391.78707     -2092.920 7        46.938                                    20838758.206 6  85331159.22006     -1630.844 6        38.556    20838761.028 6  85331258.22406     -1630.754 6        36.076
G14         4.000    21106038.879 7 110913004.33307      1027.474 7        47.438                                    21106037.968 5  86425732.62605       800.622 5        34.038    21106037.466 7  86425689.62007       800.557 7        43.871
G07         5.000    23117043.077 6 121480913.72006     -3350.305 6        36.306                                    23117047.555 4  94660471.30604     -2610.621 4        28.626    23117046.565 6  94660444.32206     -2610.630 6        38.829
G15         6.000    23081012.571 4                      2653.656 4        29.934                                                                                                    23081068.564 5  94512895.66705      2067.906 5        32.766
G05         7.000    21167407.797 7 111235808.24507     -1575.655 7        42.842                                    21167401.307 5  86676971.32005     -1227.777 5        33.647    21167403.851 6  86676999.31506     -1227.724 6        37.989
G20        11.000    22114593.131 6 116213066.05806     -3652.499 6        36.843
E26        12.000    28471593.717 5 149619290.04305       311.185 5        31.177                                                                                                                                    28471571.159 5 114643243.21805       238.240 5        35.276
E02        13.000    27040358.011 4                      2395.076 4        27.808                                                                    27040369.275 5 106112227.26805      1788.999 5        35.914    27040363.356 4 108880379.42404      1835.112 4        26.060
E25        14.000    24193267.881 7 127136463.41707       758.988 7        46.487                                                                    24193271.241 7  94939687.39507       566.897 7        43.774    24193271.879 7  97416300.09207       581.614 7        44.132
E24        15.000    25474040.986 7 133867008.90407     -2107.652 7        42.286                                                                    25474046.245 7  99965578.03607     -1573.819 7        43.966    25474044.776 7 102573491.69007     -1614.888 7        44.593
E15        16.000    28016957.448 4                     -3644.636 4        26.790                                                                    28017003.325 4                     -2721.587 4        24.947    28016998.931 5                     -2792.928 5        31.683
E08        17.000    26013782.378 6 136703468.40406      1482.122 6        40.417                                                                    26013827.731 5                      1106.605 5        31.034    26013779.972 6 104746721.19706      1135.497 6        38.105
E05        21.000    23636652.269 6 124211549.43106     -2771.083 6        37.077                                                                    23636657.564 6  92755321.28506     -2069.336 6        40.830    23636658.196 7  95175012.09407     -2123.292 7        45.330
E13        22.000    27226591.208 3                     -2046.535 3        23.181                                                                    27226601.253 6 106843025.79906     -1528.189 6        40.667    27226604.811 5 109630242.83005     -1567.883 5        34.090
S23        24.000    38191546.944 6 200697871.24706      -815.028 6        37.709
E03        27.000    23330844.770 7 122604393.14607      -495.425 7        45.895                                                                    23330847.186 6  91555210.15306      -370.075 6        40.415    23330846.450 7  93943626.78607      -379.632 7        46.148
R11        28.000    19306761.254 8 103169539.37208       286.819 8        50.091                                                                    19306762.864 7  80242928.37707       223.020 7        46.395
R17        29.000    24206725.199 6 129535066.32906     -3525.148 6        41.573                                                                    24206725.081 3                     -2739.669 3        20.452
R10        30.000    20700841.307 7 110347086.54607     -3820.105 7        46.006
R12        31.000                                                                                                                                    23011340.274 5  95606356.12905      2616.327 5        33.186
R08        35.000    20391581.174 6 109195971.67506     -3429.423 6        41.642                                                                    20391582.583 4  84930209.91804     -2668.002 4        28.711
C26        37.000                                                                                                                                    24752008.750 6 128890234.55606      2229.391 6        37.868                                                                    24752012.920 7 104733867.22807      1811.560 7        42.409
R01        38.000    19477657.993 8 104119202.77608       774.427 8        48.994                                                                    19477659.673 6  80981632.00806       602.264 6        40.484
R18        39.000                                                                                                                                    23647684.315 4                      -758.490 4        28.095
C42        41.000                                                                                                                                    24688467.390 7 128559295.78107      2001.704 7        43.930                                                                    24688476.122 7 104465013.78607      1626.520 7        42.013
C36        42.000                                                                                                                                    23150191.453 7 120549158.75107     -3048.888 7        47.959                                                                    23150200.004 6  97956027.34706     -2477.501 6        39.126
R02        43.000    23026386.573 5                      3131.048 5        35.657                                                                    23026334.156 5                      2435.233 5        31.441
C40        44.000                                                                                                                                    39486043.432 5 205613966.74505       326.436 5        30.370
C21        47.000                                                                                                                                    22019594.537 8 114661766.57508      -468.866 8        50.162                                                                    22019591.992 7  93172065.84807      -381.064 7        45.934
C45        49.000                                                                                                                                    21692027.971 8 112956032.41408      -223.618 8        49.477                                                                    21692023.197 8  91786017.23108      -181.853 8        48.865
C22        50.000                                                                                                                                    23149830.636 6 120547212.73406     -3421.037 6        41.635                                                                    23149829.564 6  97954386.83706     -2779.974 6        39.910
I02        56.000    38038541.010 6 149271410.20106        34.429 6        38.949
> 2025 01 01 07 47 55.0000000  0 34
G18         1.000                                                                                                                                                                    25004357.218 4                      -736.878 4        25.068
G13         2.000    20656618.685 5 108551244.52415      1059.448 5        35.719
G30         3.000    20840753.045 7 109518862.13507     -2094.848 7        44.832                                    20840750.171 6  85339317.92406     -1632.347 6        37.928    20840753.784 6  85339416.93106     -1632.217 6        36.847
G14         4.000    21105063.123 7 110907875.17907      1024.655 7        47.876                                    21105061.818 5  86421735.89105       798.430 5        33.665    21105061.730 7  86421692.87107       798.419 7        43.029
G07         5.000    23120232.222 6 121497667.63106     -3350.913 6        37.955                                    23120235.929 4  94673526.26404     -2611.095 4        29.763    23120235.328 6  94673499.27606     -2611.189 6        39.222
G15         6.000    23078486.328 4                      2652.680 4        29.573                                                                                                    23078542.598 5  94502558.73305      2066.995 5        32.707
G05         7.000    21168909.427 7 111243696.27207     -1579.212 7        43.352                                    21168902.587 5  86683117.81605     -1230.551 5        34.119    21168905.204 6  86683145.81406     -1230.491 6        38.757
G20        11.000    22118071.584 5 116231334.94605     -3654.714 5        34.671
E26        12.000    28471300.208 5 149617741.29805       309.089 5        31.434                                                                                                                                    28471276.380 5 114642056.52405       236.786 5        35.362
E02        13.000    27038080.256 4                      2395.037 4        27.653                                                                    27038090.145 6 106103284.37306      1788.742 6        36.355    27038084.970 4 108871203.28904      1834.730 4        27.078
E25        14.000    24192546.299 7 127132674.74407       756.800 7        46.265                                                                    24192550.417 7  94936858.17507       565.218 7        43.824    24192550.626 7  97413397.07107       579.888 7        43.977
E24        15.000    25476047.498 6 133877553.46206     -2109.807 6        41.440                                                                    25476053.114 7  99973452.21107     -1575.457 7        44.343    25476051.940 7 102581571.28007     -1616.568 7        44.223
E15        16.000    28020428.335 4                     -3645.390 4        27.737                                                                    28020472.817 4                     -2721.689 4        24.707    28020469.719 5                     -2793.311 5        31.321
E08        17.000    26012372.993 6 136696060.29306      1481.581 6        40.403                                                                    26012415.042 5                      1106.371 5        30.438    26012370.279 6 104741044.82006      1135.313 6        38.021
E05        21.000    23639289.943 6 124225408.48806     -2772.243 6        37.119                                                                    23639294.639 6  92765670.56206     -2070.116 6        39.234    23639295.329 7  95185631.34607     -2124.118 7        45.038
E13        22.000    27228541.963 4                     -2048.774 4        27.449                                                                    27228549.937 6 106850672.19706     -1530.009 6        41.132    27228555.556 5 109638088.72505     -1570.032 5        33.389
S23        24.000    38192322.524 6 200701948.07506      -815.029 6        37.970
E03        27.000    23331317.235 7 122606875.20707      -496.959 7        46.522                                                                    23331319.700 6  91557063.61206      -371.151 6        40.858    23331318.861 7  93945528.61207      -380.781 7        46.390
R11        28.000    19306495.274 8 103168116.43908       282.749 8        49.436                                                                    19306496.045 7  80241821.63907       219.908 7        46.359
R17        29.000    24210018.928 6 129552699.83006     -3528.015 6        40.298
R10        30.000    20704424.861 7 110366194.47007     -3822.722 7        45.222
R12        31.000    23008186.940 6 122905686.74906      3362.658 6        36.907                                                                    23008191.978 5  95593278.07305      2614.973 5        34.109
R08        35.000                                                                                                                                    20394783.380 5  84943553.09205     -2669.414 5        30.196
C26        37.000                                                                                                                                    24749867.821 6 128879090.76006      2228.368 6        39.141                                                                    24749872.661 7 104724811.99807      1810.757 7        42.245
R01        38.000    19476935.658 8 104115339.64308       771.200 8        49.498                                                                    19476937.039 6  80978627.34206       599.831 6        40.238
R18        39.000    23648609.295 5 126238013.67115      -979.104 5        31.555                                                                    23648597.250 4                      -761.089 4        27.796
C42        41.000                                                                                                                                    24686545.734 7 128549291.20707      2000.549 7        44.268                                                                    24686554.829 7 104456884.24807      1625.639 7        42.258
C36        42.000                                                                                                                                    23153119.297 7 120564408.01407     -3050.428 7        47.288                                                                    23153128.595 6  97968418.62006     -2478.842 6        39.081
R02        43.000    23023449.179 6 122857558.48316      3130.790 6        38.345                                                                    23023403.321 5                      2436.926 5        34.029
C40        44.000                                                                                                                                    39485729.405 4 205612339.47704       325.354 4        29.630
C21        47.000                                                                                                                                    22020046.055 8 114664118.24308      -471.469 8        50.215                                                                    22020043.804 7  93173976.78207      -383.082 7        46.545
C45        49.000                                                                                                                                    21692244.002 8 112957158.05508      -226.167 8        49.478                                                                    21692239.289 8  91786931.91208      -183.795 8        48.821
C22        50.000                                                                                                                                    23153117.768 7 120564323.78307     -3422.853 7        42.019                                                                    23153116.087 6  97968290.96706     -2781.441 6        40.946
I02        56.000    38038498.013 6 149271239.43206        34.258 6        38.423
> 2025 01 01 07 48  0.0000000  0 34
G18         1.000                                                                                                                                                                    25005265.976 4                      -739.046 4        29.545
G13         2.000    20655604.367 6 108545951.39206      1057.479 6        37.059
G30         3.000    20842747.399 7 109529341.53907     -2096.876 7        42.779                                    20842744.269 6  85347483.67706     -1633.924 6        37.599    20842747.765 6  85347582.69706     -1634.027 6        38.249
G14         4.000    21104089.724 8 110902759.72308      1021.725 8        48.564                                    21104088.305 5  86417749.82605       796.150 5        33.551    21104088.409 7  86417706.78907       796.248 7        42.627
G07         5.000    23123421.811 6 121514424.97706     -3351.917 6        39.429                                    23123424.871 5  94686583.90305     -2611.879 5        30.619    23123423.927 6  94686556.89106     -2611.795 6        39.276
G15         6.000    23075963.130 4                      2651.257 4        27.832
G05         7.000    21170413.270 7 111251601.83607     -1582.864 7        43.536                                    21170407.418 5  86689277.97905     -1233.401 5        34.952    21170409.969 6  86689305.98306     -1233.476 6        39.075
G20        11.000    22121554.625 5 116249614.12205     -3657.124 5        32.299
E26        12.000    28471007.816 5 149616203.95705       306.154 5        30.287                                                                                                                                    28470984.296 5 114640878.57205       234.711 5        35.490
E02        13.000    27035800.721 4                      2394.894 4        27.820                                                                    27035811.870 6 106094342.99806      1787.904 6        36.968    27035807.233 4 108862028.65204      1834.475 4        27.581
E25        14.000    24191826.418 7 127128896.61807       754.572 7        45.622                                                                    24191831.591 7  94934036.83107       563.475 7        43.989    24191831.372 7  97410502.13107       578.018 7        43.234
E24        15.000    25478056.117 6 133888108.66906     -2112.265 6        41.204                                                                    25478062.043 7  99981334.33407     -1577.290 7        44.977    25478061.196 7 102589659.02807     -1618.388 7        43.592
E15        16.000    28023900.067 4                     -3645.789 4        28.654                                                                    28023941.906 4                     -2723.197 4        25.083    28023939.349 5                     -2793.729 5        30.996
E08        17.000    26010963.837 6 136688654.25406      1481.067 6        40.365                                                                    26011001.281 4                      1106.041 4        29.479    26010961.089 6 104735370.06406      1134.714 6        37.629
E05        21.000    23641928.413 6 124239272.56306     -2773.298 6        37.093                                                                    23641932.957 6  92776023.57306     -2071.111 6        38.189    23641933.590 7  95196254.44107     -2125.058 7        44.828
E13        22.000    27230491.648 4                     -2051.397 4        28.398                                                                    27230500.422 6 106858326.84406     -1531.716 6        41.569    27230508.605 5 109645943.06705     -1571.709 5        32.234
S23        24.000    38193100.569 6 200706024.97306      -815.455 6        37.883
E03        27.000    23331790.373 7 122609363.93207      -498.402 7        46.855                                                                    23331793.293 6  91558922.05206      -372.099 6        41.266    23331792.448 7  93947435.54807      -381.932 7        46.426
R11        28.000    19306232.503 8 103166713.24808       278.600 8        49.211                                                                    19306233.198 7  80240730.25107       216.715 7        46.444
R17        29.000    24213309.652 6 129570346.60606     -3530.732 6        38.898                                                                    24213298.263 3                     -2746.800 3        22.743
R10        30.000    20708010.933 7 110385315.03507     -3825.446 7        44.369
R12        31.000    23005041.651 6 122888877.98706      3361.081 6        37.146                                                                    23005044.016 5  95580204.60205      2614.203 5        34.386
R08        35.000    20398010.834 6 109230297.02206     -3435.325 6        36.034                                                                    20397991.079 5  84956907.51105     -2672.106 5        32.174
C26        37.000                                                                                                                                    24747727.484 6 128867951.98206      2227.114 6        38.967                                                                    24747732.870 6 104715760.82406      1809.701 6        41.588
R01        38.000    19476215.256 8 104111492.33308       767.817 8        49.488                                                                    19476217.160 6  80975634.98006       597.166 6        40.205
R18        39.000                                                                                                                                    23649520.770 4                      -765.315 4        26.072
C42        41.000                                                                                                                                    24684625.299 7 128539291.92607      1999.229 7        44.239                                                                    24684634.498 7 104448758.97407      1624.628 7        42.243
C36        42.000                                                                                                                                    23156048.153 7 120579664.60107     -3052.127 7        45.953                                                                    23156058.100 6  97980815.81506     -2480.261 6        38.925
R02        43.000    23020510.400 6 122841906.55306      3130.239 6        39.465                                                                    23020469.856 6  95543496.90316      2434.404 6        36.408
C40        44.000                                                                                                                                    39485417.285 5 205610716.93705       323.907 5        30.566
C21        47.000                                                                                                                                    22020499.527 8 114666482.49808      -474.161 8        49.733                                                                    22020497.959 7  93175897.92307      -385.391 7        46.776
C45        49.000                                                                                                                                    21692462.602 8 112958295.60808      -228.743 8        49.005                                                                    21692457.616 8  91787856.25908      -185.922 8        48.425
C22        50.000                                                                                                                                    23156405.775 7 120581443.24107     -3424.718 7        42.828                                                                    23156403.870 6  97982201.90706     -2782.990 6        41.128
I02        56.000    38038454.700 6 149271069.74406        33.763 6        38.544
> 2025 01 01 07 48  5.0000000  0 33
G18         1.000    25006171.692 4                      -951.220 4        27.389                                                                                                    25006171.230 5                      -741.248 5        32.126
G13         2.000    20654592.534 6 108540667.91006      1055.816 6        40.746
G30         3.000    20844743.756 7 109539830.32507     -2098.765 7        42.373                                    20844740.553 6  85355656.73806     -1635.397 6        37.399    20844743.917 6  85355755.77006     -1635.378 6        38.850
G14         4.000    21103118.862 8 110897658.37108      1018.777 8        48.573                                    21103117.449 5  86413774.74205       793.854 5        33.341    21103117.714 7  86413731.71507       793.749 7        42.629
G07         5.000    23126610.650 6 121531186.15706     -3352.703 6        39.243                                    23126614.520 5  94699644.53005     -2612.487 5        30.581    23126613.566 6  94699617.51406     -2612.541 6        39.024
G15         6.000    23073439.534 4                      2651.181 4        26.802
G05         7.000    21171920.300 7 111259525.37007     -1586.495 7        43.168                                    21171915.839 5  86695452.14005     -1236.223 5        35.695    21171918.252 6  86695480.15406     -1236.437 6        39.312
E26        12.000    28470713.424 5 149614678.39305       303.723 5        30.491                                                                                                                                    28470693.908 5 114639709.66905       233.029 5        35.638
E02        13.000    27033525.287 4                      2393.948 4        28.502                                                                    27033534.041 6 106085403.39506      1787.905 6        37.248    27033529.863 4 108852855.81204      1834.790 4        28.275
E25        14.000    24191108.912 7 127125129.43107       752.285 7        44.590                                                                    24191114.807 7  94931223.66707       561.683 7        43.845    24191113.820 7  97407615.56307       576.432 7        42.775
E24        15.000    25480066.593 6 133898674.90906     -2114.380 6        40.837                                                                    25480072.960 7  99989224.68207     -1578.879 7        45.332    25480071.803 7 102597755.22707     -1620.142 7        42.927
E15        16.000    28027371.844 4                     -3646.170 4        28.711                                                                    28027409.479 4                     -2722.457 4        24.857    28027408.752 5                     -2794.092 5        30.574
E08        17.000    26009555.108 6 136681250.69506      1480.317 6        39.937                                                                    26009591.861 4                      1106.116 4        28.550    26009551.844 6 104729697.18406      1134.272 6        37.172
E05        21.000    23644568.324 6 124253142.02206     -2774.470 6        37.497                                                                    23644571.487 6  92786380.60506     -2072.018 6        37.089    23644573.051 7  95206881.65607     -2125.930 7        44.773
E13        22.000    27232444.062 4                     -2053.507 4        29.128                                                                    27232453.064 6 106865990.03806     -1533.529 6        41.466    27232465.113 5 109653806.21905     -1573.859 5        31.140
S23        24.000    38193873.721 6 200710102.12706      -815.502 6        38.186
E03        27.000    23332265.359 7 122611859.73107      -499.962 7        46.775                                                                    23332268.234 6  91560785.78406      -373.317 6        41.661    23332267.375 7  93949347.90007      -383.019 7        46.570
R11        28.000    19305974.076 8 103165330.19408       274.533 8        49.225                                                                    19305974.852 7  80239654.54107       213.516 7        46.549
R17        29.000    24216602.145 6 129588007.14706     -3533.452 6        37.323                                                                    24216607.635 4                     -2748.284 4        26.671
R10        30.000    20711600.280 7 110404448.65907     -3827.973 7        44.232
R12        31.000    23001897.981 6 122872075.57106      3359.834 6        36.972                                                                    23001899.314 5  95567136.06405      2613.109 5        35.333
R08        35.000    20401224.540 5 109247481.38405     -3438.650 5        33.156                                                                    20401201.437 5  84970273.15305     -2674.284 5        34.333
C26        37.000                                                                                                                                    24745588.661 6 128856818.62806      2225.965 6        38.303                                                                    24745594.269 6 104706714.04006      1808.711 6        40.956
R01        38.000    19475497.776 8 104107661.48808       764.462 8        48.822                                                                    19475500.031 6  80972655.43506       594.577 6        40.179
R18        39.000                                                                                                                                    23650443.127 4                      -768.299 4        25.865
C42        41.000                                                                                                                                    24682705.830 7 128529298.30007      1998.029 7        44.169                                                                    24682715.230 7 104440638.31607      1623.590 7        42.463
C36        42.000                                                                                                                                    23158978.617 7 120594928.89507     -3053.675 7        44.552                                                                    23158988.806 6  97993219.25406     -2481.378 6        38.213
R02        43.000                                                                                                                                    23017537.590 6  95531325.18306      2434.036 6        37.225
C40        44.000                                                                                                                                    39485102.436 5 205609099.50805       322.322 5        30.566
C21        47.000                                                                                                                                    22020955.344 8 114668859.70808      -476.798 8        48.930                                                                    22020954.565 7  93177829.58307      -387.403 7        47.338
C45        49.000                                                                                                                                    21692683.670 8 112959445.45408      -231.317 8        48.485                                                                    21692678.383 8  91788790.58108      -187.892 8        48.500
C22        50.000                                                                                                                                    23159695.259 7 120598571.49707     -3426.600 7        43.556                                                                    23159693.460 6  97996120.00106     -2784.368 6        41.683
I02        56.000    38038411.702 6 149270901.38406        33.493 6        38.210
