     3.04           OBSERVATION DATA    M                   RINEX VERSION / TYPE
ssrcrin-15.6.1x                         20250101 120000 UTC PGM / RUN BY / DATE 
(00000000023479385599111004) Septentrio proprietary         COMMENT             
ract                                                        MARKER NAME         
01                                                          MARKER NUMBER       
geodetic                                                    MARKER TYPE         
NFB                 CLIMERS@TUW                             OBSERVER / AGENCY   
3296359             SEPT ASTERX SB3 PROB4.14.4              REC # / TYPE / VERS 
Unknown             Unknown                                 ANT # / TYPE        
  4127447.6709  1206915.3935  4695541.8490                  APPROX POSITION XYZ 
        0.0000        0.0000        0.0000                  ANTENNA: DELTA H/E/N
G   23 X1  C1C L1C D1C S1C C1W S1W C2W L2W D2W S2W C2L L2L  SYS / # / OBS TYPES 
       D2L S2L C5Q L5Q D5Q S5Q C1L L1L D1L S1L              SYS / # / OBS TYPES 
E   21 X1  C1C L1C D1C S1C C6C L6C D6C S6C C5Q L5Q D5Q S5Q  SYS / # / OBS TYPES 
       C7Q L7Q D7Q S7Q C8Q L8Q D8Q S8Q                      SYS / # / OBS TYPES 
S    9 X1  C1C L1C D1C S1C C5I L5I D5I S5I                  SYS / # / OBS TYPES 
R   17 X1  C1C L1C D1C S1C C2P L2P D2P S2P C2C L2C D2C S2C  SYS / # / OBS TYPES 
       C3Q L3Q D3Q S3Q                                      SYS / # / OBS TYPES 
C   25 X1  C1P L1P D1P S1P C5P L5P D5P S5P C2I L2I D2I S2I  SYS / # / OBS TYPES 
       C7I L7I D7I S7I C6I L6I D6I S6I C7D L7D D7D S7D      SYS / # / OBS TYPES 
J   17 X1  C1C L1C D1C S1C C2L L2L D2L S2L C5Q L5Q D5Q S5Q  SYS / # / OBS TYPES 
       C1L L1L D1L S1L                                      SYS / # / OBS TYPES 
I    5 X1  C5A L5A D5A S5A                                  SYS / # / OBS TYPES 
SEPTENTRIO RECEIVERS OUTPUT ALIGNED CARRIER PHASES.         COMMENT             
NO FURTHER PHASE SHIFT APPLIED IN THE RINEX ENCODER.        COMMENT             
G L1C                                                       SYS / PHASE SHIFT   
G L2W                                                       SYS / PHASE SHIFT   
G L2L  0.00000                                              SYS / PHASE SHIFT   
G L5Q  0.00000                                              SYS / PHASE SHIFT   
G L1L  0.00000                                              SYS / PHASE SHIFT   
E L1C  0.00000                                              SYS / PHASE SHIFT   
E L6C  0.00000                                              SYS / PHASE SHIFT   
E L5Q  0.00000                                              SYS / PHASE SHIFT   
E L7Q  0.00000                                              SYS / PHASE SHIFT   
E L8Q  0.00000                                              SYS / PHASE SHIFT   
S L1C                                                       SYS / PHASE SHIFT   
S L5I                                                       SYS / PHASE SHIFT   
R L1C                                                       SYS / PHASE SHIFT   
R L2P  0.00000                                              SYS / PHASE SHIFT   
R L2C                                                       SYS / PHASE SHIFT   
R L3Q  0.00000                                              SYS / PHASE SHIFT   
C L1P  0.00000                                              SYS / PHASE SHIFT   
C L5P  0.00000                                              SYS / PHASE SHIFT   
C L2I                                                       SYS / PHASE SHIFT   
C L7I                                                       SYS / PHASE SHIFT   
C L6I                                                       SYS / PHASE SHIFT   
C L7D                                                       SYS / PHASE SHIFT   
J L1C                                                       SYS / PHASE SHIFT   
J L2L  0.00000                                              SYS / PHASE SHIFT   
J L5Q  0.00000                                              SYS / PHASE SHIFT   
J L1L  0.00000                                              SYS / PHASE SHIFT   
I L5A                                                       SYS / PHASE SHIFT   
  2025     1     1    12     0    0.0000000     GPS         TIME OF FIRST OBS   
 C1C    0.000 C2C    0.000 C2P    0.000                     GLONASS COD/PHS/BIS 
DBHZ                                                        SIGNAL STRENGTH UNIT
    18                                                      LEAP SECONDS        
 24 R01  1 R02 -4 R03  5 R04  6 R05  1 R06 -4 R07  5 R08  6 GLONASS SLOT / FRQ #
    R09 -2 R10 -7 R11  0 R12 -1 R13 -2 R14 -7 R15  0 R16 -1 GLONASS SLOT / FRQ #
    R17  4 R18 -3 R19  3 R20  2 R21  4 R22 -3 R23  3 R24  2 GLONASS SLOT / FRQ #
                                                            END OF HEADER       
> 2025 01 01 12 00  0.0000000  0 38
G19         1.000    21378608.981 6 112345330.93906     -1825.901 6        39.051                                    21378612.162 3  87541823.59203     -1422.772 3        22.229
G25         3.000    23234764.099 6 122099488.74006      2463.450 6        38.024                                    23234772.867 3  95142527.50503      1919.570 3        19.373    23234770.793 4  95142545.61104      1919.543 4        26.958
G17         5.000    23680472.783 5 124441616.92505     -3716.618 5        34.600                                    23680463.606 2  96967566.17502     -2896.072 2        13.394
G15         6.000    23715877.087 7 124627988.50107     -4673.172 7        43.263                                    23715883.834 5  97112591.97405     -3641.419 5        34.286    23715885.387 6  97112555.96006     -3641.449 6        39.258
G12         7.000    20759740.091 8 109093162.95208       814.420 8        49.944                                    20759742.260 7  85007665.13507       634.613 7        45.956    20759741.151 7  85007689.13507       634.591 7        43.985
E30         9.000    24315233.291 7 127777432.90407       491.258 7        43.501                                                                    24315239.822 8  95418235.38908       366.794 8        50.318    24315238.584 8  97907411.08608       376.397 8        50.598
G32        11.000    24474910.944 6 128616496.26106      2063.126 6        36.681                                    24474924.076 4 100220652.14604      1607.644 4        27.341    24474922.407 5 100220691.15805      1607.618 5        35.676
G10        12.000    24876104.523 6 130724836.67306     -2520.644 6        36.284                                    24876139.163 1 101863653.71301     -1964.160 1         7.500    24876119.350 4                     -1964.335 4        25.474
E02        13.000    23689698.925 7 124490217.06607     -2047.168 7        45.755                                                                    23689706.054 8  92963558.67708     -1528.727 8        49.188    23689704.310 8  95388700.96908     -1568.568 8        49.613
G24        16.000    20139225.052 5 105832446.86005     -1484.002 5        33.635                                    20139210.469 3  82466675.21003     -1156.366 3        21.143    20139219.323 5                     -1156.255 5        30.196
E08        17.000    25000536.231 7 131378632.87607     -3285.921 7        44.680                                                                    25000542.411 7  98107417.54607     -2453.827 7        42.097    25000539.540 7 100666781.20207     -2517.835 7        43.022
E07        18.000    24381523.608 7 128125850.80107      -552.806 7        42.493                                                                    24381531.864 7  95678414.80507      -412.740 7        45.181    24381538.604 7  98174342.56907      -423.531 7        42.717
R22        22.000    21289272.536 7 113643740.76407      -106.010 7        44.635                                                                    21289279.231 7  88389476.71207       -82.430 7        45.678
S36        23.000    38242249.393 5 200964335.87205      -841.916 5        35.581
S23        24.000    38179014.081 5 200632077.27105      -845.601 5        35.690
R04        25.000    21331197.367 8 114227701.65208       576.396 8        49.492                                                                    21331206.066 7  88843744.57507       448.237 7        44.041
E29        26.000    27666149.879 6 145386613.46006      1751.821 6        36.151                                                                    27666169.843 6 108567965.27706      1308.344 6        39.273    27666164.131 6 111400159.54506      1342.385 6        41.397
R13        29.000    19497997.458 6 104118215.07206      -738.096 6        36.026
R12        31.000    21111206.160 8 112772275.94508     -3374.981 8        48.645                                                                    21111215.831 7  87711790.83607     -2624.969 7        43.393
C10        32.000                                                                                                                                    38899098.419 4 202557804.31704     -1408.007 4        28.445    38899111.588 6 156630575.90006     -1088.807 6        41.824    38899106.433 5 164594810.39205     -1144.365 5        35.905
R03        33.000    20841310.813 5 111565182.35005     -3272.233 5        34.814
C24        34.000                                                                                                                                    21759261.111 7 113306139.59907       310.639 7        45.294                                                                    21759257.477 7  92070580.85307       252.443 7        46.958
R14        35.000    22362575.881 7 119205094.72307      2167.450 7        45.902                                                                    22362586.144 5  92715177.56305      1685.584 5        31.042
R23        36.000    22151837.119 5                      2939.719 5        32.174
C26        37.000                                                                                                                                    22454483.857 6 116926443.98706     -2333.864 6        40.489                                                                    22454487.245 6  95012337.55706     -1896.648 6        38.372
S21        38.000    38470483.441 5 202163730.54905      -841.371 5        34.581
C44        39.000                                                                                                                                                                                                                                                                    24211602.021 5 102447218.48505      1808.766 5        34.800
C35        40.000                                                                                                                                    23211348.361 6 120867528.19306       117.159 6        39.922                                                                    23211362.757 5  98214833.30405        95.165 5        32.934
C42        41.000                                                                                                                                    25989726.210 6 135335324.26706     -4096.847 6        37.474                                                                    25989747.618 4 109971129.88204     -3329.351 4        27.293
R02        43.000    23544580.489 4                     -5397.500 4        27.389                                                                    23544670.739 3                     -4198.547 3        18.507
C40        44.000                                                                                                                                    40102887.323 4                     -1986.640 4        24.075                                                                    40102829.024 4                     -1614.236 4        28.521
C33        46.000                                                                                                                                    24476059.727 6 127453177.59506     -2450.270 6        41.073                                                                    24476072.298 7 103566352.66307     -1991.352 7        43.634
C14        48.000                                                                                                                                    24866015.378 5 129484010.29805     -3544.806 5        35.805    24866031.556 5 100125280.03205     -2741.186 5        31.555    24866036.763 5 105216341.83305     -2880.583 5        33.275
C41        50.000                                                                                                                                    25593340.569 6 133271142.77406       222.298 6        37.062                                                                    25593344.135 6 108293806.20306       180.706 6        39.667
C29        51.000                                                                                                                                    25485248.698 6 132708315.90906     -2973.141 6        39.378                                                                    25485261.300 5                     -2416.094 5        30.423
C07        53.000                                                                                                                                                                                                    39726949.868 4                     -1317.251 4        28.891    39726938.341 4 168097673.89004     -1383.963 4        26.395
I02        56.000    36941375.520 5 144965882.49905      -690.274 5        32.988
I06        58.000    38406543.781 6 150715496.74706      -739.360 6        36.809
> 2025 01 01 12 00  5.0000000  0 39
G19         1.000    21380347.741 6 112354469.07506     -1829.218 6        40.849                                    21380351.015 4  87548944.19804     -1425.365 4        24.602
G25         3.000    23232421.219 6 122087173.95906      2462.558 6        40.441                                    23232427.939 3  95132931.60103      1918.843 3        20.476    23232424.635 4  95132949.66304      1918.427 4        25.820
G17         5.000    23684005.300 5 124460204.69905     -3718.340 5        35.148                                    23684001.018 1  96982050.09601     -2897.389 1        11.481    23684036.182 5                     -2897.398 5        31.600
G15         6.000    23720323.970 7 124651356.20607     -4673.915 7        43.484                                    23720330.859 5  97130800.52305     -3642.005 5        34.519    23720331.450 6  97130764.49506     -3641.719 6        39.243
G12         7.000    20758966.852 8 109089097.01408       812.087 8        50.265                                    20758968.472 7  85004496.87407       632.791 7        45.941    20758967.618 7  85004520.86607       632.929 7        43.242
E30         9.000    24314765.933 7 127774980.92407       489.740 7        44.441                                                                    24314773.315 8  95416404.35208       365.801 8        50.422    24314771.998 8  97905532.28708       375.361 8        50.674
G32        11.000    24472948.649 6 128606185.79906      2061.266 6        36.484                                    24472962.209 4 100212618.00804      1606.175 4        26.790    24472959.650 5 100212657.03205      1605.997 5        34.681
G10        12.000    24878499.591 6 130737445.97206     -2522.935 6        36.034                                    24878538.028 1 101873479.21301     -1965.918 1         8.762
E02        13.000    23691647.347 7 124500456.19107     -2048.304 7        45.576                                                                    23691654.473 8  92971204.77408     -1529.584 8        49.340    23691652.843 8  95396546.53308     -1569.481 8        49.605
G24        16.000    20140639.972 5 105839872.51305     -1486.549 5        35.605                                    20140626.976 4  82472461.44704     -1158.350 4        24.075    20140632.682 5                     -1158.454 5        32.048
E08        17.000    25003663.545 7 131395067.09607     -3287.600 7        44.274                                                                    25003669.901 7  98119689.83007     -2455.018 7        42.603    25003667.051 7 100679373.63707     -2519.050 7        43.126
E07        18.000    24382050.970 7 128128621.29507      -555.275 7        42.451                                                                    24382059.049 7  95680483.68807      -414.657 7        45.240    24382065.536 7  98176465.41407      -425.461 7        43.242
R22        22.000    21289374.433 7 113644282.46207      -110.507 7        45.389                                                                    21289380.860 7  88389898.03107       -85.961 7        45.722
S36        23.000    38243054.580 5 200968544.68005      -841.556 5        35.548
S23        24.000    38179818.897 5 200636306.00505      -845.674 5        35.829
R04        25.000    21330662.398 8 114224831.33308       571.959 8        50.080                                                                    21330671.128 7  88841512.10307       444.821 7        44.643
E29        26.000    27664483.802 5 145377856.56605      1751.040 5        35.109                                                                    27664501.538 6 108561425.97206      1307.526 6        39.033    27664497.857 6 111393449.66606      1341.535 6        40.994
R13        29.000    19498688.875 5 104121910.16805      -739.869 5        34.352
R21        30.000                                                                                                                                    23389698.787 4                     -3001.305 4        25.203
R12        31.000    21114366.196 8 112789154.38708     -3376.257 8        49.088                                                                    21114375.530 7  87724918.49007     -2625.908 7        43.763
C10        32.000                                                                                                                                    38900454.206 4 202564846.63404     -1408.586 4        29.336    38900463.834 6 156636021.44906     -1089.191 6        41.545    38900459.145 5 164600532.84405     -1144.634 5        35.633
R03        33.000    20844366.192 6 111581553.76616     -3276.156 6        38.387                                                                    20844354.522 4                     -2548.171 4        29.829
C24        34.000                                                                                                                                    21758960.897 7 113304590.08807       309.174 7        44.877                                                                    21758959.936 7  92069321.72307       251.353 7        46.720
R14        35.000    22360542.507 7 119194260.08307      2166.449 7        45.121                                                                    22360552.173 5  92706750.62205      1685.240 5        33.084
R23        36.000    22149098.626 5                      2937.523 5        33.222
C26        37.000                                                                                                                                    22456726.333 6 116938117.53606     -2335.351 6        41.974                                                                    22456729.080 6  95021823.24706     -1897.642 6        38.498
S21        38.000    38471284.054 5 202167937.45205      -841.182 5        34.595
C44        39.000                                                                                                                                    24209497.857 4 126064989.94814      2224.834 4        26.263                                                                    24209465.207 5 102438176.96005      1807.848 5        33.916
C35        40.000                                                                                                                                    23211237.536 6 120866949.48306       114.405 6        40.122
C42        41.000                                                                                                                                    25993659.966 6 135355809.65806     -4097.167 6        37.225                                                                    25993681.463 4 109987775.92004     -3329.769 4        26.000
R02        43.000    23549638.350 4                     -5398.354 4        24.962
C40        44.000                                                                                                                                    40104795.830 4                     -1987.234 4        24.286                                                                    40104736.444 4                     -1614.642 4        28.028
C33        46.000                                                                                                                                    24478408.721 6 127465436.59806     -2453.016 6        39.432                                                                    24478426.279 7 103576314.06307     -1993.327 7        43.187
C14        48.000                                                                                                                                    24869420.715 5 129501737.99705     -3546.250 5        35.457    24869427.767 5 100138988.15705     -2741.972 5        32.054    24869442.746 5 105230747.04605     -2881.875 5        34.033
C41        50.000                                                                                                                                                                                                                                                                    25593131.966 6 108292908.61806       178.379 6        38.607
C29        51.000                                                                                                                                    25488104.399 6 132723187.57806     -2975.480 6        39.486                                                                    25488117.857 5                     -2417.836 5        30.596
C07        53.000                                                                                                                                    39728613.787 4 206877109.85914     -1703.816 4        24.451    39728586.236 4                     -1317.645 4        28.474    39728574.480 4 168104596.08204     -1384.409 4        26.419
I02        56.000    36942254.258 5 144969334.65605      -690.348 5        32.605
I06        58.000    38407486.096 6 150719194.24806      -739.558 6        37.123
> 2025 01 01 12 00 10.0000000  0 39
G19         1.000    21382090.458 7 112363622.63407     -1831.985 7        42.032                                    21382092.707 4  87556076.82704     -1427.521 4        26.084
G25         3.000    23230079.176 6 122074863.16606      2462.006 6        41.909                                    23230084.299 3  95123338.81803      1918.438 3        21.643    23230088.215 4  95123356.90104      1917.814 4        27.305
G17         5.000    23687550.374 5 124478799.85905     -3719.496 5        35.176                                    23687539.757 1  96996539.76001     -2898.239 1        11.926    23687566.725 5                     -2898.460 5        31.336
G15         6.000    23724771.072 7 124674725.85107     -4673.924 7        43.424                                    23724778.290 5  97149010.58005     -3642.005 5        34.748    23724779.621 6  97148974.57106     -3642.041 6        39.712
G12         7.000    20758195.249 8 109085041.40008       810.230 8        50.140                                    20758196.541 7  85001336.65007       631.347 7        45.806    20758196.238 7  85001360.64607       631.426 7        42.961
E30         9.000    24314300.188 7 127772534.46107       488.965 7        45.401                                                                    24314307.816 8  95414577.45208       365.220 8        50.478    24314306.456 8  97903657.73508       374.659 8        50.616
G32        11.000    24470988.482 6 128595883.45506      2059.867 6        36.314                                    24471001.667 4 100204590.20504      1605.107 4        25.850    24470999.103 5 100204629.23105      1605.167 5        33.449
G10        12.000    24880894.525 6 130750066.00806     -2524.725 6        36.646                                    24880939.218 1 101883312.95301     -1967.345 1        10.518
E02        13.000    23693596.727 7 124510700.09507     -2049.038 7        45.865                                                                    23693603.850 8  92978854.43408     -1530.137 8        49.428    23693602.332 8  95404395.75008     -1570.071 8        49.479
E25        14.000    27588306.023 3                     -3427.229 3        21.048
G24        16.000    20142055.968 5 105847311.40305     -1488.584 5        34.690                                    20142045.205 4  82478258.00704     -1159.939 4        25.895    20142048.460 5  82478322.06215     -1160.084 5        34.205
E08        17.000    25006791.778 7 131411508.38707     -3288.695 7        43.433                                                                    25006798.876 7  98131967.40207     -2455.913 7        43.130    25006796.066 7 100691971.49507     -2519.991 7        43.270
E07        18.000    24382580.527 7 128131402.98107      -557.249 7        42.542                                                                    24382588.470 7  95682560.92207      -416.177 7        45.412    24382593.170 7  98178596.84907      -427.067 7        43.336
R22        22.000    21289480.593 7 113644845.74107      -114.679 7        45.592                                                                    21289485.748 7  88390336.12007       -89.177 7        45.201
S36        23.000    38243853.695 5 200972752.67505      -841.398 5        35.462
S23        24.000    38180625.922 5 200640534.16405      -845.271 5        35.829
R04        25.000    21330130.414 8 114221982.22708       567.914 8        50.249                                                                    21330138.815 7  88839296.12107       441.752 7        44.167
E29        26.000    27662817.420 5 145369104.44805      1750.094 5        34.700                                                                    27662834.400 6 108554890.26106      1306.824 6        38.883    27662832.394 6 111386743.47206      1340.931 6        40.460
R13        29.000    19499382.857 6 104125615.08306      -741.616 6        36.151
R21        30.000                                                                                                                                    23393313.481 4                     -3003.930 4        29.517
R12        31.000    21117526.534 8 112806037.96808     -3377.031 8        48.839                                                                    21117536.488 7  87738050.15907     -2626.625 7        43.355
C10        32.000                                                                                                                                    38901807.909 5 202571889.69205     -1408.793 5        30.483    38901816.390 6 156641467.57706     -1089.194 6        41.597    38901811.550 5 164606255.89105     -1144.410 5        35.714
R03        33.000    20847428.888 6 111597943.42606     -3279.600 6        39.895
C24        34.000                                                                                                                                    21758661.147 7 113303046.64207       308.252 7        44.298                                                                    21758663.555 7  92068067.52907       250.522 7        46.612
R14        35.000    22358510.407 7 119183428.55907      2166.102 7        44.290                                                                    22358522.226 5  92698326.15105      1684.647 5        33.701
C26        37.000                                                                                                                                    22458970.758 7 116949796.82407     -2336.266 7        42.845                                                                    22458972.181 6  95031313.63006     -1898.454 6        39.042
S21        38.000    38472079.386 5 202172143.60105      -840.932 5        34.481
C44        39.000                                                                                                                                                                                                                                                                    24207328.829 5 102429139.20505      1807.343 5        33.647
C35        40.000                                                                                                                                    23211126.723 6 120866383.82506       112.034 6        37.958                                                                    23211126.081 5  98213903.36205        90.887 5        33.036
C42        41.000                                                                                                                                    25997593.354 6 135376295.25406     -4096.852 6        36.975                                                                    25997615.237 4 110004422.03404     -3329.394 4        26.874
R02        43.000    23554695.590 3                     -5396.729 3        21.738
C40        44.000                                                                                                                                    40106707.618 3                     -1985.049 3        23.048                                                                    40106644.530 4                     -1614.482 4        28.218
C33        46.000                                                                                                                                    24480759.351 6 127477706.94706     -2455.035 6        39.667                                                                    24480782.429 7 103586284.70507     -1994.968 7        42.798
C14        48.000                                                                                                                                    24872828.077 5 129519471.91805     -3547.434 5        34.452    24872834.282 5 100152701.06005     -2742.780 5        34.090    24872847.186 5 105245157.25205     -2882.533 5        35.448
C41        50.000                                                                                                                                                                                                                                                                    25592921.792 6 108292021.51106       176.600 6        37.009
C29        51.000                                                                                                                                    25490961.081 6 132738068.94506     -2977.192 6        38.228                                                                    25490975.850 4                     -2419.088 4        29.659
C07        53.000                                                                                                                                                                                                    39730221.665 4                     -1317.342 4        28.502    39730209.469 4 168111518.48904     -1384.292 4        26.503
I02        56.000    36943134.015 5 144972787.15305      -690.283 5        32.257
I06        58.000    38408427.372 6 150722891.23606      -739.189 6        37.070
> 2025 01 01 12 00 15.0000000  0 39
G19         1.000    21383835.462 7 112372792.29207     -1835.708 7        43.094                                    21383837.476 4  87563222.00104     -1430.413 4        26.599
G25         3.000    23227737.712 7 122062557.06207      2460.579 7        42.815                                    23227741.916 3  95113749.67903      1917.341 3        23.010    23227746.514 4  95113767.74704      1917.029 4        28.559
G17         5.000    23691096.968 5 124497403.11505     -3721.593 5        34.900                                    23691079.954 1  97011035.66201     -2899.897 1        10.667    23691097.013 5                     -2899.861 5        31.291
G15         6.000    23729218.318 7 124698098.17907     -4674.963 7        43.037                                    23729226.311 5  97167222.72705     -3642.815 5        34.805    23729227.126 6  97167186.70506     -3642.576 6        39.784
G12         7.000    20757425.252 8 109080996.82908       807.636 8        49.457                                    20757426.657 7  84998185.02907       629.331 7        45.392    20757426.574 7  84998209.01607       629.368 7        42.969
E30         9.000    24313836.299 7 127770094.28707       487.281 7        46.463                                                                    24313843.530 8  95412755.24708       363.854 8        50.699    24313842.095 8  97901787.99608       373.320 8        50.649
G32        11.000    24469030.380 6 128585589.96606      2057.804 6        37.357                                    24469042.412 4 100196569.29104      1603.497 4        24.602    24469039.620 5 100196608.32405      1603.513 5        32.772
G10        12.000    24883299.362 6 130762697.46406     -2527.441 6        37.520                                    24883342.728 2 101893155.62702     -1969.429 2        12.727    24883342.719 4                     -1970.477 4        24.150
E02        13.000    23695547.166 7 124520949.46807     -2050.569 7        46.167                                                                    23695554.243 8  92986508.18408     -1531.325 8        49.589    23695552.798 8  95412249.15708     -1571.224 8        49.579
E25        14.000    27591579.000 3                     -3425.792 3        19.701
G24        16.000    20143469.764 5 105854764.41305     -1492.272 5        35.367                                    20143465.732 4  82484065.55504     -1162.815 4        26.192    20143470.301 6  82484129.57506     -1162.627 6        37.558
E08        17.000    25009921.203 6 131427957.45706     -3290.506 6        41.733                                                                    25009929.175 7  98144250.77907     -2457.310 7        43.744    25009926.659 7 100704575.31607     -2521.478 7        43.803
E07        18.000    24383111.474 7 128134196.59507      -560.039 7        42.582                                                                    24383120.118 7  95684647.05907      -418.213 7        45.523    24383123.778 7  98180737.42607      -429.216 7        43.486
R22        22.000    21289590.071 7 113645431.28407      -119.476 7        45.166                                                                    21289595.165 7  88390791.53407       -92.956 7        44.310
S36        23.000    38244657.138 5 200976960.40705      -841.644 5        35.576
S23        24.000    38181431.177 5 200644762.24405      -845.550 5        35.605
R04        25.000    21329602.793 8 114219154.89308       563.159 8        50.721                                                                    21329610.482 7  88837097.07607       438.004 7        43.361
E29        26.000    27661152.954 5 145360357.77405      1748.815 5        33.467                                                                    27661168.848 6 108548358.59506      1305.683 6        38.871    27661167.489 6 111380041.42706      1339.802 6        39.616
R13        29.000    19500080.410 6 104129330.36906      -744.109 6        38.243
R21        30.000    23396876.105 5 125201690.59515     -3865.816 5        34.581                                                                    23396929.789 4                     -3007.345 4        29.602
R12        31.000    21120688.014 8 112822927.33108     -3378.650 8        48.864                                                                    21120698.938 7  87751186.30607     -2627.778 7        42.595
C10        32.000                                                                                                                                    38903161.366 5 202578934.19205     -1409.217 5        31.600    38903169.022 6 156646914.85506     -1089.680 6        41.700    38903164.418 5 164611980.13005     -1144.987 5        35.976
R03        33.000    20850496.154 6 111614352.19106     -3283.682 6        41.507                                                                    20850499.345 5  86811169.59515     -2553.530 5        34.838
C24        34.000                                                                                                                                    21758366.152 7 113301509.93507       306.512 7        44.667                                                                    21758368.450 7  92066818.80607       249.116 7        46.591
R14        35.000    22356479.162 7 119172600.89007      2164.977 7        43.710                                                                    22356490.307 5  92689904.63005      1683.983 5        35.005
C26        37.000                                                                                                                                    22461215.552 7 116961482.58607     -2337.950 7        42.991                                                                    22461216.699 6  95040809.22506     -1899.786 6        39.348
S21        38.000    38472883.133 5 202176349.47305      -841.431 5        34.490
C44        39.000                                                                                                                                                                                                                                                                    24205193.985 5 102420105.80205      1806.254 5        32.641
C35        40.000                                                                                                                                    23211015.997 5 120865831.94105       108.831 5        34.543                                                                    23211022.499 5  98213454.88205        88.643 5        34.333
C42        41.000                                                                                                                                    26001527.602 6 135396781.77506     -4097.482 6        36.526                                                                    26001550.872 4 110021068.89504     -3328.728 4        26.467
R02        43.000    23559753.022 3                     -5398.715 3        20.500
C40        44.000                                                                                                                                    40108615.378 4                     -1987.654 4        24.256                                                                    40108552.312 4                     -1614.914 4        28.265
C33        46.000                                                                                                                                    24483119.341 6 127489989.37106     -2457.989 6        40.079                                                                    24483140.786 7 103596265.14007     -1997.126 7        42.447
C14        48.000                                                                                                                                    24876236.077 5 129537212.73605     -3549.095 5        34.690    24876244.513 6 100166419.30206     -2744.144 6        36.393    24876252.759 6 105259573.09006     -2883.978 6        36.461
C41        50.000                                                                                                                                                                                                                                                                    25592713.655 5 108291145.29605       174.016 5        35.538
C29        51.000                                                                                                                                    25493819.339 6 132752960.71706     -2979.461 6        36.136                                                                    25493835.422 4                     -2421.395 4        28.806
C07        53.000                                                                                                                                                                                                    39731856.079 4                     -1317.820 4        28.199    39731845.578 4 168118441.71704     -1384.696 4        26.024
I02        56.000    36944014.121 5 144976240.62005      -690.818 5        32.401
I06        58.000    38409370.466 6 150726588.22906      -739.511 6        36.938
> 2025 01 01 12 00 20.0000000  0 40
G19         1.000    21385584.059 7 112381978.29107     -1838.742 7        43.833                                    21385585.282 4  87570379.90404     -1432.784 4        27.114
G25         3.000    23225397.270 7 122050255.88807      2459.729 7        42.531                                    23225400.847 3  95104164.38403      1916.662 3        23.810    23225406.959 4  95104182.42704      1916.919 4        29.062
G17         5.000    23694641.441 5 124516014.62805     -3723.055 5        34.438                                    23694621.694 1  97025538.09601     -2901.036 1        11.630    23694634.581 5                     -2901.109 5        30.792
G15         6.000    23733666.602 7 124721473.33307     -4675.215 7        42.603                                    23733674.869 5  97185437.08205     -3643.017 5        34.724    23733674.925 6  97185401.07406     -3643.171 6        39.994
G12         7.000    20756657.345 8 109076963.52008       805.601 8        48.654                                    20756658.879 7  84995042.18507       627.745 7        44.858    20756658.939 7  84995066.17907       627.649 7        43.010
E30         9.000    24313373.474 7 127767660.60307       486.070 7        47.211                                                                    24313380.541 8  95410937.89008       362.985 8        50.719    24313378.959 8  97899923.23408       372.466 8        50.650
G32        11.000    24467072.664 6 128575305.58706      2056.173 6        38.186                                    24467084.570 3 100188555.49403      1602.208 3        23.143    24467083.156 5 100188594.52205      1602.225 5        32.737
G10        12.000    24885711.518 6 130775340.52406     -2529.857 6        38.072                                    24885748.644 1 101903007.30901     -1971.297 1        11.852
E02        13.000    23697498.596 7 124531204.55407     -2051.548 7        46.251                                                                    23697505.712 8  92994166.19808     -1532.084 8        49.492    23697504.390 8  95420106.94108     -1571.967 8        49.842
E25        14.000    27594837.633 3                     -3428.979 3        20.714
G24        16.000    20144889.052 6 105862231.58206     -1494.811 6        36.374                                    20144888.701 4  82489884.16004     -1164.804 4        26.204    20144890.632 6  82489948.19006     -1164.839 6        39.327
E08        17.000    25013052.192 6 131444414.55506     -3292.182 6        39.486                                                                    25013060.807 7  98156540.14307     -2458.510 7        43.814    25013058.694 7 100717185.27207     -2522.550 7        44.245
E07        18.000    24383644.830 7 128137002.34907      -562.413 7        42.760                                                                    24383654.000 7  95686742.26407      -419.852 7        45.374    24383656.437 7  98182887.30407      -430.922 7        43.634
R22        22.000    21289703.949 7 113646039.37907      -123.787 7        45.449                                                                    21289709.166 7  88391264.49007       -96.328 7        44.161
S36        23.000    38245457.000 5 200981168.92905      -841.605 5        35.457
S23        24.000    38182232.339 5 200648990.62905      -845.884 5        35.271
R04        25.000    21329078.444 8 114216349.71008       558.801 8        50.146                                                                    21329086.067 7  88834915.26507       434.601 7        42.959
E29        26.000    27659488.437 5 145351616.79705      1747.427 5        32.323                                                                    27659504.732 6 108541831.18606      1305.172 6        38.745    27659504.005 6 111373343.74606      1339.237 6        38.997
R13        29.000    19500779.644 6 104133056.50106      -746.073 6        39.811
R21        30.000    23400494.642 5                     -3868.935 5        34.490                                                                    23400541.693 4                     -3009.679 4        26.838
R12        31.000    21123851.237 8 112839822.85608     -3379.681 8        48.928                                                                    21123861.043 6  87764327.24206     -2628.598 6        41.080
C10        32.000                                                                                                                                    38904514.983 5 202585980.38405     -1409.551 5        32.737    38904522.139 6 156652363.40406     -1089.957 6        41.333    38904517.869 5 164617705.73505     -1145.187 5        35.967
R03        33.000    20853567.270 7 111630780.01907     -3287.451 7        42.324                                                                    20853570.454 6  86823946.77806     -2557.012 6        36.805
C24        34.000                                                                                                                                    21758073.487 7 113299980.20107       305.408 7        45.479                                                                    21758074.513 7  92065575.77907       248.053 7        46.469
R14        35.000    22354448.765 7 119161777.30407      2164.328 7        45.112                                                                    22354462.605 6  92681486.30106      1683.261 6        38.351
R23        36.000    22140910.687 5                      2931.517 5        32.479
C26        37.000                                                                                                                                    22463461.273 7 116973175.00407     -2339.166 7        43.018                                                                    22463462.243 6  95050310.26606     -1900.657 6        40.002
S21        38.000    38473684.971 5 202180555.50905      -841.129 5        34.681
C44        39.000                                                                                                                                    24203064.051 5 126031639.18105      2221.831 5        33.443                                                                    24203060.121 5 102411076.93105      1805.763 5        32.084
C35        40.000                                                                                                                                    23210913.246 5 120865294.03705       105.898 5        30.687                                                                    23210921.712 5  98213017.74505        86.237 5        35.557
C42        41.000                                                                                                                                    26005462.103 6 135417269.40406     -4097.839 6        36.408                                                                    26005485.504 4 110037716.82604     -3329.622 4        27.329
R02        43.000                                                                                                                                    23564817.773 3                     -4200.220 3        21.286
C40        44.000                                                                                                                                    40110518.501 4                     -1987.502 4        24.150                                                                    40110460.304 4                     -1615.014 4        27.269
C33        46.000                                                                                                                                    24485486.851 6 127502284.03706     -2460.030 6        39.697                                                                    24485501.631 7 103606255.56807     -1999.000 7        42.351
C14        48.000                                                                                                                                    24879647.850 5 129554960.71405     -3550.287 5        34.867    24879656.975 6 100180143.08106     -2745.415 6        37.951    24879660.783 6 105273994.72206     -2884.949 6        37.350
C41        50.000                                                                                                                                                                                                                                                                    25592507.704 5 108290280.27805       171.972 5        33.228
C29        51.000                                                                                                                                    25496679.577 5 132767863.13305     -2981.669 5        33.174                                                                    25496696.732 4                     -2422.069 4        27.425
C07        53.000                                                                                                                                    39733522.847 3                     -1705.078 3        22.990    39733494.177 4                     -1317.556 4        28.114    39733481.013 4 168125365.98404     -1385.279 4        26.132
I02        56.000    36944894.175 5 144979695.15705      -691.028 5        32.365
I06        58.000    38410312.402 6 150730285.38106      -739.453 6        37.263
> 2025 01 01 12 00 25.0000000  0 40
G19         1.000    21387335.333 7 112391179.65107     -1842.085 7        43.462                                    21387336.002 4  87577549.77404     -1435.382 4        27.257
G25         3.000    23223055.268 6 122037958.66606      2458.726 6        40.987                                    23223060.628 3  95094582.18703      1915.876 3        23.924    23223065.820 4  95094600.19804      1915.934 4        29.564
G17         5.000    23698181.609 5 124534633.38205     -3724.773 5        33.587                                    23698164.770 1  97040046.08201     -2902.420 1        10.370    23698174.179 4                     -2902.454 4        29.062
G15         6.000    23738115.377 6 124744850.38306     -4675.917 6        41.659                                    23738123.740 5  97203652.90705     -3643.561 5        34.905    23738123.538 6  97203616.89006     -3643.450 6        39.916
G12         7.000    20755891.815 7 109072940.54407       803.250 7        47.681                                    20755893.043 7  84991907.38507       625.911 7        44.414    20755893.314 7  84991931.38207       625.941 7        42.728
E30         9.000    24312911.334 7 127765232.43007       484.691 7        47.764                                                                    24312918.567 8  95409124.64308       361.959 8        50.734    24312916.771 8  97898062.68508       371.402 8        50.466
G32        11.000    24465116.305 6 128565029.29306      2054.269 6        39.646                                    24465127.413 3 100180547.99103      1600.740 3        21.357    24465127.178 5 100180587.02605      1600.323 5        32.114
G10        12.000    24888123.428 5 130787994.17605     -2532.202 5        34.776                                    24888156.497 1 101912867.30201     -1973.143 1         7.750
E02        13.000    23699450.784 7 124541464.35907     -2052.812 7        45.865                                                                    23699458.015 8  93001827.72608     -1532.937 8        49.364    23699456.856 8  95427968.34108     -1572.948 8        49.904
E25        14.000    27598097.857 3                     -3430.243 3        20.881
G24        16.000    20146309.968 6 105869712.08406     -1497.830 6        38.282                                    20146313.798 4  82495713.11804     -1167.152 4        28.284    20146314.681 6  82495777.16506     -1167.238 6        40.231
E08        17.000    25016184.631 6 131460878.65706     -3294.004 6        36.408                                                                    25016193.692 7  98168834.73907     -2459.719 7        43.695    25016191.903 7 100729800.60107     -2523.894 7        44.488
E07        18.000    24384180.540 7 128139819.28107      -564.866 7        42.663                                                                    24384189.911 7  95688845.81307      -421.722 7        45.201    24384190.788 7  98185045.73707      -432.700 7        43.591
R22        22.000    21289821.924 7 113646669.05907      -128.438 7        45.315                                                                    21289827.135 7  88391754.23807       -99.841 7        43.991
S36        23.000    38246258.417 5 200985376.80005      -841.713 5        35.424
S23        24.000    38183038.604 5 200653218.13705      -845.829 5        35.329
R04        25.000    21328556.833 8 114213565.75108       554.242 8        49.594                                                                    21328566.703 7  88832749.95407       431.118 7        43.060
E29        26.000    27657825.486 5 145342880.59505      1746.213 5        31.215                                                                    27657841.763 6 108535307.36006      1304.137 6        38.721    27657841.171 6 111366649.74806      1338.180 6        38.372
R13        29.000    19501479.562 6 104136792.26906      -748.627 6        40.155
R21        30.000    23404114.601 5 125240381.17215     -3872.333 5        32.862                                                                    23404155.860 4                     -3013.028 4        24.090
R12        31.000    21127015.029 8 112856723.43208     -3381.012 8        48.914                                                                    21127025.124 6  87777472.13106     -2629.834 6        40.448
C10        32.000                                                                                                                                    38905869.822 5 202593027.27905     -1409.721 5        33.216    38905875.821 6 156657812.51906     -1090.175 6        41.097    38905870.795 5 164623431.92605     -1145.700 5        35.848
R03        33.000    20856639.283 6 111647226.00706     -3291.373 6        41.507                                                                    20856643.014 6  86836738.04206     -2559.998 6        37.312
C24        34.000                                                                                                                                    21757780.994 7 113298456.51607       303.832 7        46.216                                                                    21757781.807 7  92064337.65007       246.802 7        46.184
R14        35.000    22352419.336 7 119150956.78607      2163.344 7        46.416                                                                    22352434.640 6  92673070.30706      1682.639 6        40.429
R23        36.000    22138169.918 5                      2929.033 5        32.713
C26        37.000                                                                                                                                    22465707.553 7 116984873.11907     -2340.494 7        43.418                                                                    22465708.922 6  95059815.91706     -1901.885 6        40.429
S21        38.000    38474482.699 5 202184760.67405      -841.316 5        34.429
C44        39.000                                                                                                                                    24200936.699 5 126020532.45705      2220.431 5        34.090                                                                    24200926.108 5 102402051.88705      1804.315 5        31.230
C35        40.000                                                                                                                                    23210807.810 4 120864768.96804       103.780 4        26.335                                                                    23210822.110 6  98212591.16206        84.030 6        36.703
C42        41.000                                                                                                                                    26009397.122 6 135437757.19206     -4098.058 6        36.370                                                                    26009420.609 4 110054364.71204     -3329.954 4        28.019
R02        43.000                                                                                                                                    23569882.020 3                     -4199.006 3        22.324
C40        44.000                                                                                                                                    40112420.975 4                     -1986.739 4        24.526                                                                    40112369.271 4                     -1615.226 4        27.940
C33        46.000                                                                                                                                    24487857.236 6 127514590.05406     -2462.622 6        37.622                                                                    24487864.762 7 103616255.17407     -2001.125 7        42.104
C14        48.000                                                                                                                                    24883059.528 5 129572714.82305     -3551.930 5        35.676    24883065.595 6 100193871.56406     -2746.483 6        38.237    24883070.393 6 105288421.30906     -2886.221 6        37.769
C41        50.000                                                                                                                                                                                                                                                                    25592304.986 5 108289425.61805       169.445 5        30.513
C29        51.000                                                                                                                                    25499541.710 5 132782775.17705     -2983.498 5        31.547                                                                    25499558.231 4                     -2424.325 4        25.654
C07        53.000                                                                                                                                    39735161.276 3                     -1705.756 3        23.143    39735131.068 4                     -1318.038 4        27.593    39735118.583 4                     -1384.754 4        26.395
I02        56.000    36945774.352 5 144983150.34505      -691.203 5        32.263
I06        58.000    38411254.247 6 150733981.98206      -739.442 6        37.236
> 2025 01 01 12 00 30.0000000  0 39
G19         1.000    21389089.180 7 112400397.44707     -1844.782 7        43.683                                    21389089.746 4  87584732.44304     -1437.487 4        27.090
G25         3.000    23220713.884 6 122025666.48206      2458.339 6        39.574                                    23220721.366 3  95085003.89103      1915.577 3        23.010    23220727.119 5  95085021.91605      1915.444 5        31.200
G17         5.000    23701723.616 5 124553260.63005     -3726.155 5        33.311                                    23701709.470 1  97054560.86501     -2903.498 1         9.810    23701715.927 4                     -2903.512 4        26.443
G15         6.000    23742564.506 6 124768230.38006     -4675.886 6        41.318                                    23742573.089 5  97221871.04005     -3643.544 5        34.686    23742572.779 6  97221835.04506     -3643.495 6        39.907
G12         7.000    20755128.633 7 109068928.96507       801.553 7        47.299                                    20755129.357 7  84988781.46507       624.589 7        43.689    20755129.776 7  84988805.47007       624.549 7        42.269
E30         9.000    24312450.345 8 127762810.84408       484.003 8        48.005                                                                    24312457.859 8  95407316.31308       361.443 8        50.805    24312455.872 8  97896207.18208       370.914 8        50.273
G32        11.000    24463167.399 6 128554762.23406      2052.786 6        40.980                                    24463172.267 3 100172547.69103      1599.569 3        19.701    24463172.815 5 100172586.70705      1599.210 5        31.336
G10        12.000    24890534.408 5 130800659.53705     -2533.915 5        35.310                                    24890566.840 1 101922736.38401     -1974.505 1         5.143    24890604.353 3                     -1975.163 3        23.448
E02        13.000    23701404.002 7 124551729.95307     -2053.401 7        45.118                                                                    23701411.397 8  93009493.58808     -1533.330 8        49.231    23701410.400 8  95435834.18308     -1573.384 8        50.080
G24        16.000    20147736.576 6 105877206.88206     -1500.067 6        40.951                                    20147741.337 5  82501553.23305     -1168.895 5        30.808    20147740.540 6  82501617.25906     -1168.848 6        40.379
E08        17.000    25019319.833 5 131477350.81505     -3294.689 5        33.539                                                                    25019327.986 7  98181135.37107     -2460.471 7        43.515    25019326.707 7 100742422.12007     -2524.650 7        44.718
E07        18.000    24384718.663 7 128142648.45907      -566.705 7        42.478                                                                    24384728.216 7  95690958.51507      -423.221 7        45.019    24384726.936 7  98187213.58007      -434.115 7        43.848
R22        22.000    21289943.784 7 113647321.37807      -132.349 7        44.372                                                                    21289949.219 7  88392261.60907      -102.997 7        43.098
S36        23.000    38247059.285 5 200989585.09805      -841.217 5        35.152
S23        24.000    38183842.477 5 200657446.10305      -845.140 5        35.295
R04        25.000    21328041.583 8 114210804.09108       550.449 8        48.961                                                                    21328051.314 7  88830602.01307       428.069 7        43.536
E29        26.000    27656163.987 5 145334150.17605      1745.843 5        30.951                                                                    27656180.066 6 108528787.84006      1303.747 6        38.634    27656178.965 6 111359960.18406      1337.578 6        36.949
R13        29.000    19502179.268 6 104140538.82306      -750.075 6        39.231
R21        30.000                                                                                                                                    23407768.502 3                     -3016.608 3        23.467
R12        31.000    21130179.714 8 112873630.15808     -3381.609 8        48.942                                                                    21130190.149 6  87790621.77606     -2630.210 6        40.150
C10        32.000                                                                                                                                    38907223.806 5 202600075.91605     -1409.455 5        34.381    38907229.143 6 156663262.97106     -1090.002 6        40.913    38907224.196 5 164629159.51905     -1145.487 5        35.881
R03        33.000    20859712.353 6 111663691.15106     -3294.650 6        41.614                                                                    20859718.901 5  86849544.26005     -2562.534 5        35.500
C24        34.000                                                                                                                                    21757489.580 7 113296939.93307       302.924 7        46.500                                                                    21757490.452 7  92063105.30307       245.982 7        46.033
R14        35.000    22350391.654 8 119140140.35208      2163.226 8        48.154                                                                    22350404.693 6  92664657.53506      1682.520 6        41.161
R23        36.000    22135420.246 5                      2927.462 5        34.943
C26        37.000                                                                                                                                    22467954.908 7 116996577.99007     -2341.274 7        44.269                                                                    22467956.631 6  95069327.09006     -1902.782 6        40.534
S21        38.000    38475280.209 5 202188965.97105      -840.628 5        34.519
C44        39.000                                                                                                                                    24198806.110 5 126009431.40305      2220.380 5        32.994                                                                    24198792.547 5 102393031.51505      1803.911 5        30.113
C35        40.000                                                                                                                                    23210711.321 4 120864258.04704       101.454 4        28.815                                                                    23210724.493 6  98212176.03506        81.960 6        37.444
C42        41.000                                                                                                                                    26013332.335 6 135458246.14206     -4097.537 6        36.219                                                                    26013356.208 4 110071013.62304     -3329.754 4        28.190
R02        43.000                                                                                                                                    23574941.500 4                     -4198.588 4        24.030
C40        44.000                                                                                                                                    40114326.226 4                     -1987.974 4        25.008                                                                    40114276.762 4                     -1614.805 4        28.322
C33        46.000                                                                                                                                    24490224.698 6 127526908.43706     -2464.729 6        36.510                                                                    24490230.549 6 103626264.83606     -2002.820 6        41.771
C14        48.000                                                                                                                                    24886470.273 6 129590476.09406     -3552.442 6        37.047    24886472.561 6 100207605.61806     -2747.226 6        37.769    24886481.918 6 105302853.75206     -2886.936 6        38.084
C41        50.000                                                                                                                                                                                                                                                                    25592103.386 4 108288582.16304       167.496 4        27.281
C29        51.000                                                                                                                                    25502407.139 5 132797697.89005     -2985.335 5        30.589                                                                    25502423.495 4                     -2426.316 4        24.466
C07        53.000                                                                                                                                    39736797.801 3                     -1704.239 3        22.800    39736769.220 4                     -1318.168 4        26.228    39736755.928 4                     -1386.006 4        26.479
I02        56.000    36946656.787 5 144986606.51805      -691.017 5        32.485
I06        58.000    38412196.040 6 150737678.83506      -739.227 6        37.161
> 2025 01 01 12 00 35.0000000  0 37
G19         1.000    21390846.941 7 112409631.29007     -1848.299 7        43.501                                    21390846.530 4  87591927.61204     -1440.227 4        26.539
G25         3.000    23218375.185 6 122013378.97706      2457.198 6        37.656                                    23218383.128 3  95075429.25303      1914.704 3        21.357    23218388.646 5  95075447.27705      1914.615 5        32.263
G17         5.000    23705269.805 5 124571895.76005     -3727.221 5        31.638                                    23705255.641 1  97069081.67701     -2904.331 1         7.500    23705261.262 3                     -2904.538 3        22.381
G15         6.000    23747014.498 6 124791612.97006     -4676.633 6        40.729                                    23747022.846 5  97240091.19405     -3644.115 5        34.248    23747022.113 6  97240055.18806     -3644.151 6        39.550
G12         7.000    20754367.414 7 109064928.40507       799.070 7        46.458                                    20754367.781 7  84985664.13907       622.654 7        42.751    20754368.145 6  84985688.13806       622.675 6        41.995
E30         9.000    24311990.582 8 127760395.49908       482.577 8        48.311                                                                    24311998.163 8  95405512.64608       360.343 8        50.969    24311996.178 8  97894356.47108       369.769 8        50.216
G32        11.000                                                                                                                                                                    24461221.155 4 100164593.29504      1597.540 4        29.763
G10        12.000    24892951.723 6 130813336.19606     -2536.109 6        36.393                                    24892979.231 1 101932614.46401     -1976.168 1         2.600    24893012.862 3                     -1977.084 3        22.362
E02        13.000    23703358.756 7 124562000.97607     -2054.675 7        44.916                                                                    23703365.754 8  93017163.50108     -1534.244 8        49.361    23703364.818 8  95443704.17608     -1574.317 8        50.303
G24        16.000    20149167.167 6 105884715.68906     -1503.020 6        40.312                                    20149171.107 5  82507404.26005     -1171.191 5        32.581    20149168.754 6  82507468.27806     -1171.262 6        40.176
E08        17.000    25022456.399 5 131493830.71405     -3296.668 5        32.389                                                                    25022463.663 7  98193441.76607     -2461.793 7        43.285    25022463.172 7 100755049.56107     -2525.985 7        45.318
E07        18.000    24385259.240 7 128145489.53007      -569.255 7        42.055                                                                    24385268.805 7  95693080.08807      -425.057 7        44.922    24385266.365 7  98189390.51607      -436.240 7        44.382
R22        22.000    21290069.738 7 113647995.95807      -137.016 7        42.950                                                                    21290075.474 6  88392786.29206      -106.519 6        41.681
S36        23.000    38247860.940 5 200993793.54905      -841.633 5        35.295
S23        24.000    38184646.327 5 200661674.05505      -845.415 5        35.205
R04        25.000    21327530.828 8 114208064.42608       545.920 8        48.828                                                                    21327538.768 7  88828471.16507       424.504 7        43.045
E29        26.000    27654503.911 5 145325425.19305      1744.431 5        31.275                                                                    27654519.911 6 108522272.38806      1302.836 6        38.703    27654516.777 5 111353274.77105      1336.744 5        35.829
R13        29.000    19502880.913 6 104144295.77906      -752.405 6        38.120
R12        31.000    21133345.738 8 112890542.75908     -3382.978 8        49.140                                                                    21133355.498 6  87803775.98606     -2631.185 6        39.150
C10        32.000                                                                                                                                    38908578.005 5 202607125.99305     -1410.078 5        35.033    38908582.638 6 156668714.53106     -1090.309 6        40.586    38908578.284 5 164634888.27905     -1145.777 5        35.571
R03        33.000    20862790.604 6 111680175.31606     -3298.535 6        36.896                                                                    20862797.611 5  86862365.28205     -2565.666 5        34.200
C24        34.000                                                                                                                                    21757198.826 7 113295430.07407       301.397 7        46.667                                                                    21757200.346 7  92061878.41207       244.933 7        45.616
R14        35.000    22348364.766 8 119129327.70808      2162.269 8        48.559                                                                    22348374.615 6  92656247.68906      1681.775 6        41.471
R23        36.000    22132681.365 6 118394949.71316      2925.138 6        36.321
C26        37.000                                                                                                                                    22470203.900 7 117008289.26407     -2342.777 7        44.870                                                                    22470205.634 6  95078843.44006     -1903.634 6        40.789
S21        38.000    38476085.459 5 202193171.22905      -841.241 5        34.362
C44        39.000                                                                                                                                                                                                                                                                    24196660.118 4 102384015.43604      1803.330 4        28.114
C35        40.000                                                                                                                                    23210619.273 5 120863760.89305        97.991 5        33.557                                                                    23210628.880 6  98211772.04906        79.812 6        38.111
C42        41.000                                                                                                                                    26017268.579 5 135478735.94505     -4097.888 5        35.881                                                                    26017290.994 4 110087663.15004     -3329.424 4        27.880
R02        43.000                                                                                                                                    23580001.431 4                     -4198.464 4        24.451
C40        44.000                                                                                                                                                                                                                                                                    40116186.320 4                     -1615.783 4        27.892
C33        46.000                                                                                                                                    24492596.038 6 127539238.77706     -2467.202 6        37.127                                                                    24492598.322 6 103636284.23406     -2004.824 6        41.495
C14        48.000                                                                                                                                    24889883.226 6 129608244.18806     -3554.194 6        38.132    24889883.362 6 100221344.94706     -2748.246 6        37.285    24889894.879 6 105317291.74306     -2888.056 6        37.970
C29        51.000                                                                                                                                    25505276.589 5 132812631.00705     -2987.744 5        30.498                                                                    25505288.079 3                     -2428.519 3        22.762
C07        53.000                                                                                                                                    39738438.725 3                     -1706.979 3        23.314    39738405.226 4                     -1318.989 4        26.335    39738392.737 4 168146142.16414     -1385.286 4        25.970
I02        56.000    36947536.664 5 144990063.46705      -691.300 5        32.281
I06        58.000    38413138.575 6 150741375.64706      -739.339 6        37.274
> 2025 01 01 12 00 40.0000000  0 38
G19         1.000    21392607.000 7 112418881.16907     -1851.650 7        44.894                                    21392606.503 4  87599135.27904     -1442.839 4        25.895
G25         3.000    23216037.843 5 122001096.18405      2455.862 5        35.595                                    23216045.676 3  95065858.27603      1913.641 3        19.343    23216049.650 5  95065876.32405      1913.641 5        32.138
G17         5.000                                                                                                                                                                    23708804.978 3                     -2905.747 3        20.095
G15         6.000    23751464.671 6 124814998.20006     -4677.460 6        40.713                                    23751472.910 5  97258313.40405     -3644.766 5        33.707    23751472.203 6  97258277.38606     -3644.675 6        39.114
G12         7.000    20753608.109 7 109060938.92707       796.682 7        46.132                                    20753608.321 7  84982555.44607       620.792 7        42.097    20753609.716 7  84982579.45507       620.833 7        42.140
E30         9.000    24311532.094 8 127757986.41008       481.033 8        48.301                                                                    24311539.686 8  95403713.65008       359.214 8        50.948    24311537.612 8  97892510.54608       368.616 8        49.956
G32        11.000    24459285.408 6 128534254.69306      2048.905 6        41.476                                    24459267.512 3 100156567.69203      1596.540 3        20.119    24459271.334 4 100156606.76304      1596.867 4        26.838
G10        12.000    24895371.669 6 130826024.25606     -2538.793 6        37.278                                    24895393.854 1 101942501.32201     -1978.437 1         3.600    24895416.427 4                     -1977.902 4        24.271
E02        13.000    23705314.425 7 124572277.43807     -2055.889 7        44.668                                                                    23705321.221 8  93024837.48008     -1535.320 8        49.398    23705320.328 8  95451578.34508     -1575.329 8        50.348
G24        16.000    20150597.058 6 105892238.50406     -1506.046 6        39.541                                    20150603.135 5  82513266.19805     -1173.542 5        33.413    20150599.345 6  82513330.19006     -1173.571 6        38.532
E08        17.000    25025593.395 5 131510318.31205     -3298.399 5        33.389                                                                    25025600.809 7  98205753.93507     -2463.082 7        42.878    25025601.040 7 100767682.92807     -2527.353 7        45.628
E07        18.000    24385802.535 6 128148342.51706      -571.763 6        41.590                                                                    24385811.560 7  95695210.55907      -427.103 7        44.567    24385809.448 7  98191576.57407      -438.246 7        44.775
E10        19.000                                                                                                                                    28278359.140 5 110970358.80315     -1216.976 5        30.309
R22        22.000    21290199.346 7 113648692.87507      -141.704 7        42.038                                                                    21290206.612 6  88393328.36406      -110.316 6        41.035
S36        23.000    38248661.011 5 200998001.87905      -841.923 5        35.543
S23        24.000    38185453.110 5 200665902.08605      -845.836 5        35.438
R04        25.000    21327023.810 8 114205346.66108       541.225 8        48.236                                                                    21327030.405 7  88826357.35107       421.018 7        42.982
E29        26.000    27652844.836 5 145316705.68605      1743.329 5        31.336                                                                    27652860.945 6 108515761.02306      1301.875 6        38.670    27652856.171 5 111346593.57405      1335.593 5        34.890
R13        29.000    19503585.672 6 104148063.27306      -754.743 6        38.015
R12        31.000    21136512.891 8 112907461.12308     -3384.354 8        49.889                                                                    21136522.080 6  87816934.71106     -2632.448 6        38.985
C10        32.000                                                                                                                                    38909931.951 5 202614177.49605     -1410.304 5        35.981    38909937.174 6 156674167.21806     -1090.748 6        40.505    38909932.180 5 164640618.20905     -1146.143 5        35.143
R03        33.000                                                                                                                                    20865879.163 5  86875200.88205     -2569.026 5        33.653
C24        34.000                                                                                                                                    21756909.972 7 113293926.99307       299.781 7        47.034                                                                    21756911.688 7  92060657.03207       243.610 7        45.512
R14        35.000    22346335.958 8 119118518.98208      2161.207 8        48.786                                                                    22346346.832 6  92647840.89706      1680.992 6        41.967
C26        37.000                                                                                                                                    22472454.347 7 117020006.98107     -2344.306 7        45.246                                                                    22472456.020 6  95088365.02006     -1904.940 6        40.782
S21        38.000    38476885.973 5 202197376.64405      -841.077 5        34.395
C44        39.000                                                                                                                                                                                                                                                                    24194529.274 4 102375003.76104      1802.365 4        27.150
C35        40.000                                                                                                                                    23210528.025 6 120863277.42806        95.392 6        36.129                                                                    23210535.691 6  98211379.21806        77.448 6        38.778
C42        41.000                                                                                                                                    26021203.765 5 135499226.60005     -4098.392 5        35.614                                                                    26021225.539 4 110104313.44504     -3330.195 4        27.737
R02        43.000    23585084.983 3                     -5399.738 3        21.262
C40        44.000                                                                                                                                                                                                                                                                    40118094.500 4                     -1615.706 4        27.509
C33        46.000                                                                                                                                    24494975.196 6 127551581.20306     -2469.823 6        38.535                                                                    24494968.527 6 103646313.39406     -2006.928 6        41.635
C14        48.000                                                                                                                                    24893295.225 6 129626019.09506     -3555.775 6        37.936    24893298.987 6 100235089.56206     -2749.403 6        36.862    24893309.740 6 105331735.27406     -2889.214 6        37.762
C41        50.000                                                                                                                                                                                                                                                                    25591700.000 3                       164.871 3        21.405
C29        51.000                                                                                                                                    25508146.128 5 132827574.40905     -2989.677 5        30.377                                                                    25508155.229 4                     -2430.383 4        24.135
C07        53.000                                                                                                                                    39740078.304 3                     -1705.399 3        23.657    39740041.120 4                     -1319.595 4        24.316    39740029.884 4 168153069.24104     -1385.142 4        25.955
I02        56.000    36948417.071 5 144993521.55205      -691.927 5        32.150
I06        58.000    38414080.626 6 150745072.45706      -739.365 6        37.508
> 2025 01 01 12 00 45.0000000  0 39
G19         1.000    21394370.804 7 112428147.09807     -1854.546 7        45.774                                    21394369.775 4  87606355.46504     -1445.102 4        25.233
G25         3.000    23213701.932 5 121988818.08505      2455.402 5        31.924                                    23213708.981 2  95056290.97502      1913.288 2        15.905    23213711.043 5  95056308.97205      1913.339 5        31.328
G17         5.000    23712354.004 4 124609189.90304     -3730.625 4        24.045                                    23712352.607 1  97098142.05901     -2906.962 1         5.714
G15         6.000    23755914.659 6 124838386.00706     -4677.655 6        40.946                                    23755923.369 5  97276537.60905     -3644.918 5        32.988    23755922.278 6  97276501.58606     -3644.716 6        38.435
G12         7.000    20752851.179 7 109056960.50407       794.767 7        45.178                                    20752850.958 6  84979455.36606       619.299 6        41.237    20752852.223 6  84979479.37906       619.365 6        41.962
E30         9.000    24311074.670 7 127755583.57407       480.135 7        47.923                                                                    24311082.335 8  95401919.32408       358.504 8        50.944    24311080.375 8  97890669.41108       367.892 8        49.655
G32        11.000    24457335.441 6 128524014.34506      2047.501 6        40.837                                    24457318.462 3 100148588.22803      1595.451 3        19.612    24457320.934 4 100148627.22604      1596.619 4        24.947
G10        12.000    24897787.807 6 130838723.71106     -2540.807 6        36.359                                    24897810.538 1 101952396.93701     -1979.715 1         1.556    24897831.675 3                     -1979.986 3        23.771
E02        13.000    23707270.968 7 124582559.36207     -2056.689 7        44.575                                                                    23707277.732 8  93032515.53308     -1535.836 8        49.395    23707276.777 8  95459456.69508     -1575.929 8        50.345
G24        16.000    20152030.674 6 105899775.34506     -1508.472 6        41.163                                    20152037.605 5  82519139.05605     -1175.430 5        33.479    20152033.490 6  82519203.05506     -1175.473 6        36.764
E08        17.000    25028731.827 5 131526813.66105     -3299.668 5        35.219                                                                    25028739.615 7  98218071.88807     -2464.119 7        42.398    25028740.521 7 100780322.21507     -2528.296 7        45.967
E07        18.000    24386348.069 6 128151207.43406      -573.902 6        41.042                                                                    24386356.662 7  95697349.92707      -428.605 7        44.406    24386355.151 7  98193771.76007      -439.721 7        45.130
E10        19.000                                                                                                                                    28279909.362 5 110976446.97605     -1218.921 5        30.475
R22        22.000    21290334.056 7 113649412.16707      -145.990 7        42.045                                                                    21290341.134 6  88393887.80506      -113.447 6        40.284
S36        23.000    38249460.068 5 201002210.65205      -841.508 5        35.481
S23        24.000    38186253.061 5 200670130.28005      -845.709 5        35.614
R04        25.000    21326520.191 7 114202650.79707       537.189 7        47.933                                                                    21326526.139 7  88824260.55807       417.898 7        42.495
E29        26.000    27651187.174 5 145307991.71805      1742.351 5        32.485                                                                    27651203.072 6 108509253.81906      1301.152 6        38.748    27651197.236 5 111339916.61505      1335.074 5        33.742
R13        29.000    19504294.717 6 104151841.25906      -756.521 6        38.375
R21        30.000    23418590.970 5                     -3884.641 5        30.430
R12        31.000    21139682.118 8 112924385.35908     -3385.222 8        50.235                                                                    21139689.334 6  87830097.96006     -2632.859 6        38.303
C10        32.000                                                                                                                                    38911286.598 6 202621230.47206     -1410.512 6        36.548    38911291.198 6 156679621.01206     -1090.760 6        40.327    38911286.783 5 164646349.32705     -1146.318 5        35.395
R03        33.000                                                                                                                                    20868964.983 5  86888051.11505     -2571.604 5        33.461
C24        34.000                                                                                                                                    21756623.118 7 113292430.67007       298.761 7        47.974                                                                    21756624.446 7  92059441.15807       242.764 7        45.326
R14        35.000    22344308.174 8 119107714.01608      2160.856 8        48.874                                                                    22344319.390 6  92639437.03406      1680.625 6        41.545
C26        37.000                                                                                                                                    22474705.643 7 117031731.13907     -2345.329 7        45.523                                                                    22474707.707 6  95097891.84006     -1905.806 6        40.760
S21        38.000    38477682.226 5 202201582.38905      -840.949 5        34.424
C44        39.000                                                                                                                                    24192390.650 6 125976160.82706      2216.625 6        37.713                                                                    24192400.378 4 102365996.51404      1801.543 4        26.192
C35        40.000                                                                                                                                    23210438.539 6 120862807.74006        92.813 6        37.811                                                                    23210445.234 6  98210997.59606        75.237 6        39.739
C42        41.000                                                                                                                                    26025138.661 5 135519718.05805     -4098.044 5        35.581                                                                    26025160.669 4 110120964.39004     -3330.303 4        27.856
R02        43.000    23590141.413 3                     -5399.237 3        23.733                                                                    23590135.617 4                     -4199.987 4        24.752
C40        44.000                                                                                                                                                                                                                                                                    40120003.556 4                     -1615.668 4        28.531
C33        46.000                                                                                                                                    24497351.937 6 127563935.59306     -2471.896 6        38.255                                                                    24497341.252 6 103656352.32406     -2008.600 6        41.740
C14        48.000                                                                                                                                    24896708.242 6 129643800.83706     -3556.646 6        36.786    24896717.204 6 100248839.47506     -2750.225 6        36.514    24896725.656 6 105346184.39406     -2890.334 6        36.851
C41        50.000                                                                                                                                                                                                                                                                    25591504.800 3                       163.682 3        20.357
C29        51.000                                                                                                                                    25511013.425 5 132842528.21005     -2991.302 5        31.479                                                                    25511026.007 4                     -2431.335 4        26.084
C07        53.000                                                                                                                                    39741714.578 4                     -1705.440 4        24.195    39741678.865 3                     -1320.393 3        23.752    39741667.035 4 168159997.17804     -1385.632 4        25.278
I02        56.000    36949299.646 5 144996980.37305      -691.754 5        32.132
I06        58.000    38415022.489 6 150748769.25706      -739.174 6        37.595
> 2025 01 01 12 00 50.0000000  0 39
G19         1.000    21396137.189 7 112437429.42307     -1857.879 7        44.874                                    21396136.218 4  87613588.41904     -1447.692 4        24.165
G25         3.000    23211365.450 4 121976545.01204      2454.774 4        25.083                                    23211373.148 2  95046727.52202      1912.771 2        12.545    23211375.939 5  95046745.60405      1912.324 5        30.506
G15         6.000    23760365.926 6 124861776.61506     -4678.271 6        41.669                                    23760374.292 5  97294764.00605     -3645.394 5        32.515    23760373.701 6  97294727.98306     -3645.319 6        37.705
G12         7.000    20752095.673 7 109052993.40207       792.487 7        44.831                                    20752095.745 6  84976364.11306       617.525 6        40.684    20752097.023 6  84976388.12606       617.476 6        41.428
E30         9.000    24310618.501 7 127753187.31507       478.814 7        47.466                                                                    24310626.327 8  95400129.90008       357.540 8        50.874    24310624.392 8  97888833.31108       366.868 8        49.528
G32        11.000    24455383.037 6 128513783.23306      2045.450 6        39.655                                    24455371.759 3 100140615.92003      1593.851 3        19.164    24455376.378 4 100140655.00304      1593.391 4        28.417
G10        12.000    24900203.045 5 130851434.83805     -2543.320 5        34.914                                                                                                    24900243.718 3                     -1982.688 3        23.352
E02        13.000    23709228.763 7 124592847.03407     -2057.901 7        44.763                                                                    23709235.339 8  93040197.86908     -1536.767 8        49.593    23709234.387 8  95467339.43808     -1576.861 8        50.381
G24        16.000    20153469.196 7 105907326.45907     -1511.608 7        42.480                                    20153474.431 5  82525023.04005     -1177.881 5        33.210    20153471.555 6  82525087.05106     -1177.726 6        36.775
E08        17.000    25031873.178 6 131543316.99606     -3301.282 6        36.578                                                                    25031880.073 6  98230395.82606     -2465.280 6        41.893    25031881.285 7 100792967.65307     -2529.535 7        46.271
E07        18.000    24386895.857 6 128154084.57406      -576.452 6        41.108                                                                    24386904.069 7  95699498.44607      -430.563 7        44.110    24386903.105 7  98195976.33507      -441.689 7        45.649
E10        19.000                                                                                                                                    28281461.455 5 110982544.34805     -1220.120 5        30.060
R22        22.000    21290471.860 7 113650154.05607      -150.422 7        43.173                                                                    21290480.355 6  88394464.83406      -116.936 6        39.312
S36        23.000    38250257.792 5 201006419.88205      -841.891 5        35.581
S23        24.000    38187060.994 5 200674358.76305      -845.276 5        35.638
R04        25.000    21326021.455 7 114199977.39907       532.616 7        47.530                                                                    21326026.524 6  88822181.26706       414.329 6        41.807
E29        26.000    27649530.536 5 145299283.53005      1741.145 5        33.617                                                                    27649545.921 6 108502750.90706      1300.353 6        38.679    27649540.308 5 111333244.06805      1334.348 5        32.497
R13        29.000    19505004.418 6 104155629.96306      -758.509 6        36.994
R21        30.000    23422225.143 4                     -3887.978 4        26.910                                                                    23422209.549 4                     -3024.309 4        29.355
R12        31.000    21142851.353 8 112941315.67708     -3386.508 8        49.803                                                                    21142859.178 6  87843265.96306     -2633.910 6        36.193
C10        32.000                                                                                                                                    38912642.111 6 202628285.18706     -1410.820 6        37.134    38912646.227 6 156685076.17106     -1091.021 6        40.417    38912641.680 5 164652081.89005     -1146.640 5        35.481
R03        33.000                                                                                                                                    20872054.696 5  86900916.27005     -2574.259 5        32.569
C24        34.000                                                                                                                                    21756337.433 8 113290941.41808       297.334 8        48.201                                                                    21756338.456 7  92058231.02707       241.641 7        45.377
R14        35.000    22342281.574 8 119096913.08908      2159.917 8        48.559                                                                    22342293.023 6  92631036.30206      1679.945 6        41.390
R23        36.000    22124460.322 6 118351125.31506      2918.446 6        38.333
C26        37.000                                                                                                                                    22476957.952 7 117043462.01007     -2346.707 7        45.303                                                                    22476960.792 6  95107424.10706     -1906.864 6        40.770
S21        38.000    38478483.554 5 202205788.72005      -841.254 5        34.686
C44        39.000                                                                                                                                    24190267.836 6 125965081.74006      2215.465 6        38.736                                                                    24190273.728 4 102356993.94504      1800.167 4        26.551
C35        40.000                                                                                                                                    23210348.948 6 120862352.09306        89.898 6        39.042                                                                    23210357.783 6  98210627.38206        73.064 6        40.579
C42        41.000                                                                                                                                    26029075.573 5 135540210.63905     -4098.331 5        34.876                                                                    26029095.938 4 110137616.25404     -3329.612 4        27.054
R02        43.000    23595194.427 3                     -5400.460 3        23.048                                                                    23595198.335 4                     -4200.107 4        25.639
C40        44.000                                                                                                                                    40121907.848 4                     -1988.852 4        28.019                                                                    40121912.322 4                     -1616.079 4        28.028
C33        46.000                                                                                                                                                                                                                                                                    24499716.465 7 103666401.24407     -2010.500 7        42.140
C14        48.000                                                                                                                                    24900124.481 5 129661589.71905     -3558.387 5        35.476    24900135.089 6 100262594.85406     -2751.448 6        36.877    24900142.502 5 105360639.30005     -2891.279 5        35.400
C41        50.000                                                                                                                                                                                                                                                                    25591316.455 3                       157.068 3        20.643
C29        51.000                                                                                                                                    25513884.039 5 132857492.74805     -2993.868 5        32.533                                                                    25513899.677 4                     -2432.317 4        27.293
C07        53.000                                                                                                                                    39743352.435 3                     -1704.465 3        23.924    39743315.309 3                     -1319.825 3        23.714    39743303.963 4 168166926.16104     -1385.833 4        25.940
I02        56.000    36950180.347 5 145000440.15305      -691.709 5        32.491
I06        58.000    38415964.598 6 150752466.30006      -739.345 6        37.429
> 2025 01 01 12 00 55.0000000  0 39
G19         1.000    21397904.594 7 112446727.46707     -1861.279 7        43.050                                    21397905.876 3  87620833.63903     -1450.330 3        22.876
G25         3.000                                                                                                                                                                    23209040.184 4  95037185.59204      1911.773 4        29.924
G17         5.000                                                                                                                                                                    23719457.148 3                     -2908.514 3        21.452
G15         6.000    23764817.453 7 124885169.42207     -4678.829 7        42.224                                    23764825.488 5  97312992.11105     -3645.824 5        32.060    23764824.787 6  97312956.09306     -3645.939 6        37.618
G12         7.000    20751342.930 7 109049036.99607       790.109 7        44.358                                    20751342.518 6  84973281.19206       615.671 6        40.267    20751344.359 6  84973305.19706       615.810 6        41.297
E30         9.000    24310163.595 7 127750796.92807       477.416 7        47.222                                                                    24310171.510 8  95398344.86108       356.569 8        50.571    24310169.492 8  97887001.71308       365.796 8        49.163
G32        11.000    24453432.639 6 128503560.66906      2043.594 6        38.081                                    24453426.603 3 100132650.29503      1592.399 3        18.209    24453436.611 5 100132689.26105      1592.443 5        32.892
G10        12.000    24902619.498 5 130864156.93805     -2545.389 5        33.754
E02        13.000    23711187.263 7 124603139.76607     -2059.175 7        45.091                                                                    23711194.044 8  93047883.99108     -1537.710 8        49.423    23711192.947 8  95475226.06908     -1577.824 8        50.068
G24        16.000    20154908.871 6 105914891.22306     -1514.396 6        41.242                                    20154913.717 5  82530917.66605     -1180.044 5        32.754    20154911.872 6  82530981.67106     -1180.003 6        37.323
E08        17.000    25035015.722 6 131559827.73506     -3303.094 6        38.748                                                                    25035021.744 6  98242725.24406     -2466.492 6        41.135    25035023.243 7 100805618.71407     -2530.806 7        46.299
E07        18.000    24387445.840 6 128156973.24506      -579.024 6        41.917                                                                    24387453.423 7  95701655.57507      -432.391 7        43.598    24387453.288 7  98198189.74807      -443.610 7        45.801
E10        19.000                                                                                                                                    28283017.664 4 110988650.45904     -1222.239 4        29.649
R22        22.000    21290616.026 7 113650917.99307      -155.081 7        44.343                                                                    21290623.249 6  88395059.02006      -120.493 6        37.301
S36        23.000    38251058.440 5 201010628.06705      -841.696 5        35.648
S23        24.000    38187864.907 5 200678586.98605      -845.769 5        35.595
R04        25.000    21325526.675 8 114197325.45608       528.096 8        48.286                                                                    21325530.936 6  88820118.64906       410.797 6        40.434
E29        26.000    27647873.964 5 145290580.46705      1740.027 5        35.352                                                                    27647890.033 6 108496251.82906      1299.451 6        38.402    27647884.761 5 111326575.45605      1333.354 5        32.072
R13        29.000    19505713.444 6 104159428.86006      -760.891 6        37.388
R12        31.000    21146021.524 8 112958251.48608     -3387.831 8        49.304                                                                    21146029.329 5  87856438.24505     -2635.105 5        33.910
C10        32.000                                                                                                                                    38913996.987 6 202635340.94706     -1411.391 6        37.486    38914001.319 6 156690532.14406     -1091.308 6        40.164    38913996.344 5 164657815.24405     -1146.676 5        35.376
R03        33.000                                                                                                                                    20875150.396 5  86913795.93805     -2577.541 5        30.732
C24        34.000                                                                                                                                    21756052.705 7 113289458.58807       295.786 7        47.610                                                                    21756053.679 7  92057026.09007       240.520 7        45.448
R14        35.000    22340255.177 7 119086115.76707      2159.087 7        47.009                                                                    22340267.116 6  92622638.40706      1679.177 6        41.132
R23        36.000    22121738.099 6 118336538.63306      2916.256 6        39.135
C26        37.000                                                                                                                                    22479210.854 7 117055198.94807     -2348.055 7        45.082                                                                    22479215.060 6  95116961.28906     -1907.912 6        40.789
S21        38.000    38479281.291 5 202209994.75905      -841.390 5        34.719
C44        39.000                                                                                                                                    24188143.891 6 125954007.76706      2214.114 6        39.222
C35        40.000                                                                                                                                    23210262.884 6 120861909.84006        86.897 6        39.904                                                                    23210273.069 6  98210268.02806        70.842 6        41.623
C42        41.000                                                                                                                                    26033010.921 5 135560703.67305     -4098.914 5        34.695                                                                    26033030.895 4 110154268.44404     -3330.309 4        27.090
R02        43.000    23600251.747 3                     -5398.666 3        23.086                                                                    23600258.074 4                     -4200.011 4        26.527
C40        44.000                                                                                                                                    40123823.268 4                     -1988.813 4        27.832                                                                    40123821.789 4                     -1615.829 4        28.379
C33        46.000                                                                                                                                                                                                                                                                    24502093.886 7 103676459.58407     -2012.549 7        42.758
C14        48.000                                                                                                                                                                                                    24903552.649 6 100276355.23306     -2752.737 6        36.998    24903560.563 5 105375099.41405     -2892.525 5        33.599
C41        50.000                                                                                                                                                                                                                                                                    25591128.669 3                       154.968 3        18.388
C29        51.000                                                                                                                                    25516762.386 5 132872467.22105     -2996.038 5        33.461                                                                    25516774.752 4                     -2434.610 4        27.389
C07        53.000                                                                                                                                    39744986.938 4                     -1704.049 4        24.857    39744953.349 3                     -1318.563 3        23.524    39744942.670 4 168173855.53404     -1385.668 4        26.060
I02        56.000    36951062.409 5 145003900.68905      -692.314 5        32.144
I06        58.000    38416906.179 6 150756163.04206      -739.412 6        37.497
> 2025 01 01 12 01  0.0000000  0 39
G19         1.000    21399676.251 6 112456041.44306     -1864.326 6        41.313                                    21399678.740 3  87628091.27503     -1452.722 3        20.976
G25         3.000                                                                                                                                                                    23206704.788 4  95027629.19704      1910.845 4        29.024
G17         5.000    23723029.569 4                     -3736.356 4        25.895                                                                                                    23723017.530 4                     -2910.587 4        24.030
G15         6.000    23769269.313 7 124908564.58207     -4679.219 7        42.665                                    23769277.163 5  97331222.04805     -3646.128 5        31.743    23769277.254 6  97331186.01406     -3646.114 6        37.183
G12         7.000    20750592.961 7 109045091.53007       788.037 7        44.612                                    20750591.406 6  84970206.79806       614.056 6        39.889    20750593.730 6  84970230.79906       614.064 6        41.166
E30         9.000    24309710.105 7 127748412.69807       476.309 7        47.148                                                                    24309717.926 8  95396564.42708       355.682 8        50.363    24309715.876 8  97885174.83408       364.941 8        49.047
G32        11.000                                                                                                                                                                    24451497.099 5 100124730.51005      1590.893 5        35.462
E02        13.000    23713146.686 7 124613437.82707     -2060.105 7        45.291                                                                    23713153.784 8  93055574.08708     -1538.384 8        49.455    23713152.646 8  95483116.77308     -1578.515 8        49.998
G24        16.000    20156347.955 6 105922469.90506     -1516.991 6        41.316                                    20156355.631 5  82536823.12405     -1182.063 5        32.790    20156353.637 6  82536887.11006     -1182.022 6        37.172
E08        17.000    25038159.497 6 131576346.07506     -3304.572 6        39.937                                                                    25038164.868 6  98255060.34706     -2467.655 6        40.389    25038166.472 7 100818275.61607     -2531.933 7        46.167
E07        18.000    24387998.049 7 128159873.76007      -581.256 7        43.147                                                                    24388005.035 7  95703821.53707      -434.025 7        43.289    24388005.487 7  98200412.22007      -445.297 7        46.065
E10        19.000                                                                                                                                    28284575.596 4 110994765.47704     -1223.981 4        29.118
R22        22.000    21290764.197 7 113651704.15307      -159.362 7        44.275                                                                    21290770.264 6  88395670.45706      -123.931 6        37.233
S36        23.000    38251862.666 5 201014835.30205      -841.471 5        35.762
S23        24.000    38188670.058 6 200682814.91206      -845.635 6        36.087
R04        25.000    21325035.479 8 114194695.43108       523.899 8        48.965                                                                    21325039.743 6  88818073.05606       407.538 6        38.520
E29        26.000    27646218.700 6 145281882.78506      1739.035 6        36.484                                                                    27646235.041 6 108489756.74106      1298.831 6        38.709    27646229.480 5 111319910.96105      1332.628 5        31.532
R13        29.000    19506428.152 6 104163237.97306      -762.933 6        38.027
R21        30.000    23429524.155 4                     -3894.142 4        27.186
R12        31.000    21149193.349 8 112975192.93308     -3388.832 8        49.619                                                                    21149200.800 5  87869614.87705     -2635.558 5        35.005
C10        32.000                                                                                                                                    38915351.660 6 202642398.01506     -1411.427 6        37.887    38915355.940 6 156695989.12706     -1091.484 6        40.017    38915351.389 5 164663549.70105     -1146.806 5        35.081
R03        33.000                                                                                                                                    20878247.918 5  86926690.06605     -2580.324 5        32.192
C24        34.000                                                                                                                                    21755768.516 7 113287982.44707       294.571 7        46.799                                                                    21755770.303 7  92055826.59507       239.352 7        45.418
R14        35.000    22338228.176 7 119075322.17907      2158.453 7        45.174                                                                    22338241.647 6  92614243.40806      1678.782 6        41.261
R23        36.000    22119019.198 6 118321962.63406      2914.087 6        39.294
C26        37.000                                                                                                                                    22481465.973 7 117066942.19707     -2349.250 7        45.111                                                                    22481470.743 6  95126503.61606     -1908.939 6        40.453
S21        38.000    38480084.256 5 202214200.81605      -841.281 5        34.743
C44        39.000                                                                                                                                    24186018.539 6 125942939.12706      2213.399 6        39.823                                                                    24186036.233 4 102339001.43804      1798.122 4        28.474
C35        40.000                                                                                                                                    23210180.922 6 120861481.22906        84.433 6        41.557                                                                    23210191.112 7  98209919.78807        68.456 7        42.772
C42        41.000                                                                                                                                    26036946.302 5 135581197.38105     -4099.021 5        34.457                                                                    26036965.525 4 110170921.23904     -3330.630 4        25.368
R02        43.000    23605308.204 3                     -5400.867 3        23.429                                                                    23605314.746 4                     -4200.731 4        26.012
C40        44.000                                                                                                                                    40125738.719 4                     -1989.163 4        29.005                                                                    40125730.900 4                     -1616.042 4        28.986
C33        46.000                                                                                                                                    24504436.174 5 127601070.64705     -2479.328 5        32.737                                                                    24504473.567 7 103686527.60807     -2014.627 7        43.274
C14        48.000                                                                                                                                                                                                    24906972.901 6 100290120.79706     -2753.607 6        37.425    24906979.914 5 105389565.02105     -2893.117 5        32.036
C41        50.000                                                                                                                                    25590945.881 5                       189.879 5        31.170
C29        51.000                                                                                                                                    25519642.840 5 132887451.92305     -2997.938 5        32.425                                                                    25519650.980 4                     -2436.319 4        28.246
C07        53.000                                                                                                                                    39746625.122 4                     -1704.735 4        24.827    39746591.421 3                     -1318.158 3        21.190    39746580.209 4 168180785.70504     -1385.696 4        25.835
I02        56.000    36951944.223 5 145007362.00805      -692.350 5        32.521
I06        58.000    38417848.227 6 150759859.68506      -739.379 6        37.293
> 2025 01 01 12 01  5.0000000  0 40
G19         1.000    21401452.001 6 112465371.22606     -1867.671 6        39.435                                    21401454.775 3  87635361.24503     -1455.325 3        19.254
G25         3.000                                                                                                                                                                    23204371.173 4  95018076.26204      1910.005 4        28.436
G17         5.000    23726578.405 4                     -3737.489 4        29.934                                                                                                    23726577.657 4                     -2912.527 4        25.083
G15         6.000    23773721.531 7 124931961.92807     -4679.743 7        42.239                                    23773729.249 5  97349453.69505     -3646.542 5        31.555    23773729.587 6  97349417.66206     -3646.489 6        37.134
G12         7.000    20749843.903 7 109041156.87407       785.798 7        44.247                                    20749842.338 6  84967140.83106       612.316 6        39.790    20749845.189 6  84967164.82206       612.492 6        40.503
E30         9.000    24309257.489 7 127746034.42307       475.035 7        47.126                                                                    24309265.482 8  95394788.44208       354.754 8        50.188    24309263.432 8  97883352.52008       364.007 8        49.093
G32        11.000    24449524.604 6 128483141.81206      2040.366 6        38.192                                    24449542.824 3 100116739.54103      1589.895 3        21.381    24449558.592 6 100116778.54406      1589.657 6        36.972
G10        12.000    24907453.979 5 130889634.44205     -2549.811 5        33.497                                                                                                    24907488.430 4                     -1986.798 4        27.138
E02        13.000    23715107.425 7 124623741.01507     -2061.128 7        45.136                                                                    23715114.450 8  93063268.01608     -1539.076 8        49.569    23715113.340 8  95491011.41708     -1579.276 8        50.048
G24        16.000    20157792.830 7 105930062.25907     -1519.839 7        42.645                                    20157800.019 5  82542739.23905     -1184.292 5        32.796    20157798.003 6  82542803.22206     -1184.365 6        37.883
E08        17.000    25041304.351 6 131592871.80206     -3305.806 6        40.341                                                                    25041309.409 6  98267400.96606     -2468.706 6        39.381    25041310.917 7 100830938.16707     -2533.013 7        45.938
E07        18.000    24388551.885 7 128162785.88807      -583.509 7        44.501                                                                    24388559.059 7  95705996.18407      -435.800 7        43.005    24388559.582 7  98202643.60107      -447.169 7        46.274
E10        19.000                                                                                                                                    28286136.210 4 111000889.36004     -1225.483 4        28.246
R22        22.000    21290915.593 7 113652512.34607      -163.771 7        44.390                                                                    21290922.007 6  88396299.08506      -127.342 6        38.441
S36        23.000    38252663.350 5 201019042.64205      -841.263 5        35.771
S23        24.000    38189474.986 5 200687042.64405      -845.489 5        35.805
R04        25.000    21324548.402 8 114192087.18008       519.481 8        49.904                                                                    21324553.078 6  88816044.41106       403.987 6        38.201
E29        26.000    27644565.025 6 145273190.36306      1738.015 6        37.641                                                                    27644581.176 6 108483265.65606      1297.669 6        38.598    27644575.499 5 111313250.48905      1331.933 5        32.054
R13        29.000    19507144.653 6 104167057.43506      -765.024 6        39.387
R21        30.000    23433158.882 4                     -3896.646 4        25.188                                                                    23433167.864 5                     -3031.162 5        30.528
R12        31.000    21152366.628 8 112992139.92108     -3389.878 8        50.134                                                                    21152375.103 6  87882795.88306     -2636.580 6        36.718
C10        32.000                                                                                                                                    38916707.654 6 202649456.22806     -1411.585 6        38.402    38916711.732 6 156701446.98706     -1091.603 6        39.955    38916706.744 5 164669285.10505     -1147.156 5        35.076
R03        33.000                                                                                                                                    20881349.621 5  86939598.71305     -2583.385 5        34.157
C24        34.000                                                                                                                                    21755485.434 7 113286512.78307       293.208 7        46.322                                                                    21755488.039 7  92054632.36607       238.295 7        45.273
R14        35.000    22336203.185 7 119064532.05607      2157.714 7        44.441                                                                    22336219.030 7  92605851.08907      1678.289 7        42.318
R23        36.000    22116300.465 6 118307397.29906      2912.056 6        38.901
C26        37.000                                                                                                                                    22483722.386 7 117078691.57907     -2350.439 7        44.841                                                                    22483727.619 6  95136050.94006     -1910.105 6        40.143
S21        38.000    38480887.216 5 202218406.59405      -841.141 5        34.971
C44        39.000                                                                                                                                    24183894.483 6 125931875.66206      2212.285 6        39.874                                                                    24183910.251 4 102330011.50304      1797.537 4        28.436
C35        40.000                                                                                                                                    23210103.592 7 120861066.08707        81.660 7        43.113                                                                    23210111.595 7  98209582.48407        66.351 7        43.645
C42        41.000                                                                                                                                    26040881.960 5 135601691.59005     -4098.759 5        34.490                                                                    26040900.960 4 110187574.46604     -3331.001 4        25.038
R02        43.000    23610368.923 3                     -5400.771 3        23.276                                                                    23610374.087 4                     -4200.471 4        26.838
C40        44.000                                                                                                                                    40127651.442 4                     -1989.511 4        29.232                                                                    40127640.448 4                     -1616.627 4        28.758
C33        46.000                                                                                                                                    24506826.686 5 127613472.56205     -2481.828 5        34.095                                                                    24506855.388 7 103696605.10107     -2016.483 7        44.167
C14        48.000                                                                                                                                    24910429.238 5 129714995.85205     -3562.303 5        30.943    24910395.466 6 100303891.36906     -2754.502 6        37.157    24910398.295 5 105404035.94405     -2894.948 5        30.770
C41        50.000                                                                                                                                    25590766.972 5                       187.223 5        33.072
C29        51.000                                                                                                                                    25522523.202 5 132902446.63405     -2999.874 5        32.114                                                                    25522528.719 4                     -2437.805 4        27.677
C07        53.000                                                                                                                                    39748259.777 4                     -1705.148 4        24.135    39748231.639 3                     -1315.220 3        20.857
I02        56.000    36952827.297 5 145010823.95505      -692.171 5        31.977
I06        58.000    38418790.769 6 150763556.12406      -739.419 6        37.422
> 2025 01 01 12 01 10.0000000  0 40
G19         1.000    21403231.646 6 112474717.99706     -1871.060 6        39.465                                    21403233.823 2  87642644.43002     -1457.970 2        17.698
G25         3.000    23202056.855 4                      2449.925 4        29.801                                                                                                    23202040.414 4  95008527.79904      1909.819 4        26.168
G17         5.000    23730129.446 5                     -3739.180 5        32.042                                                                                                    23730132.579 4                     -2914.054 4        25.895
G15         6.000    23778174.510 6 124955362.76106     -4680.515 6        41.857                                    23778182.140 5  97367688.04605     -3647.138 5        31.381    23778182.983 6  97367652.02606     -3647.057 6        37.282
G12         7.000    20749097.746 7 109037234.22707       783.277 7        44.345                                    20749095.671 6  84964084.21806       610.349 6        39.847    20749098.972 6  84964108.21306       610.406 6        40.601
E30         9.000    24308806.362 7 127743663.37607       473.431 7        47.048                                                                    24308814.387 8  95393017.84908       353.484 8        50.165    24308812.266 8  97881535.73908       362.741 8        49.198
G32        11.000    24447590.468 6 128472946.68906      2037.977 6        39.177                                    24447604.193 3 100108795.29603      1588.033 3        23.029    24447618.807 6 100108834.31006      1587.990 6        37.565
G10        12.000    24909890.266 5 130902391.02505     -2552.596 5        33.593                                                                                                    24909918.860 4                     -1988.903 4        27.521
E02        13.000    23717069.343 7 124634050.58907     -2062.588 7        44.844                                                                    23717076.391 8  93070966.71108     -1540.232 8        49.707    23717075.277 8  95498910.95208     -1580.437 8        50.020
G24        16.000    20159241.278 7 105937669.56807     -1522.995 7        42.745                                    20159247.251 5  82548667.01505     -1186.756 5        32.838    20159246.227 6  82548731.00206     -1186.683 6        38.715
E08        17.000    25044450.542 6 131609406.22706     -3307.821 6        40.353                                                                    25044455.782 6  98279748.07106     -2470.094 6        38.162    25044456.869 7 100843607.37307     -2534.596 7        45.359
E07        18.000    24389108.617 7 128165710.93407      -586.424 7        45.546                                                                    24389115.552 7  95708180.45507      -437.800 7        42.817    24389116.150 7  98204884.86307      -449.333 7        46.422
E10        19.000                                                                                                                                    28287699.441 4 111007022.89204     -1227.469 4        27.725
R22        22.000    21291071.430 7 113653343.87307      -168.675 7        45.183                                                                    21291077.296 6  88396945.86306      -131.228 6        39.835
S36        23.000    38253464.679 5 201023250.82605      -841.680 5        35.581
S23        24.000    38190279.901 5 200691271.31205      -845.729 5        35.700
R04        25.000    21324066.578 8 114189501.85408       514.686 8        50.339                                                                    21324070.962 6  88814033.60006       400.268 6        39.574
E29        26.000    27642911.529 6 145264504.49006      1736.528 6        37.894                                                                    27642928.497 6 108476779.42306      1296.599 6        38.910    27642923.104 5 111306595.07805      1330.627 5        32.066
R13        29.000    19507860.955 6 104170888.29406      -767.373 6        39.655
R21        30.000                                                                                                                                    23436804.384 5                     -3033.615 5        32.575
R12        31.000    21155540.518 8 113009093.71108     -3391.457 8        50.449                                                                    21155548.619 6  87895982.16306     -2637.837 6        39.054
C10        32.000                                                                                                                                    38918063.564 6 202656516.80706     -1412.350 6        38.661    38918067.408 6 156706906.65806     -1092.172 6        39.889    38918062.847 5 164675022.38505     -1147.673 5        34.976
R03        33.000                                                                                                                                    20884451.014 5  86952522.60305     -2586.129 5        35.029
C24        34.000                                                                                                                                    21755205.025 7 113285050.82407       291.596 7        46.992                                                                    21755207.228 7  92053444.42607       236.920 7        44.974
R14        35.000    22334180.299 7 119053746.71407      2156.524 7        42.567                                                                    22334196.184 7  92597462.49207      1677.393 7        42.855
R23        36.000    22113579.914 6 118292843.80706      2909.414 6        37.614
C26        37.000                                                                                                                                    22485980.102 7 117090448.34407     -2352.147 7        44.296                                                                    22485986.255 6  95145604.22806     -1911.166 6        39.772
S21        38.000    38481686.693 5 202222613.27805      -841.642 5        34.705
C44        39.000                                                                                                                                    24181771.899 6 125920818.62906      2210.691 6        39.144                                                                    24181784.122 4 102321026.75904      1795.830 4        27.365
C35        40.000                                                                                                                                    23210029.971 7 120860665.70607        78.622 7        44.063                                                                    23210034.848 7  98209257.15207        63.920 7        44.212
C42        41.000                                                                                                                                    26044818.628 5 135622187.52905     -4099.083 5        34.438
R02        43.000    23615427.455 3                     -5401.364 3        22.114                                                                    23615438.200 4                     -4200.530 4        25.925
C40        44.000                                                                                                                                    40129559.470 4                     -1989.542 4        28.882                                                                    40129551.025 4                     -1616.909 4        28.389
C33        46.000                                                                                                                                    24509221.386 6 127625887.36406     -2484.292 6        37.943                                                                    24509239.817 7 103706693.09307     -2018.668 7        44.585
C14        48.000                                                                                                                                                                                                    24913817.942 6 100317667.93806     -2756.029 6        37.187    24913815.487 5 105418513.16605     -2896.322 5        32.515
C41        50.000                                                                                                                                    25590590.651 5 133256910.07115       184.450 5        35.205
C29        51.000                                                                                                                                    25525409.986 4 132917452.64304     -3002.563 4        29.820                                                                    25525409.249 4                     -2439.616 4        26.072
C07        53.000                                                                                                                                    39749894.271 4                     -1706.503 4        24.120                                                                    39749858.204 4 168194648.68304     -1386.925 4        25.023
I02        56.000    36953709.621 5 145014287.53805      -692.359 5        31.789
I06        58.000    38419732.855 6 150767253.24006      -739.615 6        37.531
> 2025 01 01 12 01 15.0000000  0 40
G19         1.000    21405013.503 6 112484080.06806     -1874.500 6        38.715                                    21405015.823 2  87649939.53802     -1460.642 2        16.075
G25         3.000    23199721.134 5                      2449.419 5        30.853                                                                                                    23199707.520 4  94998982.39104      1908.086 4        24.752
G17         5.000    23733682.848 5                     -3740.526 5        33.204                                                                                                    23733692.549 4                     -2914.175 4        25.925
G15         6.000    23782628.174 6 124978765.36306     -4681.066 6        40.989                                    23782635.429 5  97385923.78805     -3647.572 5        31.200    23782636.551 6  97385887.77606     -3647.753 6        37.365
G12         7.000    20748353.524 7 109033321.87607       781.100 7        45.234                                    20748351.092 6  84961035.62606       608.653 6        40.086    20748354.124 6  84961059.62406       608.641 6        40.646
E30         9.000    24308356.245 7 127741297.85107       472.165 7        46.882                                                                    24308364.250 8  95391251.37808       352.603 8        50.029    24308362.256 8  97879723.19108       361.814 8        49.348
G32        11.000    24445655.499 6 128462759.80006      2036.219 6        40.100                                    24445666.983 4 100100857.46504      1586.668 4        24.481    24445677.868 6 100100896.44806      1586.740 6        38.027
G10        12.000    24912328.630 4 130915158.05004     -2554.589 4        29.858                                                                                                    24912355.210 4                     -1990.782 4        25.398
E02        13.000    23719032.178 7 124644364.86307     -2063.629 7        44.327                                                                    23719039.158 8  93078668.92708     -1541.083 8        49.796    23719038.074 8  95506814.09208     -1581.273 8        50.189
G24        16.000    20160691.047 7 105945290.19707     -1525.845 7        42.595                                    20160697.081 5  82554605.16805     -1188.965 5        33.024    20160696.435 6  82554669.14106     -1188.876 6        39.153
E08        17.000    25047597.909 6 131625947.61506     -3309.393 6        40.176                                                                    25047603.182 6  98292100.35506     -2471.251 6        36.972    25047604.086 7 100856281.91107     -2535.716 7        44.688
E07        18.000    24389666.913 7 128168647.18007      -588.698 7        45.934                                                                    24389674.199 7  95710373.10507      -439.629 7        42.595    24389674.552 7  98207134.71707      -451.128 7        46.545
E10        19.000                                                                                                                                    28289264.722 4 111013164.91104     -1229.435 4        28.038
R22        22.000    21291232.841 7 113654197.05307      -173.215 7        45.743                                                                    21291237.506 6  88397609.48206      -134.761 6        40.522
S36        23.000    38254263.301 5 201027459.00905      -841.901 5        35.624
S23        24.000    38191084.726 5 200695499.27705      -845.915 5        35.676
R04        25.000    21323588.168 8 114186937.79508       510.352 8        50.770                                                                    21323592.228 6  88812039.34606       396.899 6        40.653
E29        26.000    27641260.137 6 145255823.39606      1735.351 6        38.453                                                                    27641276.466 6 108470296.74506      1295.918 6        39.174    27641271.640 5 111299943.31905      1329.797 5        32.820
R13        29.000    19508579.593 6 104174728.82706      -769.435 6        40.305
R21        30.000    23440428.081 4                     -3903.375 4        29.422                                                                    23440447.969 5                     -3035.885 5        32.778
R12        31.000    21158715.258 8 113026052.50608     -3392.615 8        50.149                                                                    21158723.017 6  87909172.30306     -2638.641 6        40.963
C10        32.000                                                                                                                                    38919419.575 6 202663578.12306     -1412.662 6        38.880    38919423.495 6 156712366.92606     -1092.319 6        39.604    38919418.824 5 164680760.26205     -1147.932 5        34.943
R03        33.000    20887535.860 6 111812727.81406     -3329.009 6        38.763                                                                    20887558.433 5  86965460.62405     -2589.400 5        34.338
C24        34.000                                                                                                                                    21754926.238 7 113283594.92407       290.290 7        47.615                                                                    21754927.600 7  92052261.39007       235.946 7        45.017
R14        35.000    22332158.121 7 119042964.62407      2155.748 7        42.392                                                                    22332173.074 7  92589076.42007      1676.795 7        42.565
R23        36.000    22110856.206 5 118278300.41705      2907.288 5        34.867
C26        37.000                                                                                                                                    22488238.617 7 117102210.83107     -2353.490 7        43.291                                                                    22488246.366 6  95155162.15206     -1912.328 6        39.826
S21        38.000    38482482.200 5 202226819.08205      -841.482 5        34.705
C44        39.000                                                                                                                                    24179649.087 6 125909766.37906      2209.654 6        37.656                                                                    24179659.959 4 102312045.85404      1795.087 4        27.006
C35        40.000                                                                                                                                    23209955.953 7 120860278.38707        75.784 7        43.772                                                                    23209960.427 7  98208942.40007        61.817 7        44.558
C42        41.000                                                                                                                                    26048754.847 5 135642683.51205     -4099.506 5        34.576                                                                    26048769.775 3                     -3328.310 3        22.419
R02        43.000                                                                                                                                    23620500.452 4                     -4200.656 4        26.120
C40        44.000                                                                                                                                    40131466.000 4                     -1990.084 4        29.479                                                                    40131461.168 4                     -1616.967 4        28.626
C33        46.000                                                                                                                                    24511608.397 6 127638313.31306     -2486.719 6        41.194                                                                    24511626.467 7 103716790.18707     -2020.526 7        45.440
C14        48.000                                                                                                                                                                                                    24917242.081 6 100331449.15006     -2756.972 6        36.771    24917235.235 5 105432995.15805     -2897.037 5        33.790
C41        50.000                                                                                                                                    25590416.407 6 133255993.54806       181.742 6        36.586
C29        51.000                                                                                                                                    25528298.580 4 132932468.16604     -3003.924 4        26.886                                                                    25528293.294 4                     -2441.076 4        26.240
C07        53.000                                                                                                                                    39751533.273 3                     -1706.822 3        23.333                                                                    39751497.434 4 168201581.07704     -1386.406 4        25.609
I02        56.000    36954592.333 5 145017751.59605      -693.157 5        31.660
I06        58.000    38420675.051 6 150770949.83706      -739.482 6        37.713
> 2025 01 01 12 01 20.0000000  0 40
G19         1.000    21406798.938 6 112493458.44406     -1877.240 6        38.616                                    21406800.980 2  87657247.38002     -1462.793 2        14.048
G25         3.000    23197387.649 5                      2448.539 5        32.335                                                                                                    23197379.766 4  94989441.03504      1907.765 4        25.624
G17         5.000                                                                                                                                                                    23737249.837 4                     -2916.239 4        24.256
G15         6.000    23787082.406 6 125002170.75606     -4681.171 6        39.360                                    23787089.438 5  97404161.70205     -3647.654 5        31.192    23787090.339 6  97404125.70106     -3647.567 6        37.928
G12         7.000    20747611.261 7 109029420.92107       779.201 7        46.515                                    20747608.816 6  84957995.91906       607.171 6        40.405    20747611.725 6  84958019.93506       607.125 6        40.746
E30         9.000    24307907.267 7 127738938.91307       471.233 7        47.501                                                                    24307915.353 8  95389489.83208       351.913 8        50.037    24307913.471 8  97877915.69408       361.089 8        49.501
G32        11.000    24443718.494 6 128452582.25506      2034.613 6        40.415                                    24443731.347 4 100092926.87804      1585.417 4        25.639    24443733.782 6 100092965.84306      1585.599 6        37.724
G10        12.000                                                                                                                                                                    24914789.924 3                     -1991.721 3        23.314
E02        13.000    23720996.228 7 124654684.88907     -2064.451 7        44.125                                                                    23721002.919 8  93086375.42908     -1541.632 8        49.923    23721001.909 8  95514721.64208     -1581.866 8        50.238
G24        16.000    20162143.626 7 105952925.11707     -1528.297 7        42.887                                    20162149.777 5  82560554.46205     -1190.878 5        33.084    20162149.407 6  82560618.43506     -1191.007 6        39.435
E08        17.000    25050747.220 6 131642497.01706     -3310.716 6        40.825                                                                    25050751.829 5  98304458.65505     -2472.056 5        35.748    25050752.974 7 100868962.59307     -2536.717 7        43.801
E07        18.000    24390227.738 7 128171595.69607      -590.838 7        46.092                                                                    24390235.451 7  95712574.91107      -441.158 7        42.720    24390235.387 7  98209393.96807      -452.707 7        46.405
E10        19.000                                                                                                                                    28290831.967 4 111019316.10604     -1230.738 4        28.104
R22        22.000    21291397.618 7 113655072.93607      -177.336 7        45.997                                                                    21291400.915 6  88398290.74706      -137.786 6        40.815
S36        23.000    38255067.652 5 201031667.50505      -841.741 5        35.695
S23        24.000    38191887.820 5 200699727.78805      -845.758 5        35.695
R04        25.000    21323113.811 8 114184396.18508       506.249 8        50.647                                                                    21323117.766 6  88810062.55206       393.685 6        41.678
E29        26.000    27639609.754 6 145247148.25206      1734.557 6        38.489                                                                    27639625.507 6 108463818.54406      1295.338 6        39.357    27639621.911 5 111293296.12605      1329.358 5        33.144
R13        29.000    19509302.283 6 104178580.22006      -771.314 6        41.523
R21        30.000    23444082.081 5                     -3906.295 5        32.144                                                                    23444095.002 5                     -3038.270 5        32.311
R12        31.000    21161891.000 8 113043017.43308     -3393.474 8        49.689                                                                    21161899.158 7  87922367.23607     -2639.349 7        42.377
C10        32.000                                                                                                                                    38920775.808 6 202670641.22806     -1412.551 6        39.045    38920779.865 6 156717828.57406     -1092.584 6        39.559    38920774.876 5 164686499.58205     -1147.872 5        34.633
R03        33.000                                                                                                                                    20890667.013 5  86978413.33705     -2591.986 5        30.438
C24        34.000                                                                                                                                    21754647.779 8 113282146.18408       289.091 8        48.155                                                                    21754649.344 7  92051084.16107       234.990 7        44.719
R14        35.000    22330137.131 7 119032186.63607      2155.220 7        43.723                                                                    22330149.477 6  92580693.55606      1676.513 6        41.373
R23        36.000    22108133.190 5 118263768.42405      2905.376 5        32.257
C26        37.000                                                                                                                                    22490498.794 7 117113980.05007     -2354.428 7        42.955                                                                    22490508.320 6  95164725.56306     -1913.115 6        39.814
S21        38.000    38483284.480 5 202231024.95005      -841.272 5        34.629
C44        39.000                                                                                                                                    24177529.162 6 125898719.96806      2208.916 6        36.038                                                                    24177535.573 4 102303069.65104      1794.266 4        26.515
C35        40.000                                                                                                                                    23209879.822 7 120859905.22607        73.293 7        42.758                                                                    23209888.452 7  98208639.15007        59.535 7        44.691
C42        41.000                                                                                                                                    26052692.225 5 135663180.57805     -4099.470 5        34.719                                                                    26052704.709 3                     -3329.318 3        20.643
R02        43.000                                                                                                                                    23625573.324 4                     -4201.944 4        24.481
C40        44.000                                                                                                                                    40133374.654 4                     -1989.882 4        29.981                                                                    40133370.850 4                     -1616.972 4        28.284
C33        46.000                                                                                                                                    24513996.132 7 127650751.55007     -2488.789 7        43.591                                                                    24514015.581 7 103726897.27507     -2022.314 7        46.043
C14        48.000                                                                                                                                    24920646.719 5 129768463.92105     -3566.432 5        34.609    24920669.518 5 100345235.81805     -2757.660 5        35.562    24920658.648 5 105447482.92305     -2898.009 5        34.443
C41        50.000                                                                                                                                    25590246.612 5 133255090.90005       179.432 5        35.881
C29        51.000                                                                                                                                                                                                                                                                    25531179.954 4                     -2443.397 4        25.459
C07        53.000                                                                                                                                    39753171.000 4                     -1706.175 4        24.421                                                                    39753135.502 4 168208514.68704     -1387.271 4        25.534
I02        56.000    36955473.968 5 145021216.67805      -693.093 5        32.425
I06        58.000    38421617.463 6 150774646.66506      -739.317 6        37.667
> 2025 01 01 12 01 25.0000000  0 38
G19         1.000    21408586.556 6 112502852.67106     -1880.343 6        39.498                                    21408588.837 2  87664567.45802     -1465.213 2        13.576
G25         3.000    23195056.177 5 121890838.57515      2447.661 5        34.524                                                                                                    23195050.337 4  94979903.14404      1907.225 4        27.976
G17         5.000    23740785.162 5                     -3743.775 5        33.120                                                                                                    23740807.809 4                     -2917.144 4        24.301
G15         6.000    23791536.168 6 125025578.43006     -4681.811 6        37.206                                    23791543.997 5  97422401.38305     -3648.159 5        31.638    23791545.145 6  97422365.37806     -3648.127 6        38.054
G12         7.000    20746870.869 8 109025530.80408       777.102 8        48.136                                    20746868.727 6  84954964.65406       605.536 6        40.846    20746871.565 6  84954988.65206       605.537 6        41.285
E30         9.000    24307459.563 7 127736586.00807       470.083 7        47.836                                                                    24307467.542 8  95387732.79108       351.047 8        50.041    24307465.890 8  97876112.82408       360.157 8        49.527
G32        11.000    24441783.568 6 128442413.48106      2032.903 6        41.328                                    24441797.008 4 100085003.12604      1584.086 4        27.257    24441794.529 6 100085042.11106      1584.058 6        37.482
E02        13.000    23722960.869 7 124665010.11307     -2065.463 7        43.733                                                                    23722967.808 8  93094085.81708     -1542.430 8        49.978    23722966.727 8  95522633.17308     -1582.639 8        50.072
G24        16.000    20163599.076 7 105960573.83507     -1531.012 7        42.442                                    20163605.187 5  82566514.50005     -1193.001 5        33.467    20163605.074 6  82566578.47506     -1193.178 6        39.550
E08        17.000    25053898.045 6 131659053.85506     -3311.869 6        41.928                                                                    25053901.758 5  98316822.51905     -2473.059 5        34.781    25053903.310 7 100881648.99207     -2537.808 7        42.544
E07        18.000    24390790.475 7 128174555.92507      -593.118 7        45.869                                                                    24390799.000 7  95714785.47007      -442.968 7        42.863    24390798.403 7  98211662.18907      -454.427 7        46.176
E10        19.000                                                                                                                                    28292401.055 4 111025476.31704     -1233.339 4        27.485
R22        22.000    21291565.391 7 113655971.00607      -181.779 7        46.035                                                                    21291569.324 6  88398989.26906      -141.292 6        40.112
S36        23.000    38255865.560 5 201035876.08505      -841.385 5        35.310
S23        24.000    38192693.817 5 200703955.92905      -845.551 5        35.590
R04        25.000    21322642.017 8 114181876.36508       501.845 8        49.579                                                                    21322647.375 6  88808102.69906       390.338 6        41.881
E29        26.000    27637960.139 6 145238478.39206      1733.594 6        38.748                                                                    27637975.811 6 108457344.29506      1294.384 6        40.062    27637972.732 5 111286652.97005      1328.168 5        33.545
R13        29.000    19510025.702 7 104182441.83707      -773.245 7        42.030
R21        30.000    23447736.783 5                     -3909.092 5        34.690                                                                    23447748.711 5                     -3040.873 5        32.874
R12        31.000    21165067.610 8 113059987.95908     -3394.625 8        49.402                                                                    21165075.816 7  87935566.52207     -2640.275 7        42.430
C10        32.000                                                                                                                                    38922131.891 6 202677705.54206     -1412.953 6        39.541    38922136.728 6 156723291.13406     -1092.486 6        39.489    38922131.634 5 164692239.95205     -1148.072 5        34.543
R03        33.000    20893785.465 7 111846053.64107     -3336.208 7        44.184                                                                    20893781.532 4  86991380.52804     -2594.563 4        24.271
C24        34.000                                                                                                                                    21754370.931 8 113280703.99408       287.860 8        48.701                                                                    21754372.414 7  92049912.31007       233.950 7        44.479
R14        35.000    22328116.608 7 119021412.37207      2154.539 7        44.560                                                                    22328127.323 6  92572313.59106      1675.749 6        40.062
R23        36.000    22105413.196 5 118249247.05705      2903.323 5        30.113
C26        37.000                                                                                                                                    22492760.829 7 117125755.45907     -2355.638 7        43.291                                                                    22492771.495 6  95174294.05206     -1914.271 6        40.014
S21        38.000    38484083.595 5 202235230.30005      -841.198 5        34.319
C44        39.000                                                                                                                                    24175409.713 5 125887678.82805      2207.955 5        35.190                                                                    24175414.266 4 102294097.80104      1794.690 4        25.759
C35        40.000                                                                                                                                    23209807.918 7 120859545.60607        70.726 7        42.108                                                                    23209818.946 7  98208346.94607        57.407 7        44.167
C42        41.000                                                                                                                                    26056628.637 5 135683678.18005     -4099.649 5        34.962
C40        44.000                                                                                                                                    40135286.559 5                     -1990.350 5        30.083                                                                    40135281.624 4                     -1617.306 4        28.616
C33        46.000                                                                                                                                    24516386.289 7 127663201.51407     -2491.051 7        44.877                                                                    24516406.838 7 103737013.90707     -2024.163 7        46.424
C14        48.000                                                                                                                                    24924072.084 5 129786299.73905     -3567.802 5        35.733    24924098.869 5 100359027.54605     -2759.065 5        33.066    24924083.792 5 105461975.98805     -2898.938 5        33.844
C41        50.000                                                                                                                                    25590082.289 5 133254201.65005       176.845 5        32.509
C29        51.000                                                                                                                                    25534086.418 4                     -3009.159 4        24.932                                                                    25534068.694 3                     -2444.337 3        23.962
C07        53.000                                                                                                                                    39754812.412 4                     -1705.276 4        25.023                                                                    39754774.345 4 168215448.78604     -1386.272 4        24.060
I02        56.000    36956357.357 5 145024682.53005      -692.680 5        32.072
I06        58.000    38422558.800 6 150778343.32106      -739.298 6        37.781
> 2025 01 01 12 01 30.0000000  0 38
G19         1.000    21410376.845 7 112512262.54507     -1883.553 7        42.263                                    21410379.646 1  87671899.80101     -1467.744 1        11.778
G25         3.000    23192725.270 5 121878602.67805      2447.100 5        34.490                                    23192734.155 1  94970370.62111      1906.809 1        11.185    23192722.682 4  94970368.67204      1906.369 4        29.488
G17         5.000    23744352.439 5                     -3745.244 5        33.910                                                                                                    23744371.312 3                     -2918.267 3        22.971
G15         6.000    23795988.572 5 125048988.20505     -4682.214 5        35.924                                    23795999.052 5  97440642.70405     -3648.479 5        32.132    23795999.404 6  97440606.71306     -3648.479 6        38.135
G12         7.000    20746132.463 8 109021651.37508       774.893 8        48.231                                    20746130.744 6  84951941.72106       603.812 6        41.223    20746133.174 6  84951965.73606       603.741 6        41.011
E30         9.000    24307013.221 8 127734239.00508       468.893 8        48.129                                                                    24307020.819 8  95385980.16108       350.101 8        50.091    24307019.307 8  97874314.47408       359.244 8        49.685
G32        11.000    24439851.107 6 128432253.38906      2031.185 6        41.979                                    24439864.301 4 100077086.14304      1582.742 4        28.284    24439862.913 6 100077125.13906      1582.805 6        37.747
E02        13.000    23724926.357 7 124675340.39307     -2066.432 7        43.553                                                                    23724933.565 8  93101799.97808     -1543.179 8        50.082    23724932.424 8  95530548.57608     -1583.423 8        49.961
G24        16.000    20165056.798 6 105968236.19006     -1533.740 6        41.268                                    20165063.222 5  82572485.15305     -1195.121 5        33.731    20165063.110 6  82572549.12806     -1195.148 6        39.135
E08        17.000    25057050.620 7 131675618.02507     -3313.639 7        42.942                                                                    25057053.736 5  98329191.84605     -2474.453 5        34.167    25057055.472 6 100894340.98206     -2539.037 6        41.230
E07        18.000    24391356.068 7 128177527.75007      -595.412 7        45.296                                                                    24391364.817 7  95717004.67907      -444.724 7        43.181    24391363.593 7  98213939.30107      -456.250 7        46.012
E10        19.000                                                                                                                                    28293972.582 4 111031645.00204     -1234.188 4        27.054
R22        22.000    21291737.602 7 113656891.08407      -186.166 7        45.005                                                                    21291742.380 6  88399704.91906      -144.786 6        39.943
S36        23.000    38256669.070 5 201040083.95505      -841.732 5        35.395
S23        24.000    38193499.093 5 200708183.74005      -845.521 5        35.810
R04        25.000    21322173.355 8 114179378.15608       497.566 8        48.657                                                                    21322181.958 7  88806159.68107       386.947 7        42.671
E29        26.000    27636311.183 6 145229813.79806      1732.514 6        38.826                                                                    27636327.029 6 108450873.95706      1293.781 6        40.272    27636324.528 5 111280013.87905      1327.317 5        34.152
R13        29.000    19510751.105 7 104186313.59907      -775.282 7        42.415
R21        30.000    23451390.128 5 125493130.51615     -3912.375 5        34.543                                                                    23451407.008 5                     -3042.291 5        33.539
R12        31.000    21168245.638 8 113076963.95608     -3395.676 8        48.809                                                                    21168253.265 7  87948770.05007     -2641.226 7        42.246
C10        32.000                                                                                                                                    38923488.314 6 202684770.88506     -1412.990 6        39.556    38923493.644 6 156728754.51606     -1092.713 6        39.538    38923488.465 5 164697981.13205     -1148.191 5        34.129
R03        33.000    20896908.459 7 111862743.98217     -3339.868 7        45.332                                                                    20896892.841 3                     -2600.097 3        21.143
C24        34.000                                                                                                                                    21754095.322 8 113279268.22808       286.591 8        48.914                                                                    21754096.677 7  92048745.63607       232.876 7        44.367
R14        35.000    22326095.999 7 119010641.41107      2153.920 7        44.287                                                                    22326105.857 6  92563936.17506      1675.190 6        38.640
R23        36.000    22102694.610 4 118234736.17404      2901.573 4        27.748
C26        37.000                                                                                                                                    22495023.905 7 117137536.91407     -2356.864 7        43.708                                                                    22495035.050 6  95183867.43106     -1915.042 6        39.718
S21        38.000    38484883.027 5 202239435.47805      -840.816 5        34.567
C44        39.000                                                                                                                                    24173290.128 5 125876642.86905      2206.798 5        34.376
C35        40.000                                                                                                                                    23209743.927 7 120859199.40907        67.969 7        42.766                                                                    23209751.810 7  98208065.60007        55.255 7        43.755
C42        41.000                                                                                                                                    26060566.061 5 135704176.12105     -4099.601 5        35.081
R02        43.000                                                                                                                                    23635671.335 3                     -4203.750 3        21.000
C40        44.000                                                                                                                                    40137199.237 4                     -1990.156 4        29.526                                                                    40137193.005 4                     -1617.010 4        28.844
C33        46.000                                                                                                                                    24518778.819 7 127675663.06707     -2493.472 7        44.862                                                                    24518800.097 7 103747139.89907     -2026.055 7        46.910
C14        48.000                                                                                                                                    24927505.003 5 129804141.92505     -3569.064 5        35.643    24927530.271 4 100372824.13704     -2760.009 4        27.928    24927510.797 5 105476474.20105     -2899.985 5        33.317
C29        51.000                                                                                                                                                                                                                                                                    25536958.802 4                     -2446.017 4        24.045
C07        53.000                                                                                                                                    39756452.397 3                     -1706.158 3        23.810                                                                    39756411.524 4                     -1386.872 4        24.722
I02        56.000    36957241.483 5 145028149.05005      -693.151 5        31.781
I06        58.000    38423500.920 6 150782039.71006      -739.285 6        37.497
> 2025 01 01 12 01 35.0000000  0 38
G19         1.000    21412170.713 7 112521687.95207     -1886.519 7        43.177                                    21412173.353 2  87679244.25302     -1470.009 2        12.667
G25         3.000    23190392.736 5 121866371.03405      2446.111 5        34.029                                    23190404.100 1  94960839.53301      1906.017 1        11.630    23190396.216 5  94960837.54405      1905.666 5        30.204
G17         5.000    23747915.951 5 124796135.98115     -3746.404 5        34.519                                                                                                    23747933.898 3                     -2920.353 3        22.267
G15         6.000    23800445.483 6 125072399.93806     -4682.375 6        37.463                                    23800454.577 5  97458885.55805     -3648.601 5        32.150    23800454.711 6  97458849.56406     -3648.470 6        38.384
G12         7.000    20745395.332 7 109017782.57907       772.796 7        47.913                                    20745394.867 6  84948927.07106       602.173 6        41.464    20745396.589 6  84948951.09006       602.117 6        40.610
E30         9.000    24306567.929 8 127731897.78208       467.763 8        48.592                                                                    24306575.196 8  95384231.84208       349.312 8        49.805    24306573.876 8  97872520.54708       358.433 8        49.794
G32        11.000    24437919.855 7 128422101.85307      2029.524 7        42.756                                    24437933.101 4 100069175.83504      1581.460 4        29.621    24437933.532 6 100069214.84006      1581.576 6        37.996
E02        13.000    23726893.135 7 124685675.61607     -2067.455 7        43.573                                                                    23726900.221 8  93109517.82508     -1543.843 8        49.971    23726899.105 8  95538467.76108     -1584.156 8        49.874
G24        16.000    20166517.242 6 105975912.11306     -1536.461 6        40.284                                    20166523.905 5  82578466.37705     -1197.232 5        33.874    20166523.274 6  82578530.35306     -1197.283 6        38.922
E08        17.000    25060204.186 7 131692189.38307     -3314.902 7        43.536                                                                    25060207.464 5  98341566.54505     -2475.402 5        34.000    25060208.918 6 100907038.49006     -2539.926 6        40.281
E07        18.000    24391923.751 7 128180511.04007      -597.652 7        44.939                                                                    24391932.855 7  95719232.44607      -446.293 7        43.390    24391931.171 7  98216225.19807      -457.973 7        45.797
E10        19.000                                                                                                                                    28295546.596 4 111037822.37404     -1236.261 4        26.311
R22        22.000    21291912.375 7 113657833.08107      -190.502 7        44.632                                                                    21291919.527 6  88400437.63006      -148.043 6        40.458
S36        23.000    38257467.984 5 201044291.15005      -841.159 5        35.167
S23        24.000    38194301.942 5 200712410.93605      -845.494 5        35.571
R04        25.000    21321709.604 7 114176901.52007       493.328 7        47.510                                                                    21321720.148 7  88804233.41907       383.727 7        43.386
E29        26.000    27634663.334 6 145221154.29706      1731.562 6        38.510                                                                    27634679.125 6 108444407.44606      1292.900 6        40.534    27634677.379 5 111273378.66505      1326.565 5        34.486
R13        29.000    19511478.909 7 104190195.29607      -777.273 7        43.564
R21        30.000    23455046.483 5 125512699.27805     -3915.158 5        33.240                                                                    23455061.346 5  97621055.19915     -3045.468 5        33.856
R12        31.000    21171424.766 8 113093945.32908     -3396.646 8        48.383                                                                    21171432.533 7  87961977.76607     -2641.865 7        42.409
C10        32.000                                                                                                                                    38924845.945 6 202691837.23106     -1413.219 6        39.703    38924850.504 6 156734218.65706     -1092.829 6        39.300    38924845.325 5 164703723.09105     -1148.287 5        34.400
R03        33.000    20900027.869 7                     -3343.396 7        46.195                                                                    20900016.229 4                     -2599.359 4        25.489
C24        34.000                                                                                                                                    21753820.664 8 113277838.80808       285.341 8        48.873                                                                    21753822.057 7  92047584.13007       231.764 7        44.194
R14        35.000    22324075.979 7 118999874.02207      2153.227 7        45.305                                                                    22324085.666 6  92555561.54806      1674.772 6        37.777
R23        36.000    22099983.318 4 118220235.98904      2899.214 4        28.057
C26        37.000                                                                                                                                    22497288.232 7 117149324.33407     -2357.935 7        44.024                                                                    22497295.797 6  95193445.73206     -1916.082 6        40.048
S21        38.000    38485685.406 5 202243640.38605      -840.884 5        34.314
C44        39.000                                                                                                                                    24171170.042 5 125865611.98905      2205.947 5        33.012                                                                    24171182.001 4 102276166.59604      1792.676 4        26.707
C35        40.000                                                                                                                                    23209681.555 7 120858866.53507        65.374 7        43.200                                                                    23209687.325 7  98207795.13807        52.940 7        43.388
C42        41.000                                                                                                                                    26064504.809 5 135724674.34605     -4099.607 5        35.024
C40        44.000                                                                                                                                    40139110.364 4                     -1990.418 4        29.554                                                                    40139103.774 4                     -1617.294 4        28.569
C33        46.000                                                                                                                                    24521172.692 7 127688136.07307     -2495.629 7        44.223                                                                    24521195.311 7 103757275.21707     -2027.973 7        46.986
C14        48.000                                                                                                                                    24930934.961 5 129821990.37405     -3570.382 5        34.643                                                                    24930938.454 5 105490977.51705     -2900.951 5        32.509
C41        50.000                                                                                                                                                                                                                                                                    25589750.301 5                       139.086 5        32.713
C29        51.000                                                                                                                                    25539827.471 5                     -3012.297 5        30.468                                                                    25539852.179 3                     -2447.544 3        22.571
C07        53.000                                                                                                                                    39758085.778 4                     -1706.714 4        24.105
I02        56.000    36958125.772 5 145031616.14205      -693.276 5        32.180
I06        58.000    38424442.748 6 150785735.74406      -739.052 6        37.819
> 2025 01 01 12 01 40.0000000  0 40
G19         1.000    21413966.003 7 112531130.24207     -1889.963 7        42.728                                    21413970.301 2  87686601.82802     -1472.670 2        13.091
G25         3.000    23188059.709 5 121854145.10705      2444.615 5        33.874                                    23188075.476 2  94951312.85702      1904.886 2        14.286    23188068.405 5  94951310.86505      1904.844 5        31.419
G17         5.000    23751480.482 5 124814874.21505     -3748.441 5        34.724                                                                                                    23751501.810 3                     -2920.168 3        19.224
G15         6.000    23804903.302 6 125095815.01706     -4683.113 6        39.529                                    23804910.696 5  97477131.03505     -3649.175 5        31.721    23804910.226 6  97477095.03006     -3649.235 6        38.216
G12         7.000    20744660.832 7 109013925.74507       770.344 7        47.932                                    20744661.373 6  84945921.74406       600.265 6        41.638    20744663.121 6  84945945.77006       600.257 6        41.139
E30         9.000    24306123.868 8 127729563.73508       466.304 8        49.241                                                                    24306130.972 8  95382488.88208       348.175 8        49.583    24306129.768 8  97870732.12208       357.343 8        49.845
G32        11.000    24435989.920 7 128411960.22707      2027.561 7        42.845                                    24436003.695 5 100061273.23305      1579.919 5        30.702    24436005.518 6 100061312.26906      1579.949 6        38.099
G10        12.000                                                                                                                                                                    24924559.471 3                     -1998.829 3        23.238
E02        13.000    23728861.645 7 124696017.14007     -2068.829 7        43.907                                                                    23728868.146 8  93117240.37708     -1544.857 8        49.749    23728866.986 8  95546391.78008     -1585.138 8        49.429
G24        16.000    20167981.166 6 105983602.88606     -1539.552 6        38.721                                    20167987.377 5  82584459.17305     -1199.653 5        33.605    20167987.131 6  82584523.14206     -1199.431 6        39.408
E08        17.000    25063359.118 7 131708769.29707     -3316.700 7        43.890                                                                    25063363.891 5  98353947.60805     -2476.679 5        34.281    25063363.289 6 100919742.54406     -2541.207 6        38.829
E07        18.000    24392494.216 7 128183507.16807      -600.349 7        44.817                                                                    24392503.286 7  95721469.81707      -448.342 7        43.735    24392501.324 7  98218520.92507      -459.938 7        45.111
E10        19.000                                                                                                                                    28297122.977 4 111044009.30904     -1238.808 4        24.857
R22        22.000    21292094.266 7 113658798.39007      -195.248 7        44.709                                                                    21292101.674 6  88401188.45506      -151.862 6        41.785
S36        23.000    38258266.821 5 201048499.31905      -841.388 5        35.519
S23        24.000    38195107.093 5 200716638.95005      -845.707 5        35.895
R04        25.000    21321250.772 7 114174447.91607       488.513 7        45.448                                                                    21321262.760 7  88802325.07807       380.034 7        43.941
E29        26.000    27633017.184 6 145212501.21206      1730.114 6        38.369                                                                    27633032.345 6 108437945.66506      1292.087 6        40.536    27633031.455 5 111266748.35105      1325.643 5        35.086
R13        29.000    19512208.327 7 104194088.28807      -779.496 7        43.718
R21        30.000    23458703.471 5 125532284.25005     -3918.420 5        32.886                                                                    23458720.529 5  97636287.95105     -3047.917 5        33.437
R12        31.000    21174604.907 8 113110933.30908     -3398.020 8        48.007                                                                    21174613.402 7  87975190.61607     -2643.020 7        43.162
C10        32.000                                                                                                                                    38926202.847 6 202698905.87206     -1413.776 6        39.706    38926207.912 6 156739684.56706     -1093.169 6        39.270    38926202.914 5 164709466.95305     -1148.913 5        34.186
R03        33.000    20903143.928 7                     -3347.409 7        46.391                                                                    20903146.030 5                     -2603.510 5        30.528
C24        34.000                                                                                                                                    21753547.307 8 113276417.06208       283.786 8        48.611                                                                    21753548.916 7  92046428.86207       230.614 7        44.259
R14        35.000    22322057.195 7 118989111.28407      2152.235 7        46.206                                                                    22322066.251 6  92547190.53006      1674.181 6        37.429
R23        36.000    22097278.620 4 118205747.82004      2896.322 4        29.469
C26        37.000                                                                                                                                    22499553.664 7 117161119.03007     -2359.479 7        44.286                                                                    22499555.585 6  95203029.94106     -1917.312 6        40.517
S21        38.000    38486487.593 5 202247845.94305      -840.845 5        34.329
C44        39.000                                                                                                                                    24169049.483 5 125854587.52005      2204.652 5        31.977
C35        40.000                                                                                                                                    23209620.015 7 120858548.36607        62.466 7        43.630                                                                    23209625.845 7  98207536.58707        50.854 7        42.694
C42        41.000                                                                                                                                    26068441.872 5 135745174.15005     -4099.932 5        34.914
R02        43.000                                                                                                                                    23645788.846 3                     -4207.924 3        20.286
C40        44.000                                                                                                                                    40141020.051 4                     -1990.864 4        28.758                                                                    40141014.919 4                     -1617.950 4        28.882
C33        46.000                                                                                                                                    24523570.216 7 127700621.88207     -2498.211 7        43.327                                                                    24523592.713 7 103767420.93207     -2029.960 7        46.589
C14        48.000                                                                                                                                    24934362.330 5 129839846.43705     -3571.667 5        32.874    24934355.772 5                     -2761.931 5        31.585    24934367.565 5 105505487.00105     -2902.291 5        32.317
C41        50.000                                                                                                                                                                                                                                                                    25589587.493 5 108277917.52015       136.834 5        34.319
C29        51.000                                                                                                                                    25542725.436 4                     -3014.692 4        29.687
C07        53.000                                                                                                                                    39759721.337 4                     -1709.099 4        24.526                                                                    39759690.639 4 168236255.07714     -1387.144 4        24.677
I02        56.000    36959008.794 5 145035084.79105      -693.565 5        32.054
I06        58.000    38425384.964 6 150789432.44106      -739.149 6        37.588
> 2025 01 01 12 01 45.0000000  0 37
G19         1.000    21415765.345 6 112540588.77206     -1893.251 6        41.659                                    21415770.281 2  87693972.10802     -1475.262 2        13.212
G25         3.000    23185733.255 5 121841924.07305      2443.566 5        34.700                                    23185748.542 2  94941790.01702      1904.071 2        16.226    23185742.520 5  94941787.98105      1904.269 5        31.223
G17         5.000    23755048.033 5 124833620.40405     -3750.028 5        35.067
G15         6.000    23809360.537 6 125119232.67406     -4683.662 6        41.027                                    23809367.200 5  97495378.50405     -3649.596 5        31.132    23809366.960 6  97495342.49206     -3649.525 6        38.613
G12         7.000    20743929.947 7 109010080.13207       768.129 7        47.990                                    20743930.124 6  84942925.16806       598.537 6        41.552    20743931.220 6  84942949.19206       598.583 6        41.564
E30         9.000    24305681.072 8 127727236.08808       465.042 8        50.115                                                                    24305687.938 8  95380750.69608       347.335 8        49.414    24305686.933 8  97868948.60008       356.339 8        50.088
G32        11.000    24434061.572 7 128401827.84507      2025.793 7        42.823                                    24434075.965 5 100053377.84205      1578.540 5        31.487    24434078.176 6 100053416.88106      1578.544 6        38.042
E02        13.000    23730831.138 7 124706364.21707     -2069.798 7        44.436                                                                    23730837.168 8  93124967.08208     -1545.639 8        49.725    23730835.980 8  95554320.05208     -1585.988 8        49.336
G24        16.000    20169448.096 5 105991307.86205     -1542.354 5        35.257                                    20169453.578 5  82590463.03305     -1201.828 5        32.689    20169454.304 6  82590526.99006     -1201.601 6        40.324
E08        17.000    25066515.404 7 131725357.01207     -3318.157 7        43.987                                                                    25066521.564 5  98366334.49505     -2477.739 5        35.595    25066519.713 6 100932452.59706     -2542.404 6        38.219
E07        18.000    24393066.783 7 128186515.38407      -602.550 7        45.270                                                                    24393076.015 7  95723716.21607      -450.097 7        44.290    24393073.934 7  98220825.93107      -461.753 7        45.013
R22        22.000    21292279.200 7 113659786.29607      -199.744 7        43.907                                                                    21292286.552 7  88401956.84207      -155.337 7        42.502
S36        23.000    38259068.722 5 201052707.61405      -841.107 5        35.290
S23        24.000    38195916.054 6 200720866.97206      -845.458 6        36.204
R04        25.000    21320798.511 7 114172016.48907       484.240 7        44.873                                                                    21320807.858 7  88800433.96707       376.652 7        44.004
E29        26.000    27631372.104 6 145203853.87506      1729.323 6        37.853                                                                    27631386.975 6 108431488.20606      1291.327 6        40.799    27631386.770 5 111260122.43305      1324.983 5        35.881
R13        29.000    19512938.409 7 104197991.89207      -781.630 7        42.895
R21        30.000    23462365.373 5 125551884.75505     -3921.371 5        32.994                                                                    23462385.572 5  97651532.78105     -3050.102 5        33.563
R12        31.000    21177785.829 7 113127927.21007     -3399.169 7        47.328                                                                    21177794.587 7  87988408.07907     -2643.773 7        44.160
C10        32.000                                                                                                                                    38927560.178 6 202705976.09106     -1414.062 6        39.895    38927565.363 6 156745151.70206     -1093.315 6        39.450    38927560.474 5 164715212.08305     -1149.068 5        34.076
R03        33.000    20906269.418 7 111912928.20717     -3351.156 7        47.500                                                                    20906275.052 5                     -2606.459 5        31.177
C24        34.000                                                                                                                                    21753275.514 8 113275002.28308       282.397 8        48.473                                                                    21753277.254 7  92045279.23707       229.433 7        44.111
R14        35.000    22320039.519 7 118978352.51907      2151.519 7        46.383                                                                    22320050.096 6  92538822.61806      1673.391 6        39.363
C26        37.000                                                                                                                                    22501820.875 7 117172920.30107     -2360.706 7        44.429                                                                    22501821.168 6  95212619.42306     -1918.314 6        40.963
S21        38.000    38487280.814 5 202252051.58005      -840.892 5        34.810
C44        39.000                                                                                                                                    24166932.281 5 125843568.71705      2203.347 5        33.096                                                                    24166981.362 4 102258254.37004      1790.211 4        27.389
C35        40.000                                                                                                                                    23209561.562 7 120858244.16007        59.594 7        44.170                                                                    23209567.030 7  98207289.40207        48.313 7        42.172
C42        41.000                                                                                                                                    26072379.096 5 135765674.80105     -4099.798 5        34.429                                                                    26072402.331 3                     -3332.543 3        22.457
R02        43.000    23650864.469 3                     -5403.635 3        22.210
C40        44.000                                                                                                                                    40142931.168 4                     -1991.052 4        29.052                                                                    40142926.940 4                     -1617.678 4        28.872
C33        46.000                                                                                                                                    24525970.600 7 127713119.75307     -2500.568 7        42.353                                                                    24525992.336 7 103777576.43807     -2032.061 7        46.037
C14        48.000                                                                                                                                    24937788.693 5 129857709.32605     -3572.921 5        32.359    24937789.061 6 100414138.37816     -2762.878 6        36.189    24937797.920 5 105520002.06905     -2903.402 5        31.268
C41        50.000                                                                                                                                                                                                                                                                    25589429.454 5 108277239.12905       134.569 5        35.405
C29        51.000                                                                                                                                    25545621.880 4                     -3016.456 4        27.497
C07        53.000                                                                                                                                    39761363.227 4                     -1707.825 4        24.947                                                                    39761329.706 4 168243192.58504     -1387.381 4        24.707
I02        56.000    36959893.532 5 145038554.51505      -693.795 5        31.872
I06        58.000    38426327.087 6 150793129.24306      -739.313 6        37.701
> 2025 01 01 12 01 50.0000000  0 39
G19         1.000    21417568.513 6 112550063.00006     -1896.291 6        41.070                                    21417573.557 2  87701354.59302     -1477.635 2        15.286
G25         3.000    23183411.510 6 121829707.47206      2443.109 6        36.783                                    23183422.149 2  94932270.59202      1903.697 2        17.396    23183418.085 5  94932268.58905      1903.587 5        31.004
G17         5.000    23758617.514 5 124852374.08805     -3751.340 5        34.695
G15         6.000    23813814.836 6 125142652.35206     -4684.068 6        41.952                                    23813824.142 5  97513627.56205     -3649.915 5        30.883    23813822.880 6  97513591.54106     -3649.803 6        38.559
G12         7.000    20743200.834 7 109006245.29807       766.075 7        47.698                                    20743200.999 6  84939936.98806       596.942 6        41.669    20743201.177 6  84939961.01706       596.964 6        41.395
E30         9.000    24305239.240 8 127724914.36708       463.802 8        50.620                                                                    24305246.060 8  95379016.95008       346.332 8        49.223    24305245.193 8  97867169.61708       355.379 8        50.370
G32        11.000    24432135.798 7 128391704.24007      2023.886 7        42.872                                    24432150.010 5 100045489.32705      1577.054 5        32.120    24432149.874 6 100045528.36906      1577.109 6        37.675
G10        12.000    24929347.221 3                     -2570.158 3        19.851
E02        13.000    23732801.377 7 124716716.36807     -2070.805 7        45.056                                                                    23732807.160 8  93132697.57508     -1546.364 8        49.681    23732805.944 8  95562252.20808     -1586.719 8        49.309
G24        16.000    20170916.238 5 105999026.48305     -1545.055 5        33.174                                    20170922.443 5  82596477.52305     -1203.932 5        31.743    20170922.835 6  82596541.49806     -1203.896 6        40.892
E08        17.000    25069672.695 7 131741952.05007     -3319.508 7        43.422                                                                    25069681.249 6  98378726.87706     -2478.857 6        37.138    25069677.720 6 100945168.25106     -2543.533 6        37.671
E07        18.000    24393641.622 7 128189535.24807      -605.067 7        45.204                                                                    24393650.773 7  95725971.29407      -451.801 7        44.709    24393648.638 7  98223139.84507      -463.614 7        44.891
E10        19.000                                                                                                                                    28300279.379 3                     -1241.912 3        21.452
R22        22.000    21292468.142 7 113660796.28407      -204.046 7        42.802                                                                    21292476.239 7  88402742.42207      -158.827 7        43.217
S36        23.000    38259865.672 5 201056915.55505      -841.412 5        35.452
S23        24.000    38196715.115 5 200725094.81505      -845.411 5        35.743
R04        25.000    21320350.325 7 114169606.90607       479.876 7        46.047                                                                    21320357.562 7  88798559.83307       373.298 7        43.082
E29        26.000    27629727.550 6 145195211.84806      1727.848 6        37.546                                                                    27629742.364 6 108425034.70406      1290.378 6        40.918    27629742.335 6 111253500.58006      1324.021 6        36.219
R13        29.000    19513670.248 7 104201905.81307      -783.693 7        43.202
R21        30.000    23466026.802 4 125571500.09704     -3924.112 4        28.995                                                                    23466050.716 5  97666789.24105     -3052.152 5        32.946
R12        31.000    21180968.178 7 113144926.64407     -3400.305 7        46.679                                                                    21180977.235 7  88001629.84507     -2644.635 7        44.916
C10        32.000                                                                                                                                    38928917.803 6 202713047.39906     -1414.143 6        39.682    38928923.337 6 156750619.70806     -1093.620 6        39.501    38928918.583 5 164720958.12305     -1149.168 5        33.611
R03        33.000    20909404.675 8 111929693.70308     -3354.873 8        48.106                                                                    20909408.510 5                     -2609.249 5        33.533
C24        34.000                                                                                                                                    21753005.024 8 113273593.97408       281.159 8        48.413                                                                    21753006.858 7  92044134.89707       228.553 7        44.065
R14        35.000    22318021.591 7 118967597.35207      2150.799 7        45.260                                                                    22318032.541 6  92530457.49206      1672.895 6        40.539
C26        37.000                                                                                                                                    22504088.468 7 117184727.67107     -2361.978 7        43.845                                                                    22504090.003 6  95222213.89806     -1919.279 6        41.740
S21        38.000    38488086.641 5 202256257.12105      -841.040 5        34.386
C44        39.000                                                                                                                                    24164817.486 5 125832555.16805      2202.227 5        34.667                                                                    24164860.830 4 102249304.92604      1789.505 4        25.519
C35        40.000                                                                                                                                    23209506.011 7 120857953.43707        56.954 7        44.637                                                                    23209510.561 6  98207053.16106        46.387 6        41.316
C42        41.000                                                                                                                                    26076314.369 5 135786175.82405     -4100.116 5        34.114
R02        43.000    23655922.272 3                     -5403.112 3        22.609                                                                    23655909.156 3                     -4203.634 3        21.357
C40        44.000                                                                                                                                    40144844.612 4                     -1991.380 4        28.218                                                                    40144838.863 4                     -1617.425 4        28.246
C33        46.000                                                                                                                                    24528373.051 6 127725629.20506     -2503.018 6        41.702                                                                    24528393.892 7 103787741.34207     -2033.803 7        44.858
C14        48.000                                                                                                                                    24941220.572 5 129875578.55705     -3574.560 5        31.374    24941221.547 6 100427956.02806     -2763.906 6        38.408    24941225.472 5 105534522.34605     -2904.357 5        31.366
C41        50.000                                                                                                                                    25589250.715 5                       163.411 5        33.832                                                                    25589271.889 6 108276571.52806       132.491 6        36.488
C29        51.000                                                                                                                                    25548517.895 4                     -3018.397 4        26.287
C07        53.000                                                                                                                                    39763005.614 4                     -1706.821 4        24.015                                                                    39762967.240 4                     -1387.987 4        24.195
I02        56.000    36960776.653 5 145042024.83805      -693.681 5        32.533
I06        58.000    38427268.576 6 150796825.80606      -739.310 6        37.735
> 2025 01 01 12 01 55.0000000  0 39
G19         1.000    21419375.277 6 112559553.08606     -1900.084 6        40.484                                    21419379.627 2  87708749.44702     -1480.564 2        16.340
G25         3.000    23181089.821 6 121817495.50306      2441.284 6        38.126                                    23181096.941 3  94922754.80303      1902.289 3        18.925    23181093.407 4  94922752.78704      1902.219 4        29.678
G17         5.000    23762187.766 5 124871135.46605     -3753.545 5        33.940
G15         6.000    23818271.310 7 125166074.30307     -4685.095 7        42.207                                    23818281.415 5  97531878.37605     -3650.712 5        30.528    23818280.152 6  97531842.36106     -3650.607 6        38.763
G12         7.000    20742473.419 7 109002421.46507       763.176 7        47.323                                    20742473.900 6  84936957.38006       594.680 6        41.564    20742472.963 6  84936981.40706       594.733 6        41.256
E30         9.000    24304798.382 8 127722598.74608       461.977 8        50.886                                                                    24304805.316 8  95377287.75408       344.960 8        49.171    24304804.617 8  97865395.30808       353.997 8        50.512
G32        11.000    24430211.564 7 128381589.51307      2021.444 7        42.669                                    24430225.571 5 100037607.70705      1575.158 5        32.437    24430222.768 6 100037646.76806      1575.157 6        37.524
E02        13.000    23734772.164 7 124727073.76407     -2072.516 7        45.586                                                                    23734778.189 8  93140431.98808     -1547.602 8        49.739    23734776.949 8  95570188.39308     -1588.043 8        49.052
G24        16.000    20172390.089 5 106006758.96105     -1548.715 5        34.138                                    20172393.911 5  82602502.80705     -1206.787 5        31.472    20172394.057 6  82602566.77506     -1206.451 6        41.015
E08        17.000    25072831.269 7 131758554.58307     -3321.789 7        42.531                                                                    25072841.352 6  98391124.83706     -2480.547 6        38.679    25072837.203 6 100957889.66106     -2545.284 6        37.285
E07        18.000    24394218.131 7 128192566.89407      -608.054 7        45.312                                                                    24394227.697 7  95728235.17207      -454.111 7        45.303    24394225.520 7  98225462.77507      -465.835 7        44.719
E10        19.000                                                                                                                                    28301861.855 3                     -1243.734 3        20.214
R22        22.000    21292660.969 6 113661828.52706      -209.159 6        41.352                                                                    21292669.158 7  88403545.29607      -162.780 7        43.082
S36        23.000    38260670.273 5 201061123.55005      -842.501 5        35.109
S23        24.000    38197520.012 5 200729322.75105      -846.015 5        35.929
R04        25.000    21319905.223 8 114167219.33008       474.853 8        48.674                                                                    21319911.501 7  88796702.79907       369.310 7        43.206
E29        26.000    27628084.118 6 145186575.30106      1726.192 6        36.658                                                                    27628098.932 6 108418585.31806      1289.127 6        41.225    27628098.217 6 111246882.95106      1322.760 6        36.677
R13        29.000    19514405.745 7 104205829.90307      -786.366 7        44.030
R21        30.000    23469691.851 4 125591130.53704     -3928.423 4        25.895                                                                    23469720.244 5  97682057.51405     -3055.375 5        31.698
R12        31.000    21184151.489 7 113161931.56007     -3402.029 7        46.274                                                                    21184160.854 7  88014855.89007     -2646.087 7        45.482
C10        32.000                                                                                                                                    38930275.716 6 202720119.96606     -1415.093 6        39.853    38930281.846 6 156756088.64406     -1094.185 6        39.339    38930276.722 5 164726705.13005     -1149.595 5        34.205
R03        33.000    20912541.424 7 111946477.75807     -3359.148 7        47.531                                                                    20912544.247 5  87069488.99015     -2612.645 5        35.595
C24        34.000                                                                                                                                    21752736.305 8 113272192.31808       279.141 8        48.460                                                                    21752737.661 7  92042995.94507       226.923 7        44.238
R14        35.000    22316003.502 7 118956845.87007      2149.420 7        45.163                                                                    22316015.903 6  92522095.26606      1671.746 6        41.309
R23        36.000    22089206.280 4 118162349.36104      2889.864 4        28.654
C26        37.000                                                                                                                                    22506356.267 7 117196541.28907     -2363.901 7        43.572                                                                    22506359.398 7  95231813.43307     -1920.784 7        42.191
S21        38.000    38488887.070 5 202260462.44805      -841.579 5        34.576
C44        39.000                                                                                                                                    24162704.117 6 125821546.99506      2200.798 6        36.495
C35        40.000                                                                                                                                    23209453.724 7 120857676.38207        53.449 7        45.496                                                                    23209456.679 6  98206828.02606        43.724 6        40.667
C42        41.000                                                                                                                                    26080249.263 5 135806677.39005     -4100.817 5        33.210                                                                    26080299.073 4                     -3332.057 4        26.431
R02        43.000    23660981.591 3                     -5405.374 3        22.495
C40        44.000                                                                                                                                    40146756.454 4                     -1991.145 4        28.616                                                                    40146750.455 4                     -1618.003 4        28.370
C33        46.000                                                                                                                                    24530777.526 6 127738150.36706     -2505.868 6        41.390                                                                    24530797.920 7 103797915.77907     -2036.087 7        43.845
C14        48.000                                                                                                                                    24944657.788 5 129893454.32305     -3576.235 5        30.423    24944656.611 6 100441778.66206     -2765.493 6        39.886    24944650.797 5 105549047.87405     -2905.902 5        33.287
C41        50.000                                                                                                                                    25589097.203 5 133249128.89815       159.935 5        32.126                                                                    25589117.275 6 108275914.83006       129.947 6        37.316
C29        51.000                                                                                                                                    25551416.142 4                     -3020.727 4        25.639                                                                    25551492.765 4                     -2456.175 4        24.346
C07        53.000                                                                                                                                    39764642.062 3                     -1708.428 3        23.714                                                                    39764607.127 4                     -1387.585 4        24.451
I02        56.000    36961661.512 5 145045495.93305      -694.536 5        32.287
I06        58.000    38428210.871 6 150800522.25506      -739.766 6        38.003
> 2025 01 01 12 02  0.0000000  0 38
G19         1.000    21421184.990 6 112569059.02606     -1902.937 6        38.856                                    21421188.801 2  87716156.65502     -1482.759 2        16.226
G25         3.000    23178766.661 6 121805288.19306      2440.846 6        38.628                                    23178772.860 3  94913242.62603      1901.933 3        19.731    23178770.614 4  94913240.62804      1902.074 4        28.796
G17         5.000    23765758.006 5 124889904.59505     -3754.872 5        31.547
G15         6.000    23822727.983 6 125189498.51306     -4685.268 6        41.838                                    23822739.019 5  97550130.95505     -3650.849 5        30.551    23822737.647 6  97550094.93706     -3650.852 6        38.607
G12         7.000    20741748.087 7 108998608.58207       761.260 7        47.144                                    20741748.666 6  84933986.30706       593.187 6        41.387    20741746.458 6  84934010.34006       593.189 6        40.188
E30         9.000    24304359.093 8 127720289.25608       461.106 8        50.883                                                                    24304365.748 8  95375563.13108       344.390 8        48.989    24304365.138 8  97863625.70008       353.359 8        50.590
G32        11.000    24428288.494 7 128371483.76207      2020.086 7        42.993                                    24428302.765 5 100029733.09005      1574.097 5        32.491    24428300.223 6 100029772.14606      1574.278 6        37.391
G10        12.000                                                                                                                                                                    24934274.420 4                     -2006.600 4        25.594
E02        13.000    23736743.906 7 124737436.42607     -2073.270 7        45.928                                                                    23736750.205 8  93148170.33308     -1548.178 8        49.834    23736748.935 8  95578128.60608     -1588.568 8        48.982
G24        16.000    20173864.884 5 106014505.32605     -1550.767 5        35.181                                    20173868.129 5  82608538.90605     -1208.386 5        31.592    20173867.581 6  82608602.86106     -1208.304 6        41.170
E08        17.000    25075991.737 6 131775164.62206     -3323.033 6        41.816                                                                    25076002.519 6  98403528.39706     -2481.424 6        40.062    25075998.193 6 100970616.80506     -2546.395 6        36.681
E07        18.000    24394796.768 7 128195610.37107      -610.059 7        45.496                                                                    24394807.078 7  95730507.90107      -455.616 7        45.889    24394804.675 7  98227794.79907      -467.470 7        44.451
R22        22.000    21292858.823 6 113662883.11606      -213.371 6        40.446                                                                    21292866.518 7  88404365.52507      -165.881 7        42.398
S36        23.000    38261471.208 5 201065331.99805      -842.028 5        35.109
S23        24.000    38198327.448 6 200733550.61406      -845.746 6        36.106
R04        25.000    21319462.724 8 114164853.57108       470.718 8        49.089                                                                    21319469.834 7  88794862.76607       366.117 7        43.359
E29        26.000    27626441.089 6 145177944.22606      1725.623 6        36.098                                                                    27626456.412 6 108412140.01206      1288.595 6        41.573    27626455.536 6 111240269.52006      1322.147 6        37.395
R13        29.000    19515142.794 7 104209764.43207      -788.120 7        43.376
R21        30.000    23473362.613 4 125610776.34304     -3930.328 4        28.057                                                                    23473393.806 5  97697337.47505     -3057.241 5        32.036
R12        31.000    21187335.892 7 113178942.21707     -3402.876 7        46.416                                                                    21187344.968 7  88028086.37507     -2646.638 7        45.640
C10        32.000                                                                                                                                    38931634.168 6 202727193.85906     -1415.242 6        40.148    38931640.581 6 156761558.61506     -1094.129 6        39.360    38931635.001 5 164732453.28205     -1150.110 5        34.038
R03        33.000    20915677.396 7 111963280.22507     -3362.470 7        45.083                                                                    20915685.178 6  87082557.58906     -2615.394 6        36.284
C24        34.000                                                                                                                                    21752468.842 8 113270797.34608       278.145 8        48.469                                                                    21752469.885 7  92041862.43607       226.081 7        44.363
R14        35.000    22313987.872 7 118946098.22907      2148.955 7        44.175                                                                    22314000.268 6  92513735.98106      1671.381 6        41.969
C26        37.000                                                                                                                                    22508625.913 7 117208361.18707     -2364.750 7        43.827                                                                    22508629.238 7  95241418.09007     -1921.536 7        42.518
S21        38.000    38489682.451 5 202264667.67905      -841.084 5        34.243
C44        39.000                                                                                                                                    24160591.656 6 125810544.35906      2199.890 6        37.440                                                                    24160624.017 4                      1787.354 4        26.024
C35        40.000                                                                                                                                    23209403.883 7 120857413.01407        51.137 7        46.274                                                                    23209405.745 6  98206614.03906        41.671 6        40.186
C42        41.000                                                                                                                                    26084184.769 5 135827179.50305     -4100.679 5        32.329                                                                    26084240.603 4                     -3331.642 4        26.563
R02        43.000    23666042.404 3                     -5405.276 3        22.362                                                                    23666045.654 3                     -4203.343 3        23.390
C40        44.000                                                                                                                                    40148668.166 4                     -1991.580 4        28.123                                                                    40148663.267 4                     -1618.167 4        28.408
C33        46.000                                                                                                                                    24533183.721 6 127750683.30006     -2507.991 6        41.554                                                                    24533204.372 7 103808099.79107     -2037.749 7        42.567
C14        48.000                                                                                                                                    24948092.341 5 129911336.66705     -3577.839 5        30.106    24948093.371 6 100455606.34606     -2766.250 6        40.696    24948083.041 5 105563578.67405     -2906.823 5        34.695
C41        50.000                                                                                                                                    25588943.440 5 133248334.25805       157.602 5        32.030                                                                    25588964.881 6 108275269.07106       127.992 6        38.243
C29        51.000                                                                                                                                    25554322.057 4                     -3022.302 4        25.970                                                                    25554395.205 3                     -2452.787 3        21.405
C07        53.000                                                                                                                                    39766276.615 3                     -1708.122 3        23.524    39766243.464 3                     -1316.742 3        20.310    39766246.214 3                     -1388.725 3        23.962
I02        56.000    36962547.547 5 145048967.89005      -694.835 5        32.383
I06        58.000    38429152.659 6 150804218.57506      -739.389 6        37.732
> 2025 01 01 12 02  5.0000000  0 40
G19         1.000    21422994.940 6 112578581.10306     -1906.028 6        36.601                                    21423001.110 2  87723576.42402     -1485.201 2        15.857
G25         3.000    23176443.638 6 121793085.81406      2440.038 6        38.919                                    23176449.825 3  94903734.30003      1901.319 3        20.619    23176449.718 4  94903732.30004      1901.302 4        27.952
G17         5.000    23769332.212 4 124908681.67004     -3756.571 4        29.649
G15         6.000    23827185.964 6 125212925.21306     -4685.624 6        41.039                                    23827196.954 5  97568385.47205     -3651.118 5        30.279    23827196.015 6  97568349.45206     -3651.126 6        38.369
G12         7.000    20741025.002 7 108994806.93107       759.165 7        47.672                                    20741025.296 6  84931023.99406       591.557 6        41.144    20741023.246 6  84931048.02806       591.592 6        40.057
E30         9.000    24303920.679 8 127717986.17908       459.960 8        50.529                                                                    24303927.369 8  95373843.30008       343.488 8        48.968    24303926.974 8  97861860.99808       352.439 8        50.748
G32        11.000    24426367.172 7 128361387.29607      2018.304 7        43.058                                    24426381.492 5 100021865.70905      1572.701 5        32.317    24426379.343 6 100021904.78806      1572.561 6        37.214
G10        12.000    24936774.595 5                     -2577.039 5        32.042
E02        13.000    23738716.389 7 124747804.62707     -2074.239 7        45.345                                                                    23738723.298 8  93155912.81408     -1548.968 8        50.078    23738722.064 8  95586073.06208     -1589.346 8        48.905
E25        14.000    27663327.347 3                     -3428.892 3        22.400
G24        16.000    20175342.857 6 106022265.81606     -1553.396 6        36.450                                    20175345.074 5  82614586.01705     -1210.432 5        32.383    20175344.058 6  82614650.00706     -1210.456 6        41.101
E08        17.000    25079154.061 6 131791782.42806     -3324.404 6        40.605                                                                    25079165.032 6  98415937.76806     -2482.420 6        41.397    25079160.683 6 100983349.89306     -2547.290 6        36.507
E07        18.000    24395377.804 7 128198665.97607      -612.422 7        45.142                                                                    24395388.640 7  95732789.66507      -457.316 7        46.410    24395386.105 7  98230136.09807      -469.234 7        44.336
R22        22.000    21293060.280 6 113663960.27806      -217.789 6        38.090                                                                    21293067.065 6  88405203.33006      -169.469 6        41.616
S36        23.000    38262273.144 5 201069540.93305      -842.016 5        35.419
S23        24.000    38199132.121 6 200737778.72106      -845.726 6        36.178
R04        25.000    21319025.013 8 114162510.13208       466.469 8        48.954                                                                    21319032.543 7  88793040.10407       362.773 7        44.221
E29        26.000    27624799.862 5 145169318.93405      1724.243 5        35.048                                                                    27624815.123 6 108405699.03406      1287.631 6        41.919    27624814.212 6 111233660.52106      1321.285 6        37.853
R13        29.000    19515880.650 7 104213709.50807      -790.206 7        43.340
R21        30.000    23477041.356 4 125630437.54204     -3934.028 4        26.503
R12        31.000    21190522.185 7 113195958.78007     -3403.898 7        46.857                                                                    21190531.027 7  88041321.46707     -2647.526 7        45.589
C10        32.000                                                                                                                                    38932992.946 6 202734269.25206     -1415.216 6        40.148    38932998.954 6 156767029.74806     -1094.410 6        39.517    38932993.787 5 164738202.57005     -1150.270 5        34.043
R03        33.000    20918818.769 7 111980101.36707     -3366.156 7        44.567                                                                    20918830.851 5  87095640.68905     -2618.209 5        35.743
C24        34.000                                                                                                                                    21752202.655 8 113269409.35308       276.865 8        48.621                                                                    21752203.317 7  92040734.56207       225.023 7        44.435
R14        35.000    22311971.248 7 118935354.58507      2148.259 7        43.086                                                                    22311984.247 6  92505379.83106      1670.910 6        41.418
R23        36.000    22083756.632 6 118133471.87906      2885.510 6        37.123
C26        37.000                                                                                                                                    22510898.160 7 117220187.64707     -2365.965 7        43.627                                                                    22510900.230 7  95251028.05007     -1922.418 7        42.500
S21        38.000    38490483.524 5 202268872.88205      -840.812 5        34.629
C44        39.000                                                                                                                                    24158479.478 6 125799547.45206      2198.653 6        37.614
C35        40.000                                                                                                                                    23209356.258 7 120857163.61707        48.440 7        46.802                                                                    23209357.689 6  98206411.37406        39.393 6        39.781
C42        41.000                                                                                                                                    26088119.533 5 135847682.42205     -4100.560 5        31.396                                                                    26088176.083 4                     -3332.148 4        26.874
R02        43.000    23671111.824 3                     -5403.824 3        20.857
C40        44.000                                                                                                                                    40150580.080 4                     -1991.839 4        28.085                                                                    40150576.035 4                     -1618.716 4        27.737
C33        46.000                                                                                                                                    24535593.058 7 127763228.22407     -2510.239 7        42.690                                                                    24535613.442 6 103818293.53406     -2039.714 6        41.123
C14        48.000                                                                                                                                    24951530.647 5 129929225.78205     -3578.867 5        31.283    24951529.539 6 100469439.25906     -2767.179 6        41.969    24951520.074 5 105578114.97105     -2908.037 5        35.424
C41        50.000                                                                                                                                    25588794.959 5 133247553.30805       154.492 5        33.138                                                                    25588815.085 6 108274634.48006       125.716 6        38.384
C29        51.000                                                                                                                                    25557232.046 4                     -3025.058 4        27.054
C07        53.000                                                                                                                                    39767912.500 4                     -1709.020 4        25.053    39767884.769 3                     -1323.366 3        22.114    39767886.620 4                     -1388.757 4        24.120
I02        56.000    36963432.413 5 145052440.72005      -694.347 5        32.641
I06        58.000    38430094.167 6 150807915.02406      -739.534 6        37.962
> 2025 01 01 12 02 10.0000000  0 36
G19         1.000    21424810.956 6 112588119.08806     -1909.288 6        37.577                                    21424816.101 2  87731008.59302     -1487.716 2        14.952
G25         3.000    23174120.657 6 121780888.14806      2438.845 6        39.021                                    23174128.168 3  94894229.64803      1900.377 3        21.214    23174128.338 4  94894227.62704      1900.831 4        28.844
G17         5.000    23772908.430 4 124927466.43304     -3758.020 4        28.806
G15         6.000    23831644.241 6 125236354.17606     -4685.939 6        39.982                                    23831655.198 5  97586641.74905     -3651.368 5        30.219    23831654.494 6  97586605.73006     -3651.513 6        38.480
G12         7.000    20740303.864 8 108991016.30108       756.980 8        48.424                                    20740303.728 6  84928070.27106       589.850 6        40.930    20740301.772 6  84928094.28706       589.864 6        39.150
E30         9.000    24303483.237 8 127715689.29708       458.709 8        49.947                                                                    24303490.159 8  95372128.10208       342.563 8        48.680    24303489.879 8  97860101.04808       351.495 8        50.840
G32        11.000    24424447.424 7 128351299.82207      2016.504 7        43.219                                    24424461.726 5 100014005.34205      1571.304 5        31.872    24424460.306 6 100014044.39406      1571.400 6        36.994
E02        13.000    23740689.838 7 124758178.13607     -2075.237 7        44.507                                                                    23740697.415 8  93163659.25608     -1549.680 8        50.123    23740696.139 8  95594021.59008     -1590.137 8        48.870
E25        14.000    27666592.222 3                     -3428.953 3        21.762
G24        16.000    20176822.104 6 106030040.25206     -1556.481 6        37.894                                    20176824.609 5  82620643.99405     -1212.847 5        33.030    20176823.746 6  82620707.99206     -1212.737 6        40.830
E08        17.000    25082318.087 6 131808407.78006     -3325.870 6        40.212                                                                    25082328.590 7  98428352.78107     -2483.529 7        42.009    25082323.497 6 100996088.76006     -2548.209 6        36.227
E07        18.000    24395961.525 7 128201733.45907      -614.780 7        45.384                                                                    24395972.480 7  95735080.31707      -459.096 7        46.603    24395969.576 7  98232486.50407      -470.963 7        44.188
R22        22.000    21293265.773 6 113665059.80506      -222.091 6        36.510                                                                    21293271.784 6  88406058.49006      -172.805 6        40.508
S36        23.000    38263070.354 5 201073748.61605      -841.360 5        35.314
S23        24.000    38199935.676 6 200742006.79706      -845.581 6        36.166
R04        25.000    21318589.555 7 114160188.67407       462.049 7        47.211                                                                    21318598.643 7  88791234.53607       359.425 7        45.204
E29        26.000    27623159.461 5 145160699.24605      1723.179 5        33.605                                                                    27623174.831 6 108399262.21606      1286.954 6        41.590    27623173.519 6 111227055.79206      1320.293 6        38.492
R13        29.000    19516621.317 7 104217664.90807      -792.103 7        42.713
R21        30.000    23480741.762 3                     -3939.755 3        19.313
R12        31.000    21193709.055 7 113212980.98607     -3405.122 7        46.693                                                                    21193717.746 7  88054560.94707     -2648.443 7        45.896
C10        32.000                                                                                                                                    38934351.682 6 202741345.99806     -1415.556 6        40.081    38934358.170 6 156772501.93806     -1094.594 6        39.420    38934352.833 5 164743953.02505     -1150.452 5        33.359
R03        33.000    20921966.345 7 111996941.12307     -3369.793 7        45.413                                                                    20921978.848 5  87108738.23205     -2620.954 5        34.957
C24        34.000                                                                                                                                    21751937.806 8 113268028.09308       275.501 8        48.640                                                                    21751938.035 7  92039612.20807       223.883 7        44.468
R14        35.000    22309955.843 7 118924614.70407      2147.535 7        42.973                                                                    22309969.516 6  92497026.59206      1670.332 6        41.609
C26        37.000                                                                                                                                    22513170.795 7 117232020.43807     -2367.182 7        42.825                                                                    22513172.624 7  95260643.20607     -1923.580 7        42.620
S21        38.000    38491284.356 5 202273077.76705      -841.071 5        34.405
C44        39.000                                                                                                                                    24156367.851 6 125788556.06606      2197.522 6        37.259                                                                    24156377.429 5                      1785.654 5        33.341
C35        40.000                                                                                                                                    23209310.743 7 120856927.99507        45.700 7        46.481                                                                    23209312.583 6  98206219.94606        37.030 6        39.306
C42        41.000                                                                                                                                    26092057.230 5 135868185.90005     -4100.927 5        30.234                                                                    26092112.886 4                     -3332.206 4        27.629
C40        44.000                                                                                                                                    40152492.996 4                     -1991.638 4        27.293                                                                    40152487.984 4                     -1618.957 4        28.171
C33        46.000                                                                                                                                    24538006.028 7 127775784.93107     -2512.644 7        43.242                                                                    24538024.877 6 103828496.90606     -2041.576 6        40.114
C14        48.000                                                                                                                                    24954969.458 5 129947121.43405     -3579.882 5        31.441    24954966.905 7 100483277.23407     -2768.096 7        43.153    24954957.344 5 105592656.59305     -2908.647 5        35.571
C41        50.000                                                                                                                                    25588648.496 5 133246785.87805       152.052 5        33.335                                                                    25588667.591 6 108274010.91006       123.633 6        38.586
C07        53.000                                                                                                                                                                                                    39769526.905 3                     -1323.957 3        21.333    39769527.021 3                     -1388.249 3        23.810
I02        56.000    36964317.670 5 145055914.37505      -694.618 5        32.820
I06        58.000    38431036.841 6 150811611.40806      -739.306 6        38.018
> 2025 01 01 12 02 15.0000000  0 39
G19         1.000    21426630.338 6 112597673.63906     -1912.326 6        40.072                                    21426634.111 2  87738453.69302     -1490.119 2        15.143
G25         3.000    23171800.271 6 121768695.91506      2437.946 6        39.865                                    23171807.588 3  94884729.25603      1899.677 3        21.214    23171809.178 4  94884727.24204      1899.905 4        28.758
G17         5.000    23776484.782 4 124946259.63004     -3759.515 4        27.186                                                                                                    23776578.589 4                     -2929.983 4        24.992
G15         6.000    23836103.870 6 125259786.10006     -4686.487 6        38.784                                    23836113.951 4  97604900.32804     -3651.797 4        29.943    23836112.972 6  97604864.31406     -3651.841 6        38.288
G12         7.000    20739584.877 8 108987237.39708       754.721 8        49.388                                    20739584.172 6  84925125.69006       588.086 6        40.563    20739582.577 6  84925149.71806       587.928 6        37.977
E30         9.000    24303047.142 8 127713399.27008       457.467 8        49.368                                                                    24303054.220 8  95370418.01708       341.620 8        48.427    24303054.151 8  97858346.34908       350.457 8        50.985
G32        11.000    24422529.968 7 128341222.11107      2014.698 7        43.558                                    24422543.293 5 100006152.57005      1569.899 5        30.966    24422542.006 5 100006191.63705      1569.998 5        35.786
G10        12.000    24941657.129 5                     -2581.624 5        33.114                                                                                                    24941672.326 4                     -2011.037 4        26.467
E02        13.000    23742664.849 7 124768557.66007     -2076.322 7        43.194                                                                    23742672.664 8  93171410.19408     -1550.556 8        50.244    23742671.345 8  95601974.72108     -1590.987 8        48.811
E25        14.000    27669853.993 3                     -3430.873 3        20.929
G24        16.000    20178304.128 6 106037829.30706     -1559.181 6        38.444                                    20178306.831 5  82626713.36705     -1214.948 5        32.928    20178305.571 6  82626777.36206     -1214.784 6        40.474
E08        17.000    25085483.867 6 131825041.38806     -3327.408 6        40.257                                                                    25085493.771 7  98440773.95707     -2484.739 7        42.345    25085487.808 6 101008833.95806     -2549.500 6        36.439
E07        18.000    24396547.918 7 128204813.51207      -617.138 7        45.701                                                                    24396558.734 7  95737380.35807      -460.911 7        46.990    24396555.527 7  98234846.56007      -472.988 7        44.152
E10        19.000                                                                                                                                    28308217.850 3                     -1250.331 3        21.905
R22        22.000    21293478.551 6 113666182.43106      -226.599 6        39.027                                                                    21293482.237 6  88406931.65706      -176.338 6        41.464
S36        23.000    38263871.682 5 201077956.83605      -841.408 5        35.176
S23        24.000    38200742.057 6 200746235.37106      -845.856 6        36.011
R04        25.000    21318159.438 7 114157890.01307       457.579 7        46.167                                                                    21318168.720 7  88789446.70107       355.966 7        44.939
E29        26.000    27621519.537 5 145152085.72705      1721.939 5        32.228                                                                    27621535.768 6 108392829.98306      1286.166 6        41.576    27621534.303 6 111220455.76106      1319.624 6        38.658
R13        29.000    19517364.536 7 104221631.44907      -794.399 7        42.483
R12        31.000    21196896.119 7 113230009.62707     -3406.298 7        44.661                                                                    21196905.488 7  88067805.42907     -2649.302 7        45.788
C10        32.000                                                                                                                                    38935710.974 6 202748424.79206     -1415.870 6        40.315    38935717.843 6 156777975.70106     -1094.768 6        39.219    38935712.151 5 164749705.06505     -1150.254 5        33.287
R03        33.000    20925117.937 7 112013800.20207     -3373.635 7        45.088                                                                    20925132.697 5  87121850.88705     -2624.056 5        34.143
C24        34.000                                                                                                                                    21751674.147 8 113266654.27008       274.157 8        48.728                                                                    21751674.204 7  92038495.85207       222.632 7        44.567
R14        35.000    22307942.659 7 118913879.35707      2146.712 7        43.594                                                                    22307955.278 6  92488676.88406      1669.658 6        41.294
R23        36.000    22078388.008 6 118104639.86506      2880.988 6        39.667
C26        37.000                                                                                                                                    22515439.528 6 117243860.28306     -2368.632 6        41.497                                                                    22515446.436 7  95270264.03807     -1924.804 7        42.705
S21        38.000    38492086.954 5 202277283.09705      -841.135 5        34.376
C44        39.000                                                                                                                                    24154259.294 6 125777570.88706      2196.546 6        37.312                                                                    24154270.548 5 102204617.66315      1784.615 5        34.267
C35        40.000                                                                                                                                    23209267.273 7 120856706.82007        42.920 7        45.561                                                                    23209270.483 6  98206040.22206        34.504 6        39.405
C42        41.000                                                                                                                                    26095993.904 4 135888690.63204     -4101.289 4        28.938                                                                    26096051.786 4                     -3332.468 4        27.629
R02        43.000                                                                                                                                    23681276.081 4                     -4202.848 4        24.481
C40        44.000                                                                                                                                    40154405.039 4                     -1992.201 4        27.305                                                                    40154401.276 4                     -1618.968 4        28.095
C33        46.000                                                                                                                                    24540420.345 7 127788354.11207     -2514.945 7        42.762                                                                    24540439.029 6 103838710.36306     -2043.680 6        39.348
C14        48.000                                                                                                                                    24958409.341 5 129965024.33905     -3580.778 5        31.774    24958407.246 7 100497120.83307     -2769.257 7        44.039    24958395.062 5 105607204.12305     -2910.267 5        35.776
C41        50.000                                                                                                                                    25588504.769 5 133246032.64905       149.284 5        33.407                                                                    25588522.847 6 108273398.81006       121.235 6        39.081
C07        53.000                                                                                                                                    39771166.629 4                     -1708.330 4        25.233    39771165.612 3                     -1320.234 3        22.743    39771166.890 3                     -1388.699 3        23.467
I02        56.000    36965203.447 5 145059389.52505      -695.134 5        32.719
I06        58.000    38431978.751 6 150815308.25606      -739.308 6        37.890
> 2025 01 01 12 02 20.0000000  0 39
G19         1.000    21428452.425 6 112607243.51506     -1915.269 6        41.723                                    21428454.745 2  87745910.69902     -1492.443 2        14.381
G25         3.000    23169483.526 6 121756507.83906      2437.644 6        40.763                                    23169488.104 3  94875232.08303      1899.444 3        22.076    23169490.523 4  94875230.13704      1899.106 4        28.152
G17         5.000    23780059.897 4 124965060.01804     -3761.466 4        26.659
G15         6.000    23840564.161 6 125283219.68606     -4686.726 6        38.282                                    23840572.959 5  97623160.21005     -3651.989 5        30.204    23840572.262 6  97623124.20006     -3652.004 6        38.171
G12         7.000    20738867.389 8 108983468.93208       752.867 8        50.275                                    20738866.463 6  84922189.25006       586.647 6        40.670    20738865.290 6  84922213.26906       586.494 6        37.161
E30         9.000    24302612.437 8 127711114.88908       456.546 8        49.261                                                                    24302619.333 8  95368712.16008       340.890 8        48.067    24302619.414 8  97856595.97708       349.815 8        50.932
G32        11.000    24420613.916 7 128331152.92207      2013.179 7        44.060                                    24420626.143 5  99998306.43505      1568.710 5        30.257    24420624.220 5  99998345.50105      1568.727 5        34.238
G10        12.000    24944106.165 5                     -2583.684 5        33.964                                                                                                    24944126.549 4                     -2013.316 4        28.796
E02        13.000    23744640.551 7 124778941.93807     -2077.117 7        42.047                                                                    23744648.783 8  93179164.66908     -1551.057 8        50.281    23744647.406 8  95609931.48708     -1591.538 8        48.639
E25        14.000    27673117.866 3                     -3431.679 3        20.571
G24        16.000    20179789.096 6 106045631.72306     -1561.763 6        38.234                                    20179791.611 5  82632793.15905     -1216.953 5        32.838    20179790.474 6  82632857.17506     -1217.043 6        40.422
E08        17.000    25088650.452 6 131841681.94206     -3328.559 6        41.013                                                                    25088659.783 7  98453200.33607     -2485.667 7        42.349    25088653.967 6 101021584.49006     -2550.512 6        36.386
E07        18.000    24397136.542 7 128207904.90007      -619.141 7        46.255                                                                    24397147.105 7  95739688.85307      -462.372 7        47.172    24397143.523 7  98237215.28307      -474.372 7        44.066
E10        19.000                                                                                                                                    28309813.106 3                     -1254.810 3        23.181    28309815.741 4 113991901.71414     -1285.166 4        29.299
R22        22.000    21293693.142 6 113667326.89306      -230.870 6        40.806                                                                    21293696.391 7  88407821.77107      -179.662 7        42.428
S36        23.000    38264672.613 5 201082164.69405      -841.236 5        34.781
S23        24.000    38201547.191 6 200750463.20206      -845.306 6        36.072
R04        25.000    21317734.222 7 114155612.93407       453.515 7        46.597                                                                    21317743.023 7  88787675.63307       352.822 7        45.055
E29        26.000    27619881.157 5 145143477.27805      1721.552 5        31.434                                                                    27619897.711 6 108386401.53406      1285.557 6        41.635    27619895.957 6 111213859.62906      1319.167 6        38.826
R13        29.000    19518109.309 7 104225607.82207      -795.922 7        42.104
R12        31.000    21200083.528 6 113247043.29506     -3407.079 6        40.670                                                                    21200093.884 7  88081053.87107     -2649.954 7        45.568
C10        32.000                                                                                                                                    38937070.558 6 202755504.37306     -1415.805 6        40.279    38937077.226 6 156783450.07406     -1094.646 6        39.000    38937072.063 5 164755457.81205     -1150.316 5        33.371
R03        33.000    20928269.253 7 112030677.16207     -3377.092 7        42.531
C24        34.000                                                                                                                                    21751411.980 8 113265286.62908       273.145 8        48.726                                                                    21751411.698 7  92037384.52607       221.890 7        44.539
R14        35.000    22305930.008 7 118903147.38007      2146.303 7        43.369                                                                    22305940.954 6  92480329.78506      1669.374 6        39.781
R23        36.000    22075699.376 6 118090240.29306      2879.102 6        39.093
C26        37.000                                                                                                                                    22517710.749 6 117255705.92006     -2369.460 6        40.725                                                                    22517721.659 7  95279889.57107     -1925.507 7        42.961
S21        38.000    38492888.917 5 202281487.51605      -840.431 5        34.171
C44        39.000                                                                                                                                    24152152.182 6 125766590.71706      2195.797 6        38.228                                                                    24152163.278 5 102195695.41705      1784.118 5        34.838
C35        40.000                                                                                                                                    23209227.453 7 120856498.86007        40.441 7        44.507                                                                    23209230.567 6  98205871.20606        32.886 6        39.351
C42        41.000                                                                                                                                    26099931.760 4 135909195.27804     -4100.482 4        29.261                                                                    26099992.390 4                     -3332.032 4        27.234
R02        43.000                                                                                                                                    23686343.994 4                     -4204.117 4        24.737
C40        44.000                                                                                                                                    40156318.352 4                     -1992.182 4        27.257                                                                    40156314.674 4                     -1618.702 4        28.569
C33        46.000                                                                                                                                    24542834.932 6 127800934.53006     -2516.947 6        41.435                                                                    24542855.437 6 103848932.94506     -2045.324 6        38.784
C14        48.000                                                                                                                                    24961850.237 5 129982933.25205     -3582.113 5        31.849    24961848.024 7 100510969.03407     -2770.000 7        44.173    24961834.394 6 105621756.44406     -2910.657 6        36.212
C41        50.000                                                                                                                                    25588365.393 5 133245292.46005       146.565 5        34.305                                                                    25588380.648 6 108272797.29106       119.450 6        39.273
C07        53.000                                                                                                                                    39772806.709 4                     -1709.029 4        24.752    39772807.820 4                     -1320.260 4        24.135    39772806.755 3                     -1388.537 3        22.495
I02        56.000    36966088.819 5 145062865.06505      -695.170 5        32.910
I06        58.000    38432920.441 6 150819004.64506      -739.112 6        37.947
> 2025 01 01 12 02 25.0000000  0 37
G19         1.000    21430275.752 6 112616829.46806     -1918.845 6        41.812                                    21430278.622 2  87753380.21102     -1495.183 2        14.857
G25         3.000    23167166.506 6 121744324.75206      2435.962 6        40.830                                    23167169.697 3  94865738.80503      1898.151 3        23.143    23167172.210 4  94865736.83004      1898.763 4        28.569
G17         5.000    23783640.781 4 124983868.16504     -3762.464 4        27.629
G15         6.000    23845024.595 6 125306655.70906     -4687.475 6        38.691                                    23845032.347 5  97641421.98205     -3652.572 5        30.445    23845032.228 6  97641385.95706     -3652.579 6        38.042
G12         7.000    20738152.027 8 108979711.71508       750.263 8        50.707                                    20738150.910 6  84919261.57406       584.616 6        41.080    20738151.491 6  84919285.56906       584.583 6        36.926
E30         9.000    24302179.278 8 127708836.89408       454.873 8        48.556                                                                    24302185.689 7  95367011.06507       339.663 7        47.644    24302185.963 8  97854850.50008       348.519 8        50.863
G32        11.000    24418699.313 7 128321093.03007      2011.073 7        44.417                                    24418710.437 4  99990467.57104      1567.069 4        29.962    24418707.345 5  99990506.63405      1567.075 5        32.245
G10        12.000    24946562.338 5 131095085.58115     -2585.981 5        35.562                                                                                                    24946589.076 4                     -2015.195 4        28.995
E02        13.000    23746617.735 6 124789331.69406     -2078.505 6        40.372                                                                    23746625.892 8  93186923.25408     -1552.192 8        50.287    23746624.385 8  95617892.46508     -1592.625 8        48.506
G24        16.000    20181275.775 6 106053448.28006     -1564.934 6        36.325                                    20181278.837 5  82638883.97805     -1219.425 5        32.437    20181277.849 6  82638947.97406     -1219.279 6        40.560
E08        17.000    25091819.064 6 131858330.24506     -3330.509 6        41.251                                                                    25091827.443 7  98465632.48507     -2487.011 7        42.176    25091821.499 6 101034340.95606     -2551.818 6        36.401
E07        18.000    24397726.892 7 128211008.40407      -621.942 7        46.662                                                                    24397737.868 7  95742006.39507      -464.417 7        47.295    24397733.509 7  98239593.28707      -476.558 7        43.683
E10        19.000                                                                                                                                    28311409.341 3                     -1255.001 3        22.133    28311412.712 4 113998332.89904     -1287.775 4        28.682
R22        22.000    21293912.327 6 113668493.91006      -235.745 6        39.817                                                                    21293914.589 7  88408729.44907      -183.356 7        42.686
S36        23.000    38265475.618 5 201086371.85205      -841.567 5        34.857
S23        24.000    38202349.324 6 200754691.08506      -845.700 6        36.113
R04        25.000    21317313.971 7 114153358.10307       448.617 7        46.571                                                                    21317322.026 7  88785921.84507       348.898 7        44.764
E29        26.000    27618243.931 5 145134874.56905      1719.785 5        31.917                                                                    27618260.586 6 108379977.39406      1284.381 6        41.528    27618258.697 6 111207267.90006      1317.865 6        39.102
R13        29.000    19518855.478 7 104229594.90507      -798.512 7        42.792
R12        31.000    21203271.506 6 113264082.82806     -3408.726 6        37.947                                                                    21203283.587 7  88094306.86907     -2651.138 7        45.419
C10        32.000                                                                                                                                    38938430.435 6 202762585.51706     -1416.492 6        40.288    38938437.366 6 156788925.65906     -1095.155 6        39.075    38938431.564 5 164761211.83605     -1151.212 5        33.114
R03        33.000    20931426.025 6 112047572.78206     -3381.015 6        41.414
C24        34.000                                                                                                                                    21751150.545 8 113263925.94708       271.389 8        48.620                                                                    21751150.503 7  92036278.88207       220.558 7        44.703
R14        35.000    22303916.703 7 118892419.35507      2145.096 7        42.557                                                                    22303927.524 6  92471985.74906      1668.437 6        38.688
C26        37.000                                                                                                                                    22519988.223 6 117267558.08806     -2371.122 6        40.033                                                                    22519997.933 7  95289520.43607     -1926.642 7        43.037
S21        38.000    38493690.210 5 202285692.04205      -841.011 5        33.898
C44        39.000                                                                                                                                    24150045.779 6 125755616.32406      2194.154 6        39.054                                                                    24150055.875 5 102186777.86205      1783.069 5        34.357
C35        40.000                                                                                                                                    23209191.215 7 120856304.86507        37.256 7        43.524                                                                    23209193.403 6  98205713.58806        30.423 6        39.517
C42        41.000                                                                                                                                    26103870.442 4 135929700.72504     -4101.057 4        29.242                                                                    26103931.375 4                     -3332.622 4        27.018
R02        43.000                                                                                                                                    23691407.136 4                     -4203.334 4        25.278
C40        44.000                                                                                                                                    40158228.670 4                     -1992.940 4        26.731                                                                    40158228.162 4                     -1618.613 4        28.275
C33        46.000                                                                                                                                    24545251.226 6 127813526.89506     -2519.717 6        40.420                                                                    24545273.988 6 103859165.26406     -2047.418 6        37.871
C14        48.000                                                                                                                                    24965293.386 5 130000848.82405     -3583.938 5        32.072    24965288.314 7 100524822.44207     -2771.189 7        43.464    24965275.320 6 105636314.29706     -2912.042 6        36.703
C41        50.000                                                                                                                                    25588226.299 5 133244565.97205       143.748 5        34.733                                                                    25588241.106 6 108272206.96306       117.133 6        39.387
C07        53.000                                                                                                                                    39774456.339 4                     -1709.542 4        27.353    39774447.765 4                     -1321.084 4        24.211    39774447.147 3                     -1389.261 3        22.305
I02        56.000    36966974.982 5 145066341.67805      -695.466 5        32.928
I06        58.000    38433862.436 6 150822701.08806      -739.224 6        38.189
> 2025 01 01 12 02 30.0000000  0 39
G19         1.000    21432103.006 6 112626431.79906     -1921.991 6        40.467                                    21432106.067 2  87760862.53802     -1497.634 2        16.491
G25         3.000    23164847.161 6 121732146.93306      2435.076 6        40.775                                    23164852.373 4  94856249.63104      1897.454 4        24.060    23164855.101 4  94856247.64404      1897.274 4        29.422
G17         5.000    23787222.873 5 125002684.56505     -3764.301 5        30.415
G15         6.000    23849485.857 6 125330094.44606     -4687.734 6        39.492                                    23849492.357 5  97659685.87905     -3652.770 5        30.860    23849492.297 6  97659649.87906     -3653.060 6        37.807
G12         7.000    20737438.767 8 108975966.07108       748.003 8        51.049                                    20737437.704 6  84916342.90706       582.854 6        41.728    20737439.216 6  84916366.90006       582.759 6        38.000
E30         9.000    24301746.729 7 127706565.60307       453.670 7        47.970                                                                    24301753.274 7  95365314.98007       338.727 7        47.191    24301753.644 8  97853110.15608       347.615 8        50.659
G32        11.000    24416786.823 7 128311042.79107      2009.184 7        44.799                                    24416796.211 4  99982636.25104      1565.593 4        29.735    24416793.758 4  99982675.26804      1565.570 4        29.697
G10        12.000    24949026.970 6 131108020.92406     -2588.368 6        36.185                                    24949050.919 1 102162192.49811     -2016.909 1         9.810    24949057.331 4                     -2016.736 4        27.545
E02        13.000    23748596.338 6 124799727.30106     -2079.730 6        39.601                                                                    23748604.121 8  93194686.19608     -1553.007 8        50.317    23748602.398 8  95625857.91508     -1593.518 8        48.182
G24        16.000    20182765.585 5 106061279.29805     -1567.432 5        35.329                                    20182768.607 5  82644986.05505     -1221.368 5        31.487    20182767.296 6  82645050.04506     -1221.389 6        39.571
E08        17.000    25094988.884 6 131874986.59306     -3331.892 6        41.924                                                                    25094996.314 6  98478070.66706     -2488.166 6        41.824    25094991.303 6 101047103.58906     -2553.031 6        36.318
E07        18.000    24398319.862 7 128214124.33107      -624.336 7        46.699                                                                    24398330.785 7  95744333.21907      -466.238 7        47.472    24398326.090 7  98241980.82807      -478.456 7        43.477
E10        19.000                                                                                                                                    28313007.285 3                     -1256.689 3        21.595    28313011.398 4 114004773.63904     -1289.141 4        27.150
R22        22.000    21294133.435 6 113669683.83906      -240.353 6        37.497                                                                    21294138.706 7  88409654.98107      -186.829 7        42.345
S36        23.000    38266275.086 5 201090579.52805      -841.593 5        34.667
S23        24.000    38203160.056 6 200758919.54106      -845.702 6        36.113
R04        25.000    21316897.004 7 114151125.89107       444.276 7        45.320                                                                    21316904.968 7  88784185.66307       345.606 7        44.330
E29        26.000    27616608.457 5 145126278.03705      1718.737 5        32.713                                                                    27616624.885 6 108373557.87206      1283.408 6        41.452    27616622.771 6 111200680.91806      1316.919 6        39.291
R13        29.000    19519605.541 7 104233592.82707      -800.656 7        43.374
R21        30.000    23495508.106 5                     -3949.191 5        30.136                                                                    23495598.297 4                     -3071.068 4        26.012
R12        31.000    21206462.483 6 113281128.67306     -3409.753 6        39.486                                                                    21206474.614 7  88107564.74107     -2651.906 7        45.648
C10        32.000                                                                                                                                    38939790.569 6 202769668.50306     -1416.580 6        40.291    38939797.557 6 156794402.67906     -1095.576 6        38.820    38939791.982 5 164766967.33605     -1151.370 5        33.186
R03        33.000    20934587.779 6 112064487.29406     -3384.763 6        41.311                                                                    20934633.819 5  87161274.30505     -2632.414 5        31.940
C24        34.000                                                                                                                                    21750890.378 8 113262572.55708       270.002 8        48.436                                                                    21750890.759 7  92035179.13607       219.366 7        44.790
R14        35.000    22301903.739 6 118881695.66706      2144.259 6        41.836                                                                    22301916.582 6  92463645.11806      1667.919 6        39.051
R23        36.000    22070309.147 6 118061475.32106      2874.270 6        38.201
C26        37.000                                                                                                                                    22522267.817 6 117279417.12706     -2372.515 6        40.405                                                                    22522275.567 7  95299156.87307     -1927.901 7        43.088
S21        38.000    38494485.600 5 202289897.11205      -841.159 5        33.976
C44        39.000                                                                                                                                    24147939.536 6 125744648.03206      2193.131 6        40.050                                                                    24147949.409 5 102177865.27105      1781.998 5        33.814
C35        40.000                                                                                                                                    23209158.023 7 120856125.18607        34.558 7        43.609                                                                    23209158.841 6  98205567.59006        27.964 6        39.661
C42        41.000                                                                                                                                    26107808.706 4 135950207.23504     -4101.115 4        28.872                                                                    26107870.351 4                     -3332.614 4        25.880
C40        44.000                                                                                                                                    40160141.710 4                     -1992.957 4        26.263                                                                    40160141.551 4                     -1619.540 4        27.497
C33        46.000                                                                                                                                    24547672.285 6 127826131.56706     -2522.180 6        40.336                                                                    24547694.340 6 103869407.56106     -2049.371 6        36.919
C14        48.000                                                                                                                                    24968736.484 5 130018771.55305     -3585.192 5        33.180    24968728.821 7 100538681.32907     -2772.227 7        42.482    24968716.989 6 105650877.87806     -2913.552 6        36.904
C41        50.000                                                                                                                                    25588088.524 5 133243853.54405       141.039 5        34.367                                                                    25588104.394 6 108271628.04506       114.743 6        39.655
C29        51.000                                                                                                                                    25571768.727 4                     -3033.574 4        24.256
C07        53.000                                                                                                                                    39776103.886 4                     -1709.466 4        26.527    39776089.584 4                     -1321.307 4        24.090    39776090.281 3                     -1388.798 3        21.619
I02        56.000    36967860.732 5 145069819.59005      -695.863 5        32.976
I06        58.000    38434804.555 6 150826397.87606      -739.395 6        38.315
> 2025 01 01 12 02 35.0000000  0 39
G19         1.000    21433932.033 6 112636049.85406     -1925.131 6        39.240                                    21433936.901 2  87768357.11102     -1500.093 2        17.283
G25         3.000    23162529.510 6 121719973.70706      2434.150 6        40.422                                    23162536.255 4  94846764.02004      1896.734 4        24.436    23162538.644 5  94846762.04105      1896.786 5        31.102
G17         5.000    23790805.688 5 125021508.48805     -3765.320 5        31.668                                                                                                    23790811.598 4                     -2934.340 4        29.877
G15         6.000    23853946.021 6 125353535.22106     -4688.420 6        40.472                                    23853952.747 5  97677951.36905     -3653.296 5        31.079    23853952.898 6  97677915.37806     -3653.472 6        37.543
G12         7.000    20736727.979 8 108972231.31508       745.781 8        51.193                                    20736726.810 7  84913432.72707       581.124 7        42.214    20736729.542 6  84913456.70706       581.236 6        39.489
E30         9.000    24301315.354 7 127704300.35907       452.409 7        47.282                                                                    24301322.141 7  95363623.41107       337.787 7        46.931    24301322.523 8  97851374.44908       346.615 8        50.622
G32        11.000    24414875.553 7 128301001.46807      2007.302 7        44.655                                    24414883.546 4  99974811.86004      1564.128 4        29.460    24414883.869 4  99974850.82204      1564.140 4        26.802
G10        12.000    24951495.628 5 131120967.05505     -2590.396 5        35.995                                    24951514.135 1 102172280.26501     -2018.449 1         9.524    24951518.092 4                     -2018.411 4        26.479
E02        13.000    23750576.034 6 124810128.05206     -2080.768 6        38.913                                                                    23750583.288 8  93202452.98608     -1553.832 8        50.591    23750581.462 8  95633827.31308     -1594.342 8        48.144
G24        16.000    20184258.428 6 106069124.07506     -1570.224 6        36.801                                    20184260.891 5  82651098.86105     -1223.555 5        30.015    20184260.149 6  82651162.86006     -1223.663 6        38.541
E08        17.000    25098160.090 7 131891650.32107     -3333.658 7        42.271                                                                    25098166.997 6  98490514.35006     -2489.328 6        41.902    25098162.827 6 101059871.87806     -2554.467 6        36.250
E07        18.000    24398914.815 7 128217252.00307      -626.791 7        46.626                                                                    24398925.885 7  95746668.81807      -468.108 7        47.841    24398920.785 7  98244377.36707      -480.391 7        43.410
E10        19.000                                                                                                                                    28314609.132 3                     -1258.503 3        21.595    28314612.757 4 114011223.44104     -1290.528 4        27.030
R22        22.000    21294360.474 6 113670896.05206      -244.777 6        39.384                                                                    21294365.211 7  88410597.79207      -190.382 7        42.288
S36        23.000    38267070.771 5 201094787.56405      -841.591 5        34.786
S23        24.000    38203962.042 6 200763147.77906      -845.603 6        36.098
R04        25.000    21316482.528 7 114148915.59507       439.718 7        44.369                                                                    21316492.405 7  88782466.55307       341.966 7        44.591
E29        26.000    27614974.749 5 145117686.88705      1717.623 5        34.386                                                                    27614990.255 6 108367142.37506      1282.549 6        41.626    27614987.870 6 111194098.05706      1316.110 6        39.174
R13        29.000    19520356.405 7 104237600.93107      -802.742 7        43.183
R21        30.000    23499200.758 5                     -3951.959 5        30.611
R12        31.000    21209654.701 6 113298180.06906     -3410.849 6        40.810                                                                    21209666.681 7  88120826.91607     -2652.938 7        45.529
C10        32.000                                                                                                                                    38941150.855 6 202776752.66006     -1417.091 6        40.291    38941157.475 6 156799880.58706     -1095.828 6        39.015    38941152.232 5 164772723.79005     -1151.484 5        33.174
R03        33.000    20937750.875 7 112081420.22007     -3388.441 7        43.482                                                                    20937797.638 4  87174444.43404     -2635.424 4        29.346
C24        34.000                                                                                                                                    21750631.316 8 113261225.77208       268.630 8        48.253                                                                    21750632.197 7  92034084.76807       218.315 7        44.829
R14        35.000    22299893.373 7 118870975.72107      2143.556 7        42.574                                                                    22299905.739 6  92455307.39706      1667.085 6        39.189
R23        36.000    22067627.095 6 118047109.84006      2872.078 6        38.772
C26        37.000                                                                                                                                    22524547.963 6 117291282.30906     -2373.697 6        41.359                                                                    22524554.556 7  95308798.33807     -1928.935 7        43.115
S21        38.000    38495290.335 5 202294102.02005      -840.951 5        33.994
C44        39.000                                                                                                                                    24145834.258 6 125733685.19806      2191.947 6        40.398                                                                    24145843.749 5 102168957.11205      1781.007 5        32.174
C35        40.000                                                                                                                                    23209126.344 7 120855959.12107        31.833 7        43.458                                                                    23209126.793 6  98205432.67006        25.797 6        39.724
C42        41.000                                                                                                                                    26111746.906 4 135970714.14804     -4101.657 4        29.384                                                                    26111809.569 4                     -3332.572 4        24.857
C40        44.000                                                                                                                                    40162055.274 4                     -1993.081 4        26.623                                                                    40162055.298 4                     -1619.468 4        27.976
C33        46.000                                                                                                                                    24550096.410 6 127838747.79706     -2524.588 6        40.791                                                                    24550117.186 6 103879659.28406     -2051.216 6        36.231
C14        48.000                                                                                                                                    24972175.048 5 130036700.57305     -3586.508 5        34.514    24972172.437 7 100552545.12207     -2773.292 7        42.309    24972160.475 6 105665446.61206     -2914.325 6        37.032
C41        50.000                                                                                                                                    25587955.309 5 133243154.45605       138.349 5        35.029                                                                    25587969.859 6 108271059.98406       112.463 6        39.559
C29        51.000                                                                                                                                    25574684.784 4                     -3036.965 4        27.425
C07        53.000                                                                                                                                    39777747.485 4                     -1710.573 4        27.557    39777730.571 4                     -1321.777 4        25.098    39777730.092 3                     -1388.634 3        22.648
I02        56.000    36968746.467 5 145073298.15005      -695.886 5        33.281
I06        58.000    38435746.825 6 150830094.50906      -739.454 6        38.105
