     3.04           OBSERVATION DATA    M                   RINEX VERSION / TYPE
ssrcrin-15.6.1x                         20250101 083000 UTC PGM / RUN BY / DATE 
(00000000023479385599111004) Septentrio proprietary         COMMENT             
ract                                                        MARKER NAME         
01                                                          MARKER NUMBER       
geodetic                                                    MARKER TYPE         
NFB                 CLIMERS@TUW                             OBSERVER / AGENCY   
3296359             SEPT ASTERX SB3 PROB4.14.4              REC # / TYPE / VERS 
Unknown             Unknown                                 ANT # / TYPE        
  4127446.5325  1206914.1158  4695542.3638                  APPROX POSITION XYZ 
        0.0000        0.0000        0.0000                  ANTENNA: DELTA H/E/N
G   23 X1  C1C L1C D1C S1C C1W S1W C2W L2W D2W S2W C2L L2L  SYS / # / OBS TYPES 
       D2L S2L C5Q L5Q D5Q S5Q C1L L1L D1L S1L              SYS / # / OBS TYPES 
E   21 X1  C1C L1C D1C S1C C6C L6C D6C S6C C5Q L5Q D5Q S5Q  SYS / # / OBS TYPES 
       C7Q L7Q D7Q S7Q C8Q L8Q D8Q S8Q                      SYS / # / OBS TYPES 
S    9 X1  C1C L1C D1C S1C C5I L5I D5I S5I                  SYS / # / OBS TYPES 
R   17 X1  C1C L1C D1C S1C C2P L2P D2P S2P C2C L2C D2C S2C  SYS / # / OBS TYPES 
       C3Q L3Q D3Q S3Q                                      SYS / # / OBS TYPES 
C   25 X1  C1P L1P D1P S1P C5P L5P D5P S5P C2I L2I D2I S2I  SYS / # / OBS TYPES 
       C7I L7I D7I S7I C6I L6I D6I S6I C7D L7D D7D S7D      SYS / # / OBS TYPES 
J   17 X1  C1C L1C D1C S1C C2L L2L D2L S2L C5Q L5Q D5Q S5Q  SYS / # / OBS TYPES 
       C1L L1L D1L S1L                                      SYS / # / OBS TYPES 
I    5 X1  C5A L5A D5A S5A                                  SYS / # / OBS TYPES 
SEPTENTRIO RECEIVERS OUTPUT ALIGNED CARRIER PHASES.         COMMENT             
NO FURTHER PHASE SHIFT APPLIED IN THE RINEX ENCODER.        COMMENT             
G L1C                                                       SYS / PHASE SHIFT   
G L2W                                                       SYS / PHASE SHIFT   
G L2L  0.00000                                              SYS / PHASE SHIFT   
G L5Q  0.00000                                              SYS / PHASE SHIFT   
G L1L  0.00000                                              SYS / PHASE SHIFT   
E L1C  0.00000                                              SYS / PHASE SHIFT   
E L6C  0.00000                                              SYS / PHASE SHIFT   
E L5Q  0.00000                                              SYS / PHASE SHIFT   
E L7Q  0.00000                                              SYS / PHASE SHIFT   
E L8Q  0.00000                                              SYS / PHASE SHIFT   
S L1C                                                       SYS / PHASE SHIFT   
S L5I                                                       SYS / PHASE SHIFT   
R L1C                                                       SYS / PHASE SHIFT   
R L2P  0.00000                                              SYS / PHASE SHIFT   
R L2C                                                       SYS / PHASE SHIFT   
R L3Q  0.00000                                              SYS / PHASE SHIFT   
C L1P  0.00000                                              SYS / PHASE SHIFT   
C L5P  0.00000                                              SYS / PHASE SHIFT   
C L2I                                                       SYS / PHASE SHIFT   
C L7I                                                       SYS / PHASE SHIFT   
C L6I                                                       SYS / PHASE SHIFT   
C L7D                                                       SYS / PHASE SHIFT   
J L1C                                                       SYS / PHASE SHIFT   
J L2L  0.00000                                              SYS / PHASE SHIFT   
J L5Q  0.00000                                              SYS / PHASE SHIFT   
J L1L  0.00000                                              SYS / PHASE SHIFT   
I L5A                                                       SYS / PHASE SHIFT   
  2025     1     1     8    30    0.0000000     GPS         TIME OF FIRST OBS   
 C1C    0.000 C2C    0.000 C2P    0.000                     GLONASS COD/PHS/BIS 
DBHZ                                                        SIGNAL STRENGTH UNIT
    18                                                      LEAP SECONDS        
 24 R01  1 R02 -4 R03  5 R04  6 R05  1 R06 -4 R07  5 R08  6 GLONASS SLOT / FRQ #
    R09 -2 R10 -7 R11  0 R12 -1 R13 -2 R14 -7 R15  0 R16 -1 GLONASS SLOT / FRQ #
    R17  4 R18 -3 R19  3 R20  2 R21  4 R22 -3 R23  3 R24  2 GLONASS SLOT / FRQ #
                                                            END OF HEADER       
> 2025 01 01 08 30  0.0000000  0 34
G18         1.000    25514129.277 4                     -2366.359 4        29.735
G13         2.000    20094289.107 7 105596340.39707       -20.699 7        46.305                                    20094288.134 5  82282735.78805       -16.126 5        32.497
G30         3.000    21746299.937 8 114277654.22608     -2880.692 8        49.035                                    21746302.131 7  89047521.65507     -2244.693 7        44.600    21746303.221 6  89047453.64706     -2244.629 6        39.736
G14         4.000    20668792.821 7 108615220.25107      -489.457 7        46.873                                    20668794.535 5  84635236.69805      -381.393 5        35.957    20668793.938 7  84635245.69807      -381.351 7        47.874
G07         5.000                                                                                                                                                                    24498244.265 3                     -2806.613 3        23.886
G15         6.000    21656839.289 7 113807438.94507      1924.545 7        43.600                                    21656827.229 3  88681078.45503      1499.642 3        20.310    21656841.929 3  88681126.31503      1500.535 3        23.448
G05         7.000    22028189.412 5 115758887.23805     -3174.376 5        34.929                                    22028189.579 4  90201717.01204     -2473.562 4        25.850    22028193.639 5  90201704.09705     -2473.580 5        33.168
G23        10.000    25112677.980 5                      2340.606 5        30.038                                                                                                    25112649.311 5 102832035.62405      1823.891 5        33.850
E26        12.000    28311680.513 5 148778922.24805      -907.686 5        30.340                                                                    28311634.094 5 111100999.77905      -677.916 5        33.928    28311632.526 5 113999209.26405      -695.549 5        34.638
E02        13.000    25665944.140 6 134875466.08806      2008.430 6        37.629                                                                    25665946.826 6 100718747.56406      1499.781 6        37.206    25665950.906 5 103346199.31005      1538.831 5        33.365
E25        14.000    23798104.728 8 125059870.96608      -380.306 8        49.698                                                                    23798108.978 7  93388988.70507      -284.004 7        46.972    23798107.652 7  95825144.26207      -291.488 7        46.328
E24        15.000    26422873.729 5 138853085.42605     -3021.500 5        32.228                                                                    26422870.918 5 103688934.15905     -2256.330 5        34.419    26422867.587 4 106393925.80204     -2315.582 4        25.459
E08        17.000    25066403.280 6 131724837.33706      1171.853 6        37.592                                                                    25066414.116 6  98365974.37906       875.192 6        41.814    25066407.002 6 100932013.55906       898.130 6        37.970
E05        21.000    24788809.002 5 130266030.13405     -3249.595 5        32.509                                                                    24788824.355 7  97276650.16307     -2426.604 7        43.981    24788820.451 6  99814205.76306     -2489.934 6        40.362
E13        22.000    28153112.508 5                     -2980.481 5        30.868                                                                    28153122.007 5                     -2225.819 5        31.125    28153131.292 4                     -2283.710 4        26.216
S23        24.000    38285327.359 6 201190698.71506      -819.936 6        38.099
C05        25.000                                                                                                                                                                                                    39495478.611 4                      -675.654 4        28.872
E03        27.000    23443239.888 7 123195019.51807     -1238.328 7        43.118                                                                    23443243.810 7  91996257.56107      -924.688 7        44.483    23443242.641 7  94396180.33207      -948.848 7        45.120
R11        28.000    19337530.491 8 103333947.14808     -1645.110 8        48.244                                                                    19337532.060 7  80370798.58507     -1279.585 7        47.235
R10        30.000    22449512.616 5                     -4675.288 5        32.102
R12        31.000    21307698.221 7 113821987.27007      2470.280 7        44.465                                                                    21307702.018 7  88528371.29207      1921.268 7        42.038
R08        35.000    22022176.993 6 117927708.30506     -4662.130 6        38.489                                                                    22022182.605 6  91721601.31206     -3626.126 6        39.970
C26        37.000                                                                                                                                    23512554.185 6 122436020.80606      1600.296 6        36.435                                                                    23512557.157 7  99489399.86407      1300.461 7        46.367
R01        38.000    19235930.247 7 102827024.22207     -1095.482 7        44.509                                                                    19235934.328 6  79976600.16706      -852.070 6        40.298
R18        39.000    24295115.007 3                     -2945.252 3        23.467
C42        41.000                                                                                                                                    23583159.508 7 122803654.17007      1236.414 7        45.246                                                                    23583169.837 7  99788077.78807      1004.732 7        47.213
C36        42.000                                                                                                                                    24479371.306 5 127470503.31605     -3592.168 5        35.024                                                                    24479384.596 6 103580173.34706     -2918.819 6        38.408
R02        43.000    21345802.162 8 113905296.50008      2567.077 8        52.587                                                                    21345805.154 7  88593011.61007      1996.643 7        45.630
C40        44.000                                                                                                                                    39147999.071 6 203853944.74506      -175.043 6        41.611                                                                    39148000.828 5 165647996.93005      -142.190 5        32.790
I02        45.000    37753487.520 4 148152829.25004       -83.310 4        27.725
C21        47.000                                                                                                                                    22268101.803 7 115955792.03107     -1800.232 7        46.959                                                                    22268100.476 7  94223563.62807     -1462.776 7        45.299
C45        49.000                                                                                                                                    21785380.618 6 113442058.06206     -1369.204 6        37.187                                                                    21785363.711 7  92180958.98207     -1112.692 7        42.836
C22        50.000                                                                                                                                    24693050.780 5 128582953.90405     -4105.953 5        34.338                                                                    24693056.847 7 104484422.62007     -3336.548 7        42.093
I06        56.000    38200609.995 5 149907429.48605      -685.173 5        33.563
> 2025 01 01 08 30  5.0000000  0 33
G13         2.000    20094310.033 7 105596450.25207       -23.261 7        45.767                                    20094308.963 5  82282821.38505       -18.124 5        32.365
G30         3.000    21749041.266 8 114292061.33008     -2882.150 8        48.293                                    21749043.607 7  89058747.95507     -2245.828 7        44.221    21749045.272 6  89058679.93206     -2245.661 6        39.673
G14         4.000    20669259.552 7 108617675.73207      -492.708 7        46.863                                    20669261.770 6  84637150.06506      -383.934 6        36.352    20669261.015 7  84637159.07107      -383.905 7        47.957
G07         5.000                                                                                                                                                                    24501669.590 4                     -2807.371 4        24.992
G15         6.000    21655008.944 7 113797821.69107      1922.406 7        44.632                                    21654996.819 3  88673584.50003      1497.981 3        21.286    21655019.299 4  88673632.48304      1498.054 4        24.872
G05         7.000    22031214.744 6 115774765.33306     -3177.026 6        37.248                                    22031211.394 4  90214089.54904     -2475.608 4        25.835    22031216.107 5  90214076.58105     -2475.621 5        33.808
G23        10.000    25110443.537 5                      2339.064 5        32.455                                                                                                    25110421.173 5 102822919.49305      1822.485 5        34.514
E26        12.000    28312539.220 5 148783468.31305      -910.643 5        30.498                                                                    28312499.214 5 111104394.57205      -680.192 5        33.389    28312498.303 5 114002692.60305      -697.667 5        34.586
E02        13.000    25664034.368 6 134865426.93106      2007.026 6        39.159                                                                    25664036.510 6 100711250.79506      1498.913 6        38.279    25664039.192 5 103338506.98605      1537.978 5        35.576
E25        14.000    23798467.825 8 125061778.73008      -382.759 8        49.488                                                                    23798472.030 7  93390413.33107      -285.793 7        47.415    23798470.676 7  95826606.05407      -293.339 7        46.687
E24        15.000                                                                                                                                    26425746.610 5 103700219.04905     -2257.667 5        33.581    26425742.900 4 106405505.02204     -2316.146 4        26.156
E08        17.000    25065288.803 6 131718980.00306      1170.754 6        37.875                                                                    25065297.991 7  98361600.40107       874.458 7        42.006    25065292.371 6 100927525.51906       897.140 6        38.030
E05        21.000    24791901.174 5 130282280.49205     -3250.895 5        30.732                                                                    24791916.711 7  97288785.10507     -2427.410 7        44.248    24791913.043 6  99826657.26406     -2490.667 6        40.312
E13        22.000    28155945.893 5                     -2981.938 5        30.694                                                                    28155960.857 5                     -2226.656 5        30.060    28155979.501 4                     -2284.872 4        26.647
S23        24.000    38286108.677 6 201194798.59206      -819.957 6        38.090
C05        25.000                                                                                                                                                                                                    39496318.767 4                      -676.243 4        28.872
E03        27.000    23444418.658 7 123201215.29207     -1239.958 7        42.751                                                                    23444422.807 7  92000884.26607      -925.954 7        44.462    23444421.839 7  94400927.74207      -950.141 7        45.431
R11        28.000    19339070.899 7 103342181.82607     -1648.745 7        47.853                                                                    19339072.597 7  80377203.33207     -1282.260 7        46.649
R10        30.000    22453896.411 5                     -4676.095 5        31.525
R12        31.000    21305389.746 7 113809642.07007      2467.777 7        45.831                                                                    21305389.590 6  88518769.45606      1919.362 6        40.598
R08        35.000    22026532.718 6 117951024.10006     -4664.148 6        37.093                                                                    22026536.230 6  91739735.78106     -3627.773 6        40.803
C26        37.000                                                                                                                                    23511017.270 6 122428022.56306      1598.787 6        37.285                                                                    23511021.133 7  99482900.66307      1299.127 7        46.466
R01        38.000    19236956.940 7 102832511.85207     -1099.588 7        44.685                                                                    19236961.387 6  79980868.32606      -855.218 6        40.546
R18        39.000    24297871.847 4                     -2953.393 4        25.098
C42        41.000                                                                                                                                    23581973.703 7 122797477.35607      1234.343 7        45.171                                                                    23581983.524 7  99783058.61807      1002.908 7        46.964
C36        42.000                                                                                                                                    24482820.814 5 127488466.45505     -3593.004 5        33.731                                                                    24482834.273 6 103594769.82906     -2919.856 6        38.384
R02        43.000    21343397.648 8 113892465.91808      2565.060 8        52.322                                                                    21343400.385 7  88583032.25807      1995.067 7        45.166
C40        44.000                                                                                                                                    39148168.112 6 203854823.22406      -176.272 6        40.984                                                                    39148169.569 5 165648710.73805      -143.151 5        33.425
I02        45.000    37753593.798 4 148153245.67304       -83.790 4        28.303
C21        47.000                                                                                                                                    22269831.648 7 115964799.94407     -1802.966 7        47.082                                                                    22269830.687 7  94230883.28607     -1465.176 7        45.807
C45        49.000                                                                                                                                    21786698.350 6 113448910.34906     -1371.634 6        37.773                                                                    21786679.761 7  92186527.00007     -1114.578 7        42.885
C22        50.000                                                                                                                                    24696994.124 5 128603487.12005     -4107.226 5        35.095                                                                    24697000.066 6 104501107.47506     -3337.540 6        41.771
I06        56.000    38201483.585 5 149910855.45905      -685.134 5        33.509
> 2025 01 01 08 30 10.0000000  0 34
G18         1.000                                                                                                                                                                    25518616.280 4                     -1848.242 4        27.533
G13         2.000    20094333.500 7 105596572.83307       -25.562 7        46.091                                    20094332.095 5  82282916.89405       -19.917 5        32.042
G30         3.000    21751784.229 7 114306475.46607     -2883.185 7        47.603                                    21751786.429 7  89069979.73407     -2246.632 7        43.257    21751788.093 6  89069911.70806     -2246.693 6        39.420
G14         4.000    20669729.809 7 108620147.31407      -495.583 7        46.724                                    20669732.046 6  84639075.96906      -386.171 6        36.208    20669731.322 8  84639084.98308      -386.155 8        48.008
G07         5.000                                                                                                                                                                    24505097.406 4                     -2807.684 4        26.012
G15         6.000    21653180.251 7 113788214.93307      1920.588 7        44.674                                    21653168.891 3  88666098.70203      1496.556 3        21.500    21653193.177 4  88666146.66104      1495.955 4        26.012
G05         7.000    22034240.211 6 115790657.20406     -3179.384 6        41.466                                    22034235.919 4  90226472.82004     -2477.447 4        27.341    22034240.695 5  90226459.86105     -2477.585 5        34.143
G23        10.000    25108209.045 5                      2337.362 5        33.401                                                                                                    25108193.780 5 102813810.03105      1821.489 5        34.967
G20        11.000    23777929.315 4                     -4352.678 4        25.383
E26        12.000    28313405.092 4 148788027.08804      -912.994 4        27.569                                                                    28313365.896 5 111107798.85605      -681.561 5        32.976    28313365.791 5 114006185.69105      -699.467 5        33.892
E02        13.000    25662125.114 6 134855393.77506      2006.323 6        39.628                                                                    25662127.439 6 100703758.53006      1498.169 6        39.348    25662128.086 6 103330819.25806      1537.375 6        37.017
E25        14.000    23798833.284 8 125063698.53408      -384.811 8        49.377                                                                    23798837.449 7  93391846.94707      -287.337 7        47.805    23798835.920 7  95828077.07207      -294.882 7        47.056
E24        15.000                                                                                                                                    26428624.111 5 103711509.64105     -2258.406 5        33.533    26428620.578 4 106417090.19504     -2317.018 4        25.624
E08        17.000    25064176.331 6 131713127.34706      1170.461 6        37.868                                                                    25064182.941 7  98357229.91807       874.026 7        42.091    25064178.387 6 100923041.01506       896.777 6        38.252
E05        21.000    24794994.774 5 130298535.58405     -3250.936 5        30.325                                                                    24795009.784 7  97300923.63807     -2427.875 7        44.509    24795006.492 6  99839112.47206     -2491.169 6        40.276
E13        22.000    28158780.213 4                     -2983.508 4        28.777                                                                    28158800.351 4                     -2228.032 4        28.635    28158816.307 4                     -2285.705 4        25.970
S23        24.000    38286888.340 6 201198898.86306      -819.945 6        38.138
C05        25.000                                                                                                                                                                                                    39497157.701 4                      -675.324 4        29.090
E03        27.000    23445599.283 7 123207419.46607     -1241.307 7        42.811                                                                    23445603.281 7  92005517.24407      -926.967 7        44.421    23445602.605 7  94405681.58107      -951.072 7        45.815
R11        28.000    19340614.719 7 103350434.45607     -1652.060 7        47.121                                                                    19340617.054 7  80383622.05307     -1284.877 7        46.196
R10        30.000    22458282.952 5                     -4677.245 5        31.841
R12        31.000    21303081.704 7 113797308.86607      2465.799 7        44.709                                                                    21303078.947 6  88509176.98006      1917.988 6        39.003
R08        35.000    22030889.403 6 117974349.95106     -4665.860 6        36.178                                                                    22030892.607 6  91757878.05806     -3629.004 6        41.771
C26        37.000                                                                                                                                    23509483.231 6 122420032.05606      1597.690 6        39.715                                                                    23509486.758 7  99476407.73507      1298.277 7        46.460
R01        38.000    19237988.106 7 102838020.32007     -1103.428 7        44.299                                                                    19237991.219 6  79985152.66706      -858.327 6        41.030
C42        41.000                                                                                                                                    23580789.369 7 122791310.86807      1232.576 7        44.582                                                                    23580799.311 7  99778047.82407      1001.664 7        46.595
C36        42.000                                                                                                                                    24486270.855 5 127506433.57305     -3593.108 5        31.796                                                                    24486284.617 6 103609369.54806     -2919.959 6        38.423
R02        43.000    21340994.790 8 113879645.32208      2563.432 8        52.307                                                                    21340997.896 7  88573060.67007      1993.801 7        44.971
C40        44.000                                                                                                                                    39148337.645 6 203855707.24806      -177.024 6        40.524                                                                    39148339.738 5 165649429.09605      -143.878 5        33.401
I02        45.000    37753702.450 4 148153663.68604       -83.041 4        29.166
C21        47.000                                                                                                                                    22271563.765 7 115973821.58507     -1805.330 7        46.820                                                                    22271563.519 7  94238214.09107     -1466.924 7        46.326
C45        49.000                                                                                                                                                                                                                                                                    21787997.949 7  92192103.85507     -1115.914 7        42.910
C22        50.000                                                                                                                                    24700939.140 5 128624025.68305     -4107.775 5        35.900                                                                    24700944.305 6 104517796.70406     -3338.033 6        41.454
I06        56.000    38202356.986 5 149914281.97105      -684.822 5        33.515
> 2025 01 01 08 30 15.0000000  0 35
G18         1.000                                                                                                                                                                    25520870.282 4                     -1849.583 4        28.597
G13         2.000    20094359.625 7 105596707.60907       -28.292 7        46.815                                    20094357.409 5  82283021.91205       -22.043 5        32.323
G30         3.000    21754528.406 7 114320896.12907     -2884.873 7        46.555                                    21754530.480 7  89081216.60107     -2247.949 7        42.590    21754532.035 6  89081148.56406     -2247.939 6        38.715
G14         4.000    20670203.144 7 108622634.51707      -499.092 7        46.097                                    20670205.202 6  84641014.05406      -388.905 6        36.208    20670204.755 8  84641023.06608      -388.960 8        48.023
G07         5.000    24508599.592 4                     -3603.530 4        26.108                                                                                                    24508527.311 4                     -2808.013 4        26.611
G15         6.000    21651352.625 7 113778618.17407      1918.210 7        43.691                                    21651343.396 3  88658620.71803      1494.710 3        21.738
G05         7.000    22037269.689 7 115806562.33007     -3182.421 7        43.344                                    22037262.957 5  90238866.45605     -2479.802 5        30.136    22037266.647 5  90238853.48305     -2479.792 5        35.767
G23        10.000    25105986.425 5 131932837.87515      2335.372 5        34.671                                                                                                    25105968.444 5 102804706.91005      1819.740 5        35.114
G20        11.000    23782072.751 4                     -4353.607 4        26.695
E26        12.000                                                                                                                                    28314235.260 5 111111212.30305      -683.861 5        32.377    28314235.596 5 114009688.14505      -701.403 5        34.043
E02        13.000    25660216.352 6 134845366.16106      2004.956 6        38.898                                                                    25660219.369 6 100696270.41906      1497.070 6        40.672    25660219.293 6 103323135.79906      1536.109 6        38.096
E25        14.000    23799200.902 8 125065629.90908      -387.549 8        49.024                                                                    23799205.074 8  93393289.20608      -289.432 8        48.199    23799203.350 7  95829556.94607      -296.922 7        47.380
E24        15.000                                                                                                                                    26431502.787 5 103722805.69905     -2259.908 5        33.216    26431498.386 4 106428680.89104     -2318.302 4        26.982
E08        17.000    25063064.904 6 131707278.87706      1169.187 6        37.803                                                                    25063069.123 7  98352862.56707       873.111 7        42.324    25063065.507 6 100918559.73806       895.716 6        38.198
E05        21.000    24798090.126 4 130314795.02204     -3252.091 4        29.858                                                                    24798103.616 7  97313065.39907     -2428.698 7        44.637    24798100.669 6  99851570.98106     -2492.150 6        40.253
E13        22.000    28161614.475 4                     -2985.482 4        28.332                                                                    28161640.337 4                     -2228.958 4        25.820    28161654.808 3                     -2287.146 3        23.448
S23        24.000    38287669.890 6 201202999.04506      -820.140 6        38.294
C05        25.000                                                                                                                                                                                                    39497997.060 4                      -676.265 4        28.900
E03        27.000    23446781.486 7 123213631.56607     -1243.299 7        42.885                                                                    23446785.429 7  92010156.13007      -928.390 7        44.352    23446784.907 7  94410441.49107      -952.642 7        46.188
R11        28.000    19342162.088 7 103358704.56307     -1655.864 7        46.956                                                                    19342164.938 7  80390054.35607     -1287.887 7        46.079
R10        30.000    22462671.559 5                     -4678.237 5        32.509
R12        31.000    21300773.312 7 113784987.11607      2463.111 7        42.290                                                                    21300772.773 6  88499593.40306      1915.713 6        38.739
R08        35.000    22035245.292 5 117997685.29305     -4668.268 5        35.195                                                                    22035251.114 7  91776027.73807     -3630.804 7        42.654
C26        37.000                                                                                                                                    23507949.883 6 122412048.79606      1595.802 6        40.882                                                                    23507953.564 7  99469920.70407      1296.645 7        46.544
R01        38.000    19239022.512 7 102843549.05707     -1107.899 7        44.519                                                                    19239024.935 6  79989452.76806      -861.667 6        40.710
R18        39.000                                                                                                                                    24303384.799 4                     -2300.180 4        29.450
C42        41.000                                                                                                                                    23579606.497 7 122785154.23107      1230.235 7        43.245                                                                    23579616.959 7  99773045.05707       999.655 7        46.344
C36        42.000                                                                                                                                    24489722.301 4 127524404.21204     -3594.805 4        28.834                                                                    24489735.892 6 103623972.10706     -2920.954 6        38.676
R02        43.000    21338594.343 8 113866834.23108      2561.188 8        52.355                                                                    21338597.226 7  88563096.48207      1992.060 7        44.456
C40        44.000                                                                                                                                    39148508.624 6 203856596.35406      -178.383 6        39.868                                                                    39148510.846 5 165650151.54105      -145.112 5        33.617
I02        45.000    37753810.702 4 148154083.12304       -84.046 4        29.991
C21        47.000                                                                                                                                    22273298.531 7 115982856.47407     -1808.384 7        46.088                                                                    22273298.529 7  94245555.67107     -1469.459 7        46.667
C45        49.000                                                                                                                                    21789325.675 6 113462647.15406     -1375.891 6        38.799                                                                    21789317.996 7  92197689.17107     -1118.006 7        43.043
C22        50.000                                                                                                                                    24704884.540 6 128644569.13106     -4109.299 6        36.491                                                                    24704889.337 6 104534489.90906     -3339.176 6        41.011
I06        56.000    38203230.535 5 149917708.66905      -685.267 5        33.359
> 2025 01 01 08 30 20.0000000  0 35
G18         1.000    25523067.626 4                     -2376.168 4        27.413
G13         2.000    20094387.450 7 105596855.06907       -30.865 7        47.721                                    20094384.994 5  82283136.81105       -24.052 5        32.168
G30         3.000    21757274.088 7 114335323.80507     -2886.310 7        45.831                                    21757275.864 6  89092458.92506     -2249.074 6        41.526    21757277.796 6  89092390.90906     -2249.147 6        38.405
G14         4.000    20670679.236 7 108625137.78707      -502.437 7        45.398                                    20670681.398 5  84642964.65705      -391.508 5        35.614    20670681.052 7  84642973.65807      -391.428 7        47.916
G07         5.000    24512026.339 4                     -3604.398 4        24.932                                                                                                    24511958.856 4                     -2808.560 4        26.659
G15         6.000    21649526.696 7 113769031.88607      1915.884 7        42.044                                    21649520.106 3  88651150.90103      1492.884 3        21.381    21649526.791 4  88651198.87204      1493.018 4        29.649
G05         7.000    22040296.691 7 115822481.24407     -3185.280 7        44.944                                    22040292.674 5  90251270.80705     -2482.028 5        32.156    22040296.132 6  90251257.82806     -2482.222 6        37.047
G23        10.000    25103761.001 5 131921164.21905      2333.489 5        34.195                                                                                                    25103746.743 5 102795610.51505      1818.540 5        35.352
G20        11.000    23786211.877 4                     -4354.810 4        26.994
E26        12.000                                                                                                                                    28315107.513 5 111114635.25205      -685.647 5        32.731    28315108.315 5 114013200.36905      -703.526 5        34.276
E02        13.000    25658308.255 6 134835344.59106      2003.657 6        37.527                                                                    25658312.513 6 100688786.78506      1496.237 6        41.387    25658312.206 6 103315456.93406      1535.343 6        39.141
E25        14.000    23799570.779 8 125067573.28808      -390.042 8        49.003                                                                    23799574.941 8  93394740.42808      -291.276 8        48.416    23799573.141 7  95831046.03707      -298.839 7        47.689
E24        15.000                                                                                                                                    26434383.395 5 103734107.45205     -2260.970 5        32.892    26434379.346 4 106440277.53704     -2320.187 4        26.934
E08        17.000    25061953.215 6 131701435.07606      1168.122 6        38.535                                                                    25061956.350 7  98348498.68807       872.343 7        42.241    25061953.450 6 100914082.01506       895.166 6        38.198
E05        21.000    24801186.063 5 130331059.21405     -3253.173 5        30.362                                                                    24801198.627 7  97325210.72907     -2429.509 7        44.549    24801195.619 6  99864033.16106     -2492.895 6        40.167
E13        22.000    28164454.269 4                     -2986.412 4        29.896                                                                    28164483.220 3                     -2229.707 3        20.881    28164498.756 3                     -2289.112 3        20.381
S23        24.000    38288448.641 6 201207099.93806      -820.411 6        38.318
C05        25.000                                                                                                                                                                                                    39498836.406 4                      -675.838 4        28.654
E03        27.000    23447964.836 7 123219852.03107     -1245.059 7        43.575                                                                    23447968.966 7  92014801.27407      -929.713 7        44.328    23447968.655 7  94415207.82007      -953.981 7        46.518
R11        28.000    19343712.854 7 103366992.60607     -1659.593 7        46.699                                                                    19343716.330 7  80396500.61607     -1290.779 7        46.619
R10        30.000    22467061.619 5                     -4679.200 5        33.964
R12        31.000    21298464.855 6 113772677.31506      2460.679 6        39.748                                                                    21298468.959 6  88490019.13406      1913.939 6        38.805
R08        35.000    22039603.139 6 118021030.66406     -4670.203 6        36.843                                                                    22039611.664 7  91794185.20107     -3632.306 7        43.805
C26        37.000                                                                                                                                    23506417.846 6 122404073.23406      1594.232 6        41.740                                                                    23506422.052 7  99463439.92707      1295.411 7        46.620
R01        38.000    19240060.222 7 102849098.53807     -1112.081 7        44.017                                                                    19240063.487 6  79993769.04006      -865.048 6        40.751
R18        39.000    24306207.506 5                     -2960.352 5        33.054
C42        41.000                                                                                                                                    23578426.565 7 122779007.92307      1228.196 7        42.131                                                                    23578436.528 7  99768050.66007       997.929 7        46.104
C36        42.000                                                                                                                                    24493173.509 4 127542378.77804     -3595.701 4        26.431                                                                    24493187.680 6 103638577.85806     -2921.704 6        38.420
R02        43.000    21336195.485 8 113854033.25508      2559.092 8        51.962                                                                    21336198.425 7  88553140.15407      1990.407 7        44.293
C40        44.000                                                                                                                                    39148680.454 6 203857490.98006      -179.641 6        39.423                                                                    39148682.540 5 165650878.49605      -145.917 5        33.515
I02        45.000    37753921.713 5 148154504.31605       -84.131 5        30.989
C21        47.000                                                                                                                                    22275035.678 7 115991905.04807     -1811.210 7        44.838                                                                    22275036.061 7  94252908.36307     -1471.756 7        46.718
C45        49.000                                                                                                                                    21790648.140 6 113469531.55006     -1378.157 6        39.904                                                                    21790640.042 7  92203283.29507     -1119.801 7        43.084
C22        50.000                                                                                                                                    24708829.572 6 128665117.93806     -4110.468 6        36.612                                                                    24708835.389 6 104551187.42706     -3340.059 6        40.834
I06        56.000    38204104.352 5 149921135.85005      -685.402 5        33.862
> 2025 01 01 08 30 25.0000000  0 35
G18         1.000                                                                                                                                                                    25525376.680 5                     -1853.362 5        33.156
G13         2.000    20094417.950 8 105597014.63608       -33.105 8        48.168                                    20094414.896 5  82283261.14505       -25.795 5        32.407
G30         3.000    21760020.583 7 114349757.91107     -2887.515 7        45.153                                    21760022.504 6  89103706.26206     -2250.013 6        40.722    21760024.716 6  89103638.24606     -2250.002 6        38.219
G14         4.000    20671158.769 7 108627656.57207      -505.376 7        43.809                                    20671160.586 5  84644927.35205      -393.798 5        35.190    20671160.253 7  84644936.35707      -393.744 7        47.625
G07         5.000                                                                                                                                                                    24515387.661 4                     -2808.454 4        27.449
G15         6.000    21647703.381 6 113759455.45206      1914.370 6        38.916                                    21647699.417 3  88643688.74403      1491.717 3        21.476    21647705.609 5  88643736.73205      1491.423 5        31.230
G05         7.000    22043325.272 7 115838413.31707     -3187.773 7        46.134                                    22043325.002 5  90263685.39305     -2483.975 5        34.162    22043327.847 6  90263672.39106     -2484.071 6        37.890
G23        10.000    25101540.408 5 131909498.63205      2332.113 5        32.096                                                                                                    25101526.036 5 102786520.40205      1817.453 5        35.576
G20        11.000    23790353.928 4                     -4355.120 4        27.245
E26        12.000    28316045.974 3                      -921.382 3        22.571                                                                    28315982.253 5 111118067.29005      -687.405 5        32.000    28315983.669 5 114016721.94605      -705.403 5        34.024
E02        13.000    25656400.601 5 134825328.48005      2002.698 5        34.943                                                                    25656406.814 7 100681307.24707      1495.402 7        42.116    25656406.031 6 103307782.27306      1534.481 6        40.064
E25        14.000    23799942.726 8 125069528.12608      -392.139 8        49.088                                                                    23799946.880 8  93396200.20208      -292.812 8        48.683    23799945.110 7  95832543.89907      -300.466 7        47.906
E24        15.000    26437321.855 4 138928720.77604     -3029.348 4        27.521                                                                    26437264.573 5 103745414.50905     -2262.139 5        32.820    26437260.840 4 106451879.50204     -2320.476 4        27.760
E08        17.000    25060841.992 6 131695595.38906      1167.524 6        39.517                                                                    25060844.624 7  98344137.86307       871.970 7        42.265    25060842.124 6 100909607.44306       894.661 6        37.958
E05        21.000    24804282.292 5 130347327.70505     -3254.125 5        30.181                                                                    24804294.351 7  97337359.22307     -2430.008 7        44.527    24804291.563 6  99876498.57506     -2493.379 6        40.026
E13        22.000    28167297.796 5                     -2987.785 5        31.585
S23        24.000    38289228.336 6 201211200.83506      -820.085 6        38.243
C05        25.000                                                                                                                                                                                                    39499676.217 4                      -675.941 4        28.246
E03        27.000    23449150.162 7 123226080.33907     -1246.546 7        44.012                                                                    23449154.120 7  92019452.26707      -930.774 7        44.396    23449153.884 7  94419980.14607      -955.107 7        46.607
R11        28.000    19345267.501 7 103375298.03007     -1662.791 7        47.156                                                                    19345270.471 7  80402960.39307     -1293.278 7        46.752
R10        30.000    22471450.004 5 119785480.81815     -4679.947 5        35.576
R12        31.000    21296163.796 6 113760378.87106      2458.555 6        37.229                                                                    21296167.750 6  88480453.67406      1912.282 6        39.670
R08        35.000    22043965.502 6 118044385.53306     -4671.758 6        39.438                                                                    22043973.611 7  91812350.03507     -3633.701 7        44.518
C26        37.000                                                                                                                                    23504887.746 7 122396104.82007      1592.911 7        42.597                                                                    23504891.774 7  99456964.98207      1294.255 7        46.684
R01        38.000    19241101.645 7 102854668.16207     -1115.986 7        43.786                                                                    19241106.048 6  79998100.96206      -867.936 6        41.182
R18        39.000    24308983.745 6 129763007.31816     -2963.645 6        36.393                                                                    24308949.559 4                     -2304.865 4        24.346
C42        41.000                                                                                                                                    23577248.164 6 122772871.41106      1226.305 6        40.477                                                                    23577258.177 7  99763064.22007       996.398 7        45.786
C36        42.000                                                                                                                                    24496629.295 4 127560356.66204     -3596.012 4        27.245                                                                    24496640.329 6 103653186.38006     -2922.224 6        38.459
R02        43.000    21333798.468 8 113841241.49908      2557.345 8        52.078                                                                    21333801.343 7  88543191.00907      1989.111 7        44.460
C40        44.000                                                                                                                                    39148853.523 6 203858390.61006      -180.389 6        38.679                                                                    39148855.548 5 165651609.53705      -146.793 5        34.119
I02        45.000    37754028.517 5 148154926.55905       -84.381 5        31.238
C21        47.000                                                                                                                                    22276776.018 7 116000966.75607     -1813.602 7        43.314                                                                    22276776.127 7  94260271.76307     -1473.902 7        46.674
C45        49.000                                                                                                                                    21791972.740 6 113476426.22006     -1379.914 6        40.923                                                                    21791964.031 7  92208885.79807     -1121.445 7        43.075
C22        50.000                                                                                                                                    24712775.956 6 128685671.50006     -4111.251 6        36.113                                                                    24712782.469 6 104567888.86606     -3340.898 6        40.420
I06        56.000    38204977.267 5 149924563.12705      -685.470 5        33.820
> 2025 01 01 08 30 30.0000000  0 35
G18         1.000    25527628.153 5                     -2380.758 5        34.462                                                                                                    25527644.723 5 104531424.90015     -1855.146 5        34.329
G13         2.000    20094450.453 8 105597186.77908       -35.656 8        48.698                                    20094447.114 5  82283395.27905       -27.785 5        33.006
G30         3.000    21762769.164 7 114364198.87107     -2888.835 7        45.293                                    21762770.504 6  89114958.94006     -2251.038 6        40.217    21762772.238 6  89114890.92406     -2250.969 6        38.345
G14         4.000    20671641.725 7 108630191.30207      -508.516 7        43.081                                    20671642.873 5  84646902.46305      -396.250 5        35.029    20671642.729 7  84646911.47807      -396.244 7        47.773
G07         5.000                                                                                                                                                                    24518822.019 4                     -2808.768 4        26.108
G15         6.000    21645884.007 5 113749889.37405      1912.173 5        31.985                                    21645880.612 3  88636234.66003      1490.004 3        21.595    21645885.223 5  88636282.68105      1489.973 5        33.108
G05         7.000    22046360.569 7 115854359.03107     -3190.485 7        46.811                                    22046360.017 5  90276110.60505     -2486.084 5        35.738    22046362.189 6  90276097.62606     -2486.132 6        38.958
G23        10.000    25099321.389 4 131897841.57804      2330.821 4        29.422                                                                                                    25099305.657 5 102777436.87505      1816.137 5        35.952
G20        11.000    23794497.901 4                     -4355.925 4        28.692
E26        12.000                                                                                                                                    28316859.771 5 111121508.68905      -689.002 5        31.555    28316861.514 5 114020253.14005      -707.377 5        34.405
E02        13.000    25654494.235 5 134815318.27405      2001.479 5        31.841                                                                    25654501.920 7 100673832.11707      1494.617 7        42.832    25654500.937 6 103300112.13206      1533.564 6        40.605
E25        14.000    23800316.798 8 125071494.86508      -394.541 8        49.193                                                                    23800321.205 8  93397668.86308      -294.600 8        48.961    23800319.343 8  95834050.88508      -302.350 8        48.005
E24        15.000                                                                                                                                    26440147.795 5 103756727.15105     -2262.748 5        33.168    26440143.392 4 106463487.27004     -2321.731 4        28.701
E08        17.000    25059731.900 6 131689760.25306      1166.432 6        40.813                                                                    25059733.868 7  98339780.45307       871.135 7        42.233    25059731.632 6 100905136.34106       894.005 6        37.713
E05        21.000    24807378.781 4 130363600.78604     -3255.081 4        29.820                                                                    24807390.865 7  97349511.18907     -2430.744 7        44.367    24807388.297 6  99888967.54406     -2494.031 6        39.736
E13        22.000    28170142.839 5                     -2989.099 5        32.401                                                                                                                                    28170168.406 3                     -2293.194 3        20.310
S23        24.000    38290008.768 6 201215302.07706      -820.310 6        38.441
C05        25.000                                                                                                                                                                                                    39500515.013 4                      -675.511 4        28.464
E03        27.000    23450337.146 7 123232316.88607     -1248.114 7        44.671                                                                    23450340.842 7  92024109.43107      -931.941 7        44.417    23450340.764 7  94424758.80307      -956.352 7        46.974
R11        28.000    19346825.450 7 103383621.24507     -1666.384 7        47.786                                                                    19346827.588 7  80409434.02107     -1296.068 7        46.736
R10        30.000    22475844.098 6 119808883.52806     -4681.147 6        36.907
R12        31.000    21293870.995 5 113748092.22705      2456.193 5        30.400                                                                    21293867.104 6  88470897.42706      1910.329 6        39.330
R08        35.000    22048331.853 6 118067750.27106     -4673.807 6        40.813                                                                    22048336.359 7  91830522.51607     -3635.248 7        44.904
C26        37.000                                                                                                                                    23503359.804 7 122388144.01007      1591.454 7        43.505                                                                    23503362.880 7  99450496.13607      1293.266 7        46.491
R01        38.000    19242147.186 7 102860258.44907     -1120.073 7        44.351                                                                    19242151.269 6  80002448.94806      -871.145 6        40.675
R18        39.000    24311756.099 6                     -2967.204 6        36.204
C42        41.000                                                                                                                                    23576071.143 6 122766745.11006      1224.297 6        38.294                                                                    23576081.619 7  99758086.02907       994.844 7        45.469
C36        42.000                                                                                                                                    24500089.508 5 127578338.40605     -3596.582 5        31.026                                                                    24500093.384 6 103667797.91806     -2922.768 6        38.117
R02        43.000    21331403.679 8 113828459.74408      2555.387 8        52.617                                                                    21331406.385 7  88533249.63807      1987.560 7        44.609
C40        44.000                                                                                                                                    39149027.698 6 203859295.62806      -181.563 6        38.357                                                                    39149029.183 5 165652344.86805      -147.350 5        33.617
I02        45.000    37754137.252 5 148155350.03905       -84.990 5        31.932
C21        47.000                                                                                                                                    22278519.147 7 116010042.05307     -1816.453 7        42.171                                                                    22278518.830 7  94267646.13007     -1475.886 7        46.537
C45        49.000                                                                                                                                    21793299.235 7 113483331.62307     -1382.161 7        42.201                                                                    21793290.019 7  92214496.95607     -1123.020 7        42.751
C22        50.000                                                                                                                                    24716723.502 5 128706230.27005     -4112.342 5        34.652                                                                    24716730.377 6 104584594.44906     -3341.349 6        40.086
I06        56.000    38205851.178 5 149927990.86905      -685.721 5        33.545
> 2025 01 01 08 30 35.0000000  0 35
G18         1.000    25529891.045 5 134160505.36515     -2382.943 5        35.424                                                                                                    25529912.010 5 104540705.38005     -1856.811 5        34.652
G13         2.000    20094485.049 8 105597370.60608       -37.878 8        49.459                                    20094481.796 5  82283538.51805       -29.514 5        33.737
G30         3.000    21765518.469 7 114378645.79007     -2889.865 7        45.254                                    21765519.703 6  89126216.25906     -2251.838 6        39.580    21765521.305 6  89126148.22006     -2251.649 6        38.144
G14         4.000    20672127.523 7 108632741.09907      -511.382 7        44.396                                    20672128.080 5  84648889.32205      -398.483 5        34.952    20672127.865 8  84648898.32908      -398.495 8        48.129
G07         5.000                                                                                                                                                                    24522255.465 4                     -2808.942 4        24.090
G15         6.000    21644053.419 3                      1910.788 3        22.076                                                                                                    21644067.628 5  88628836.03005      1488.671 5        34.429
G05         7.000    22049397.123 7 115870317.45207     -3192.905 7        46.571                                    22049397.483 6  90288545.72106     -2487.970 6        36.711    22049398.531 6  90288532.72806     -2488.091 6        38.991
G23        10.000                                                                                                                                                                    25097086.879 5 102768359.32505      1814.864 5        35.519
G20        11.000    23798644.093 5                     -4356.546 5        30.234
E26        12.000                                                                                                                                    28317738.968 5 111124958.88705      -691.226 5        31.841    28317741.285 5 114023793.27805      -708.817 5        34.214
E02        13.000    25652589.102 4 134805313.05504      2000.800 4        28.152                                                                    25652598.004 7 100666360.73107      1494.000 7        43.223    25652596.985 6 103292445.84406      1532.859 6        40.794
E25        14.000    23800692.895 8 125073472.59808      -396.586 8        48.803                                                                    23800697.606 8  93399145.73908      -296.135 8        49.194    23800695.689 8  95835566.28508      -303.880 8        48.189
E24        15.000    26443060.524 5 138959025.77505     -3031.442 5        30.385                                                                    26443031.778 5 103768044.78805     -2263.865 5        32.946    26443028.188 4 106475100.11904     -2323.088 4        29.507
E08        17.000    25058622.476 6 131683928.74606      1166.049 6        41.516                                                                    25058623.714 7  98335425.75707       870.717 7        42.142    25058621.689 6 100900668.04806       893.483 6        37.406
E05        21.000    24810475.293 4 130379877.64604     -3255.905 4        29.953                                                                    24810488.161 7  97361665.96507     -2431.268 7        44.036    24810485.984 6  99901439.41006     -2494.720 6        39.426
E13        22.000    28172987.063 5                     -2990.313 5        31.132                                                                                                                                    28173015.180 3                     -2291.702 3        22.210
S23        24.000    38290791.722 6 201219402.68906      -819.785 6        38.574
C05        25.000                                                                                                                                                                                                    39501354.529 4                      -675.740 4        28.209
E03        27.000    23451525.276 7 123238560.80907     -1249.498 7        45.320                                                                    23451528.966 7  92028772.09307      -933.054 7        44.548    23451528.979 7  94429543.10707      -957.427 7        47.234
R11        28.000    19348386.425 8 103391961.32708     -1669.615 8        48.820                                                                    19348388.422 7  80415920.75007     -1298.575 7        47.221
R10        30.000    22480238.308 6 119832290.15906     -4681.726 6        38.321
R12        31.000    21291569.397 4                      2455.023 4        24.526                                                                    21291569.194 6  88461349.63806      1908.773 6        38.465
R08        35.000    22052696.258 6 118091123.85906     -4675.752 6        40.260                                                                    22052701.425 7  91848701.89707     -3636.505 7        44.731
C26        37.000                                                                                                                                    23501832.372 7 122380189.89207      1590.232 7        44.376                                                                    23501835.322 7  99444032.80507      1292.163 7        46.518
R01        38.000    19243197.988 7 102865868.54707     -1123.988 7        44.298                                                                    19243201.222 6  80006812.35006      -874.214 6        40.656
R18        39.000    24314531.489 6 129792677.71616     -2970.130 6        37.391                                                                    24314493.056 3                     -2310.014 3        23.733
C42        41.000                                                                                                                                    23574895.071 5 122760628.14305      1222.677 5        35.790                                                                    23574906.843 7  99753115.48407       993.445 7        45.127
C36        42.000                                                                                                                                    24503549.186 5 127596323.03105     -3597.319 5        33.701                                                                    24503546.896 6 103682411.91406     -2923.206 6        37.924
R02        43.000    21329010.120 8 113815687.12508      2553.746 8        53.266                                                                    21329012.614 7  88523315.36207      1986.195 7        44.999
C40        44.000                                                                                                                                    39149202.844 6 203860205.15906      -182.243 6        37.860                                                                    39149203.879 5 165653083.98105      -148.090 5        34.205
I02        45.000    37754246.266 5 148155774.41005       -85.052 5        32.533
C21        47.000                                                                                                                                    22280265.068 7 116019130.00507     -1818.751 7        42.163                                                                    22280264.142 7  94275030.86507     -1477.895 7        46.593
C45        49.000                                                                                                                                    21794627.353 7 113490246.84107     -1383.937 7        42.749                                                                    21794617.936 7  92220116.16907     -1124.603 7        42.991
C22        50.000                                                                                                                                    24720671.304 5 128726793.33905     -4113.169 5        33.473                                                                    24720679.109 6 104601303.60306     -3342.152 6        39.766
I06        56.000    38206724.017 5 149931418.28505      -685.631 5        33.413
> 2025 01 01 08 30 40.0000000  0 35
G18         1.000    25532158.171 5 134172426.96105     -2385.844 5        33.916                                                                                                    25532180.612 5 104549994.91305     -1858.944 5        34.124
G13         2.000    20094522.215 8 105597566.32608       -40.379 8        49.629                                    20094519.004 5  82283691.02605       -31.456 5        34.362
G30         3.000    21768268.562 7 114393098.87607     -2891.246 7        44.784                                    21768270.072 6  89137478.37906     -2252.911 6        38.922    21768271.576 6  89137410.35706     -2253.069 6        38.024
G14         4.000    20672615.624 7 108635306.16007      -514.573 7        45.144                                    20672616.256 5  84650888.07805      -400.966 5        35.381    20672616.283 8  84650897.07908      -400.978 8        48.668
G07         5.000                                                                                                                                                                    24525677.244 3                     -2812.642 3        20.810
G15         6.000                                                                                                                                                                    21642251.564 5  88621396.99405      1487.109 5        35.586
G05         7.000    22052434.781 7 115886288.74707     -3195.632 7        45.582                                    22052437.435 6  90300990.85906     -2490.091 6        37.013    22052437.454 6  90300977.85306     -2489.978 6        39.291
G23        10.000    25094854.106 4 131874550.53004      2327.156 4        27.210                                                                                                    25094871.411 5 102759287.87205      1813.669 5        35.010
G20        11.000    23802790.937 5                     -4356.817 5        31.411
E26        12.000    28318637.736 4                      -927.207 4        25.579                                                                    28318620.325 5 111128417.92105      -692.725 5        32.000    28318622.685 5 114027342.56105      -710.906 5        34.048
E02        13.000    25650684.875 3 134795313.04103      1999.859 3        23.410                                                                    25650695.036 7 100658893.25207      1493.139 7        43.369    25650693.878 6 103284783.54606      1532.103 6        40.818
E25        14.000    23801071.224 8 125075461.53108      -398.978 8        48.272                                                                    23801076.116 8  93400630.97308      -297.841 8        49.341    23801074.204 8  95837090.27408      -305.689 8        48.339
E24        15.000    26445948.118 5 138974188.48405     -3033.442 5        32.329                                                                    26445917.582 5 103779367.49205     -2265.128 5        33.180    26445914.901 5 106486718.22305     -2324.514 5        30.574
E08        17.000    25057513.372 7 131678101.12807      1165.054 7        42.555                                                                    25057514.470 6  98331073.94606       869.975 6        41.743    25057512.406 6 100896202.70906       892.791 6        37.104
E05        21.000    24813572.095 4 130396158.48404     -3256.793 4        29.242                                                                    24813585.812 7  97373823.68207     -2431.840 7        43.484    24813584.244 6  99913914.29206     -2495.396 6        39.219
E13        22.000    28175831.749 5                     -2991.932 5        30.430                                                                                                                                    28175863.107 4                     -2293.160 4        24.586
S23        24.000    38291570.978 6 201223502.77706      -820.341 6        38.453
C05        25.000                                                                                                                                                                                                    39502194.143 4                      -675.953 4        28.578
E03        27.000    23452714.524 7 123244812.29907     -1251.089 7        45.645                                                                    23452718.588 7  92033440.39707      -934.225 7        44.631    23452718.549 7  94434333.20207      -958.630 7        47.383
R11        28.000    19349950.749 8 103400318.49708     -1673.196 8        49.253                                                                    19349952.219 7  80422420.75707     -1301.453 7        46.794
R10        30.000    22484632.810 6 119855700.81706     -4682.550 6        39.108
R12        31.000    21289274.958 5                      2451.697 5        34.329                                                                    21289272.476 6  88451810.57006      1907.017 6        37.440
R08        35.000    22057061.130 6 118114506.59906     -4677.632 6        39.547                                                                    22057068.416 7  91866888.41807     -3638.039 7        44.525
C26        37.000                                                                                                                                    23500307.111 7 122372242.68807      1588.672 7        45.016                                                                    23500309.083 7  99437575.07007      1290.985 7        46.445
R01        38.000    19244251.011 7 102871498.50307     -1127.957 7        44.250                                                                    19244254.157 6  80011191.17406      -877.261 6        40.379
R18        39.000    24317313.920 5 129807537.13805     -2973.528 5        34.186                                                                    24317283.765 4                     -2312.462 4        27.713
C42        41.000                                                                                                                                    23573721.525 5 122754520.68905      1220.565 5        35.929                                                                    23573733.891 7  99748152.67407       991.755 7        44.761
C36        42.000                                                                                                                                    24507005.619 5 127614310.71905     -3597.999 5        35.657                                                                    24507001.425 6 103697028.38206     -2923.522 6        37.811
R02        43.000    21326618.086 8 113802923.57408      2551.697 8        53.390                                                                    21326620.410 7  88513388.15407      1984.607 7        44.692
C40        44.000                                                                                                                                    39149379.002 6 203861119.44606      -183.299 6        37.486                                                                    39149379.560 5 165653826.92405      -149.097 5        34.471
I02        45.000    37754354.054 5 148156199.94405       -85.290 5        32.778
C21        47.000                                                                                                                                    22282013.757 7 116028230.82807     -1821.487 7        42.944                                                                    22282012.201 7  94282426.05107     -1480.121 7        46.677
C45        49.000                                                                                                                                    21795956.504 7 113497172.10707     -1386.186 7        42.921                                                                    21795947.846 7  92225743.50207     -1126.308 7        43.069
C22        50.000                                                                                                                                    24724621.825 5 128747360.89105     -4113.901 5        32.329                                                                    24724628.772 6 104618016.38306     -3342.774 6        39.489
I06        56.000    38207598.175 5 149934845.58505      -685.279 5        33.814
> 2025 01 01 08 30 45.0000000  0 35
G18         1.000    25534427.568 5 134184360.40805     -2387.912 5        31.894                                                                                                    25534450.123 5 104559293.68005     -1860.357 5        33.958
G13         2.000    20094561.379 8 105597774.18908       -42.624 8        48.736                                    20094558.788 5  82283852.98805       -33.211 5        34.686
G30         3.000    21771019.742 7 114407558.41607     -2892.323 7        44.262                                    21771021.676 6  89148745.52306     -2253.754 6        38.228    21771022.906 6  89148677.51106     -2253.847 6        37.766
G14         4.000    20673106.152 7 108637886.75507      -517.540 7        45.284                                    20673107.401 5  84652898.94205      -403.278 5        35.814    20673107.359 8  84652907.93908      -403.261 8        48.832
G07         5.000                                                                                                                                                                    24529099.520 3                     -2810.571 3        21.500
G15         6.000    21640439.990 6 113721266.28116      1906.630 6        36.949                                    21640439.188 3  88613978.75013      1485.663 3        19.433    21640436.432 6  88613965.76706      1485.386 6        36.215
G05         7.000    22055476.037 7 115902273.28807     -3198.074 7        44.438                                    22055479.905 6  90313446.32606     -2491.999 6        36.612    22055478.872 6  90313433.31806     -2492.005 6        39.450
G23        10.000    25092653.328 4 131862916.92104      2325.920 4        29.517                                                                                                    25092657.650 5 102750222.78105      1812.725 5        34.671
G20        11.000    23806937.955 5                     -4357.653 5        33.132
E26        12.000                                                                                                                                    28319504.481 5 111131886.08705      -694.371 5        31.909    28319506.332 5 114030901.20005      -712.634 5        34.105
E02        13.000    25648777.750 3                      1999.790 3        19.731                                                                    25648793.245 7 100651429.90607      1492.370 7        43.482    25648791.493 6 103277125.49906      1531.291 6        40.779
E25        14.000    23801451.517 7 125077461.96107      -401.126 7        47.656                                                                    23801456.847 8  93402124.80408      -299.485 8        49.508    23801454.917 8  95838623.07808      -307.318 8        48.630
E24        15.000    26448838.347 5 138989358.30605     -3034.568 5        32.677                                                                    26448804.445 5 103790695.50305     -2266.062 5        33.036    26448801.626 5 106498341.78205     -2325.406 5        31.321
E08        17.000    25056404.535 7 131672277.65607      1164.392 7        43.596                                                                    25056405.977 6  98326725.24406       869.492 6        41.483    25056403.956 6 100891740.56306       892.402 6        36.699
E05        21.000    24816670.017 4 130412443.52004     -3257.019 4        28.275                                                                    24816683.929 7  97385984.56907     -2432.358 7        42.673    24816683.604 6  99926392.43206     -2495.873 6        38.925
E13        22.000    28178681.389 4                     -2993.370 4        28.910                                                                    28178683.311 5 110579201.21315     -2234.990 5        32.287    28178712.456 4                     -2293.129 4        26.144
S23        24.000    38292349.287 6 201227602.84106      -819.720 6        38.300
C05        25.000                                                                                                                                                                                                    39503032.327 4                      -675.695 4        28.445
E03        27.000    23453905.432 7 123251071.65307     -1252.507 7        45.455                                                                    23453909.683 7  92038114.59707      -935.331 7        44.602    23453909.710 7  94439129.33307      -959.690 7        47.792
R11        28.000    19351517.930 8 103408693.00308     -1676.448 8        50.218                                                                    19351519.214 7  80428934.27107     -1303.947 7        46.182
R10        30.000    22489028.233 6 119879115.86306     -4683.288 6        39.324
R12        31.000    21286981.011 5 113711233.20415      2449.379 5        33.078                                                                    21286978.894 6  88442280.45806      1905.296 6        36.805
R08        35.000    22061429.265 6 118137898.68106     -4679.278 6        39.324                                                                    22061436.735 7  91885082.20807     -3639.371 7        43.989
C26        37.000                                                                                                                                    23498783.189 7 122364302.68007      1587.401 7        45.088                                                                    23498784.339 7  99431123.20307      1289.760 7        46.377
R01        38.000    19245308.806 7 102877148.65007     -1131.979 7        44.202                                                                    19245310.797 6  80015585.73706      -880.442 6        40.021
R18        39.000                                                                                                                                    24320071.486 4                     -2315.521 4        29.374
C42        41.000                                                                                                                                    23572551.374 6 122748423.08706      1218.505 6        37.992                                                                    23572562.870 7  99743197.87807       990.201 7        44.466
C36        42.000                                                                                                                                    24510459.758 6 127632301.82506     -3598.491 6        36.813                                                                    24510456.393 6 103711647.62106     -2923.914 6        37.505
R02        43.000    21324227.423 8 113790169.63908      2549.969 8        52.539                                                                    21324229.713 7  88503468.43107      1983.268 7        44.110
C40        44.000                                                                                                                                    39149555.466 6 203862038.73006      -184.289 6        37.240                                                                    39149555.975 5 165654573.91005      -149.699 5        34.286
I02        45.000    37754461.617 5 148156626.60605       -85.415 5        32.976
C21        47.000                                                                                                                                    22283764.758 7 116037344.83607     -1823.939 7        43.579                                                                    22283762.668 7  94289831.94607     -1482.221 7        46.735
C45        49.000                                                                                                                                    21797287.320 7 113504107.67207     -1388.057 7        42.597                                                                    21797279.779 7  92231379.21407     -1127.925 7        43.041
C22        50.000                                                                                                                                    24728575.325 5 128767933.26905     -4114.844 5        32.910                                                                    24728579.458 6 104634733.06706     -3343.780 6        39.288
I06        56.000    38208471.638 5 149938273.09805      -685.173 5        33.575
> 2025 01 01 08 30 50.0000000  0 34
G18         1.000    25536700.154 5 134196305.49405     -2390.078 5        32.216
G13         2.000    20094603.075 7 105597994.03707       -44.924 7        47.962                                    20094601.112 5  82284024.29005       -35.004 5        34.976
G30         3.000    21773773.024 7 114422024.21707     -2893.506 7        43.321                                    21773774.492 6  89160017.54206     -2254.674 6        37.837    21773775.612 6  89159949.53306     -2254.815 6        37.807
G14         4.000    20673600.403 7 108640482.71607      -520.509 7        45.934                                    20673601.453 6  84654921.77106      -405.592 6        36.590    20673600.887 8  84654930.76608      -405.545 8        48.850
G07         5.000                                                                                                                                                                    24532519.909 3                     -2809.023 3        19.075
G15         6.000    21638622.650 6 113711739.45106      1904.767 6        39.928                                    21638625.798 3  88606555.19103      1484.229 3        23.486    21638622.572 5  88606542.19705      1484.219 5        35.962
G05         7.000    22058520.616 7 115918270.83107     -3200.550 7        44.071                                    22058524.758 5  90325911.92305     -2493.927 5        35.962    22058523.384 6  90325898.91406     -2493.911 6        39.321
G23        10.000    25090447.370 5 131851291.35105      2324.723 5        32.269                                                                                                    25090444.547 5 102741163.89305      1811.120 5        34.124
G20        11.000    23811085.148 5 125128088.86515     -4357.892 5        34.457
E26        12.000    28320432.399 4                      -932.311 4        27.198                                                                    28320390.890 5 111135363.20905      -695.905 5        32.156    28320392.580 5 114034469.03005      -714.442 5        33.737
E02        13.000                                                                                                                                    25646892.363 7 100643970.54807      1491.707 7        43.503    25646890.401 6 103269471.54006      1530.572 6        40.117
E25        14.000    23801834.465 7 125079473.69107      -403.275 7        47.155                                                                    23801839.784 8  93403627.06708      -301.105 8        49.757    23801837.835 8  95840164.53708      -308.965 8        48.776
E24        15.000    26451726.561 5 139004534.92805     -3035.866 5        32.994                                                                    26451692.380 5 103802028.68005     -2267.198 5        32.964    26451690.651 5 106509970.56005     -2325.817 5        32.066
E08        17.000    25055296.805 7 131666458.14507      1163.792 7        44.242                                                                    25055298.457 6  98322379.51106       868.967 6        41.161    25055296.114 5 100887281.47305       891.677 5        35.886
E05        21.000    24819771.463 4 130428732.64704     -3258.178 4        28.749                                                                    24819783.240 7  97398148.49607     -2432.907 7        42.047    24819783.514 6  99938873.65706     -2496.214 6        38.210
E13        22.000    28181529.128 4                     -2994.824 4        26.802                                                                    28181532.549 5 110590380.09905     -2236.165 5        32.377    28181562.163 4                     -2294.363 4        27.521
S23        24.000    38293129.934 6 201231702.87306      -819.739 6        38.174
E03        27.000    23455098.115 7 123257338.69807     -1253.983 7        45.487                                                                    23455102.275 7  92042794.52107      -936.355 7        44.618    23455102.314 7  94443931.34907      -960.827 7        47.731
R11        28.000    19353088.816 8 103417084.70008     -1679.766 8        50.943                                                                    19353089.148 7  80435461.13507     -1306.496 7        45.552
R10        30.000    22493425.992 6 119902534.96306     -4683.934 6        39.330
R12        31.000    21284685.969 4 113698991.26504      2448.010 4        25.158                                                                    21284686.492 6  88432759.06606      1903.674 6        36.491
R08        35.000    22065799.424 6 118161299.94406     -4681.022 6        38.562                                                                    22065807.070 7  91903283.12407     -3640.728 7        43.695
C26        37.000                                                                                                                                    23497261.090 7 122356369.69007      1586.082 7        45.479                                                                    23497260.918 7  99424676.99607      1288.971 7        46.322
R01        38.000    19246369.776 7 102882818.89107     -1135.916 7        44.274                                                                    19246370.716 6  80019995.92406      -883.556 6        40.310
R18        39.000                                                                                                                                    24322863.420 5                     -2317.901 5        32.042
C42        41.000                                                                                                                                    23571381.873 6 122742335.09406      1216.934 6        40.157                                                                    23571393.642 7  99738250.90207       988.848 7        44.275
C36        42.000                                                                                                                                    24513915.124 6 127650296.13606     -3598.916 6        37.089                                                                    24513911.571 6 103726269.44606     -2924.471 6        37.558
R02        43.000    21321838.150 8 113777424.99608      2548.247 8        52.235                                                                    21321841.741 7  88493555.91907      1981.928 7        43.909
C40        44.000                                                                                                                                    39149732.776 6 203862962.84406      -185.025 6        36.817                                                                    39149733.382 5 165655324.82105      -150.311 5        34.905
I02        45.000    37754570.519 5 148157054.32105       -85.806 5        33.437
C21        47.000                                                                                                                                    22285517.785 7 116046471.81207     -1826.405 7        44.479                                                                    22285515.596 7  94297248.36507     -1484.087 7        47.009
C45        49.000                                                                                                                                    21798619.989 7 113511053.34007     -1389.845 7        42.580                                                                    21798613.699 7  92237023.12107     -1129.271 7        43.060
C22        50.000                                                                                                                                    24732528.906 5 128788510.17405     -4115.585 5        34.471                                                                    24732531.051 6 104651453.43706     -3344.125 6        39.240
I06        56.000    38209344.445 5 149941700.52305      -685.399 5        33.281
> 2025 01 01 08 30 55.0000000  0 34
G18         1.000    25538975.525 5 134208262.39205     -2392.455 5        31.872
G13         2.000    20094647.819 7 105598226.12507       -47.467 7        47.138                                    20094645.905 5  82284205.12805       -36.980 5        35.286
G30         3.000    21776526.892 7 114436496.43307     -2894.843 7        43.101                                    21776528.533 6  89171294.56506     -2255.714 6        37.501    21776529.570 6  89171226.55606     -2255.699 6        37.856
G14         4.000    20674097.710 7 108643094.21807      -523.613 7        46.857                                    20674098.442 6  84656956.70606      -408.008 6        37.002    20674097.604 8  84656965.70508      -408.041 8        48.951
G07         5.000    24535986.612 4                     -3605.956 4        29.810                                                                                                    24535942.708 3                     -2810.986 3        21.071
G15         6.000    21636810.777 6 113702222.61606      1902.582 6        41.468                                    21636814.473 4  88599139.44004      1482.537 4        26.551    21636811.612 5  88599126.44305      1482.518 5        35.557
G05         7.000    22061567.669 7 115934281.47507     -3203.199 7        43.860                                    22061571.985 5  90338387.73005     -2495.989 5        34.929    22061569.834 6  90338374.71206     -2496.075 6        38.832
G23        10.000    25088236.574 5 131839674.02105      2322.832 5        33.497                                    25088233.844 1 102732122.37811      1810.005 1         8.762    25088233.825 5 102732111.35705      1810.003 5        33.617
G20        11.000    23815231.558 5 125149881.14905     -4358.490 5        35.338
E26        12.000    28321315.209 4                      -934.543 4        25.218                                                                    28321278.934 5 111138849.41705      -698.421 5        32.335    28321280.790 5 114038046.17105      -716.269 5        33.365
E02        13.000    25644979.425 4                      1996.621 4        25.188                                                                    25644992.654 7 100636515.32007      1490.771 7        43.361    25644990.181 6 103261821.80706      1529.752 6        39.405
E25        14.000    23802219.587 7 125081496.91307      -405.632 7        46.709                                                                    23802224.890 8  93405137.91008      -302.870 8        49.895    23802222.929 8  95841714.80008      -310.793 8        49.055
E24        15.000    26454612.156 5 139019718.61705     -3037.307 5        31.615                                                                    26454581.384 5 103813367.13505     -2267.953 5        32.623    26454579.882 5 106521604.83905     -2327.284 5        32.437
E08        17.000    25054189.888 7 131660642.78107      1162.930 7        44.439                                                                    25054191.529 6  98318036.86106       868.442 6        40.617    25054189.117 5 100882825.55705       890.872 5        35.429
E05        21.000    24822872.703 4 130445025.95504     -3259.345 4        29.507                                                                    24822883.556 6  97410315.58506     -2433.488 6        41.259    24822884.060 6  99951358.15906     -2497.173 6        37.561
E13        22.000    28184380.507 3                     -2994.463 3        23.619                                                                    28184383.712 5 110601564.13205     -2237.161 5        32.605    28184413.113 4                     -2295.684 4        29.507
S23        24.000    38293912.333 6 201235803.08906      -819.764 6        38.369
E03        27.000    23456292.372 7 123263613.58907     -1255.481 7        45.666                                                                    23456296.517 7  92047480.31207      -937.533 7        44.492    23456296.274 7  94448739.38707      -962.039 7        47.725
R11        28.000    19354662.058 8 103425493.76008     -1683.293 8        50.403                                                                    19354662.765 7  80442001.51007     -1309.199 7        44.448
R10        30.000    22497821.541 6 119925958.35006     -4684.881 6        39.210
R12        31.000    21282379.779 4                      2444.500 4        26.659                                                                    21282397.014 6  88423246.59816      1901.863 6        37.240
R08        35.000    22070170.446 6 118184710.62506     -4682.822 6        37.815                                                                    22070179.091 7  91921491.39107     -3642.258 7        43.695
C26        37.000                                                                                                                                    23495740.528 7 122348443.89007      1584.734 7        45.115                                                                    23495738.755 7  99418236.67907      1287.553 7        45.995
R01        38.000    19247434.830 7 102888509.29107     -1139.814 7        44.638                                                                    19247436.173 6  80024421.78006      -886.574 6        40.379
R18        39.000    24325714.108 4 129852213.84814     -2983.203 4        26.132                                                                    24325656.118 5                     -2320.229 5        31.992
C42        41.000                                                                                                                                    23570214.806 6 122736256.96906      1214.815 6        41.368                                                                    23570226.343 7  99733311.97307       987.067 7        43.740
C36        42.000                                                                                                                                    24517371.894 6 127668293.83406     -3599.588 6        37.146                                                                    24517367.920 6 103740894.01906     -2925.157 6        37.244
R02        43.000    21319451.842 8 113764690.03908      2546.260 8        52.141                                                                    21319455.155 7  88483650.95307      1980.472 7        44.256
C40        44.000                                                                                                                                    39149911.181 6 203863891.97106      -186.182 6        37.032                                                                    39149911.648 5 165656079.82805      -151.400 5        34.500
I02        45.000    37754681.500 5 148157483.00405       -86.012 5        33.719
C21        47.000                                                                                                                                    22287273.348 7 116055611.93707     -1829.160 7        45.457                                                                    22287270.875 7  94304675.48607     -1486.340 7        46.826
C45        49.000                                                                                                                                    21799955.537 7 113518009.30307     -1391.958 7        42.698                                                                    21799949.559 7  92242675.41707     -1131.149 7        43.084
C22        50.000                                                                                                                                    24736482.027 5 128809091.84805     -4116.740 5        35.310                                                                    24736483.662 6 104668177.71406     -3345.201 6        38.694
I06        56.000    38210216.875 5 149945128.06705      -685.433 5        33.778
> 2025 01 01 08 31  0.0000000  0 34
G18         1.000    25541251.937 5 134220230.87705     -2394.352 5        30.098                                                                                                    25541248.005 5 104587244.62405     -1866.289 5        32.347
G13         2.000    20094694.510 7 105598470.20307       -50.016 7        47.518                                    20094693.009 5  82284395.30605       -38.967 5        35.819
G30         3.000    21779281.742 7 114450974.88607     -2896.313 7        43.903                                    21779283.813 6  89182576.43406     -2256.865 6        37.516    21779284.500 6  89182508.41906     -2256.828 6        37.172
G14         4.000    20674597.745 7 108645721.06907      -526.931 7        47.717                                    20674598.285 6  84659003.60506      -410.594 6        37.486    20674597.506 8  84659012.59808      -410.559 8        48.697
G07         5.000    24539418.233 4                     -3605.951 4        29.754
G15         6.000    21635002.113 7 113692715.55607      1900.373 7        42.030                                    21635004.848 4  88591731.34104      1480.810 4        28.133    21635003.024 5  88591718.34405      1480.864 5        35.109
G05         7.000    22064617.342 7 115950304.99907     -3206.092 7        43.712                                    22064621.498 5  90350873.58705     -2498.242 5        33.737    22064619.518 6  90350860.57306     -2498.252 6        38.231
G23        10.000    25086027.753 5 131828064.61505      2320.949 5        34.252                                    25086024.867 1 102723076.04001      1808.537 1         8.381    25086024.161 5 102723065.03505      1808.636 5        32.982
G20        11.000    23819379.558 5 125171676.46805     -4359.237 5        35.476
E26        12.000    28322196.387 4                      -938.226 4        24.466                                                                    28322169.522 5 111142344.55705      -699.968 5        32.766    28322171.138 5 114041632.49405      -718.142 5        33.222
E02        13.000    25643085.710 4                      1995.285 4        29.716                                                                    25643093.705 7 100629064.07807      1489.880 7        42.889    25643090.976 6 103254176.18006      1528.770 6        38.703
E25        14.000    23802607.067 7 125083531.40507      -408.058 7        46.439                                                                    23802612.125 8  93406657.18008      -304.714 8        50.052    23802610.207 8  95843273.70508      -312.613 8        49.416
E24        15.000    26457497.123 4 139034909.15004     -3038.363 4        29.071                                                                    26457471.934 5 103824710.75605     -2269.466 5        32.533    26457470.566 5 106533244.36105     -2328.529 5        33.162
E08        17.000    25053084.021 7 131654831.38307      1161.846 7        44.011                                                                    25053085.552 6  98313697.19806       867.665 6        40.169    25053082.398 5 100878372.64905       890.273 5        34.838
E05        21.000    24825973.553 5 130461323.31305     -3259.717 5        31.223                                                                    24825984.823 6  97422485.69206     -2434.341 6        40.775    24825984.913 6  99963845.72906     -2497.879 6        36.964
E13        22.000                                                                                                                                    28187235.716 5 110612753.22705     -2238.205 5        32.766    28187263.558 4                     -2296.467 4        29.517
S23        24.000    38294688.956 6 201239902.83306      -819.779 6        38.156
E03        27.000    23457488.474 7 123269896.15407     -1257.256 7        45.467                                                                    23457492.144 7  92052171.82807      -938.779 7        44.405    23457491.782 7  94453553.29507      -963.320 7        47.629
R11        28.000    19356237.592 8 103433919.84308     -1686.859 8        49.254                                                                    19356239.990 7  80448555.14807     -1312.105 7        43.209
R10        30.000    22502213.474 6 119949385.79606     -4685.814 6        38.574
R12        31.000    21280096.515 5                      2442.783 5        32.192                                                                    21280109.314 6  88413742.87816      1899.785 6        37.293
R08        35.000    22074543.821 6 118208130.46806     -4684.975 6        36.544                                                                    22074552.622 7  91939706.74907     -3643.776 7        43.674
C26        37.000                                                                                                                                    23494219.157 7 122340525.14107      1582.943 7        43.936                                                                    23494217.838 7  99411802.03407      1286.352 7        45.624
R01        38.000    19248501.985 7 102894219.82507     -1144.120 7        44.947                                                                    19248504.495 6  80028863.31106      -889.893 6        40.141
R18        39.000                                                                                                                                    24328451.159 5                     -2322.698 5        30.264
C42        41.000                                                                                                                                    23569050.060 6 122730188.55606      1212.797 6        41.890                                                                    23569060.963 7  99728380.85807       985.414 7        43.374
C36        42.000                                                                                                                                    24520828.939 6 127686294.70806     -3600.516 6        37.543                                                                    24520824.556 6 103755521.14706     -2925.862 6        37.104
R02        43.000    21317067.326 8 113751964.32708      2544.169 8        51.614                                                                    21317070.396 7  88473753.17707      1978.749 7        44.668
C40        44.000                                                                                                                                    39150090.341 6 203864825.90406      -187.187 6        36.363                                                                    39150091.073 5 165656838.70105      -152.044 5        34.348
I02        45.000    37754788.642 5 148157912.45005       -85.819 5        34.343
C21        47.000                                                                                                                                    22289030.864 7 116064765.03507     -1831.919 7        46.031                                                                    22289028.587 7  94312113.13107     -1488.619 7        46.678
C45        49.000                                                                                                                                    21801292.639 7 113524975.35107     -1394.330 7        42.263                                                                    21801287.412 7  92248335.90107     -1132.912 7        43.194
C22        50.000                                                                                                                                    24740434.883 5 128829678.03405     -4117.743 5        35.952                                                                    24740437.110 6 104684905.64806     -3345.922 6        38.715
I06        56.000    38211091.061 5 149948555.60405      -685.711 5        33.641
> 2025 01 01 08 31  5.0000000  0 34
G18         1.000    25543533.201 5 134232211.48705     -2397.672 5        31.698                                                                                                    25543532.983 5 104596580.05905     -1867.832 5        33.066
G13         2.000    20094743.815 8 105598726.70608       -52.543 8        48.445                                    20094742.398 6  82284595.16606       -40.941 6        36.544
G30         3.000    21782039.069 7 114465460.01207     -2897.701 7        44.719                                    21782040.448 6  89193863.51206     -2257.944 6        37.905    21782040.988 6  89193795.53406     -2258.026 6        37.705
G14         4.000    20675100.613 8 108648363.69908      -530.142 8        48.002                                    20675100.998 6  84661062.79506      -413.097 6        38.039    20675099.996 8  84661071.79308      -413.097 8        48.072
G07         5.000    24542841.095 4                     -3606.876 4        28.654
G15         6.000    21633195.908 7 113683218.86107      1898.346 7        42.237                                    21633197.033 4  88584331.30404      1479.229 4        29.128    21633194.907 5  88584318.27605      1479.243 5        35.248
G05         7.000    22067668.626 7 115966341.91107     -3208.718 7        42.294                                    22067673.443 5  90363369.87705     -2500.299 5        32.479    22067670.585 6  90363356.85306     -2500.108 6        37.652
G23        10.000    25083820.073 5 131816463.62605      2319.433 5        35.267                                    25083817.415 1 102714036.27801      1807.328 1         8.857    25083815.307 5 102714025.29505      1807.125 5        32.832
G20        11.000    23823527.387 5 125193475.14705     -4360.112 5        35.414
E26        12.000                                                                                                                                    28323062.597 5 111145849.03005      -701.974 5        32.880    28323064.333 5 114045228.39905      -720.636 5        32.832
E02        13.000    25641194.084 5                      1993.845 5        32.581                                                                    25641195.950 7 100621617.14607      1489.152 7        42.368    25641193.167 6 103246534.96606      1528.024 6        38.156
E25        14.000    23802996.550 7 125085577.62307      -410.421 7        46.392                                                                    23803001.512 8  93408185.20008      -306.491 8        50.164    23802999.743 8  95844841.59108      -314.448 8        49.726
E24        15.000                                                                                                                                    26460364.366 5 103836059.79905     -2270.221 5        31.811    26460362.473 5 106544889.47005     -2329.627 5        33.814
E08        17.000    25051979.106 7 131649024.41707      1160.924 7        43.869                                                                    25051980.650 6  98309360.81406       866.981 6        39.769    25051976.242 5 100873923.15105       889.558 5        33.916
E05        21.000    24829074.573 5 130477625.19305     -3260.648 5        32.066                                                                    24829087.211 6  97434659.14406     -2435.182 6        40.138    24829086.797 5  99976336.73605     -2498.437 5        35.781
E13        22.000                                                                                                                                    28190090.045 5 110623947.63905     -2239.609 5        33.108    28190113.184 4                     -2297.502 4        29.422
S23        24.000    38295471.128 6 201244002.76506      -819.866 6        38.225
E03        27.000    23458685.895 7 123276186.82507     -1258.881 7        45.524                                                                    23458689.410 7  92056869.40207      -940.139 7        44.333    23458688.685 7  94458373.41707      -964.650 7        47.438
R11        28.000    19357817.926 8 103442363.51908     -1690.424 8        49.327                                                                    19357820.499 7  80455122.44707     -1314.970 7        43.094
R10        30.000    22506602.365 6 119972817.87606     -4686.806 6        37.437
R12        31.000    21277813.532 6 113662252.36216      2440.302 6        37.013                                                                    21277823.720 6  88404248.28316      1897.923 6        37.403
R08        35.000    22078917.665 5 118231559.92205     -4686.762 5        33.892                                                                    22078927.927 7  91957929.66207     -3645.302 7        43.670
C26        37.000                                                                                                                                    23492698.650 6 122332613.85106      1581.468 6        41.635                                                                    23492698.333 7  99405373.46307      1285.021 7        45.059
R01        38.000    19249573.517 7 102899950.88207     -1148.236 7        44.935                                                                    19249576.587 6  80033320.80506      -893.205 6        40.348
R18        39.000    24331250.547 5 129882080.46705     -2990.463 5        31.245                                                                    24331245.302 4                     -2325.183 4        26.922
C42        41.000                                                                                                                                    23567886.507 7 122724130.23607      1210.660 7        42.624                                                                    23567897.450 7  99723457.97307       983.781 7        43.007
C36        42.000                                                                                                                                    24524287.193 6 127704299.16106     -3601.314 6        37.565                                                                    24524282.078 6 103770151.18306     -2926.158 6        37.418
R02        43.000    21314684.414 8 113739248.43608      2542.217 8        51.565                                                                    21314687.112 7  88463863.03507      1977.183 7        44.254
C40        44.000                                                                                                                                    39150270.171 6 203865765.07306      -188.313 6        36.571                                                                    39150271.415 5 165657601.89605      -153.318 5        34.176
I02        45.000    37754898.444 5 148158343.60805       -86.429 5        34.771
C21        47.000                                                                                                                                    22290790.020 7 116073931.52807     -1834.655 7        46.423                                                                    22290788.740 7  94319561.66307     -1490.818 7        46.336
C45        49.000                                                                                                                                    21802630.269 6 113531951.93206     -1396.463 6        41.006                                                                    21802627.251 7  92254004.94807     -1134.725 7        43.139
C22        50.000                                                                                                                                    24744388.719 5 128850269.22705     -4118.724 5        35.238                                                                    24744391.438 6 104701637.63906     -3346.782 6        38.616
I06        56.000    38211965.321 5 149951983.41305      -685.739 5        34.214
> 2025 01 01 08 31 10.0000000  0 34
G18         1.000    25545818.666 5 134244203.98105     -2399.841 5        33.521                                                                                                    25545819.141 5 104605924.88505     -1869.912 5        33.701
G13         2.000    20094795.297 8 105598995.58508       -55.091 8        48.876                                    20094793.933 6  82284804.67106       -42.927 6        37.104
G30         3.000    21784796.623 7 114479951.72707     -2899.048 7        45.299                                    21784798.374 6  89205155.72806     -2258.991 6        38.105    21784798.733 6  89205087.72206     -2258.895 6        38.303
G14         4.000    20675606.751 7 108651022.04807      -533.304 7        47.694                                    20675606.618 6  84663134.22706      -415.559 6        38.156    20675605.801 7  84663143.22407      -415.578 7        47.258
G07         5.000    24546262.150 4                     -3607.201 4        28.389                                                                                                    24546280.268 3                     -2808.790 3        20.357
G15         6.000    21631391.501 6 113673732.39106      1896.227 6        41.702                                    21631390.999 4  88576939.23504      1477.580 4        28.938    21631391.437 6  88576926.22506      1477.495 6        36.238
G05         7.000    22070721.892 6 115982392.11906     -3211.471 6        38.766                                    22070727.726 5  90375876.51105     -2502.452 5        30.528    22070725.540 6  90375863.48306     -2502.519 6        36.836
G23        10.000    25081613.103 5 131804870.99905      2317.576 5        35.219                                    25081610.504 1 102705003.01001      1805.917 1         9.429    25081609.166 5 102704992.03805      1805.937 5        33.018
G20        11.000    23827676.078 5 125215277.13605     -4361.000 5        35.262
E26        12.000    28323970.562 4                      -942.640 4        29.839                                                                    28323957.633 5 111149362.71005      -703.725 5        33.030    28323958.378 5 114048833.74805      -722.311 5        32.754
E02        13.000    25639298.273 5 134735425.84615      1992.590 5        35.105                                                                    25639299.262 6 100614174.50906      1488.091 6        41.843    25639296.309 6 103238898.16806      1526.928 6        37.732
E25        14.000    23803387.923 7 125087635.50407      -412.873 7        46.704                                                                    23803393.088 8  93409721.92808      -308.306 8        50.400    23803391.481 8  95846418.41508      -316.342 8        50.100
E24        15.000                                                                                                                                    26463257.326 5 103847414.25805     -2271.577 5        31.064    26463256.320 5 106556540.15305     -2330.838 5        34.310
E08        17.000    25050874.931 7 131643221.79607      1160.057 7        44.083                                                                    25050876.540 6  98305027.67406       866.316 6        39.399    25050870.963 5 100869476.99905       888.706 5        32.916
E05        21.000    24832177.359 5 130493931.49305     -3261.896 5        33.210                                                                    24832190.348 6  97446835.87506     -2435.696 6        39.820    24832189.633 5  99988831.10205     -2499.189 5        34.295
E13        22.000                                                                                                                                    28192945.130 5 110635147.34505     -2240.569 5        34.157    28192961.237 4                     -2298.819 4        29.147
S23        24.000    38296250.366 6 201248102.74506      -820.086 6        38.102
E03        27.000    23459884.634 7 123282485.54507     -1260.613 7        45.806                                                                    23459888.149 7  92061572.98307      -941.380 7        44.384    23459887.316 7  94463199.70507      -965.923 7        47.184
R11        28.000    19359402.001 8 103450824.69008     -1694.048 8        49.531                                                                    19359404.272 7  80461703.35107     -1317.716 7        42.252
R10        30.000    22510992.334 6 119996254.50206     -4687.671 6        36.008
R12        31.000    21275534.149 6 113650056.66706      2437.958 6        40.355                                                                    21275539.820 6  88394762.73506      1896.003 6        36.242
R08        35.000    22083296.183 5 118254998.85305     -4688.614 5        32.216                                                                    22083304.209 7  91976159.88707     -3646.797 7        43.054
C26        37.000                                                                                                                                    23491180.193 6 122324709.96006      1579.783 6        38.492                                                                    23491180.425 7  99398950.87307      1283.793 7        44.766
R01        38.000    19250648.758 7 102905702.29107     -1152.399 7        45.251                                                                    19250653.156 6  80037794.11306      -896.271 6        40.386
R18        39.000    24334059.598 5 129897038.74405     -2993.274 5        31.924                                                                    24334050.029 5                     -2328.288 5        30.257
C42        41.000                                                                                                                                    23566724.434 7 122718081.97707      1208.618 7        42.842                                                                    23566735.939 7  99718543.26107       982.117 7        42.753
C36        42.000                                                                                                                                    24527745.598 6 127722307.13106     -3602.067 6        37.577                                                                    24527740.040 6 103784784.10606     -2926.927 6        37.217
R02        43.000    21312303.633 8 113726542.46208      2540.161 8        51.805                                                                    21312305.531 7  88453980.59407      1975.696 7        43.187
C40        44.000                                                                                                                                    39150451.451 6 203866709.43906      -189.390 6        36.510                                                                    39150452.394 5 165658369.25405      -153.924 5        34.462
I02        45.000    37755008.537 5 148158775.99905       -86.588 5        35.457
C21        47.000                                                                                                                                    22292552.414 7 116083111.33807     -1837.354 7        47.342                                                                    22292551.481 7  94327021.02707     -1493.069 7        45.837
C45        49.000                                                                                                                                    21803970.482 6 113538938.98006     -1398.538 6        39.727                                                                    21803969.135 7  92259682.48007     -1136.536 7        43.393
C22        50.000                                                                                                                                    24748344.275 5 128870865.30305     -4120.026 5        34.686                                                                    24748346.856 6 104718373.61706     -3347.656 6        38.673
I06        56.000    38212838.037 5 149955411.41105      -685.697 5        34.367
> 2025 01 01 08 31 15.0000000  0 34
G18         1.000    25548103.827 5 134256208.73505     -2402.365 5        35.086                                                                                                    25548103.959 5 104615279.22105     -1871.784 5        33.874
G13         2.000    20094848.627 8 105599277.12308       -57.711 8        49.648                                    20094847.718 6  82285024.04106       -44.971 6        37.440
G30         3.000    21787555.003 7 114494450.32307     -2900.555 7        46.270                                    21787557.674 6  89216453.30006     -2260.161 6        38.243    21787558.197 6  89216385.32006     -2260.203 6        38.288
G14         4.000    20676115.897 7 108653696.37407      -536.545 7        47.444                                    20676115.202 6  84665218.11606      -418.088 6        38.225    20676114.981 7  84665227.11007      -418.058 7        46.677
G07         5.000    24549688.620 4                     -3607.255 4        28.180
G15         6.000    21629587.072 6 113664256.43206      1893.995 6        40.536                                    21629586.945 4  88569555.36204      1475.834 4        28.303    21629587.101 6  88569542.37406      1475.868 6        36.730
G05         7.000    22073779.664 5 115998455.75805     -3214.337 5        34.981                                    22073784.367 4  90388393.60004     -2504.672 4        28.133    22073782.927 5  90388380.57805     -2504.565 5        35.429
G23        10.000    25079408.701 5 131793287.01705      2315.854 5        35.486                                    25079406.329 1 102695976.49001      1804.550 1        10.741    25079404.255 5 102695965.50705      1804.517 5        32.766
G20        11.000    23831825.915 5 125237082.75105     -4361.831 5        35.090
E26        12.000    28324872.229 5                      -944.769 5        31.230                                                                    28324855.252 5 111152885.83605      -705.520 5        33.257    28324855.582 5 114052448.79105      -724.006 5        32.617
E02        13.000    25637402.145 6 134725465.02106      1991.463 6        37.006                                                                    25637403.473 6 100606736.35406      1487.104 6        41.147    25637400.546 6 103231265.96406      1525.914 6        37.180
E25        14.000    23803781.631 7 125089705.31807      -415.288 7        46.989                                                                    23803786.879 8  93411267.57208      -310.153 8        50.641    23803785.472 8  95848004.38508      -318.236 8        50.308
E24        15.000    26466116.933 5 139080525.04905     -3043.572 5        30.543                                                                    26466151.835 5 103858774.30805     -2272.599 5        30.875    26466151.470 5 106568196.55505     -2331.728 5        34.424
E08        17.000    25049771.127 7 131637423.80707      1158.938 7        44.077                                                                    25049773.423 6  98300698.00606       865.735 6        39.159    25049766.467 5 100865034.33805       888.294 5        32.383
E05        21.000    24835281.786 5 130510242.42705     -3262.693 5        34.467                                                                    24835294.361 6  97459016.10506     -2436.597 6        39.444    24835293.278 5 100001329.06505     -2500.068 5        32.952
E13        22.000    28195877.282 3                     -3005.099 3        19.701                                                                    28195801.579 5 110646352.52705     -2241.444 5        34.676    28195811.977 4                     -2300.197 4        29.185
S23        24.000    38297031.773 6 201252203.20006      -819.998 6        38.234
E03        27.000    23461084.614 7 123288792.58907     -1262.392 7        45.773                                                                    23461088.499 7  92066282.77607      -942.739 7        44.310    23461087.477 7  94468032.36607      -967.267 7        46.803
R11        28.000    19360989.101 8 103459303.60108     -1697.699 8        49.634                                                                    19360991.087 6  80468298.03906     -1320.483 6        41.297
R10        30.000    22515383.676 5 120019695.72605     -4688.784 5        34.519
R12        31.000    21273254.673 6 113637872.98106      2435.419 6        40.396                                                                    21273258.997 5  88385286.53705      1894.195 5        34.886
R08        35.000    22087675.581 5 118278447.65105     -4690.995 5        33.886                                                                    22087683.172 6  91994397.78006     -3648.480 6        41.969
C26        37.000                                                                                                                                    23489661.735 6 122316813.71206      1578.339 6        36.151                                                                    23489663.964 7  99392534.50707      1282.660 7        44.421
R01        38.000    19251729.325 7 102911474.39707     -1156.640 7        45.576                                                                    19251732.726 6  80042283.52906      -899.587 6        40.372
R18        39.000    24336878.269 4 129912013.92204     -2997.047 4        28.976                                                                    24336861.235 5                     -2330.859 5        33.527
C42        41.000                                                                                                                                    23565565.653 7 122712044.03907      1206.462 7        43.325                                                                    23565576.368 7  99713636.94107       980.403 7        42.521
C36        42.000                                                                                                                                    24531204.057 6 127740318.91906     -3603.179 6        37.690                                                                    24531199.078 6 103799420.05306     -2927.393 6        37.183
R02        43.000    21309924.721 8 113713846.51808      2538.056 8        52.192                                                                    21309926.424 7  88444105.97107      1974.034 7        42.163
C40        44.000                                                                                                                                    39150633.343 6 203867659.24506      -190.668 6        36.594                                                                    39150634.928 5 165659141.04305      -154.810 5        34.210
I02        45.000    37755117.564 5 148159209.81605       -87.000 5        35.852
C21        47.000                                                                                                                                    22294318.240 7 116092304.75307     -1840.214 7        47.583                                                                    22294316.723 7  94334491.41507     -1495.162 7        45.287
C45        49.000                                                                                                                                    21805315.685 6 113545936.71906     -1400.677 6        37.467                                                                    21805313.018 7  92265368.69007     -1138.023 7        43.507
C22        50.000                                                                                                                                    24752301.302 5 128891466.56705     -4120.792 5        33.437                                                                    24752303.269 6 104735113.74106     -3348.255 6        38.501
I06        56.000    38213712.097 5 149958839.90305      -685.931 5        34.162
> 2025 01 01 08 31 20.0000000  0 34
G18         1.000    25550389.817 5 134268225.27305     -2404.323 5        34.738                                                                                                    25550390.644 5 104624642.78005     -1873.549 5        32.485
G13         2.000    20094904.371 8 105599570.92608       -59.829 8        50.204                                    20094903.649 6  82285252.97006       -46.622 6        37.777
G30         3.000    21790315.123 7 114508955.37107     -2901.566 7        46.882                                    21790318.168 6  89227755.90406     -2260.959 6        38.541    21790317.316 6  89227687.90906     -2260.806 6        38.468
G14         4.000    20676627.817 8 108656386.31508      -539.405 8        48.038                                    20676626.796 6  84667314.17006      -420.313 6        38.390    20676627.449 7  84667323.16607      -420.298 7        47.013
G07         5.000    24553120.743 4                     -3607.864 4        27.305
G15         6.000    21627784.148 6 113654790.63106      1892.389 6        39.508                                    21627784.867 4  88562179.41504      1474.576 4        27.006    21627784.486 5  88562166.39105      1474.566 5        35.943
G05         7.000    22076838.800 5 116014532.53305     -3216.335 5        35.010                                    22076842.670 4  90400920.92604     -2506.226 4        25.519    22076845.805 5  90400907.90105     -2506.635 5        33.802
G23        10.000    25077206.621 5 131781711.35505      2314.430 5        35.529                                    25077203.532 1 102686956.46201      1803.463 1        11.111    25077204.273 5 102686945.51805      1803.272 5        33.521
G20        11.000    23835976.664 5 125258891.54105     -4362.006 5        35.257
E26        12.000    28325775.094 5                      -947.255 5        31.675                                                                    28325755.450 5 111156418.07805      -707.130 5        34.067    28325753.935 5 114056073.21205      -725.837 5        31.766
E02        13.000    25635507.759 6 134715509.96006      1990.687 6        38.345                                                                    25635508.961 6 100599302.39406      1486.498 6        40.329    25635506.098 6 103223638.06206      1525.188 6        36.960
E25        14.000    23804177.531 7 125091786.66907      -417.348 7        47.591                                                                    23804182.921 8  93412821.82208      -311.630 8        50.883    23804181.624 8  95849599.19008      -319.783 8        50.637
E24        15.000                                                                                                                                    26469047.692 5 103870139.72205     -2273.612 5        30.415    26469047.913 5 106579858.41505     -2332.652 5        35.286
E08        17.000    25048668.117 7 131631630.05707      1158.333 7        43.896                                                                    25048671.040 6  98296371.51506       864.963 6        39.225    25048663.638 5 100860594.97805       887.981 5        31.577
E05        21.000    24838387.128 5 130526557.64205     -3263.226 5        35.938                                                                    24838399.077 6  97471199.53106     -2436.902 6        39.138    24838397.691 5 100013830.31705     -2500.439 5        31.064
E13        22.000                                                                                                                                    28198658.355 5 110657562.95205     -2242.663 5        35.033    28198665.672 5                     -2301.127 5        30.287
S23        24.000    38297810.309 6 201256303.74306      -819.986 6        38.216
E03        27.000    23462286.050 7 123295107.56207     -1263.675 7        45.558                                                                    23462290.271 7  92070998.49307      -943.648 7        44.506    23462289.123 7  94472871.10407      -968.296 7        46.635
R11        28.000    19362578.697 8 103467799.83808     -1700.936 8        49.117                                                                    19362581.118 6  80474906.21506     -1322.879 6        41.492
R10        30.000    22519784.094 5 120043141.30005     -4689.340 5        33.174
R12        31.000    21270977.249 6 113625700.80506      2433.318 6        39.345                                                                    21270981.139 5  88375819.31005      1892.484 5        32.988
R08        35.000    22092057.126 6 118301905.84406     -4692.387 6        36.420                                                                    22092063.087 6  92012642.94206     -3649.720 6        41.077
C26        37.000                                                                                                                                    23488145.999 6 122308924.70006      1577.190 6        36.072                                                                    23488148.882 7  99386124.06507      1281.498 7        44.045
R01        38.000    19252813.096 7 102917266.85507     -1160.377 7        45.189                                                                    19252816.759 6  80046788.76306      -902.510 6        40.720
R18        39.000                                                                                                                                    24339669.705 5                     -2333.550 5        32.790
C42        41.000                                                                                                                                    23564409.338 7 122706016.06207      1204.704 7        44.008                                                                    23564418.733 7  99708738.71007       978.736 7        42.332
C36        42.000                                                                                                                                    24534664.518 6 127758334.06506     -3603.314 6        37.074                                                                    24534658.564 6 103814058.81006     -2928.247 6        36.998
R02        43.000    21307547.811 8 113701160.25708      2536.385 8        52.874                                                                    21307549.702 6  88434238.86506      1972.817 6        41.671
C40        44.000                                                                                                                                    39150816.389 6 203868614.11606      -191.354 6        36.529                                                                    39150818.044 5 165659916.96805      -155.565 5        34.248
I02        45.000    37755228.968 5 148159644.92605       -86.904 5        35.786
C21        47.000                                                                                                                                    22296086.434 7 116101511.39607     -1842.509 7        47.457                                                                    22296084.405 7  94341972.56707     -1497.412 7        44.513
C45        49.000                                                                                                                                    21806662.402 5 113552944.80705     -1402.412 5        35.305                                                                    21806658.914 7  92271063.32907     -1139.827 7        43.592
C22        50.000                                                                                                                                    24756258.312 5 128912072.63005     -4121.547 5        31.970                                                                    24756260.740 6 104751857.79606     -3349.301 6        38.351
I06        56.000    38214586.390 5 149962268.53705      -685.511 5        34.267
> 2025 01 01 08 31 25.0000000  0 34
G18         1.000    25552678.602 5 134280253.26505     -2406.843 5        35.424                                                                                                    25552676.338 5 104634015.23705     -1875.892 5        31.509
G13         2.000    20094962.600 8 105599876.60808       -62.405 8        50.782                                    20094961.776 6  82285491.16106       -48.627 6        37.675
G30         3.000    21793077.124 7 114523466.48107     -2902.951 7        47.444                                    21793079.793 6  89239063.24806     -2262.034 6        38.532    21793078.351 6  89238995.26106     -2262.054 6        38.709
G14         4.000    20677142.725 8 108659091.44808      -542.618 8        48.005                                    20677141.417 6  84669422.06106      -422.816 6        38.387    20677142.511 7  84669431.06007      -422.825 7        47.933
G07         5.000    24556548.541 4                     -3608.017 4        27.401
G15         6.000    21625985.099 6 113645334.65106      1890.203 6        38.147                                    21625984.825 4  88554811.08904      1472.881 4        24.632    21625984.915 5  88554798.08005      1472.724 5        35.181
G05         7.000    22079902.965 6 116030621.99306     -3219.297 6        39.000                                    22079902.427 3  90413458.14303     -2508.542 3        23.733    22079914.206 5  90413445.15505     -2508.474 5        31.170
G23        10.000    25075004.993 5 131770143.54105      2312.552 5        35.224                                    25075002.282 1 102677942.54501      1802.019 1         9.143    25075003.161 5 102677931.59605      1802.086 5        33.174
G20        11.000    23840127.746 5 125280703.11205     -4362.729 5        35.281
E26        12.000    28326680.405 5                      -949.776 5        31.004                                                                    28326657.750 5 111159959.17605      -709.246 5        34.086    28326653.511 5 114059706.63905      -727.625 5        32.180
E02        13.000    25633613.958 6 134705560.12406      1989.423 6        38.958                                                                    25633615.452 6 100591872.35006      1485.449 6        39.450    25633612.683 6 103216014.18006      1524.312 6        36.412
E25        14.000    23804575.810 8 125093879.17208      -419.774 8        48.022                                                                    23804581.083 8  93414384.39808      -313.422 8        51.045    23804579.812 8  95851202.53508      -321.573 8        50.618
E24        15.000    26471946.239 5 139110971.21305     -3046.159 5        35.157                                                                    26471945.586 4 103881510.10904     -2275.487 4        29.431    26471946.232 5 106591525.41005     -2333.989 5        35.662
E08        17.000    25047566.636 7 131625840.15107      1157.375 7        42.999                                                                    25047569.588 6  98292047.88506       864.297 6        38.973    25047562.402 5 100856158.56005       886.910 5        30.845
E05        21.000    24841493.994 5 130542876.76605     -3264.362 5        35.862                                                                    24841504.654 6  97483385.86806     -2437.680 6        38.544    24841502.465 4 100026334.52304     -2500.983 4        29.630
E13        22.000    28201509.733 4                     -3004.033 4        24.812                                                                    28201516.012 5 110668778.19505     -2243.676 5        35.148    28201521.626 5                     -2302.176 5        31.004
S23        24.000    38298590.201 6 201260403.87306      -820.126 6        37.868
E03        27.000    23463489.023 7 123301430.06607     -1265.376 7        44.962                                                                    23463493.442 7  92075719.83307      -944.824 7        44.248    23463492.153 7  94477715.61207      -969.541 7        46.233
R11        28.000    19364171.727 8 103476313.02708     -1704.408 8        49.674                                                                    19364174.013 7  80481527.59807     -1325.759 7        43.024
R10        30.000    22524185.612 5 120066590.78505     -4690.544 5        32.311
R12        31.000    21268700.209 6 113613539.76706      2431.028 6        38.931                                                                    21268704.746 5  88366360.73905      1890.684 5        32.060
R08        35.000    22096441.409 6 118325373.03006     -4694.390 6        36.911                                                                    22096445.105 6  92030895.11206     -3651.161 6        40.424
C26        37.000                                                                                                                                    23486633.603 6 122301042.58506      1575.613 6        38.706                                                                    23486634.861 7  99379719.21907      1280.314 7        43.469
R01        38.000    19253899.563 7 102923079.10107     -1164.584 7        44.912                                                                    19253903.916 6  80051309.39006      -905.687 6        40.136
R18        39.000                                                                                                                                    24342477.451 5 101065865.47515     -2335.983 5        30.430
C42        41.000                                                                                                                                    23563253.494 7 122699997.63807      1202.676 7        44.581                                                                    23563262.920 7  99703848.26807       977.140 7        42.375
C36        42.000                                                                                                                                    24538124.434 6 127776352.18706     -3603.961 6        36.227                                                                    24538118.522 6 103828699.94906     -2928.480 6        36.435
R02        43.000    21305172.269 8 113688483.26208      2534.367 8        53.071                                                                    21305175.340 6  88424378.98306      1971.239 6        41.793
C40        44.000                                                                                                                                    39151000.893 6 203869573.66906      -192.585 6        36.711                                                                    39151002.136 5 165660696.68805      -156.523 5        34.000
I02        45.000    37755340.221 6 148160080.85606       -87.789 6        36.042
C21        47.000                                                                                                                                    22297857.063 7 116110730.83107     -1845.262 7        47.136                                                                    22297854.804 7  94349464.11007     -1499.487 7        43.992
C45        49.000                                                                                                                                    21808013.128 5 113559962.82605     -1404.849 5        34.605                                                                    21808006.868 7  92276766.02607     -1141.489 7        43.769
C22        50.000                                                                                                                                    24760215.833 5 128932683.03905     -4122.813 5        30.257                                                                    24760218.766 6 104768605.38706     -3349.918 6        38.426
I06        56.000    38215459.659 5 149965697.02405      -685.680 5        33.880
> 2025 01 01 08 31 30.0000000  0 34
G18         1.000    25554968.223 5 134292293.55205     -2409.344 5        35.648                                                                                                    25554966.099 4 104643397.23304     -1877.151 4        29.460
G13         2.000    20095023.112 8 105600195.10908       -65.045 8        51.089                                    20095022.236 6  82285739.33806       -50.685 6        37.486
G30         3.000    21795839.577 7 114537984.57107     -2904.486 7        47.540                                    21795842.692 6  89250376.02906     -2263.230 6        38.664    21795841.099 6  89250308.03906     -2263.400 6        38.997
G14         4.000    20677660.355 7 108661812.69507      -545.975 7        47.041                                    20677659.249 6  84671542.50606      -425.433 6        38.417    20677660.225 8  84671551.50608      -425.355 8        48.398
G07         5.000    24559980.391 4                     -3608.474 4        25.850
G15         6.000    21624187.316 5 113635889.28105      1888.106 5        35.605                                    21624187.179 3  88547451.03903      1471.254 3        22.629    21624187.499 5  88547438.03905      1470.909 5        34.476
G05         7.000    22082968.254 6 116046725.11506     -3222.140 6        40.725                                    22082964.313 3  90426005.99103     -2510.752 3        23.048
G23        10.000    25072804.946 5 131758584.53405      2311.134 5        35.314                                    25072802.436 1 102668935.49401      1800.901 1         8.667    25072805.829 5 102668924.57305      1800.539 5        33.263
G20        11.000    23844279.288 5 125302518.33605     -4363.468 5        35.338
E26        12.000    28327593.622 5                      -952.209 5        31.600                                                                    28327562.409 5 111163509.77105      -711.020 5        34.624    28327556.118 5 114063349.84705      -729.387 5        31.608
E02        13.000    25631721.381 6 134695616.42706      1987.954 6        39.655                                                                    25631722.957 6 100584446.88306      1484.627 6        38.417    25631720.275 5 103208395.00305      1523.344 5        35.995
E25        14.000    23804976.179 8 125095983.70208      -422.178 8        48.311                                                                    23804981.505 8  93415955.96508      -315.279 8        50.982    23804980.285 8  95852815.10608      -323.514 8        50.496
E24        15.000    26474841.860 6 139126205.28606     -3047.645 6        36.465                                                                    26474843.875 4 103892886.11404     -2275.873 4        28.512    26474845.431 5 106603198.23705     -2335.290 5        35.957
E08        17.000    25046466.124 7 131620055.00307      1156.320 7        42.146                                                                    25046468.616 6  98287727.80606       863.506 6        38.691    25046462.213 5 100851725.78705       885.797 5        30.619
E05        21.000    24844600.784 5 130559200.64405     -3265.284 5        35.609                                                                    24844610.897 6  97495575.75906     -2438.195 6        37.463    24844607.355 4 100038842.40404     -2502.013 4        27.880
E13        22.000    28204367.918 4                     -3005.597 4        27.389                                                                    28204374.528 5 110679999.00405     -2244.625 5        34.952    28204377.803 5                     -2303.315 5        31.796
S23        24.000    38299370.789 6 201264504.55106      -820.213 6        38.234
E03        27.000    23464693.865 7 123307761.00707     -1267.159 7        44.618                                                                    23464698.308 7  92080447.48307      -946.191 7        44.036    23464696.700 7  94482566.58807      -970.951 7        45.530
R11        28.000    19365768.752 8 103484844.06008     -1708.086 8        50.407                                                                    19365770.746 7  80488162.85107     -1328.527 7        45.159
R10        30.000    22528588.431 5 120090045.04905     -4691.485 5        32.240
R12        31.000    21266426.371 6 113601390.86606      2428.472 6        40.632                                                                    21266430.706 5  88356911.61605      1888.806 5        33.365
R08        35.000    22100826.998 6 118348850.00206     -4696.204 6        36.102                                                                    22100829.073 6  92049154.93606     -3652.821 6        40.415
C26        37.000                                                                                                                                    23485119.897 6 122293168.21806      1573.973 6        40.338                                                                    23485122.152 7  99373320.65607      1279.135 7        42.764
R01        38.000    19254990.401 7 102928912.26007     -1168.800 7        45.147                                                                    19254995.220 6  80055846.28106      -909.038 6        39.480
R18        39.000    24345262.998 4                     -3005.827 4        26.431                                                                    24345290.396 4 101077551.21504     -2338.312 4        28.218
C42        41.000                                                                                                                                    23562100.017 7 122693989.69207      1200.477 7        45.293                                                                    23562109.169 7  99698966.29107       975.573 7        42.381
C36        42.000                                                                                                                                    24541585.996 5 127794374.17505     -3604.918 5        34.895                                                                    24541579.164 6 103843344.24306     -2928.917 6        36.280
R02        43.000    21302798.081 8 113675816.69708      2532.220 8        52.763                                                                    21302801.409 7  88414527.21707      1969.521 7        42.299
C40        44.000                                                                                                                                    39151185.100 6 203870538.79506      -193.716 6        36.639                                                                    39151187.677 5 165661480.90205      -157.289 5        34.190
I02        45.000    37755451.560 6 148160518.62106       -87.930 6        36.291
C21        47.000                                                                                                                                    22299630.612 7 116119963.99007     -1848.112 7        46.681                                                                    22299627.954 7  94356966.75007     -1501.527 7        43.276
C45        49.000                                                                                                                                    21809363.312 5 113566991.62705     -1406.922 5        34.090                                                                    21809356.703 7  92282477.48607     -1143.165 7        43.754
C22        50.000                                                                                                                                    24764175.007 4 128953298.72304     -4124.090 4        29.460                                                                    24764178.108 6 104785357.21806     -3350.737 6        38.498
I06        56.000    38216333.657 5 149969126.06805      -685.947 5        33.892
> 2025 01 01 08 31 35.0000000  0 34
G18         1.000    25557261.334 5 134304345.65905     -2411.593 5        35.643                                                                                                    25557260.342 4 104652788.50904     -1879.719 4        25.188
G13         2.000    20095085.902 8 105600525.90008       -67.580 8        51.012                                    20095085.005 6  82285997.10006       -52.661 6        37.437
G30         3.000    21798603.263 7 114552509.13607     -2905.700 7        46.848                                    21798606.794 6  89261693.85806     -2264.181 6        38.841    21798604.552 6  89261625.86006     -2264.214 6        39.057
G14         4.000    20678181.039 7 108664549.57507      -549.138 7        46.154                                    20678180.193 6  84673675.13706      -427.897 6        38.366    20678181.057 8  84673684.13108      -427.868 8        48.724
G07         5.000    24563417.105 3                     -3608.433 3        19.851
G15         6.000    21622390.574 5 113626454.10005      1885.917 5        33.329                                    21622391.769 3  88540098.96203      1469.552 3        21.167    21622393.061 5  88540085.97405      1469.355 5        33.353
G05         7.000    22086033.936 6 116062841.34006     -3224.715 6        41.738                                    22086029.243 3  90438564.04803     -2512.756 3        23.924    22086066.747 3                     -2507.590 3        19.940
G23        10.000    25070605.581 5 131747033.91305      2309.326 5        34.890                                    25070604.039 1 102659934.96601      1799.449 1         8.000    25070611.180 5 102659924.10205      1799.301 5        31.887
G20        11.000    23848430.197 6 125324336.76506     -4364.042 6        36.064
E26        12.000                                                                                                                                    28328469.511 5 111167069.53105      -712.857 5        35.043    28328463.908 5 114067002.50405      -731.473 5        30.898
E02        13.000    25629830.187 6 134685678.38306      1986.918 6        39.877                                                                    25629831.598 6 100577025.66306      1483.698 6        37.108    25629828.922 5 103200780.16005      1522.426 5        35.490
E25        14.000    23805378.752 8 125098099.81408      -424.597 8        48.241                                                                    23805384.157 8  93417536.17908      -317.040 8        51.054    23805382.920 8  95854436.54508      -325.307 8        50.367
E24        15.000    26477741.195 6 139141446.47806     -3049.379 6        36.945                                                                    26477744.171 4 103904267.50504     -2277.547 4        27.820    26477746.139 6 106614876.51206     -2336.313 6        36.416
E08        17.000    25045366.178 6 131614274.14506      1155.572 6        41.962                                                                    25045368.361 6  98283410.92406       862.825 6        38.736    25045362.760 5 100847296.30005       885.193 5        30.241
E05        21.000    24847706.228 5 130575528.85905     -3266.116 5        35.343                                                                    24847717.865 6  97507768.89506     -2439.126 6        36.703
E13        22.000    28207232.430 4                     -3007.689 4        26.910                                                                    28207234.232 5 110691225.00405     -2245.805 5        34.229    28207235.707 5                     -2304.292 5        32.024
S23        24.000    38300151.991 6 201268605.19206      -820.160 6        38.054
E03        27.000    23465900.684 7 123314099.93207     -1268.811 7        44.287                                                                    23465904.555 7  92085181.08907      -947.448 7        43.850    23465902.722 7  94487423.67207      -972.075 7        44.918
R11        28.000    19367368.990 8 103493392.48108     -1711.587 8        50.704                                                                    19367370.391 7  80494811.61807     -1331.205 7        45.916
R10        30.000    22532991.939 5 120113503.64205     -4692.007 5        31.615
R12        31.000    21264155.270 7 113589253.65607      2426.076 7        42.432                                                                    21264160.772 5  88347471.55905      1886.856 5        35.929
R08        35.000    22105210.486 5 118372336.34305     -4698.595 5        34.429                                                                    22105215.535 6  92067422.03906     -3654.192 6        41.945
C26        37.000                                                                                                                                    23483610.432 6 122285301.18206      1572.584 6        40.868                                                                    23483611.010 7  99366928.09507      1277.875 7        42.051
R01        38.000    19256085.983 7 102934765.79907     -1172.987 7        45.586                                                                    19256089.237 6  80060399.02706      -912.351 6        38.847
R18        39.000                                                                                                                                    24348109.472 4                     -2341.221 4        27.054
C42        41.000                                                                                                                                    23560948.773 7 122687991.75507      1198.425 7        46.006                                                                    23560957.325 7  99694092.49907       973.931 7        42.364
C36        42.000                                                                                                                                    24545046.950 5 127812399.54705     -3605.949 5        32.251                                                                    24545040.831 5 103857991.35305     -2929.781 5        35.714
R02        43.000    21300425.404 8 113663159.71408      2530.190 8        51.920                                                                    21300429.995 7  88404682.89407      1967.982 7        42.944
C40        44.000                                                                                                                                    39151371.430 6 203871508.99406      -194.671 6        36.885                                                                    39151373.957 5 165662269.30705      -158.060 5        34.233
I02        45.000    37755564.038 6 148160957.40606       -87.903 6        36.359
C21        47.000                                                                                                                                    22301406.603 7 116129210.38707     -1850.767 7        46.313                                                                    22301403.689 7  94364480.20907     -1503.799 7        42.413
C45        49.000                                                                                                                                    21810714.471 5 113574030.76305     -1409.036 5        34.129                                                                    21810708.632 7  92288197.39307     -1144.828 7        43.625
C22        50.000                                                                                                                                    24768135.738 4 128973919.10204     -4124.399 4        28.995                                                                    24768138.226 6 104802112.98706     -3351.534 6        38.234
I06        56.000    38217207.665 5 149972555.26705      -685.980 5        33.713
> 2025 01 01 08 31 40.0000000  0 33
G18         1.000    25559556.938 5 134316409.16005     -2413.679 5        33.557                                    25559550.917 1 104662088.65511     -1880.792 1         3.800
G13         2.000    20095150.961 8 105600868.58608       -69.664 8        50.945                                    20095149.977 6  82286264.13206       -54.284 6        37.433
G30         3.000    21801368.430 7 114567039.75907     -2906.742 7        46.576                                    21801371.983 6  89273016.41106     -2264.990 6        39.030    21801369.502 6  89272948.40606     -2264.785 6        39.357
G14         4.000    20678704.667 7 108667301.64607      -551.848 7        46.158                                    20678704.191 6  84675819.60206      -430.014 6        38.330    20678704.692 8  84675828.60408      -429.984 8        48.952
G15         6.000    21620597.694 5 113617028.76305      1884.291 5        30.075                                    21620598.286 3  88532754.48603      1468.274 3        18.746    21620599.474 5  88532741.49105      1468.344 5        33.946
G05         7.000    22089102.170 6 116078970.25706     -3226.950 6        41.716                                    22089097.648 4  90451131.99004     -2514.493 4        25.038    22089089.175 4                     -2514.664 4        25.143
G23        10.000    25068410.199 5 131735491.23005      2307.832 5        34.043                                    25068407.157 1 102650940.69301      1798.329 1         6.250    25068415.453 5 102650929.77705      1798.359 5        30.279
G20        11.000    23852582.752 6 125346157.88406     -4364.285 6        36.870
E26        12.000    28329422.583 4                      -956.594 4        25.504                                                                    28329379.285 5 111170638.17105      -714.550 5        35.538    28329373.710 5 114070664.26205      -733.216 5        31.004
E02        13.000    25627939.711 6 134675745.60906      1986.064 6        40.133                                                                    25627941.048 6 100569608.38706      1483.085 6        36.102    25627939.089 5 103193169.36905      1522.005 5        35.433
E25        14.000    23805783.215 8 125100227.08008      -426.513 8        48.574                                                                    23805789.029 8  93419124.72208      -318.528 8        51.006    23805787.637 8  95856066.53208      -326.826 8        50.341
E24        15.000    26480643.319 6 139156694.34306     -3050.175 6        37.172                                                                    26480645.654 4 103915653.76404     -2277.395 4        27.210    26480647.971 6 106626559.89706     -2337.184 6        37.149
E08        17.000    25044265.961 6 131608497.16506      1155.043 6        41.371                                                                    25044268.693 6  98279096.95406       862.407 6        38.712    25044263.315 4 100842869.79504       884.839 4        29.204
E05        21.000    24850812.594 5 130591860.97505     -3266.655 5        35.410                                                                    24850825.120 5  97519964.92505     -2439.352 5        35.786    24850821.494 4 100063867.74504     -2502.643 4        24.902
E13        22.000    28210096.464 4                     -3008.610 4        26.156                                                                    28210095.082 5 110702455.83505     -2246.565 5        34.295    28210096.638 5                     -2305.230 5        32.335
S23        24.000    38300931.207 6 201272705.52506      -820.153 6        38.090
E03        27.000    23467108.215 7 123320446.38807     -1269.847 7        44.045                                                                    23467112.213 7  92089920.33107      -948.495 7        43.570    23467110.180 7  94492286.54507      -973.157 7        44.448
R11        28.000    19368971.792 8 103501957.75608     -1714.673 8        50.622                                                                    19368972.438 7  80501473.49307     -1333.688 7        45.278
R10        30.000    22537396.002 4 120136966.21204     -4692.862 4        29.081
R12        31.000    21261885.846 7 113577127.63107      2424.168 7        42.736                                                                    21261890.677 6  88338040.20606      1885.452 6        37.690
R08        35.000    22109594.219 5 118395831.56905     -4699.845 5        34.029                                                                    22109603.788 7  92085696.09307     -3655.382 7        42.694
C26        37.000                                                                                                                                    23482103.003 6 122277441.08806      1571.331 6        41.023                                                                    23482101.359 6  99360541.11406      1277.011 6        41.614
R01        38.000    19257185.402 7 102940639.23707     -1176.626 7        46.244                                                                    19257188.600 6  80064967.23106      -915.062 6        39.096
R18        39.000                                                                                                                                    24350932.029 4                     -2343.344 4        29.991
C42        41.000                                                                                                                                    23559798.371 7 122682003.43607      1196.722 7        46.234                                                                    23559807.625 7  99689226.48207       972.466 7        42.753
C36        42.000                                                                                                                                    24548512.030 4 127830427.85404     -3605.507 4        27.784                                                                    24548503.300 5 103872640.82205     -2929.944 5        35.586
R02        43.000    21298054.768 8 113650512.36908      2528.614 8        51.639                                                                    21298059.141 7  88394846.05807      1966.869 7        43.177
C40        44.000                                                                                                                                    39151558.393 6 203872483.88106      -195.382 6        37.214                                                                    39151561.001 5 165663061.46805      -158.663 5        34.176
I02        45.000    37755675.886 6 148161397.18706       -87.940 6        36.722
C21        47.000                                                                                                                                    22303184.961 7 116138469.58807     -1853.035 7        46.099                                                                    22303181.642 6  94372004.03006     -1505.739 6        41.785
C45        49.000                                                                                                                                    21812066.591 5 113581079.88505     -1410.729 5        32.838                                                                    21812062.378 7  92293925.33907     -1146.300 7        43.431
C22        50.000                                                                                                                                    24772096.317 4 128994543.95904     -4124.994 4        28.853                                                                    24772099.448 6 104818872.27706     -3352.323 6        37.981
I06        56.000    38218079.788 5 149975984.34805      -685.639 5        33.778
> 2025 01 01 08 31 45.0000000  0 33
G18         1.000    25561852.584 4 134328484.42404     -2416.035 4        28.806                                    25561849.515 1 104671497.91601     -1882.336 1         2.200
G13         2.000    20095218.578 8 105601223.54108       -72.359 8        50.746                                    20095217.239 6  82286540.72206       -56.386 6        37.176
G30         3.000    21804134.619 7 114581576.77707     -2908.127 7        46.044                                    21804138.325 6  89284343.94806     -2266.072 6        39.063    21804135.917 6  89284275.95506     -2266.071 6        39.601
G14         4.000    20679231.244 7 108670069.26907      -555.215 7        46.191                                    20679231.132 6  84677976.18906      -432.641 6        37.966    20679231.449 8  84677985.19208      -432.614 8        49.055
G15         6.000    21618800.713 4                      1882.477 4        25.414                                                                                                    21618809.230 5  88525404.89805      1466.675 5        35.257
G05         7.000    22092173.065 7 116095112.27307     -3229.724 7        42.317                                    22092169.362 4  90463710.15104     -2516.655 4        26.515    22092173.901 5                     -2516.746 5        31.713
G23        10.000    25066212.952 5 131723956.82405      2305.858 5        32.425                                    25066211.855 1 102641952.81201      1796.715 1         7.125    25066220.824 4 102641941.91604      1796.976 4        28.654
G20        11.000    23856735.802 6 125367982.06106     -4365.086 6        37.698
E26        12.000    28330323.754 3                      -959.893 3        22.876                                                                    28330290.848 6 111174215.86106      -716.358 6        36.212    28330286.127 5 114074335.29605      -735.185 5        31.343
E02        13.000    25626050.265 6 134665818.43506      1984.659 6        40.551                                                                    25626050.565 5 100562195.26405      1482.210 5        34.819    25626050.687 5 103185562.86105      1520.672 5        35.810
E25        14.000    23806190.250 8 125102365.83308      -428.984 8        48.935                                                                    23806196.036 8  93420721.83208      -320.287 8        51.224    23806194.602 8  95857705.31908      -328.750 8        50.435
E24        15.000    26483546.067 6 139171949.21706     -3051.947 6        36.469                                                                    26483548.706 4 103927045.38004     -2279.107 4        27.820    26483551.626 6 106638248.67406     -2338.288 6        38.021
E08        17.000    25043166.816 6 131602724.38106      1154.032 6        41.213                                                                    25043169.581 6  98274786.12706       861.777 6        38.859    25043164.903 4 100838446.48704       884.076 4        29.185
E05        21.000    24853920.844 5 130608197.32805     -3267.634 5        35.690                                                                    24853933.356 5  97532164.08905     -2440.422 5        34.990    24853929.763 4 100076385.21904     -2504.905 4        25.158
E13        22.000    28212961.241 4                     -3010.632 4        24.541                                                                    28212957.927 5 110713691.83805     -2247.903 5        34.290    28212957.685 5                     -2306.257 5        32.940
S23        24.000    38301710.271 6 201276805.82906      -820.195 6        38.018
E03        27.000    23468317.304 7 123326800.74307     -1271.743 7        44.099                                                                    23468321.528 7  92094665.45007      -949.668 7        43.486    23468319.169 7  94497155.44707      -974.576 7        44.096
R11        28.000    19370577.529 8 103510540.27708     -1718.360 8        50.090                                                                    19370578.869 7  80508148.78807     -1336.552 7        45.366
R10        30.000    22541799.427 4 120160432.94104     -4694.863 4        27.796
R12        31.000    21259617.403 6 113565013.06806      2421.595 6        41.416                                                                    21259622.819 6  88328617.78206      1883.463 6        38.456
R08        35.000    22113983.259 5 118419336.04305     -4702.033 5        33.293                                                                    22113992.025 7  92103977.31707     -3657.180 7        42.825
C26        37.000                                                                                                                                    23480593.642 6 122269588.24106      1569.544 6        40.701                                                                    23480593.230 6  99354160.05106      1275.588 6        41.189
R01        38.000    19258288.193 7 102946532.90207     -1180.901 7        46.440                                                                    19258290.678 6  80069551.17206      -918.235 6        38.724
R18        39.000    24353774.253 5                     -3016.154 5        32.228                                                                    24353758.996 5 101112684.63115     -2346.234 5        31.615
C42        41.000                                                                                                                                    23558649.320 7 122676025.05607      1194.616 7        46.281                                                                    23558659.577 7  99684368.57407       970.826 7        43.048
C36        42.000                                                                                                                                    24551972.582 3                     -3607.071 3        20.905                                                                    24551966.038 5 103887293.04105     -2930.431 5        34.743
R02        43.000    21295687.031 8 113637874.63108      2526.402 8        51.710                                                                    21295691.181 7  88385016.71207      1964.981 7        44.120
C40        44.000                                                                                                                                    39151746.283 6 203873463.78206      -196.566 6        37.913                                                                    39151749.332 5 165663857.76505      -159.877 5        33.916
I02        45.000    37755787.460 6 148161838.47906       -88.441 6        36.960
C21        47.000                                                                                                                                    22304965.507 7 116147741.93807     -1855.955 7        45.687                                                                    22304962.178 6  94379538.57606     -1507.971 6        40.908
C45        49.000                                                                                                                                    21813420.661 5 113588139.23705     -1413.123 5        33.419                                                                    21813417.812 7  92299661.65207     -1148.087 7        43.079
C22        50.000                                                                                                                                    24776057.208 4 129015173.38504     -4126.399 4        28.275                                                                    24776061.442 6 104835635.36106     -3352.968 6        37.554
I06        56.000    38218954.329 5 149979413.50405      -685.899 5        33.856
> 2025 01 01 08 31 50.0000000  0 34
G18         1.000    25564152.809 4 134340571.48904     -2418.773 4        27.689                                    25564150.630 1 104680916.77201     -1884.725 1         3.600
G13         2.000    20095288.620 8 105601590.88008       -74.721 8        50.831                                    20095286.809 6  82286826.96606       -58.224 6        36.998
G30         3.000    21806902.011 7 114596120.32907     -2909.446 7        45.102                                    21806905.862 6  89295676.57406     -2267.094 6        39.075    21806904.128 6  89295608.57206     -2267.135 6        39.712
G14         4.000    20679760.316 7 108672852.54907      -558.265 7        45.711                                    20679761.001 6  84680144.98406      -435.011 6        37.637    20679761.064 8  84680153.98508      -434.975 8        49.120
G07         5.000    24573735.441 3                     -3608.928 3        21.310
G15         6.000    21617004.869 3                      1881.348 3        23.505                                                                                                    21617020.205 6  88518076.35206      1464.888 6        37.176
G05         7.000    22095247.021 7 116111267.41407     -3232.355 7        42.864                                    22095244.171 4  90476298.53304     -2518.703 4        28.379    22095251.670 5                     -2521.647 5        34.176
G23        10.000    25064020.851 5 131712430.85805      2304.032 5        31.992                                    25064018.260 1 102632971.50101      1795.329 1         7.875    25064027.537 4 102632960.64904      1795.324 4        27.677
G20        11.000    23860889.861 6 125389809.39906     -4365.720 6        38.150
E26        12.000                                                                                                                                    28331205.196 6 111177802.77706      -718.361 6        36.699    28331200.775 5 114078015.78005      -737.076 5        31.804
E02        13.000    25624162.056 6 134655896.99606      1983.667 6        40.808                                                                    25624162.116 5 100554786.43105      1481.322 5        34.248    25624162.684 6 103177960.75606      1519.852 6        36.159
E25        14.000    23806599.840 8 125104516.20108      -431.244 8        49.362                                                                    23806605.255 8  93422327.63008      -322.090 8        51.500    23806603.717 8  95859352.99908      -330.432 8        50.289
E24        15.000    26486450.266 5 139187211.20405     -3053.157 5        35.652                                                                    26486452.770 4 103938442.29404     -2280.065 4        27.689    26486456.314 6 106649942.90006     -2339.369 6        38.589
E08        17.000    25042069.011 6 131596955.95406      1153.265 6        41.046                                                                    25042071.489 6  98270478.53906       861.319 6        38.979    25042067.637 4 100834026.51304       883.653 4        28.919
E05        21.000    24857031.205 5 130624538.01105     -3268.663 5        35.919                                                                    24857042.760 5  97544366.50405     -2440.730 5        34.224    24857039.262 4 100088905.93504     -2504.058 4        24.752
E13        22.000    28215822.999 3                     -3010.761 3        23.276                                                                    28215822.540 5 110724933.00205     -2249.050 5        34.271    28215822.143 5                     -2307.484 5        33.216
S23        24.000    38302494.182 6 201280906.18006      -820.163 6        38.258
E03        27.000    23469528.587 7 123333163.11607     -1273.316 7        44.161                                                                    23469532.344 7  92099416.57107      -950.955 7        43.530    23469529.785 7  94502030.48907      -975.624 7        43.327
R11        28.000    19372186.630 8 103519140.17608     -1721.759 8        49.439                                                                    19372188.783 7  80514837.61407     -1339.066 7        46.359
R10        30.000    22546204.650 4 120183903.73504     -4694.962 4        25.173
R12        31.000    21257351.042 6 113552910.20306      2419.412 6        39.793                                                                    21257356.749 6  88319204.48606      1881.739 6        39.381
R08        35.000    22118375.139 5 118442849.93105     -4703.670 5        34.310                                                                    22118384.265 7  92122265.85107     -3658.453 7        42.741
C26        37.000                                                                                                                                    23479084.917 6 122261742.76106      1568.213 6        40.636                                                                    23479086.926 6  99347784.93906      1274.483 6        41.178
R01        38.000    19259393.912 7 102952446.99907     -1184.824 7        46.016                                                                    19259397.128 6  80074151.01906      -921.500 6        37.425
R18        39.000    24356602.384 5                     -3019.456 5        30.958                                                                    24356590.003 5 101124421.15505     -2348.512 5        33.335
C42        41.000                                                                                                                                    23557502.653 7 122670056.75907      1192.628 7        46.201                                                                    23557513.603 7  99679518.82707       969.238 7        43.647
C36        42.000                                                                                                                                                                                                                                                                    24555429.735 5 103901948.00805     -2931.148 5        34.281
R02        43.000    21293320.992 8 113625246.89808      2524.474 8        51.761                                                                    21293324.811 7  88375195.13707      1963.464 7        44.968
C40        44.000                                                                                                                                    39151934.396 6 203874448.83506      -197.624 6        38.030                                                                    39151938.527 5 165664658.19205      -160.226 5        34.067
I02        45.000    37755901.276 6 148162280.97306       -88.520 6        36.786
C21        47.000                                                                                                                                    22306749.103 7 116157027.55607     -1858.397 7        44.862                                                                    22306744.828 6  94387083.87206     -1510.221 6        40.186
C45        49.000                                                                                                                                    21814777.489 5 113595208.92005     -1415.091 5        34.362                                                                    21814775.029 7  92305406.36507     -1149.731 7        42.870
C22        50.000                                                                                                                                    24780020.524 4 129035807.63704     -4127.298 4        28.455                                                                    24780024.268 6 104852402.33506     -3353.542 6        36.832
I06        56.000    38219828.316 5 149982842.91505      -686.022 5        33.557
> 2025 01 01 08 31 55.0000000  0 34
G18         1.000    25566454.040 4 134352669.76204     -2420.721 4        27.305                                    25566453.126 1 104690343.97901     -1886.403 1         3.200
G13         2.000    20095360.832 8 105601969.96008       -77.031 8        51.188                                    20095358.663 6  82287122.35006       -60.025 6        36.794
G30         3.000    21809670.778 7 114610669.73707     -2910.579 7        44.682                                    21809674.400 6  89307013.76406     -2267.985 6        38.793    21809673.143 6  89306945.76406     -2267.969 6        39.877
G14         4.000    20680292.337 7 108675650.87507      -561.201 7        45.627                                    20680293.616 6  84682325.50006      -437.302 6        37.025    20680293.396 8  84682334.50008      -437.302 8        48.796
G07         5.000    24577181.403 3                     -3611.849 3        19.612                                                                                                    24577186.052 3                     -2812.223 3        22.000
G15         6.000                                                                                                                                                                    21615233.088 6  88510755.37206      1463.493 6        38.336
G05         7.000    22098323.675 7 116127435.06907     -3234.791 7        44.042                                    22098321.890 5  90488896.67505     -2520.611 5        30.392    22098327.423 5  90488959.70915     -2520.816 5        35.643
G23        10.000    25061829.849 5 131700912.67705      2302.988 5        32.683                                    25061826.262 1 102623996.35901      1794.604 1         6.125    25061839.717 4 102623985.39704      1794.362 4        26.335
G20        11.000    23865044.062 6 125411639.24306     -4366.181 6        38.988
E26        12.000                                                                                                                                    28332121.234 6 111181398.40906      -720.035 6        37.115    28332117.140 5 114081705.21105      -738.860 5        31.517
E02        13.000    25622274.535 6 134645980.65506      1982.609 6        40.679                                                                    25622274.757 5 100547381.40005      1480.436 5        34.062    25622275.576 6 103170362.56106      1519.080 6        36.847
E25        14.000    23807011.269 8 125106677.54108      -433.454 8        49.830                                                                    23807016.518 8  93423941.61608      -323.655 8        51.623    23807014.954 8  95861009.09608      -332.155 8        50.216
E24        15.000    26489355.065 5 139202479.68205     -3054.253 5        34.205                                                                    26489359.093 4 103949844.00704     -2280.280 4        28.853    26489362.498 6 106661642.10506     -2340.214 6        38.664
E08        17.000    25040972.849 6 131591191.25606      1152.427 6        41.466                                                                    25040974.205 6  98266173.75406       860.626 6        39.063    25040971.998 4 100829609.36004       883.495 4        28.417
E05        21.000    24860142.207 6 130640882.40106     -3269.334 6        36.019                                                                    24860153.224 5  97556571.69805     -2441.420 5        33.719    24860149.293 4 100101429.56304     -2505.773 4        25.218
E13        22.000    28218684.989 3                     -3013.035 3        22.267                                                                    28218688.746 5 110736178.86705     -2249.520 5        34.843    28218687.291 5                     -2308.268 5        33.156
S23        24.000    38303273.183 6 201285005.86306      -819.936 6        37.913
E03        27.000    23470740.577 7 123339532.86407     -1274.708 7        44.102                                                                    23470744.469 7  92104173.18907      -951.833 7        43.579    23470741.824 7  94506911.20307      -976.830 7        42.902
R11        28.000    19373798.755 8 103527756.78408     -1725.091 8        49.596                                                                    19373800.798 7  80521539.43107     -1341.749 7        46.341
R10        30.000    22550606.312 3                     -4695.121 3        23.124
R12        31.000    21255086.170 6 113540818.46106      2417.196 6        39.760                                                                    21255092.878 6  88309799.80206      1880.091 6        40.441
R08        35.000    22122766.963 6 118466372.55806     -4705.289 6        36.204                                                                    22122776.924 7  92140561.19907     -3659.846 7        42.396
C26        37.000                                                                                                                                    23477582.206 6 122253904.01806      1566.974 6        41.254                                                                    23477581.844 6  99341415.32806      1273.309 6        41.652
R01        38.000    19260503.820 7 102958380.83107     -1188.819 7        45.821                                                                    19260505.667 5  80078766.20805      -924.772 5        35.933
R18        39.000    24359437.550 5                     -3022.521 5        33.575                                                                    24359423.720 5 101136169.94305     -2350.603 5        33.934
C42        41.000                                                                                                                                    23556358.341 7 122664097.90807      1190.702 7        46.012                                                                    23556369.493 7  99674676.80207       967.473 7        44.272
C36        42.000                                                                                                                                                                                                                                                                    24558893.600 5 103916605.25305     -2931.588 5        34.457
R02        43.000    21290956.163 8 113612628.27108      2522.705 8        51.627                                                                    21290960.151 7  88365380.64507      1962.124 7        45.339
C40        44.000                                                                                                                                    39152124.526 6 203875438.41206      -198.524 6        38.036                                                                    39152128.937 5 165665462.32705      -161.359 5        34.314
I02        45.000    37756013.747 6 148162724.09906       -88.725 6        37.096
C21        47.000                                                                                                                                    22308534.765 7 116166325.82107     -1860.868 7        45.091                                                                    22308529.958 6  94394639.46306     -1512.104 6        39.766
C45        49.000                                                                                                                                    21816135.577 5 113602288.37005     -1416.820 5        35.452                                                                    21816134.458 7  92311159.01007     -1151.387 7        42.703
C22        50.000                                                                                                                                    24783985.024 5 129056446.10405     -4128.535 5        30.151                                                                    24783987.822 6 104869172.72106     -3354.520 6        36.253
I06        56.000    38220701.922 5 149986272.04705      -685.884 5        33.784
> 2025 01 01 08 32  0.0000000  0 33
G18         1.000    25568756.917 4 134364780.10604     -2423.522 4        24.647                                                                                                    25568783.682 3                     -1887.732 3        23.029
G13         2.000    20095434.993 8 105602361.66208       -79.440 8        50.849                                    20095432.861 6  82287427.58006       -61.904 6        36.144
G30         3.000    21812440.710 7 114625225.89207     -2911.752 7        44.156                                    21812444.136 6  89318356.20906     -2268.899 6        38.417    21812442.666 6  89318288.20806     -2268.825 6        39.318
G14         4.000    20680827.762 7 108678465.09607      -564.305 7        44.826                                    20680829.093 6  84684518.40106      -439.718 6        36.246    20680828.496 8  84684527.40008      -439.705 8        48.295
G07         5.000                                                                                                                                                                    24580617.455 3                     -2813.377 3        22.476
G15         6.000    21613452.876 5                      1875.876 5        34.586                                                                                                    21613448.009 6  88503442.61306      1461.689 6        38.679
G05         7.000    22101402.329 7 116143616.04207     -3237.328 7        43.479                                    22101402.400 5  90501505.20005     -2522.586 5        32.096    22101406.295 6  90501568.22206     -2522.781 6        37.062
G23        10.000    25059640.847 5 131689403.16505      2301.377 5        31.834                                    25059635.810 1 102615027.80301      1793.284 1         3.800
G20        11.000    23869199.193 6 125433472.45006     -4366.807 6        39.186
E26        12.000    28333033.378 4                      -966.446 4        27.904                                                                    28333039.817 6 111185003.38406      -721.846 6        37.168    28333036.003 5 114085404.24505      -740.997 5        32.096
E02        13.000    25620388.460 6 134636070.30006      1981.573 6        40.331                                                                    25620389.293 5 100539980.84105      1479.838 5        33.922    25620389.947 6 103162768.94906      1518.491 6        37.474
E25        14.000    23807424.750 8 125108850.70608      -435.626 8        49.861                                                                    23807430.184 8  93425564.43608      -325.298 8        51.710    23807428.397 8  95862674.25008      -333.821 8        50.069
E24        15.000    26492261.589 5 139217755.52405     -3055.448 5        32.323                                                                    26492266.276 5 103961251.26605     -2281.593 5        30.023    26492269.578 6 106673346.94406     -2341.511 6        39.396
E08        17.000    25039877.023 6 131585431.12006      1151.842 6        41.437                                                                    25039878.014 6  98261872.37006       860.048 6        39.141    25039876.835 4 100825195.83004       881.931 4        28.360
E05        21.000    24863252.687 5 130657231.39305     -3270.209 5        34.609                                                                    24863264.874 5  97568780.29605     -2441.940 5        33.635    24863260.690 4 100113956.58804     -2505.090 4        24.586
E13        22.000                                                                                                                                    28221555.883 5 110747430.07005     -2250.474 5        34.586    28221553.029 5                     -2309.338 5        32.431
S23        24.000    38304053.669 6 201289105.75906      -819.864 6        37.887
E03        27.000    23471953.937 7 123345910.86907     -1276.266 7        43.958                                                                    23471958.242 7  92108935.97407      -953.002 7        43.501    23471955.489 7  94511798.22007      -977.833 7        42.301
R11        28.000    19375414.643 8 103536390.94108     -1728.416 8        50.041                                                                    19375416.187 7  80528254.89107     -1344.308 7        45.344
R12        31.000    21252825.681 6 113528738.62206      2414.969 6        40.000                                                                    21252831.869 6  88300404.37706      1878.256 6        41.340
R08        35.000    22127162.953 6 118489904.79706     -4707.065 6        38.138                                                                    22127171.229 6  92158863.98106     -3661.176 6        41.843
C26        37.000                                                                                                                                    23476079.519 6 122246072.85106      1565.566 6        40.984                                                                    23476078.193 7  99335051.84507      1272.488 7        42.237
R01        38.000    19261618.368 7 102964335.38407     -1192.853 7        46.671                                                                    19261619.917 5  80083397.51405      -927.803 5        35.229
R18        39.000                                                                                                                                    24362259.740 5 101147931.73415     -2353.435 5        32.599
C42        41.000                                                                                                                                    23555215.933 7 122658149.37407      1188.926 7        45.353                                                                    23555227.230 7  99669843.09907       966.157 7        44.999
C36        42.000                                                                                                                                    24562355.421 3                     -3609.014 3        21.905                                                                    24562358.446 5 103931265.41505     -2931.941 5        34.067
R02        43.000    21288593.220 8 113600019.83808      2520.839 8        51.334                                                                    21288597.459 7  88355574.08407      1960.645 7        45.628
C40        44.000                                                                                                                                    39152315.632 6 203876433.32006      -199.308 6        38.129                                                                    39152320.049 5 165666270.77805      -161.956 5        34.767
I02        45.000    37756128.080 6 148163168.48406       -88.885 6        37.293
C21        47.000                                                                                                                                    22310323.382 7 116175637.54507     -1863.479 7        46.068                                                                    22310317.766 6  94402205.96006     -1514.111 6        39.489
C45        49.000                                                                                                                                    21817495.610 5 113609378.36305     -1419.008 5        35.324                                                                    21817495.985 7  92316920.21607     -1152.953 7        42.542
C22        50.000                                                                                                                                    24787949.685 5 129077089.49405     -4129.004 5        31.849                                                                    24787952.394 5 104885947.14305     -3355.275 5        35.452
I06        56.000    38221576.397 5 149989701.56305      -685.967 5        33.473
> 2025 01 01 08 32  5.0000000  0 34
G18         1.000    25571064.587 4 134376901.84304     -2424.872 4        24.165                                                                                                    25571086.300 3                     -1889.134 3        23.352
G13         2.000    20095511.796 8 105602765.48708       -82.096 8        50.348                                    20095509.397 5  82287742.25305       -63.972 5        35.367
G30         3.000    21815212.050 7 114639788.28607     -2913.261 7        44.179                                    21815215.035 6  89329703.51206     -2270.069 6        38.225    21815214.227 6  89329635.51406     -2270.305 6        38.730
G14         4.000    20681366.325 7 108681294.72407      -567.645 7        44.108                                    20681367.396 5  84686723.30705      -442.319 5        35.452    20681367.183 7  84686732.30107      -442.224 7        47.852
G07         5.000                                                                                                                                                                    24584052.828 3                     -2812.041 3        20.690
G15         6.000    21611665.891 6 113570084.89116      1873.907 6        38.453                                    21611668.863 3  88496174.68013      1460.185 3        23.962    21611662.856 6  88496137.67106      1460.279 6        38.192
G05         7.000    22104483.260 7 116159809.89807     -3240.130 7        43.319                                    22104485.459 5  90514123.76205     -2524.767 5        33.545    22104488.842 6  90514186.76306     -2524.675 6        39.060
G23        10.000    25057450.396 5 131677901.90805      2298.784 5        31.147                                    25057447.067 1 102606065.96801      1791.071 1         1.778    25057481.624 3                      1792.452 3        22.171
G20        11.000    23873354.691 6 125455308.55506     -4367.606 6        39.694
E26        12.000    28333961.298 4                      -968.983 4        28.919                                                                    28333960.288 6 111188617.35306      -723.708 6        37.482    28333957.829 5 114089112.50505      -742.469 5        32.599
E02        13.000    25618503.638 6 134626165.43806      1980.276 6        40.164                                                                    25618505.372 5 100532584.37005      1478.824 5        33.766    25618505.193 6 103155179.53706      1517.501 6        37.860
E25        14.000    23807840.654 8 125111035.23608      -438.164 8        50.094                                                                    23807845.954 8  93427195.73708      -327.191 8        51.941    23807844.100 8  95864348.11008      -335.729 8        49.774
E24        15.000    26495168.306 5 139233038.23405     -3057.271 5        30.981                                                                    26495174.622 5 103972663.63005     -2283.274 5        30.996    26495178.268 6 106685057.02806     -2342.580 6        39.396
E08        17.000    25038781.373 6 131579675.11306      1150.718 6        41.442                                                                    25038782.797 6  98257574.03206       859.362 6        39.640    25038782.584 4 100820785.33004       881.841 4        28.370
E05        21.000    24866364.159 5 130673584.44505     -3271.066 5        33.269                                                                    24866377.644 5  97580991.96005     -2443.049 5        34.333
E13        22.000                                                                                                                                    28224424.029 5 110758686.27305     -2251.636 5        34.452    28224419.978 5                     -2310.475 5        30.219
S23        24.000    38304833.283 6 201293205.45806      -819.975 6        38.222
E03        27.000    23473168.890 7 123352296.62907     -1278.037 7        44.114                                                                    23473173.475 7  92113704.55107      -954.385 7        43.827    23473170.863 6  94516691.18306      -979.272 6        41.774
R11        28.000    19377033.734 8 103545042.16708     -1732.123 8        50.404                                                                    19377034.975 7  80534983.62407     -1347.281 7        44.572
R10        30.000    22559396.896 3                     -4696.216 3        20.976
R12        31.000    21250567.008 6 113516670.18506      2412.445 6        38.877                                                                    21250572.398 7  88291017.83207      1876.384 7        42.453
R08        35.000    22131560.757 6 118513446.08906     -4709.222 6        39.456                                                                    22131567.325 6  92177173.80406     -3662.761 6        41.642
C26        37.000                                                                                                                                    23474576.093 6 122238248.81906      1563.956 6        40.350                                                                    23474576.045 7  99328694.18707      1271.061 7        42.701
R01        38.000    19262736.532 7 102970310.11607     -1197.107 7        47.384                                                                    19262738.094 5  80088044.51005      -931.108 5        35.743
R18        39.000                                                                                                                                    24365088.774 5 101159705.98915     -2356.181 5        30.838
C42        41.000                                                                                                                                    23554075.395 7 122652210.69207      1186.652 7        44.926                                                                    23554086.796 7  99665017.44707       964.380 7        45.436
C36        42.000                                                                                                                                    24565817.986 3                     -3610.644 3        22.914                                                                    24565823.376 5 103945928.18505     -2932.973 5        33.719
R02        43.000    21286232.366 8 113587421.05508      2518.683 8        51.026                                                                    21286236.266 7  88345775.03007      1958.926 7        46.098
C40        44.000                                                                                                                                    39152506.923 6 203877433.13606      -200.529 6        38.114                                                                    39152512.321 5 165667083.20605      -162.740 5        34.781
I02        45.000    37756241.216 6 148163613.83106       -89.348 6        37.221
C21        47.000                                                                                                                                    22312114.588 7 116184962.28607     -1866.354 7        46.825                                                                    22312108.315 6  94409783.06406     -1516.543 6        39.180
C45        49.000                                                                                                                                    21818858.926 5 113616478.47005     -1421.184 5        34.933                                                                    21818859.676 7  92322689.64807     -1154.667 7        42.154
C22        50.000                                                                                                                                    24791913.417 5 129097737.40005     -4130.214 5        33.557                                                                    24791917.809 5 104902725.25505     -3356.312 5        33.964
I06        56.000    38222450.386 5 149993131.06405      -685.921 5        33.509
> 2025 01 01 08 32 10.0000000  0 33
G18         1.000    25573374.591 4 134389035.48904     -2428.117 4        26.192                                                                                                    25573396.572 4                     -1891.397 4        26.299
G13         2.000    20095590.576 8 105603181.61808       -84.370 8        49.573                                    20095588.304 5  82288066.50505       -65.745 5        34.448
G30         3.000    21817984.036 7 114654357.06207     -2914.305 7        44.912                                    21817987.164 6  89341055.78906     -2270.888 6        38.120    21817987.514 6  89340987.76406     -2270.731 6        38.105
G14         4.000    20681907.967 7 108684139.91607      -570.618 7        43.448                                    20681908.628 5  84688940.34205      -444.637 5        34.805    20681908.485 7  84688949.33907      -444.605 7        47.467
G07         5.000                                                                                                                                                                    24587493.880 3                     -2814.228 3        21.048
G15         6.000    21609885.407 6 113560720.59206      1871.961 6        41.375                                    21609884.810 4  88488877.76504      1458.670 4        25.669    21609879.619 6  88488840.77506      1458.565 6        37.108
G05         7.000    22107567.676 7 116176016.69407     -3242.482 7        43.831                                    22107571.021 5  90526752.40005     -2526.602 5        34.824    22107574.411 6  90526815.40306     -2526.620 6        40.422
G23        10.000    25055263.571 4 131666408.97704      2297.709 4        28.777                                    25055259.724 1 102597110.22201      1790.640 1         1.333    25055294.281 3                      1790.528 3        22.590
G20        11.000    23877511.001 6 125477147.69306     -4368.057 6        39.979
E26        12.000    28334882.434 4                      -971.211 4        28.815                                                                    28334883.379 6 111192240.47606      -725.624 6        37.316    28334881.736 5 114092830.14605      -744.228 5        33.042
E02        13.000    25616620.005 6 134616266.23906      1979.261 6        39.841                                                                    25616622.359 5 100525192.14005      1478.002 5        34.514    25616621.561 6 103147594.47806      1516.550 6        38.586
E25        14.000    23808258.896 8 125113231.27108      -440.254 8        50.391                                                                    23808263.968 8  93428835.63508      -328.780 8        51.902    23808262.034 8  95866030.78908      -337.369 8        49.787
E24        15.000    26498077.988 5 139248328.00105     -3058.643 5        30.823                                                                    26498084.208 5 103984081.21305     -2283.874 5        32.281    26498087.818 6 106696772.46606     -2343.490 6        39.270
E08        17.000    25037686.544 6 131573923.35706      1149.977 6        41.442                                                                    25037688.453 6  98253278.90506       858.719 6        39.706
E05        21.000    24869476.548 5 130689941.71605     -3271.944 5        31.826                                                                    24869490.782 5  97593206.74805     -2443.198 5        34.786    24869485.650 4 100139020.40204     -2507.209 4        24.466
E13        22.000                                                                                                                                    28227293.702 5 110769947.57105     -2252.640 5        33.383    28227288.663 4                     -2311.166 4        28.351
S23        24.000    38305612.513 6 201297305.17306      -819.912 6        38.108
E03        27.000    23474385.187 7 123358690.31507     -1279.430 7        44.453                                                                    23474390.026 7  92118479.04807      -955.453 7        43.909    23474387.618 6  94521590.22006      -980.270 6        41.688
R11        28.000    19378655.790 8 103553710.59608     -1735.399 8        50.375                                                                    19378657.170 7  80541725.74207     -1349.633 7        44.415
R12        31.000    21248308.353 6 113504613.50206      2410.133 6        38.607                                                                    21248316.095 7  88281640.40707      1874.670 7        42.720
R08        35.000    22135959.250 6 118536996.59506     -4711.005 6        41.118                                                                    22135965.768 7  92195490.77407     -3664.045 7        42.220
C26        37.000                                                                                                                                    23473075.693 6 122230432.07106      1562.714 6        40.162                                                                    23473075.345 7  99322342.45607      1269.861 7        43.245
R01        38.000    19263857.596 7 102976305.15707     -1200.856 7        47.249                                                                    19263860.856 6  80092707.28206      -934.010 6        37.161
R18        39.000                                                                                                                                    24367917.895 4 101171492.80804     -2358.677 4        27.078
C42        41.000                                                                                                                                    23552937.137 7 122646282.03707      1184.754 7        44.611                                                                    23552948.452 7  99660199.94007       962.723 7        45.871
C36        42.000                                                                                                                                    24569284.943 3                     -3608.959 3        21.381                                                                    24569289.189 5 103960593.60205     -2933.289 5        33.802
R02        43.000    21283873.471 8 113574832.24708      2516.832 8        51.087                                                                    21283876.604 7  88335983.72607      1957.547 7        46.659
C40        44.000                                                                                                                                    39152700.221 6 203878437.98306      -201.272 6        38.306                                                                    39152705.251 5 165667899.75005      -163.604 5        34.957
I02        45.000    37756354.362 6 148164060.56106       -89.579 6        37.236
C21        47.000                                                                                                                                    22313907.553 7 116194300.20507     -1868.841 7        46.559                                                                    22313901.854 6  94417370.86606     -1518.464 6        39.231
C45        49.000                                                                                                                                    21820226.940 5 113623588.85205     -1422.927 5        35.552                                                                    21820225.535 7  92328467.42307     -1156.301 7        42.080
C22        50.000                                                                                                                                    24795879.804 5 129118390.01405     -4130.882 5        35.090                                                                    24795883.828 5 104919507.15005     -3356.510 5        32.611
I06        56.000    38223325.052 5 149996560.70305      -685.856 5        33.407
> 2025 01 01 08 32 15.0000000  0 33
G18         1.000                                                                                                                                                                    25575706.094 4                     -1893.914 4        26.838
G13         2.000    20095672.031 8 105603609.76408       -86.947 8        48.445                                    20095669.602 5  82288400.12405       -67.751 5        33.772
G30         3.000    21820757.542 7 114668931.96707     -2915.754 7        44.992                                    21820760.523 6  89352412.83606     -2272.009 6        38.225    21820761.098 6  89352344.83806     -2272.145 6        37.724
G14         4.000    20682452.924 7 108687000.37707      -573.754 7        42.724                                    20682452.806 5  84691169.27505      -447.085 5        34.605    20682452.943 7  84691178.28107      -447.061 7        47.252
G07         5.000    24590871.656 3                     -3604.825 3        20.286                                                                                                    24590931.668 3                     -2814.536 3        19.612
G15         6.000    21608106.300 6 113551366.20006      1869.815 6        41.452                                    21608103.043 4  88481588.61104      1456.997 4        27.341    21608098.936 6  88481551.62106      1456.903 6        36.302
G05         7.000    22110654.307 7 116192236.21407     -3245.237 7        44.096                                    22110658.838 5  90539390.96205     -2528.750 5        35.448    22110661.126 6  90539453.97306     -2528.844 6        41.023
G23        10.000    25053075.906 4 131654924.21104      2295.753 4        27.293                                    25053074.116 1 102588161.09101      1788.931 1         4.714    25053106.665 3                      1787.321 3        22.400
G20        11.000    23881666.875 6 125498989.56606     -4368.847 6        40.129
E26        12.000    28335806.289 4                      -974.332 4        29.858                                                                    28335808.924 6 111195872.46806      -727.389 6        37.149    28335807.664 5 114096556.91005      -746.372 5        33.569
E02        13.000    25614737.233 6 134606372.43306      1978.128 6        39.084                                                                    25614739.825 5 100517803.92505      1477.149 5        35.181    25614739.419 6 103140013.51906      1515.585 6        39.501
E25        14.000    23808679.244 8 125115438.53708      -442.734 8        50.826                                                                    23808684.071 8  93430483.91508      -330.567 8        52.050    23808682.063 8  95867722.07008      -339.230 8        49.942
E24        15.000    26500990.500 5 139263624.41605     -3059.744 5        31.117                                                                    26500996.029 5 103995503.79705     -2284.932 5        33.353    26500998.635 6 106708493.07106     -2344.745 6        39.763
E08        17.000    25036592.413 6 131568175.59706      1149.017 6        41.487                                                                    25036595.035 6  98248986.73906       858.071 6        40.131    25036617.060 4 100811974.28304       880.414 4        28.986
E05        21.000    24872590.442 5 130706302.92605     -3272.165 5        30.951                                                                    24872604.544 5  97605424.51905     -2443.731 5        35.581    24872599.202 4 100151556.90404     -2507.994 4        24.677
E13        22.000                                                                                                                                    28230164.091 5 110781213.73205     -2253.658 5        31.872    28230158.291 4                     -2312.838 4        26.790
S23        24.000    38306395.315 6 201301404.72606      -819.931 6        38.207
E03        27.000    23475603.070 7 123365091.63707     -1281.191 7        44.667                                                                    23475608.039 7  92123259.25307      -956.789 7        44.077    23475605.723 6  94526495.12106      -981.732 6        41.828
R11        28.000    19380281.479 8 103562395.96008     -1738.908 8        51.783                                                                    19380282.795 7  80548481.02807     -1352.518 7        43.892
R12        31.000    21246055.190 6 113492568.11806      2407.790 6        38.607                                                                    21246060.185 6  88272271.78506      1872.603 6        41.862
R08        35.000    22140359.254 6 118560556.15506     -4712.780 6        41.366                                                                    22140365.504 7  92213814.84007     -3665.500 7        42.584
C26        37.000                                                                                                                                    23471577.446 6 122222622.32806      1561.128 6        39.862                                                                    23471575.809 7  99315996.38907      1268.557 7        43.839
R01        38.000    19264982.686 7 102982320.13807     -1205.144 7        47.069                                                                    19264985.718 6  80097385.60506      -937.242 6        37.471
R18        39.000                                                                                                                                    24370759.855 3                     -2360.637 3        22.019
C42        41.000                                                                                                                                    23551800.568 7 122640363.14207      1182.629 7        44.263                                                                    23551811.886 7  99655390.32307       961.039 7        46.332
C36        42.000                                                                                                                                                                                                                                                                    24572755.851 5 103975261.47205     -2933.737 5        33.701
R02        43.000    21281516.568 8 113562252.80508      2514.780 8        51.955                                                                    21281519.273 7  88326199.71607      1955.999 7        46.310
C40        44.000                                                                                                                                    39152893.983 6 203879447.59006      -202.576 6        38.222                                                                    39152899.196 5 165668720.12805      -164.592 5        35.295
I02        45.000    37756467.871 6 148164508.27906       -89.999 6        37.603
C21        47.000                                                                                                                                    22315701.757 7 116203651.01107     -1871.608 7        46.151                                                                    22315698.045 6  94424969.11706     -1520.760 6        39.943
C45        49.000                                                                                                                                    21821597.217 5 113630709.18705     -1425.299 5        35.905                                                                    21821593.045 6  92334253.28006     -1157.976 6        41.945
C22        50.000                                                                                                                                    24799846.400 5 129139046.98905     -4131.825 5        35.619                                                                    24799850.240 5 104936292.57305     -3357.236 5        31.283
I06        56.000    38224197.618 5 149999990.28205      -686.102 5        33.605
> 2025 01 01 08 32 20.0000000  0 33
G18         1.000                                                                                                                                                                    25578013.509 4                     -1895.758 4        26.886
G13         2.000    20095756.139 7 105604050.79107       -89.296 7        47.166                                    20095753.441 5  82288743.77605       -69.573 5        32.934
G30         3.000    21823532.469 7 114683513.80607     -2916.949 7        44.417                                    21823535.182 6  89363775.28706     -2272.940 6        38.492    21823536.712 6  89363707.27006     -2272.920 6        37.943
G14         4.000    20683000.533 7 108689876.96007      -576.784 7        42.954                                    20683000.155 5  84693410.77805      -449.445 5        34.481    20683000.169 7  84693419.78507      -449.486 7        47.069
G07         5.000    24594311.237 3                     -3608.451 3        21.810                                                                                                    24594362.333 3                     -2813.780 3        20.429
G15         6.000    21606323.481 6 113542022.58806      1867.784 6        40.982                                    21606323.735 4  88474307.87004      1455.415 4        28.483    21606322.247 5  88474270.87505      1455.460 5        35.733
G05         7.000    22113743.126 7 116208469.24907     -3247.869 7        43.077                                    22113748.859 5  90552040.05205     -2530.800 5        35.181    22113748.994 6  90552103.06106     -2530.789 6        40.455
G23        10.000    25050891.103 4 131643448.42804      2293.678 4        25.714                                    25050890.216 1 102579218.98901      1787.342 1         2.600
G20        11.000    23885824.029 6 125520834.96706     -4369.328 6        40.279
E26        12.000    28336732.859 4                      -976.611 4        28.891                                                                    28336736.912 6 111199513.93106      -729.071 6        37.248    28336735.837 5 114100293.42605      -748.297 5        34.314
E02        13.000    25612855.418 6 134596484.84006      1977.121 6        38.099                                                                    25612857.918 6 100510420.33906      1476.489 6        36.042    25612858.352 6 103132437.33906      1514.871 6        40.148
E25        14.000    23809101.603 8 125117657.84708      -444.926 8        51.077                                                                    23809106.519 8  93432141.19908      -332.287 8        52.144    23809104.485 8  95869422.58408      -340.928 8        49.744
E24        15.000    26503903.129 5 139278928.38905     -3061.315 5        31.653                                                                    26503908.802 5 104006932.02405     -2285.889 5        34.405    26503910.650 6 106720219.44106     -2345.710 6        39.574
E08        17.000    25035499.938 7 131562432.65407      1148.320 7        42.150                                                                    25035502.640 6  98244698.17106       857.535 6        40.543
E05        21.000    24875705.012 4 130722668.93904     -3273.365 4        29.829                                                                    24875718.872 5  97617645.85905     -2444.480 5        35.514    24875710.248 3                     -2507.167 3        23.429
E13        22.000                                                                                                                                    28233035.373 5 110792485.41905     -2255.101 5        30.445    28233032.609 3                     -2313.167 3        23.790
S23        24.000    38307177.312 6 201305504.82106      -819.953 6        38.237
E03        27.000    23476822.808 7 123371501.42507     -1282.758 7        44.680                                                                    23476827.746 7  92128045.77907      -957.810 7        44.266    23476825.547 7  94531406.51607      -982.918 7        42.182
R11        28.000    19381911.405 8 103571099.09008     -1742.291 8        52.162                                                                    19381911.476 7  80555250.11607     -1355.089 7        44.144
R12        31.000    21243802.363 6 113480535.00006      2405.512 6        41.428                                                                    21243805.957 6  88262912.65906      1871.047 6        39.841
R08        35.000    22144759.669 6 118584125.38106     -4714.690 6        41.857                                                                    22144766.913 7  92232146.39807     -3667.060 7        42.375
C26        37.000                                                                                                                                    23470079.609 6 122214820.41406      1559.828 6        39.529                                                                    23470077.684 7  99309656.70607      1267.361 7        44.050
R01        38.000    19266112.095 7 102988356.05507     -1209.144 7        47.210                                                                    19266114.879 6  80102080.19006      -940.352 6        37.962
R18        39.000                                                                                                                                    24373608.448 3                     -2364.086 3        22.800
C42        41.000                                                                                                                                    23550665.874 7 122634454.78507      1180.759 7        43.621                                                                    23550677.306 7  99650589.32707       959.310 7        46.393
C36        42.000                                                                                                                                                                                                                                                                    24576223.714 5 103989932.44905     -2934.382 5        33.832
R02        43.000    21279162.047 8 113549684.02408      2512.853 8        53.084                                                                    21279162.968 7  88316423.98507      1954.385 7        44.998
C40        44.000                                                                                                                                    39153089.287 6 203880462.78106      -203.490 6        38.228                                                                    39153094.333 5 165669545.09505      -165.590 5        35.490
I02        45.000    37756582.168 6 148164957.78406       -89.913 6        37.285
C21        47.000                                                                                                                                    22317499.377 7 116213015.51107     -1874.101 7        46.033                                                                    22317496.765 6  94432578.53106     -1522.962 6        40.343
C45        49.000                                                                                                                                    21822968.665 6 113637840.32306     -1426.988 6        36.749                                                                    21822962.542 6  92340047.94006     -1159.799 6        41.602
C22        50.000                                                                                                                                    24803813.087 5 129159709.14005     -4132.601 5        35.200                                                                    24803817.076 4 104953082.23804     -3358.119 4        28.891
I06        56.000    38225072.547 5 150003420.42705      -686.191 5        33.814
> 2025 01 01 08 32 25.0000000  0 33
G18         1.000                                                                                                                                                                    25580327.507 4                     -1897.522 4        28.000
G13         2.000    20095842.609 7 105604503.90407       -91.835 7        46.934                                    20095839.725 5  82289096.84605       -71.558 5        32.299
G30         3.000    21826308.977 7 114698101.83107     -2918.269 7        44.318                                    21826311.063 6  89375142.56106     -2273.970 6        38.799    21826312.713 6  89375074.56506     -2273.918 6        38.153
G14         4.000    20683551.535 7 108692768.92007      -579.947 7        44.153                                    20683550.500 5  84695664.26405      -451.912 5        34.700    20683550.685 7  84695673.26707      -451.890 7        47.315
G07         5.000    24597756.282 3                     -3611.509 3        22.057
G15         6.000    21604542.641 6 113532689.04006      1865.770 6        41.671                                    21604546.467 4  88467034.98704      1453.843 4        28.275    21604546.712 6  88466997.99506      1453.841 6        36.510
G05         7.000    22116834.419 6 116224715.00706     -3250.489 6        41.969                                    22116840.793 5  90564699.05605     -2532.846 5        33.946    22116839.323 6  90564762.06006     -2532.740 6        39.144
G23        10.000    25048711.339 4 131631980.82204      2292.544 4        25.579                                    25048707.885 1 102570283.23801      1786.253 1         1.778
G20        11.000    23889981.642 6 125542683.12906     -4369.993 6        40.791
E26        12.000    28337664.168 4                      -978.968 4        29.403                                                                    28337666.992 6 111203164.41006      -731.075 6        37.187    28337666.649 5 114104039.13305      -750.256 5        34.205
E02        13.000    25610974.215 6 134586602.74506      1975.973 6        37.013                                                                    25610977.721 6 100503040.87106      1475.714 6        36.805    25610978.289 6 103124865.36906      1513.933 6        40.670
E25        14.000    23809526.310 8 125119888.48108      -447.266 8        51.260                                                                    23809531.088 8  93433806.93108      -333.965 8        52.184    23809528.983 8  95871131.77308      -342.676 8        49.789
E24        15.000    26506817.876 5 139294239.12505     -3063.006 5        32.210                                                                    26506822.679 5 104018365.33605     -2287.051 5        34.848    26506824.008 6 106731951.00706     -2346.891 6        38.982
E08        17.000    25034408.535 7 131556693.78707      1147.340 7        42.827                                                                    25034410.910 6  98240412.67006       856.772 6        41.113    25034404.832 5 100803176.38205       879.325 5        31.192
E05        21.000    24878819.594 4 130739039.03704     -3274.260 4        26.850                                                                    24878833.646 6  97629870.20706     -2445.191 6        36.057    24878823.709 3                     -2509.526 3        21.619
E13        22.000                                                                                                                                    28235908.620 4 110803761.99704     -2255.674 4        28.104    28235918.809 4                     -2314.635 4        26.311
S23        24.000    38307953.510 6 201309604.58006      -819.973 6        38.222
E03        27.000    23478043.651 7 123377918.95607     -1284.266 7        44.098                                                                    23478048.945 7  92132838.09007      -959.027 7        44.153    23478046.812 7  94536323.82907      -984.015 7        42.747
R11        28.000    19383543.481 8 103579819.21808     -1745.706 8        52.171                                                                    19383543.247 7  80562032.43607     -1357.697 7        44.086
R10        30.000    22577131.494 4                     -4700.512 4        29.393
R12        31.000    21241553.294 7 113468513.31507      2403.138 7        45.029                                                                    21241555.330 6  88253562.46706      1869.238 6        37.282
R08        35.000    22149163.205 7 118607703.65107     -4716.554 7        42.559                                                                    22149169.780 6  92250484.96706     -3668.463 6        41.659
C26        37.000                                                                                                                                    23468581.982 6 122207025.62206      1558.098 6        39.523                                                                    23468580.645 7  99303322.77407      1266.165 7        44.256
R01        38.000    19267245.060 7 102994412.03707     -1213.187 7        47.293                                                                    19267248.402 6  80106790.39306      -943.690 6        38.841
C42        41.000                                                                                                                                    23549532.973 7 122628556.28907      1178.783 7        43.177                                                                    23549544.596 7  99645796.30607       957.731 7        46.608
C36        42.000                                                                                                                                                                                                                                                                    24579691.970 5 104004605.94305     -2935.020 5        33.946
R02        43.000    21276808.464 8 113537124.83508      2510.813 8        53.608                                                                    21276809.336 7  88306655.71807      1952.880 7        44.257
C40        44.000                                                                                                                                    39153285.358 6 203881482.82606      -204.453 6        38.273                                                                    39153290.306 6 165670373.96206      -166.224 6        36.008
I02        45.000    37756697.631 6 148165408.35006       -90.187 6        37.248
C21        47.000                                                                                                                                    22319300.527 7 116222392.97807     -1876.714 7        46.047                                                                    22319297.899 6  94440198.47206     -1525.135 6        41.440
C45        49.000                                                                                                                                    21824341.936 6 113644981.54506     -1429.431 6        38.688                                                                    21824333.997 6  92345850.72806     -1161.399 6        41.533
C22        50.000                                                                                                                                    24807781.301 5 129180375.75405     -4133.638 5        33.916                                                                    24807784.573 4 104969875.51404     -3358.873 4        27.042
I06        56.000    38225946.774 5 150006850.52405      -685.795 5        33.449
> 2025 01 01 08 32 30.0000000  0 34
G18         1.000                                                                                                                                                                    25582640.208 4                     -1899.478 4        27.904
G13         2.000    20095931.398 7 105604969.45407       -94.260 7        46.029                                    20095928.465 5  82289459.59805       -73.452 5        31.691
G30         3.000    21829086.184 7 114712696.31807     -2919.497 7        44.158                                    21829088.267 6  89386514.87406     -2274.935 6        39.291    21829090.034 6  89386446.87606     -2274.825 6        39.075
G14         4.000    20684104.347 7 108695676.52407      -583.036 7        45.354                                    20684103.841 5  84697929.94105      -454.317 5        35.005    20684103.897 7  84697938.94507      -454.273 7        47.347
G07         5.000    24601196.686 3                     -3611.316 3        23.695
G15         6.000    21602769.235 6 113523365.87906      1863.688 6        41.046                                    21602771.309 4  88459770.18204      1452.217 4        27.413    21602772.165 6  88459733.17906      1452.331 6        36.321
G05         7.000    22119928.796 6 116240973.75506     -3252.896 6        40.064                                    22119934.678 5  90577368.19705     -2534.717 5        32.126    22119931.805 6  90577431.19906     -2534.690 6        36.892
G23        10.000    25046530.468 4 131620521.73504      2290.659 4        25.338                                    25046527.204 1 102561353.81601      1784.926 1         2.000    25046497.079 3                      1784.409 3        23.505
G20        11.000    23894140.110 6 125564534.31606     -4370.635 6        40.577
E26        12.000    28338597.315 5                      -981.432 5        30.204                                                                    28338599.491 6 111206824.03706      -732.559 6        36.987    28338599.750 5 114107794.23205      -751.991 5        34.776
E02        13.000    25609094.628 6 134576726.43206      1974.548 6        36.374                                                                    25609098.114 6 100495665.70606      1474.621 6        37.652    25609099.013 6 103117297.80706      1513.189 6        41.282
E25        14.000    23809953.110 8 125122130.69808      -449.537 8        51.533                                                                    23809957.755 8  93435481.31608      -335.684 8        52.267    23809955.720 8  95872849.84208      -344.466 8        49.899
E24        15.000    26509734.378 5 139309556.92505     -3064.218 5        33.383                                                                    26509738.121 5 104029803.90505     -2288.187 5        35.552    26509738.501 6 106743687.97606     -2347.737 6        38.868
E08        17.000    25033317.395 7 131550959.29807      1146.625 7        43.721                                                                    25033319.812 6  98236130.42606       856.173 6        41.740    25033316.419 5 100798782.45805       878.431 5        32.748
E05        21.000    24881934.854 4 130755413.48104     -3275.575 4        24.391                                                                    24881948.961 5  97642097.78805     -2445.691 5        35.462    24881938.954 3                     -2509.412 3        21.881
E13        22.000                                                                                                                                    28238783.435 4 110815043.71104     -2255.776 4        25.699    28238790.964 4                     -2316.082 4        27.126
S23        24.000    38308736.142 6 201313704.31006      -820.023 6        38.171
E03        27.000    23479266.061 7 123384344.50407     -1285.831 7        43.788                                                                    23479271.589 7  92137636.38607      -960.263 7        44.141    23479269.518 7  94541247.28407      -985.224 7        43.458
R11        28.000    19385177.604 8 103588556.62108     -1749.115 8        51.392                                                                    19385178.180 7  80568828.19907     -1360.483 7        43.934
R10        30.000    22581537.156 5                     -4701.196 5        30.347
R12        31.000    21239307.691 7 113456503.29807      2400.937 7        47.161                                                                    21239307.786 6  88244221.33406      1867.478 6        36.488
R08        35.000    22153569.174 7 118631291.15607     -4718.294 7        43.168                                                                    22153574.081 6  92268830.71406     -3669.775 6        41.154
C26        37.000                                                                                                                                    23467084.920 6 122199238.15306      1556.760 6        39.523                                                                    23467085.046 7  99296994.83307      1265.062 7        44.289
R01        38.000    19268381.307 7 103000488.49307     -1217.297 7        46.964                                                                    19268385.721 6  80111516.51106      -946.708 6        39.510
R18        39.000                                                                                                                                    24379314.637 3                     -2368.588 3        22.495
C42        41.000                                                                                                                                    23548402.001 7 122622667.94207      1176.690 7        42.648                                                                    23548413.825 7  99641011.52107       956.255 7        46.769
C36        42.000                                                                                                                                                                                                                                                                    24583160.844 5 104019282.15105     -2935.343 5        34.729
R02        43.000    21274456.192 8 113524575.58608      2508.925 8        53.218                                                                    21274457.504 7  88296895.18807      1951.391 7        43.856
C40        44.000                                                                                                                                    39153482.651 6 203882507.99006      -205.539 6        38.538                                                                    39153487.193 6 165671206.98906      -166.990 6        36.113
I02        45.000    37756811.915 6 148165859.99506       -90.345 6        37.346
C21        47.000                                                                                                                                    22321104.934 7 116231783.69607     -1879.392 7        45.496                                                                    22321101.703 7  94447829.16507     -1527.262 7        42.246
C45        49.000                                                                                                                                    21825716.706 6 113652133.05306     -1431.303 6        39.997                                                                    21825707.264 6  92351661.92406     -1163.066 6        41.287
C22        50.000                                                                                                                                    24811750.589 5 129201047.12705     -4135.048 5        32.341                                                                    24811750.080 4 104986672.56904     -3360.032 4        25.143
I06        56.000    38226820.222 5 150010280.80705      -686.013 5        33.940
> 2025 01 01 08 32 35.0000000  0 33
G18         1.000                                                                                                                                                                    25584953.467 4                     -1900.865 4        26.156
G13         2.000    20096022.315 7 105605447.18307       -96.816 7        46.628                                    20096019.686 5  82289831.84505       -75.434 5        30.845
G30         3.000    21831865.122 7 114727297.02407     -2920.763 7        45.204                                    21831866.776 6  89397892.03206     -2275.919 6        39.772    21831868.307 6  89397824.04906     -2275.995 6        39.754
G14         4.000    20684660.510 7 108698599.54207      -586.224 7        46.666                                    20684660.111 5  84700207.62105      -456.800 5        35.319    20684660.214 7  84700216.60607      -456.750 7        47.194
G07         5.000    24604639.938 3                     -3613.188 3        21.381
G15         6.000    21600998.925 6 113514052.84506      1861.509 6        40.925                                    21600998.355 4  88452513.26304      1450.526 4        26.204    21600999.724 6  88452476.27106      1450.440 6        36.491
G05         7.000    22123025.759 6 116257245.28306     -3255.759 6        38.201                                    22123030.355 5  90590047.29305     -2536.949 5        30.241    22123028.353 5  90590110.29505     -2536.882 5        34.557
G23        10.000    25044347.763 4                      2289.079 4        24.752
G20        11.000    23898298.761 6 125586388.23706     -4371.136 6        40.625
E26        12.000    28339532.108 5                      -983.656 5        30.332                                                                    28339534.370 6 111210492.65606      -734.656 6        36.851    28339535.270 5 114111558.57505      -753.948 5        34.476
E02        13.000    25607216.442 5 134566855.62705      1973.518 5        35.962                                                                    25607219.199 6 100488294.65706      1473.799 6        38.285    25607220.615 6 103109734.47706      1512.324 6        41.261
E25        14.000    23810381.846 8 125124384.26308      -451.906 8        51.478                                                                    23810386.638 8  93437164.17808      -337.439 8        52.289    23810384.567 8  95874576.60808      -346.305 8        49.634
E24        15.000    26512653.029 5 139324881.54705     -3065.927 5        33.719                                                                    26512654.294 5 104041247.58805     -2289.260 5        35.995    26512654.178 6 106755430.17106     -2348.961 6        38.120
E08        17.000    25032227.128 7 131545228.94407      1145.613 7        44.662                                                                    25032229.488 7  98231851.25107       855.510 7        42.379    25032229.486 5 100794391.65705       877.626 5        33.293
E05        21.000    24885046.308 3                     -3273.715 3        21.905                                                                    24885065.941 5  97654328.41305     -2446.363 5        35.595    24885051.561 3                     -2507.774 3        19.552
E13        22.000                                                                                                                                    28241660.381 4 110826330.47004     -2257.856 4        25.038    28241665.725 4                     -2317.469 4        26.216
S23        24.000    38309513.105 6 201317803.89606      -819.963 6        37.720
E03        27.000    23480490.531 7 123390777.81407     -1287.483 7        43.530                                                                    23480495.768 7  92142440.48207      -961.522 7        44.065    23480494.006 7  94546176.68807      -986.443 7        43.884
R11        28.000    19386814.708 8 103597310.98708     -1752.627 8        50.716                                                                    19386816.400 7  80575637.15707     -1363.115 7        43.778
R12        31.000    21237064.973 7 113444504.84707      2398.510 7        47.695                                                                    21237062.684 6  88234889.23206      1865.353 6        36.930
R08        35.000    22157977.002 7 118654887.73807     -4720.193 7        42.817                                                                    22157981.174 6  92287183.54306     -3671.288 6        41.135
C26        37.000                                                                                                                                    23465590.685 6 122191457.83306      1555.419 6        39.928                                                                    23465590.893 7  99290672.72107      1263.774 7        44.468
R01        38.000    19269521.417 7 103006585.07707     -1221.371 7        46.139                                                                    19269525.527 6  80116258.30306      -949.750 6        39.691
R18        39.000                                                                                                                                    24382171.458 4                     -2371.531 4        27.174
C42        41.000                                                                                                                                    23547273.497 6 122616789.47606      1174.733 6        41.979                                                                    23547284.943 7  99636234.82007       954.518 7        46.812
C36        42.000                                                                                                                                    24586609.216 4                     -3613.781 4        26.024                                                                    24586630.285 5 104033960.89505     -2935.935 5        34.871
R02        43.000    21272105.520 8 113512036.11008      2506.786 8        52.567                                                                    21272107.259 7  88287142.25907      1949.759 7        43.501
C40        44.000                                                                                                                                    39153680.488 6 203883538.04206      -206.564 6        38.613                                                                    39153684.951 6 165672044.02306      -167.757 6        36.397
I02        45.000    37756927.168 6 148166312.60906       -90.703 6        37.112
C21        47.000                                                                                                                                    22322911.575 7 116241187.40807     -1882.041 7        44.798                                                                    22322907.911 7  94455470.45407     -1529.454 7        42.995
C45        49.000                                                                                                                                    21827091.625 6 113659294.66706     -1433.328 6        40.641                                                                    21827082.596 6  92357481.30906     -1164.688 6        41.015
C22        50.000                                                                                                                                    24815722.713 5 129221722.93405     -4135.944 5        30.211                                                                    24815717.178 4                     -3359.820 4        24.075
I06        56.000    38227694.372 5 150013711.13405      -685.782 5        33.503
> 2025 01 01 08 32 40.0000000  0 32
G18         1.000    25587286.480 4 134462082.44604     -2441.936 4        27.533                                                                                                    25587272.679 3                     -1902.001 3        21.381
G13         2.000    20096115.722 7 105605937.87207       -99.580 7        46.540                                    20096113.187 5  82290214.19305       -77.591 5        30.249
G30         3.000    21834645.347 7 114741904.77807     -2922.415 7        46.197                                    21834646.851 6  89409274.68906     -2277.202 6        40.529    21834647.998 6  89409206.71006     -2277.255 6        40.589
G14         4.000    20685219.144 7 108701538.79607      -589.631 7        46.868                                    20685219.390 5  84702497.95505      -459.452 5        35.700    20685219.310 7  84702506.93807      -459.486 7        47.272
G15         6.000    21599228.730 6 113504750.82706      1859.079 6        40.048                                    21599227.677 4  88445264.93004      1448.630 4        24.692    21599230.081 6  88445227.91806      1448.748 6        36.586
G05         7.000    22126125.775 6 116273530.29706     -3258.593 6        36.159                                    22126128.429 4  90602736.90004     -2539.162 4        28.863    22126129.188 5  90602799.91805     -2539.017 5        34.167
G23        10.000                                                                                                                                                                    25042169.876 4                      1782.497 4        27.796
G20        11.000    23902458.013 6 125608245.79406     -4372.057 6        40.231
E26        12.000    28340467.800 5                      -986.626 5        30.694                                                                    28340471.053 6 111214170.88406      -736.795 6        36.439    28340472.075 5 114115332.75405      -755.863 5        34.276
E02        13.000    25605338.857 5 134556991.18705      1972.148 5        35.333                                                                    25605342.387 6 100480928.37606      1472.724 6        39.006    25605343.301 6 103102176.03506      1511.070 6        41.080
E25        14.000    23810812.858 8 125126650.00608      -454.494 8        51.331                                                                    23810817.700 8  93438856.13408      -339.411 8        52.098    23810815.756 8  95876312.69808      -348.258 8        49.396
E24        15.000    26515569.940 5 139340213.76705     -3067.428 5        33.311                                                                    26515572.006 6 104052696.95206     -2290.746 6        36.329    26515571.558 6 106767178.22106     -2350.320 6        37.251
E08        17.000    25031138.194 7 131539503.56007      1144.411 7        45.404                                                                    25031140.092 7  98227575.81107       854.544 7        42.783    25031140.445 5 100790004.70005       876.634 5        34.467
E05        21.000    24888164.103 3                     -3274.724 3        20.238                                                                    24888183.976 5  97666562.72705     -2447.714 5        35.024
E13        22.000                                                                                                                                                                                                    28244543.559 3                     -2318.760 3        23.219
S23        24.000    38310294.382 6 201321904.27906      -820.244 6        38.015
E03        27.000    23481716.785 7 123397219.74207     -1289.391 7        43.765                                                                    23481721.462 7  92147251.00407      -962.891 7        43.611    23481720.055 7  94551112.71007      -987.979 7        44.289
R11        28.000    19388456.182 8 103606083.21408     -1756.357 8        50.297                                                                    19388458.286 7  80582460.00207     -1366.004 7        42.995
R12        31.000    21234818.908 7 113432518.77107      2395.822 7        47.099                                                                    21234818.360 6  88225566.72206      1863.372 6        37.849
R08        35.000    22162384.400 7 118678494.15107     -4722.469 7        42.527                                                                    22162389.221 6  92305544.02206     -3672.984 6        41.087
C26        37.000                                                                                                                                    23464097.550 6 122183685.50106      1553.513 6        40.184                                                                    23464098.630 7  99284357.05507      1262.396 7        44.640
R01        38.000    19270665.392 7 103012702.63607     -1225.786 7        45.306                                                                    19270670.361 6  80121016.42406      -953.495 6        40.217
R18        39.000                                                                                                                                    24385024.197 4                     -2373.787 4        28.654
C42        41.000                                                                                                                                    23546147.128 6 122610921.77906      1172.216 6        41.111                                                                    23546158.016 7  99631466.80907       952.656 7        46.799
C36        42.000                                                                                                                                    24590089.354 5                     -3614.538 5        30.106                                                                    24590100.127 5 104048642.81705     -2936.664 5        35.014
R02        43.000    21269757.391 8 113499507.28808      2504.579 8        52.405                                                                    21269759.552 7  88277397.62007      1948.032 7        43.075
C40        44.000                                                                                                                                    39153879.981 6 203884573.78606      -207.837 6        39.315                                                                    39153883.980 6 165672885.68806      -168.942 6        36.733
I02        45.000    37757042.393 6 148166767.20906       -91.337 6        36.919
C21        47.000                                                                                                                                    22324720.508 7 116250604.95007     -1885.051 7        44.671                                                                    22324716.665 7  94463122.92707     -1531.740 7        43.846
C45        49.000                                                                                                                                    21828467.153 6 113666467.15706     -1435.705 6        41.089                                                                    21828459.964 6  92363309.53206     -1166.657 6        40.870
C22        50.000                                                                                                                                    24819696.571 5 129242404.01105     -4136.703 5        30.128                                                                    24819686.966 3                     -3362.696 3        23.714
I06        56.000    38228568.661 5 150017142.07805      -686.158 5        33.701
> 2025 01 01 08 32 45.0000000  0 33
G18         1.000                                                                                                                                                                    25589593.290 3                     -1905.705 3        19.343
G13         2.000    20096211.449 7 105606441.88107      -102.084 7        46.379                                    20096209.242 4  82290606.91304       -79.545 4        29.678
G30         3.000    21837426.596 7 114756519.89407     -2923.656 7        47.536                                    21837428.478 6  89420663.08206     -2278.173 6        41.304    21837428.995 6  89420595.10306     -2278.155 6        41.104
G14         4.000    20685781.192 7 108704494.61607      -592.746 7        46.814                                    20685781.737 5  84704801.19005      -461.879 5        35.971    20685781.746 7  84704810.17907      -461.846 7        47.419
G15         6.000    21597457.583 6 113495460.06806      1857.096 6        38.411                                    21597459.061 3  88438025.39003      1447.101 3        23.276    21597461.589 5  88437988.39005      1447.114 5        35.967
G05         7.000    22129225.928 5 116289829.26605     -3261.140 5        33.737                                    22129229.213 4  90615437.37304     -2541.160 4        28.360    22129230.122 5  90615500.40105     -2541.097 5        35.609
G23        10.000                                                                                                                                                                    25039993.462 4                      1781.247 4        29.118
G20        11.000    23906617.300 6 125630107.30606     -4372.628 6        39.853
E26        12.000    28341409.107 5                      -988.660 5        31.094                                                                    28341410.272 5 111217858.94805      -738.536 5        35.681    28341411.451 5 114119117.03005      -757.917 5        34.029
E02        13.000    25603462.067 5 134547133.49905      1970.669 5        34.567                                                                    25603467.412 6 100473567.10706      1471.789 6        39.784    25603467.212 6 103094622.72306      1510.205 6        40.970
E25        14.000    23811246.302 8 125128928.26208      -456.816 8        51.124                                                                    23811251.098 8  93440557.43308      -341.136 8        51.786    23811249.290 8  95878058.37908      -350.054 8        49.254
E24        15.000    26518486.936 5 139355553.88805     -3068.946 5        32.078                                                                    26518491.471 6 104064152.25106     -2291.654 6        36.011    26518490.836 6 106778932.35306     -2351.396 6        36.926
E08        17.000    25030049.344 7 131533783.47107      1143.567 7        45.893                                                                    25030051.557 7  98223304.31507       853.965 7        43.189    25030052.331 5 100785621.75305       876.276 5        35.152
E05        21.000    24891282.889 4                     -3279.095 4        24.451                                                                    24891302.811 5  97678800.91005     -2448.166 5        34.152    24891313.429 4                     -2511.553 4        26.934
E13        22.000                                                                                                                                    28247412.295 3 110848920.68403     -2261.233 3        23.352    28247422.403 3                     -2318.286 3        20.690
S23        24.000    38311077.815 6 201326005.71406      -820.351 6        38.114
E03        27.000    23482944.657 7 123403670.59807     -1291.036 7        44.325                                                                    23482948.864 7  92152068.20007      -964.116 7        43.020    23482947.803 7  94556055.56807      -989.178 7        44.798
R11        28.000    19390101.700 8 103614873.64008     -1759.828 8        50.622                                                                    19390102.829 7  80589296.99107     -1368.703 7        42.260
R10        30.000    22594703.987 5 120442508.09915     -4704.088 5        34.129
R12        31.000    21232572.550 7 113420545.34507      2393.445 7        46.542                                                                    21232577.470 6  88216254.11706      1861.444 6        38.829
R08        35.000    22166793.319 7 118702110.66807     -4724.278 7        42.408                                                                    22166799.506 6  92323912.37706     -3674.458 6        40.934
C26        37.000                                                                                                                                    23462606.208 6 122175921.48206      1551.969 6        40.112                                                                    23462608.091 7  99278048.13107      1261.043 7        44.983
R01        38.000    19271813.821 7 103018841.60707     -1229.863 7        45.509                                                                    19271818.199 6  80125791.16706      -956.468 6        40.005
R18        39.000                                                                                                                                    24387878.871 4                     -2376.597 4        29.261
C42        41.000                                                                                                                                    23545022.883 6 122605065.11306      1170.284 6        40.675                                                                    23545033.339 7  99626707.77207       950.871 7        46.838
C36        42.000                                                                                                                                    24593562.142 5                     -3614.922 5        31.864                                                                    24593571.568 5 104063328.17205     -2937.548 5        35.643
R02        43.000    21267411.780 8 113486989.53308      2502.543 8        52.328                                                                    21267413.691 7  88267661.58807      1946.421 7        42.853
C40        44.000                                                                                                                                    39154080.241 6 203885615.58906      -208.921 6        39.727                                                                    39154084.004 6 165673732.20506      -169.757 6        36.771
I02        45.000    37757159.311 6 148167223.72306       -91.396 6        36.715
C21        47.000                                                                                                                                    22326531.126 7 116260036.59407     -1887.764 7        45.624                                                                    22326528.074 7  94470786.89307     -1533.991 7        44.525
C45        49.000                                                                                                                                    21829846.581 6 113673650.86506     -1437.725 6        41.275                                                                    21829839.665 6  92369146.83906     -1168.441 6        40.884
C22        50.000                                                                                                                                    24823671.403 5 129263090.68305     -4137.854 5        30.958                                                                    24823662.931 4                     -3361.831 4        24.511
I06        56.000    38229442.517 5 150020573.91205      -686.372 5        33.263
> 2025 01 01 08 32 50.0000000  0 32
G13         2.000    20096309.374 7 105606958.76607      -104.771 7        45.192                                    20096307.555 4  82291009.66704       -81.637 4        29.299
G30         3.000    21840209.018 8 114771141.87008     -2925.110 8        48.277                                    21840211.468 7  89432056.82607     -2279.307 7        42.106    21840211.141 6  89431988.83406     -2279.270 6        41.378
G14         4.000    20686346.434 7 108707466.50307      -596.084 7        46.304                                    20686347.049 6  84707116.93906      -464.476 6        36.019    20686347.379 7  84707125.92307      -464.458 7        47.185
G15         6.000    21595691.707 6 113486180.15706      1854.910 6        36.711                                    21595692.623 3  88430794.29803      1445.378 3        22.114    21595694.120 5  88430757.28105      1445.388 5        33.802
G05         7.000    22132329.968 5 116306141.59805     -3264.174 5        33.305                                    22132332.734 4  90628148.29704     -2543.529 4        28.142    22132334.390 6  90628211.32106     -2543.268 6        36.461
G23        10.000                                                                                                                                                                    25037820.267 4                      1779.912 4        29.972
G20        11.000    23910778.354 6 125651972.20306     -4373.445 6        39.459
E26        12.000    28342352.472 4                      -991.472 4        29.232                                                                    28342352.077 5 111221556.51705      -740.487 5        35.148    28342352.844 5 114122911.04805      -759.767 5        33.850
E02        13.000    25601585.812 5 134537281.94905      1969.654 5        33.617                                                                    25601593.399 6 100466210.46906      1470.821 6        40.675    25601592.152 6 103087074.17506      1509.130 6        40.589
E25        14.000    23811682.078 8 125131218.51008      -459.266 8        50.795                                                                    23811686.787 8  93442267.68708      -343.022 8        51.660    23811685.112 8  95879813.24508      -351.961 8        49.042
E24        15.000    26521403.932 4 139370901.48104     -3070.601 4        29.204                                                                    26521412.003 6 104075613.10006     -2292.754 6        36.159    26521411.543 6 106790692.18306     -2352.537 6        36.420
E08        17.000    25028961.286 7 131528068.19607      1142.461 7        45.807                                                                    25028963.944 7  98219036.39707       853.186 7        43.623    25028965.503 6 100781242.52206       875.228 6        36.151
E05        21.000    24894403.778 4                     -3278.876 4        25.158                                                                    24894422.786 5  97691042.60805     -2448.631 5        34.095    24894434.005 4                     -2512.344 4        29.488
E13        22.000                                                                                                                                    28250289.191 3 110860224.10803     -2261.377 3        22.990
S23        24.000    38311857.098 6 201330107.61506      -820.580 6        38.021
E03        27.000    23484174.182 7 123410129.88407     -1292.776 7        44.656                                                                    23484177.847 7  92156891.69207      -965.394 7        42.557    23484177.240 7  94561004.88807      -990.573 7        45.163
R11        28.000    19391750.163 8 103623681.71208     -1763.471 8        50.492                                                                    19391751.194 7  80596147.71607     -1371.663 7        42.698
R10        30.000    22599108.985 5 120466030.22505     -4705.186 5        34.129
R12        31.000    21230331.618 7 113408584.14307      2390.894 7        45.178                                                                    21230337.396 6  88206950.95506      1859.760 6        38.880
R08        35.000    22171205.109 7 118725736.85707     -4726.265 7        42.053                                                                    22171211.418 6  92342288.22406     -3676.056 6        40.608
C26        37.000                                                                                                                                    23461114.086 6 122168165.28406      1550.325 6        39.447                                                                    23461118.870 7  99271745.55807      1259.943 7        45.166
R01        38.000    19272967.707 7 103025001.34607     -1234.162 7        45.791                                                                    19272970.335 6  80130582.07706      -959.886 6        39.261
R18        39.000                                                                                                                                    24390739.234 4                     -2378.983 4        28.863
C42        41.000                                                                                                                                    23543900.895 6 122599219.03506      1168.002 6        40.205                                                                    23543910.636 7  99621957.35007       949.284 7        46.901
C36        42.000                                                                                                                                    24597035.926 5                     -3615.578 5        33.713                                                                    24597043.667 5 104078016.54705     -2937.822 5        35.948
R02        43.000    21265067.933 8 113474482.23608      2500.322 8        51.832                                                                    21265069.977 7  88257933.68907      1944.651 7        43.043
C40        44.000                                                                                                                                    39154281.970 6 203886662.89006      -210.022 6        40.336                                                                    39154285.071 6 165674583.24406      -170.408 6        37.399
I02        45.000    37757276.251 6 148167681.82606       -91.949 6        36.461
C21        47.000                                                                                                                                    22328344.484 7 116269481.87407     -1890.501 7        46.811                                                                    22328341.874 7  94478461.96007     -1536.140 7        45.401
C45        49.000                                                                                                                                    21831229.383 6 113680845.28906     -1439.980 6        41.397                                                                    21831221.515 6  92374992.88006     -1169.992 6        40.949
C22        50.000                                                                                                                                    24827646.883 5 129283782.43905     -4138.742 5        32.216                                                                    24827641.942 4                     -3363.429 4        27.569
I06        56.000    38230318.175 5 150024006.24305      -686.518 5        33.569
> 2025 01 01 08 32 55.0000000  0 31
G13         2.000    20096409.614 7 105607487.83307      -106.984 7        44.770                                    20096408.100 4  82291421.91104       -83.364 4        28.749
G30         3.000    21842992.569 8 114785770.02808     -2926.257 8        48.381                                    21842995.648 7  89443455.38707     -2280.201 7        42.698    21842994.528 6  89443387.39906     -2280.159 6        41.066
G14         4.000    20686915.253 7 108710453.77207      -599.052 7        45.582                                    20686915.258 6  84709444.67306      -466.791 6        36.030    20686915.970 7  84709453.66507      -466.768 7        46.850
G15         6.000    21593930.428 5 113476910.39605      1852.943 5        33.647                                    21593927.884 3  88423571.11303      1443.842 3        20.952    21593929.986 4  88423534.11304      1444.008 4        29.602
G05         7.000    22135437.491 6 116322466.63006     -3266.217 6        36.015                                    22135438.741 4  90640869.09104     -2545.106 4        27.665    22135439.167 6  90640932.12506     -2545.134 6        36.843
G23        10.000    25035711.994 5 131563358.70415      2282.254 5        32.934                                                                                                    25035648.212 5                      1778.064 5        30.385
G20        11.000    23914939.746 6 125673839.81206     -4373.874 6        39.168
E26        12.000    28343296.713 4                      -994.146 4        29.213                                                                    28343296.174 5 111225263.01605      -741.940 5        34.433    28343296.571 5 114126714.24705      -761.708 5        33.485
E02        13.000    25599711.413 5 134527435.99305      1968.426 5        33.012                                                                    25599720.180 6 100458857.96706      1469.947 6        41.225    25599717.984 6 103079529.87806      1508.302 6        40.362
E25        14.000    23812120.009 8 125133520.08308      -461.449 8        50.441                                                                    23812124.646 8  93443986.40608      -344.586 8        51.291    23812123.197 8  95881576.79408      -353.574 8        48.990
E24        15.000    26524322.718 4 139386255.78204     -3071.446 4        26.096                                                                    26524333.754 5 104087079.00905     -2293.694 5        35.705    26524333.644 6 106802457.21206     -2353.544 6        36.163
E08        17.000    25027874.604 7 131522357.05807      1141.787 7        45.511                                                                    25027877.244 7  98214771.58907       852.747 7        43.983    25027879.079 6 100776866.44306       875.029 6        37.002
E05        21.000    24897526.638 4                     -3279.885 4        27.521                                                                    24897543.515 5  97703287.32805     -2449.274 5        33.401    24897555.555 5                     -2513.043 5        30.815
S23        24.000    38312637.463 6 201334209.31606      -820.566 6        37.735
E03        27.000    23485404.869 7 123416596.92707     -1294.154 7        44.796                                                                    23485408.299 6  92161720.97506      -966.341 6        41.740    23485407.962 7  94565960.15707      -991.596 7        45.597
R11        28.000    19393401.699 8 103632506.72508     -1766.693 8        50.089                                                                    19393402.937 7  80603011.60707     -1374.011 7        42.474
R10        30.000    22603516.031 5 120489556.10005     -4705.568 5        33.240
R12        31.000    21228093.751 7 113396634.46307      2388.776 7        43.380                                                                    21228099.782 6  88197656.80506      1857.917 6        38.820
R08        35.000    22175619.026 6 118749371.98106     -4727.988 6        41.936                                                                    22175624.546 6  92360671.02606     -3677.231 6        40.636
C26        37.000                                                                                                                                    23459622.495 6 122160416.18606      1549.114 6        39.375                                                                    23459630.605 7  99265448.79807      1258.727 7        45.112
R01        38.000    19274123.539 7 103031181.27507     -1238.019 7        45.341                                                                    19274126.438 6  80135388.68706      -962.901 6        39.072
R18        39.000    24393622.691 4 130215240.71814     -3061.765 4        29.526                                                                    24393607.387 4                     -2381.560 4        29.090
C42        41.000                                                                                                                                    23542780.290 6 122593382.88706      1166.267 6        40.043                                                                    23542789.827 7  99617215.00207       947.620 7        46.864
C36        42.000                                                                                                                                    24600508.128 5                     -3616.082 5        33.790                                                                    24600516.037 6 104092707.46606     -2938.423 6        36.503
R02        43.000    21262725.296 8 113461984.71808      2498.421 8        51.231                                                                    21262728.379 7  88248213.39007      1943.278 7        43.120
C40        44.000                                                                                                                                    39154484.555 6 203887715.07406      -210.949 6        40.813                                                                    39154487.498 6 165675438.26806      -171.405 6        37.656
I02        45.000    37757392.575 6 148168141.25206       -92.056 6        36.552
C21        47.000                                                                                                                                    22330160.347 7 116278940.14807     -1892.949 7        47.702                                                                    22330158.136 7  94486147.57707     -1538.232 7        46.121
C45        49.000                                                                                                                                    21832614.171 6 113688049.75106     -1441.915 6        41.530                                                                    21832605.263 6  92380847.08506     -1171.769 6        41.139
C22        50.000                                                                                                                                    24831622.621 5 129304478.65705     -4139.863 5        33.114                                                                    24831617.702 4                     -3363.777 4        29.801
I06        56.000    38231193.919 5 150027438.58705      -686.613 5        33.826
