     3.04           OBSERVATION DATA    M                   RINEX VERSION / TYPE
ssrcrin-15.6.1x                         20250101 063000 UTC PGM / RUN BY / DATE 
(00000000023479385599111004) Septentrio proprietary         COMMENT             
ract                                                        MARKER NAME         
01                                                          MARKER NUMBER       
geodetic                                                    MARKER TYPE         
NFB                 CLIMERS@TUW                             OBSERVER / AGENCY   
3296359             SEPT ASTERX SB3 PROB4.14.4              REC # / TYPE / VERS 
Unknown             Unknown                                 ANT # / TYPE        
  4127446.1763  1206913.9576  4695543.9323                  APPROX POSITION XYZ 
        0.0000        0.0000        0.0000                  ANTENNA: DELTA H/E/N
G   23 X1  C1C L1C D1C S1C C1W S1W C2W L2W D2W S2W C2L L2L  SYS / # / OBS TYPES 
       D2L S2L C5Q L5Q D5Q S5Q C1L L1L D1L S1L              SYS / # / OBS TYPES 
E   21 X1  C1C L1C D1C S1C C6C L6C D6C S6C C5Q L5Q D5Q S5Q  SYS / # / OBS TYPES 
       C7Q L7Q D7Q S7Q C8Q L8Q D8Q S8Q                      SYS / # / OBS TYPES 
S    9 X1  C1C L1C D1C S1C C5I L5I D5I S5I                  SYS / # / OBS TYPES 
R   17 X1  C1C L1C D1C S1C C2P L2P D2P S2P C2C L2C D2C S2C  SYS / # / OBS TYPES 
       C3Q L3Q D3Q S3Q                                      SYS / # / OBS TYPES 
C   25 X1  C1P L1P D1P S1P C5P L5P D5P S5P C2I L2I D2I S2I  SYS / # / OBS TYPES 
       C7I L7I D7I S7I C6I L6I D6I S6I C7D L7D D7D S7D      SYS / # / OBS TYPES 
J   17 X1  C1C L1C D1C S1C C2L L2L D2L S2L C5Q L5Q D5Q S5Q  SYS / # / OBS TYPES 
       C1L L1L D1L S1L                                      SYS / # / OBS TYPES 
I    5 X1  C5A L5A D5A S5A                                  SYS / # / OBS TYPES 
SEPTENTRIO RECEIVERS OUTPUT ALIGNED CARRIER PHASES.         COMMENT             
NO FURTHER PHASE SHIFT APPLIED IN THE RINEX ENCODER.        COMMENT             
G L1C                                                       SYS / PHASE SHIFT   
G L2W                                                       SYS / PHASE SHIFT   
G L2L  0.00000                                              SYS / PHASE SHIFT   
G L5Q  0.00000                                              SYS / PHASE SHIFT   
G L1L  0.00000                                              SYS / PHASE SHIFT   
E L1C  0.00000                                              SYS / PHASE SHIFT   
E L6C  0.00000                                              SYS / PHASE SHIFT   
E L5Q  0.00000                                              SYS / PHASE SHIFT   
E L7Q  0.00000                                              SYS / PHASE SHIFT   
E L8Q  0.00000                                              SYS / PHASE SHIFT   
S L1C                                                       SYS / PHASE SHIFT   
S L5I                                                       SYS / PHASE SHIFT   
R L1C                                                       SYS / PHASE SHIFT   
R L2P  0.00000                                              SYS / PHASE SHIFT   
R L2C                                                       SYS / PHASE SHIFT   
R L3Q  0.00000                                              SYS / PHASE SHIFT   
C L1P  0.00000                                              SYS / PHASE SHIFT   
C L5P  0.00000                                              SYS / PHASE SHIFT   
C L2I                                                       SYS / PHASE SHIFT   
C L7I                                                       SYS / PHASE SHIFT   
C L6I                                                       SYS / PHASE SHIFT   
C L7D                                                       SYS / PHASE SHIFT   
J L1C                                                       SYS / PHASE SHIFT   
J L2L  0.00000                                              SYS / PHASE SHIFT   
J L5Q  0.00000                                              SYS / PHASE SHIFT   
J L1L  0.00000                                              SYS / PHASE SHIFT   
I L5A                                                       SYS / PHASE SHIFT   
  2025     1     1     6    30    0.0000000     GPS         TIME OF FIRST OBS   
 C1C    0.000 C2C    0.000 C2P    0.000                     GLONASS COD/PHS/BIS 
DBHZ                                                        SIGNAL STRENGTH UNIT
    18                                                      LEAP SECONDS        
 24 R01  1 R02 -4 R03  5 R04  6 R05  1 R06 -4 R07  5 R08  6 GLONASS SLOT / FRQ #
    R09 -2 R10 -7 R11  0 R12 -1 R13 -2 R14 -7 R15  0 R16 -1 GLONASS SLOT / FRQ #
    R17  4 R18 -3 R19  3 R20  2 R21  4 R22 -3 R23  3 R24  2 GLONASS SLOT / FRQ #
                                                            END OF HEADER       
> 2025 01 01 06 30  0.0000000  0 37
G13         2.000    22788450.450 7 119754193.98607      2215.348 7        46.175                                    22788444.472 3  93314892.82203      1726.233 3        20.929
G30         3.000    20440435.405 8 107415217.23908       -55.465 8        50.598                                    20440435.315 8  83700123.92108       -43.218 8        52.119    20440434.080 7  83700159.92507       -43.219 7        46.236
G14         4.000    23498026.218 6 123482973.14306      2670.719 6        40.348                                    23498022.724 3  96220499.75903      2081.076 3        19.493    23498024.303 5  96220493.78105      2081.148 5        35.657
G07         5.000    21159272.894 8 111192738.43308     -2238.165 8        48.753                                    21159266.570 6  86643692.02706     -1744.019 6        40.288    21159266.732 6  86643664.03006     -1743.943 6        37.456
E34         6.000    27320018.983 5 143567690.71705     -3944.445 5        35.162                                                                    27320023.712 5                     -2945.574 5        33.144    27320023.495 5 110006415.32405     -3022.330 5        30.891
G05         7.000    21794134.562 7 114528923.45007      1479.603 7        44.451                                    21794131.603 6  89243324.18706      1152.938 6        40.010    21794130.563 6  89243357.22706      1152.930 6        41.128
G09         9.000                                                                                                                                                                    22744271.355 4                     -2909.435 4        26.838
G20        10.000    20587770.361 7 108189487.36807      -930.603 7        47.609                                    20587765.709 6  84303465.39906      -725.139 6        36.132
E31        13.000    26787722.513 3                     -2512.856 3        20.500                                                                    26787735.532 4                     -1877.346 4        28.180    26787733.150 4                     -1926.329 4        28.398
E25        14.000    26185827.498 5 137607384.40005      2160.852 5        34.910                                                                    26185817.549 6 102758773.55806      1613.515 6        38.556    26185814.419 5 105439435.66105      1655.528 5        33.228
E24        15.000    25174502.413 6 132292930.81706       119.870 6        38.156                                                                    25174503.875 6  98790196.07006        89.525 6        38.523    25174504.046 6 101367278.48406        91.761 6        38.441
E15        16.000    25813689.722 7 135652022.03707     -2397.052 7        42.779                                                                    25813690.074 7 101298461.08807     -1790.045 7        42.531    25813690.650 7 103941005.36307     -1836.714 7        42.705
E08        17.000                                                                                                                                    28029385.263 5 109993340.54105      1226.917 5        33.150    28029383.759 5 112862852.20505      1258.803 5        35.586
E05        21.000    22195086.792 7 116635946.99807     -1822.871 7        45.442                                                                    22195087.267 7  87098320.58607     -1361.243 7        46.828    22195086.900 7  89370438.60807     -1396.799 7        47.611
E13        22.000    27014718.800 6 141963512.91906       244.433 6        37.781                                                                    27014718.961 6 106011577.55306       182.568 6        40.219    27014717.865 6 108777143.10506       187.216 6        40.412
R07        23.000    21254505.794 7 113776982.34707     -3697.417 7        46.179                                                                    21254504.423 5  88493237.75405     -2875.891 5        33.521
S23        24.000    38068023.016 6 200048744.26806      -815.904 6        38.955
S36        25.000    38132696.389 5 200388570.13405      -818.659 5        35.290
G11        26.000                                                                                                                                                                    23848644.327 5                     -2942.552 5        31.162
E03        27.000    23969792.002 7 125962102.64607       506.774 7        42.053                                                                    23969791.993 8  94062614.61808       378.362 8        49.474    23969790.409 7  96516397.56507       388.223 7        47.456
R11        28.000    21594953.145 6 115396914.22606      3251.067 6        39.868                                                                    21594952.162 5  89753121.39405      2528.652 5        32.006
R17        29.000    23179959.337 5                        47.655 5        35.838
R10        30.000    19366979.580 7 103236879.25707      -266.185 7        46.744
R24        31.000    23034225.910 6 123174540.19006     -3212.924 6        36.503                                                                    23034216.785 5  95802233.77105     -2499.130 5        34.538
R09        32.000    20924937.419 7 111737965.29307     -3726.249 7        45.047                                                                    20924933.681 6  86907304.77606     -2898.264 6        41.163
C19        33.000                                                                                                                                    25063820.919 5                     -3728.337 5        32.293                                                                    25063798.835 5 106053115.44505     -3029.306 5        31.049
R08        35.000    19231834.283 8 102985634.44508      -628.921 8        48.432                                                                    19231833.180 7  80099918.68407      -489.179 7        44.993
C05        36.000                                                                                                                                                                                                    39188255.913 5 157794803.13205      -675.873 5        34.019
R01        38.000    21704448.574 7 116022716.36007      2564.667 7        42.082                                                                    21704448.769 6  90239991.68706      1994.570 6        36.352
C36        42.000                                                                                                                                    21824793.065 7 113647408.36207     -1054.872 7        46.895                                                                    21824797.852 7  92347863.74907      -857.299 7        43.706
C09        46.000                                                                                                                                    39811197.193 4                     -1597.090 4        26.671    39811199.369 5 160303194.34105     -1235.206 5        32.036
C21        47.000                                                                                                                                    23099778.886 6 120286609.98506      1340.922 6        37.240                                                                    23099775.068 7  97742750.98307      1089.622 7        47.384
C45        49.000                                                                                                                                    23052709.944 7 120041478.45307      1818.093 7        43.062                                                                    23052704.408 7  97543527.14807      1477.291 7        46.359
C22        50.000                                                                                                                                    21489789.687 7 111902923.32207     -1554.061 7        42.064                                                                    21489783.684 7  90930279.08707     -1262.942 7        46.662
I09        58.000    38704733.489 6 151885696.39206     -1168.815 6        40.708
I02        59.000    38776861.849 5 152168741.40405       178.442 5        33.048
I06        60.000    37891773.506 4 148695350.78304      -634.760 4        29.194
> 2025 01 01 06 30  5.0000000  0 37
G13         2.000    22786343.513 7 119743119.68907      2214.488 7        46.681                                    22786337.349 3  93306263.52003      1725.570 3        21.143
G30         3.000    20440489.464 8 107415500.93508       -57.989 8        50.837                                    20440489.238 8  83700344.97908       -45.187 8        51.654    20440488.124 7  83700380.99307       -45.208 7        45.955
G14         4.000    23495484.611 6 123469621.91106      2669.890 6        41.247                                    23495482.297 3  96210096.21803      2080.470 3        19.463    23495484.304 5  96210090.23505      2080.617 5        35.757
G07         5.000    21161403.182 8 111203934.15708     -2240.026 8        49.486                                    21161397.021 6  86652415.95306     -1745.473 6        40.095    21161397.981 6  86652387.98106     -1745.550 6        37.070
E34         6.000    27323771.813 5 143587413.48705     -3944.585 5        34.886                                                                    27323777.299 5                     -2945.803 5        34.057    27323779.418 5 110021527.57305     -3022.557 5        30.687
G05         7.000    21792728.222 7 114521532.30807      1476.893 7        44.033                                    21792725.121 6  89237564.85506      1150.823 6        39.595    21792724.328 6  89237597.88106      1150.951 6        41.349
G09         9.000                                                                                                                                                                    22747823.809 3                     -2910.032 3        23.962
G20        10.000    20588657.418 7 108194149.35707      -934.092 7        47.719                                    20588653.062 6  84307098.10506      -727.867 6        36.098
E31        13.000    26790115.847 3                     -2515.764 3        21.905                                                                    26790127.658 4                     -1878.970 4        26.431    26790124.127 4                     -1927.685 4        28.408
E25        14.000    26183766.093 6 137596583.12706      2159.932 6        36.223                                                                    26183762.410 6 102750707.71306      1613.006 6        38.225    26183757.412 5 105431159.35705      1654.876 5        32.659
E24        15.000    25174390.294 6 132292338.22706       117.206 6        38.766                                                                    25174391.330 6  98789753.53806        87.570 6        38.168    25174392.193 6 101366824.39206        89.939 6        39.327
E15        16.000    25815972.029 7 135664013.74407     -2399.455 7        42.936                                                                    25815971.718 7 101307415.92907     -1791.798 7        42.449    25815972.726 7 103950193.82007     -1838.497 7        43.490
E08        17.000    28027850.344 5 147287420.07915      1642.718 5        32.605                                                                    28027822.268 5 109987206.56805      1226.821 5        32.754    28027820.774 5 112856558.23205      1258.719 5        35.533
E05        21.000    22196821.920 7 116645064.85907     -1824.095 7        45.866                                                                    22196822.406 7  87105129.36707     -1362.249 7        46.877    22196821.944 7  89377425.00907     -1397.694 7        47.871
E13        22.000    27014488.027 6 141962297.07206       242.063 6        38.120                                                                    27014487.562 6 106010669.65206       180.740 6        40.193    27014486.825 6 108776211.51906       185.437 6        40.970
R07        23.000    21257960.973 7 113795474.89707     -3699.443 7        46.812                                                                    21257959.813 5  88507620.79205     -2877.418 5        35.014
S23        24.000    38068797.975 6 200052824.86006      -816.201 6        38.952
S36        25.000    38133468.235 5 200392665.35705      -818.933 5        35.238
G11        26.000    23852229.108 5                     -3777.305 5        32.485                                                                                                    23852234.038 4                     -2943.523 4        29.005
E03        27.000    23969310.839 7 125959572.05407       505.638 7        42.239                                                                    23969310.500 8  94060724.86908       377.632 8        49.870    23969308.988 7  96514458.52107       387.438 7        47.662
R11        28.000    21591912.832 6 115380664.30206      3248.825 6        40.010                                                                    21591910.993 4  89740482.58704      2527.079 4        28.626
R17        29.000    23179919.454 6                        43.308 6        37.629
R10        30.000    19367231.374 7 103238221.70307      -270.797 7        47.447
R24        31.000    23037234.179 5 123190613.62005     -3216.375 5        35.729                                                                    23037224.018 5  95814735.27505     -2501.436 5        32.287
R09        32.000    20928422.005 7 111756604.50507     -3729.378 7        45.142                                                                    20928424.780 6  86921801.95106     -2900.669 6        41.974
C19        33.000                                                                                                                                    25067401.441 5                     -3728.884 5        33.922                                                                    25067377.538 4 106068264.23404     -3029.898 4        28.104
R08        35.000    19232423.971 8 102988786.69808      -631.899 8        48.546                                                                    19232421.805 7  80102370.41307      -491.449 7        44.992
C05        36.000                                                                                                                                                                                                    39189096.180 5 157798183.45705      -676.054 5        34.067
R01        38.000    21702048.678 6 116009895.56306      2563.762 6        41.409                                                                    21702051.504 6  90230019.94506      1993.911 6        36.250
C36        42.000                                                                                                                                    21825807.382 7 113652690.14507     -1057.672 7        46.336                                                                    21825812.533 7  92352155.60107      -859.439 7        44.026
C09        46.000                                                                                                                                    39812729.180 4                     -1596.906 4        26.144    39812732.670 5 160309371.22605     -1235.899 5        31.426
C21        47.000                                                                                                                                    23098491.994 6 120279909.34406      1339.404 6        39.616                                                                    23098488.208 7  97737306.16507      1088.436 7        47.218
C45        49.000                                                                                                                                    23050965.315 7 120032393.07407      1816.155 7        42.798                                                                    23050959.263 7  97536144.50507      1475.855 7        45.473
C22        50.000                                                                                                                                    21491283.063 7 111910700.07007     -1556.308 7        42.250                                                                    21491276.956 7  90936598.30907     -1264.668 7        45.983
I09        58.000    38706222.771 6 151891541.13606     -1169.051 6        41.001
I02        59.000    38776634.731 5 152167849.64105       178.289 5        33.389
I06        60.000    37892578.956 4 148698523.18304      -634.413 4        29.213
> 2025 01 01 06 30 10.0000000  0 37
G13         2.000    22784237.034 7 119732049.24007      2213.589 7        46.782                                    22784231.103 3  93297637.20203      1724.866 3        22.076
G30         3.000    20440546.016 8 107415796.83608       -60.465 8        50.688                                    20440545.397 8  83700575.54908       -47.117 8        51.204    20440544.354 7  83700611.56007       -47.136 7        45.288
G14         4.000    23492944.151 6 123456273.96806      2669.084 6        41.440                                    23492942.522 3  96199695.23503      2079.795 3        19.761    23492943.615 6  96199689.24606      2079.796 6        36.363
G07         5.000    21163535.349 8 111215138.79008     -2241.924 8        49.240                                    21163529.082 6  86661146.82306     -1746.952 6        40.024    21163530.111 6  86661118.85006     -1746.964 6        36.601
E34         6.000    27327524.243 5 143607137.59005     -3944.870 5        33.431                                                                    27327528.190 5 107239100.05215     -2945.926 5        33.742    27327534.943 5 110036640.82505     -3022.792 5        30.498
G05         7.000    21791323.360 7 114514154.03707      1474.224 7        43.619                                    21791320.969 6  89231815.55106      1148.743 6        39.129    21791319.883 6  89231848.57506      1148.724 6        41.089
G09         9.000    22751365.340 4                     -3735.174 4        26.299                                                                                                    22751379.352 3                     -2910.619 3        19.612
G20        10.000    20589547.595 7 108198828.14907      -937.523 7        46.887                                    20589543.603 5  84310743.90305      -730.535 5        35.748
E31        13.000    26792516.746 3                     -2518.332 3        23.714                                                                    26792520.016 4                     -1880.455 4        25.203    26792516.892 4                     -1929.123 4        27.545
E25        14.000    26181710.529 6 137585785.77106      2159.086 6        36.703                                                                    26181708.265 6 102742644.79806      1612.108 6        37.868    26181701.922 5 105422886.09205      1654.478 5        31.162
E24        15.000    25174281.541 6 132291757.53106       114.940 6        38.772                                                                    25174280.893 6  98789319.88506        85.834 6        38.360    25174281.909 6 101366379.44206        88.008 6        39.865
E15        16.000    25818255.989 7 135676016.22207     -2401.687 7        43.177                                                                    25818255.612 7 101316378.81407     -1793.663 7        42.370    25818256.645 7 103959390.52707     -1840.296 7        43.822
E08        17.000    28026288.337 5 147279206.07005      1642.784 5        31.162                                                                    28026258.716 5 109981072.77705      1226.857 5        32.162    28026257.560 5 112850264.41105      1258.734 5        35.248
E05        21.000    22198558.058 7 116654187.89807     -1825.270 7        46.432                                                                    22198558.383 7  87111942.01507     -1363.025 7        46.822    22198558.138 7  89384415.38407     -1398.557 7        47.988
E13        22.000    27014258.281 6 141961093.26506       239.571 6        37.739                                                                    27014258.318 6 106009770.71006       178.745 6        40.296    27014258.145 6 108775289.12306       183.475 6        41.106
R07        23.000    21261418.749 7 113813976.94807     -3701.488 7        47.203                                                                    21261416.513 5  88522011.19905     -2878.986 5        34.338
S23        24.000    38069576.275 6 200056905.70806      -816.309 6        39.243
S36        25.000    38134254.114 5 200396760.68105      -819.345 5        35.181
G11        26.000    23855826.823 5                     -3778.790 5        33.551                                                                                                    23855827.971 4                     -2944.395 4        26.120
E03        27.000    23968829.759 7 125957045.82707       504.691 7        42.318                                                                    23968829.774 8  94058838.38808       376.899 8        50.259    23968828.485 7  96512522.83407       386.689 7        47.669
R11        28.000    21588872.958 6 115364424.10606      3247.121 6        39.402                                                                    21588871.774 4  89727851.30204      2525.743 4        28.825
R17        29.000    23179883.557 5                        39.013 5        35.133                                                                    23179852.192 4                        30.867 4        29.839
R10        30.000    19367487.111 7 103239587.03407      -275.416 7        47.347
R24        31.000                                                                                                                                    23040227.823 4  95827249.07904     -2503.979 4        29.754
R09        32.000    20931916.545 7 111775258.72007     -3732.474 7        44.903                                                                    20931918.170 7  86936310.78507     -2902.979 7        42.053
C19        33.000                                                                                                                                    25070980.549 5 130551179.69115     -3730.138 5        34.619                                                                    25070955.421 4 106083416.89204     -3031.134 4        26.120
R08        35.000    19233014.509 8 102991952.75808      -634.722 8        48.070                                                                    19233012.533 7  80104832.89607      -493.693 7        44.530
C05        36.000                                                                                                                                                                                                    39189934.882 5 157801563.86205      -675.879 5        34.033
R01        38.000    21699652.557 7 115997078.70107      2562.854 7        42.167                                                                    21699652.049 5  90220051.26305      1993.413 5        35.343
C36        42.000                                                                                                                                    21826824.229 7 113657985.28807     -1060.545 7        45.713                                                                    21826829.587 7  92356458.35207      -861.851 7        44.328
C09        46.000                                                                                                                                    39814265.290 4                     -1597.071 4        26.072    39814267.293 5 160315547.92305     -1235.691 5        31.683
C21        47.000                                                                                                                                    23097207.238 7 120273215.17207      1338.002 7        42.148                                                                    23097202.509 7  97731866.65607      1087.089 7        46.887
C45        49.000                                                                                                                                    23049222.810 7 120023316.50507      1814.306 7        42.550                                                                    23049215.650 7  97528769.07607      1474.170 7        44.667
C22        50.000                                                                                                                                    21492778.472 7 111918487.45807     -1558.673 7        42.066                                                                    21492772.252 7  90942926.20707     -1266.740 7        45.248
I09        58.000    38707712.063 6 151897386.46506     -1169.148 6        41.006
I02        59.000    38776407.220 5 152166958.16705       178.229 5        33.000
I06        60.000    37893387.055 4 148701695.83504      -634.832 4        29.062
> 2025 01 01 06 30 15.0000000  0 37
G13         2.000    22782130.458 7 119720982.90107      2212.854 7        46.249                                    22782125.899 3  93289014.09503      1724.295 3        22.267
G30         3.000    20440604.737 8 107416105.20008       -62.888 8        51.015                                    20440603.846 8  83700815.83208       -49.002 8        50.965    20440602.968 7  83700851.83407       -49.005 7        44.786
G14         4.000    23490404.759 6 123442929.58406      2668.559 6        41.311                                    23490403.191 3  96189297.01803      2079.400 3        20.119    23490404.455 6  96189291.02306      2079.370 6        36.733
G07         5.000    21165669.144 8 111226352.59108     -2243.706 8        49.399                                    21165662.801 6  86669884.83706     -1748.341 6        40.162    21165664.253 6  86669856.84906     -1748.249 6        36.718
E34         6.000    27331276.616 5 143626863.20405     -3945.181 5        32.006                                                                    27331281.976 5 107253830.21805     -2946.047 5        33.808    27331288.835 4 110051755.25904     -3022.975 4        29.754
G05         7.000    21789921.703 7 114506788.97807      1471.663 7        44.342                                    21789919.160 6  89226076.54006      1146.753 6        38.760    21789917.855 6  89226109.55806      1146.724 6        40.625
G09         9.000    22754923.329 4                     -3737.025 4        29.327
G20        10.000    20590441.399 7 108203523.98407      -940.896 7        46.305                                    20590437.378 5  84314402.97605      -733.158 5        35.490
E31        13.000                                                                                                                                    26794913.506 3                     -1881.033 3        22.648    26794913.056 4                     -1930.402 4        27.245
E25        14.000    26179656.503 6 137574992.63906      2158.216 6        37.138                                                                    26179654.467 6 102734585.00106      1611.644 6        37.032    26179646.910 5 105414616.04705      1653.514 5        30.234
E24        15.000    25174173.783 6 132291189.02306       112.535 6        39.342                                                                    25174172.880 6  98788895.31506        84.024 6        38.387    25174173.411 6 101365943.80406        86.167 6        40.508
E15        16.000    25820541.825 7 135688029.73707     -2403.808 7        43.534                                                                    25820541.558 7 101325349.92107     -1795.021 7        42.218    25820542.839 7 103968595.68707     -1841.935 7        44.113
E08        17.000    28024726.624 4 147270992.60704      1642.333 4        28.682                                                                    28024695.651 5 109974939.37805      1226.749 5        30.506    28024694.344 5 112843970.98005      1258.572 5        34.448
E05        21.000    22200295.112 7 116663316.39607     -1826.292 7        47.176                                                                    22200295.501 7  87118758.73907     -1363.770 7        46.542    22200295.350 8  89391409.93608     -1399.306 8        48.047
E13        22.000    27014031.109 6 141959901.67306       237.154 6        36.907                                                                    27014031.459 6 106008880.87106       177.014 6        39.835    27014031.665 6 108774376.08606       181.639 6        41.573
R07        23.000    21264877.901 7 113832488.88407     -3703.345 7        47.475                                                                    21264871.279 5  88536409.30705     -2880.543 5        32.210
S23        24.000    38070350.259 6 200060986.83106      -816.125 6        39.183
S36        25.000    38135033.048 5 200400856.46105      -819.248 5        35.357
G11        26.000    23859424.400 5                     -3780.120 5        33.659                                                                                                    23859422.959 3                     -2945.593 3        22.438
E03        27.000    23968349.430 7 125954524.25007       503.714 7        42.210                                                                    23968349.911 8  94056955.37208       376.275 8        50.328    23968348.780 7  96510590.69707       386.025 7        47.785
R11        28.000    21585834.264 6 115348193.99706      3244.999 6        38.742                                                                    21585836.806 5  89715227.89305      2523.800 5        30.075
R17        29.000    23179850.003 5 124040020.71915        34.451 5        34.719
R10        30.000    19367747.038 7 103240975.47707      -280.032 7        47.435
R24        31.000    23043235.658 6 123222807.97606     -3222.640 6        38.006                                                                    23043236.994 4  95839775.35604     -2506.603 4        29.336
R09        32.000    20935413.790 7 111793928.14307     -3735.448 7        44.442                                                                    20935414.223 6  86950831.44106     -2905.470 6        40.620
C19        33.000                                                                                                                                    25074561.278 5 130569832.29605     -3731.428 5        34.452                                                                    25074536.056 4 106098573.59504     -3031.946 4        24.887
R08        35.000    19233605.679 7 102995132.91507      -637.471 7        47.342                                                                    19233606.335 7  80107306.34507      -495.811 7        44.254
C05        36.000                                                                                                                                                                                                    39190774.514 5 157804944.55205      -676.224 5        33.916
R01        38.000    21697256.500 6 115984266.04706      2562.160 6        41.471                                                                    21697256.059 5  90210085.86605      1992.543 5        34.938
C36        42.000                                                                                                                                    21827843.564 7 113663294.05307     -1063.137 7        44.805                                                                    21827849.306 7  92360772.15207      -863.973 7        44.602
C09        46.000                                                                                                                                    39815801.471 4                     -1597.423 4        27.293    39815805.309 5 160321724.59705     -1235.364 5        31.992
C21        47.000                                                                                                                                    23095921.424 7 120266527.76907      1336.760 7        44.066                                                                    23095918.180 7  97726432.58207      1086.287 7        46.646
C45        49.000                                                                                                                                    23047482.456 7 120014249.00607      1812.662 7        43.372                                                                    23047473.825 7  97521400.97907      1472.802 7        43.810
C22        50.000                                                                                                                                    21494275.415 6 111926285.72706     -1560.755 6        41.652                                                                    21494269.735 7  90949262.91007     -1268.299 7        44.551
I09        58.000    38709202.543 6 151903232.60006     -1169.215 6        41.170
I02        59.000    38776180.867 5 152166067.54605       178.021 5        33.024
I06        60.000    37894198.182 4 148704868.93704      -634.331 4        29.384
> 2025 01 01 06 30 20.0000000  0 37
G13         2.000    22780024.279 7 119709919.47407      2212.398 7        45.735                                    22780021.187 3  93280393.23903      1723.963 3        22.552
G30         3.000    20440665.439 8 107416424.83908       -64.998 8        51.495                                    20440664.409 8  83701064.90008       -50.646 8        50.788    20440663.912 7  83701100.89707       -50.599 7        44.373
G14         4.000    23487865.898 6 123429587.59306      2668.172 6        41.027                                    23487864.494 3  96178900.67703      2079.095 3        20.452    23487866.087 6  96178894.67106      2079.288 6        37.425
G07         5.000    21167804.878 8 111237574.32308     -2245.067 8        49.834                                    21167798.131 6  86678629.03706     -1749.398 6        40.403    21167799.943 6  86678601.04006     -1749.432 6        36.522
E34         6.000    27335029.024 4 143646589.22404     -3944.828 4        29.479                                                                    27335035.825 5 107268560.68505     -2945.880 5        33.916    27335042.564 4 110066869.93904     -3022.719 4        29.744
G05         7.000    21788522.922 7 114499435.87107      1469.432 7        45.068                                    21788519.489 6  89220346.84506      1145.012 6        38.339    21788518.792 6  89220379.85806      1145.042 6        40.057
G09         9.000    22758482.991 5                     -3737.658 5        30.808
G20        10.000    20591337.883 7 108208235.70807      -943.918 7        46.642                                    20591334.117 5  84318074.43705      -735.520 5        35.157
E31        13.000    26797345.396 4                     -2522.310 4        26.287                                                                    26797307.465 3                     -1883.056 3        20.524    26797309.497 4                     -1931.832 4        26.287
E25        14.000    26177602.299 6 137564202.46806      2157.670 6        37.214                                                                    26177601.566 6 102726527.44806      1611.172 6        36.567    26177592.986 4 105406348.20304      1653.545 4        28.635
E24        15.000    25174068.054 6 132290631.47006       110.516 6        39.916                                                                    25174066.889 6  98788478.95106        82.615 6        38.550    25174067.099 6 101365516.56706        84.766 6        40.839
E15        16.000    25822830.035 7 135700053.06907     -2405.635 7        43.363                                                                    25822829.393 7 101334328.36507     -1796.497 7        42.459    25822831.159 7 103977808.36807     -1843.274 7        44.653
E08        17.000                                                                                                                                    28023131.301 4 109968805.37404      1227.103 4        29.185    28023130.590 5 112837676.95405      1258.989 5        33.874
E05        21.000    22202032.821 7 116672449.14907     -1826.935 7        47.221                                                                    22202033.524 7  87125578.63207     -1364.274 7        46.659    22202033.319 8  89398407.74208     -1399.851 8        48.319
E13        22.000    27013805.581 5 141958721.14405       235.321 5        35.433                                                                    27013806.348 6 106007999.33006       175.371 6        39.303    27013807.326 6 108773471.54306       180.063 6        41.926
R07        23.000    21268337.576 7 113851009.42707     -3704.930 7        46.964                                                                    21268329.722 4  88550814.15804     -2881.643 4        28.597
S23        24.000    38071127.847 6 200065067.00306      -815.865 6        38.901
S36        25.000    38135812.130 5 200404951.57805      -818.784 5        35.014
G11        26.000    23863020.510 5 125401025.11915     -3780.923 5        34.414
E03        27.000    23967869.170 6 125952006.11106       503.397 6        41.268                                                                    23967870.851 8  94055074.93608       375.825 8        50.643    23967869.822 8  96508661.21008       385.643 8        48.128
R11        28.000    21582795.672 6 115331972.67906      3243.332 6        38.135                                                                    21582799.085 5  89702611.33205      2522.221 5        31.109
R17        29.000    23179826.983 5 124039856.26405        30.985 5        35.200                                                                    23179832.235 5  96475519.74315        24.116 5        33.707
R10        30.000    19368011.944 7 103242385.74307      -284.228 7        47.189
R24        31.000    23046252.135 6 123238927.76106     -3225.281 6        38.213                                                                    23046256.548 5  95852312.95905     -2508.473 5        31.962
R09        32.000    20938912.650 7 111812611.60407     -3738.082 7        42.732                                                                    20938912.601 6  86965363.00106     -2907.415 6        38.174
C19        33.000                                                                                                                                    25078139.370 5 130588488.70205     -3731.754 5        33.910                                                                    25078122.234 4 106113733.38504     -3032.890 4        25.669
R08        35.000    19234201.684 7 102998325.82307      -639.914 7        47.189                                                                    19234202.535 7  80109789.71607      -497.695 7        44.804
C05        36.000                                                                                                                                                                                                    39191614.075 5 157808324.61405      -675.999 5        34.562
R01        38.000    21694858.160 6 115971456.41906      2561.554 6        39.156                                                                    21694859.021 5  90200122.78205      1992.406 5        34.319
C36        42.000                                                                                                                                    21828866.206 7 113668615.25307     -1065.432 7        44.080                                                                    21828871.377 7  92365096.09707      -865.792 7        44.855
C09        46.000                                                                                                                                    39817334.558 4                     -1597.071 4        27.114    39817344.333 5 160327900.32005     -1234.823 5        31.555
C21        47.000                                                                                                                                    23094638.587 7 120259845.94707      1335.789 7        45.935                                                                    23094634.996 7  97721003.10807      1085.399 7        46.208
C45        49.000                                                                                                                                    23045744.173 7 120005189.40207      1811.147 7        44.677                                                                    23045733.702 7  97514039.35807      1471.590 7        43.033
C22        50.000                                                                                                                                    21495774.414 6 111934093.70206     -1562.591 6        41.878                                                                    21495769.019 7  90955607.54707     -1269.665 7        43.812
I09        58.000    38710691.676 6 151909078.62706     -1169.161 6        41.156
I02        59.000    38775953.071 5 152165176.76705       178.339 5        32.892
I06        60.000    37895006.272 4 148708041.58404      -634.553 4        29.251
> 2025 01 01 06 30 25.0000000  0 37
G13         2.000    22777919.295 7 119698860.11307      2211.426 7        45.371                                    22777917.302 3  93271775.55503      1723.186 3        22.762
G30         3.000    20440728.471 8 107416756.92808       -67.690 8        51.852                                    20440727.338 8  83701323.66808       -52.743 8        50.613    20440727.398 7  83701359.66207       -52.746 7        44.152
G14         4.000    23485327.633 6 123416249.17806      2667.261 6        40.489                                    23485326.383 3  96168507.10703      2078.386 3        20.405    23485327.764 6  96168501.10506      2078.371 6        37.648
G07         5.000    21169942.255 8 111248805.21408     -2247.116 8        49.917                                    21169935.289 6  86687380.37006     -1750.999 6        40.567    21169937.198 6  86687352.37106     -1750.979 6        36.510
E34         6.000    27338783.329 4 143666316.82504     -3946.018 4        27.653                                                                    27338789.432 5 107283292.25705     -2946.088 5        32.425    27338796.036 4 110081985.87204     -3023.837 4        29.280
G05         7.000    21787126.027 7 114492095.96207      1466.651 7        45.523                                    21787122.299 6  89214627.43606      1142.846 6        37.932    21787121.921 6  89214660.44806      1142.866 6        39.405
G09         9.000    22762042.627 5                     -3738.850 5        30.800                                                                                                    22762062.148 4                     -2912.941 4        25.233
G20        10.000    20592238.161 7 108212964.45107      -947.494 7        47.331                                    20592234.027 5  84321759.15605      -738.302 5        34.886
E31        13.000    26799739.378 4                     -2523.871 4        25.654                                                                                                                                    26799707.351 4                     -1933.944 4        26.563
E25        14.000    26175549.356 6 137553416.49706      2156.573 6        37.062                                                                    26175549.198 5 102718473.02005      1610.602 5        35.476    26175540.489 4 105398083.68604      1651.839 4        27.641
E24        15.000    25173964.844 6 132290086.08606       107.639 6        40.408                                                                    25173963.522 6  98788071.66206        80.416 6        38.745    25173962.909 6 101365098.66006        82.518 6        40.875
E15        16.000    25825120.104 7 135712087.40307     -2408.089 7        43.951                                                                    25825119.355 7 101343315.01207     -1798.126 7        42.317    25825121.589 7 103987029.47407     -1845.088 7        44.879
E08        17.000                                                                                                                                    28021566.901 4 109962671.71704      1227.167 4        27.868    28021567.222 5 112831383.30705      1258.576 5        33.192
E05        21.000    22203771.626 7 116681587.34107     -1828.165 7        47.144                                                                    22203772.597 7  87132402.59707     -1365.246 7        46.239    22203772.250 8  89405409.72208     -1400.800 8        48.412
E13        22.000    27013583.435 5 141957552.97105       232.062 5        35.195                                                                    27013583.786 6 106007126.95506       173.480 6        38.532    27013585.046 7 108772576.41907       178.021 7        42.047
R07        23.000    21271798.467 7 113869539.76207     -3707.132 7        46.803                                                                    21271796.504 4  88565226.54504     -2883.554 4        27.820
S23        24.000    38071905.623 6 200069147.69006      -816.256 6        38.793
S36        25.000    38136590.461 5 200409047.24905      -819.063 5        34.848
G11        26.000    23866620.111 5 125419934.10605     -3782.493 5        35.981
E03        27.000    23967390.754 6 125949492.60006       502.197 6        40.729                                                                    23967392.580 8  94053197.94908       375.061 8        50.508    23967391.684 8  96506735.25708       384.836 8        48.394
R11        28.000    21579760.089 6 115315761.44206      3241.109 6        37.784                                                                    21579764.846 5  89690002.61805      2520.868 5        31.094
R17        29.000    23179800.430 6 124039713.48306        26.439 6        38.751                                                                    23179806.643 5  96475408.73805        20.455 5        33.904
R10        30.000    19368280.788 7 103243818.82007      -288.931 7        46.231
R24        31.000    23049271.080 6 123255063.63706     -3228.776 6        38.372                                                                    23049275.709 5  95864863.03705     -2511.306 5        31.223
R09        32.000    20942412.911 6 111831310.23506     -3741.246 6        38.997                                                                    20942412.453 5  86979906.34605     -2910.081 5        34.171
C19        33.000                                                                                                                                    25081713.978 5 130607150.13705     -3732.604 5        32.485
R08        35.000    19234800.939 7 103001532.95307      -642.872 7        47.191                                                                    19234802.262 7  80112284.14407      -499.929 7        45.610
C05        36.000                                                                                                                                                                                                    39192453.407 5 157811704.90505      -676.045 5        33.719
R01        38.000    21692460.673 5 115958650.89305      2560.566 5        35.833                                                                    21692462.230 5  90190162.95605      1991.185 5        34.605
C36        42.000                                                                                                                                    21829891.850 7 113673950.05707     -1068.323 7        43.890                                                                    21829896.042 7  92369431.05207      -868.037 7        44.919
C09        46.000                                                                                                                                    39818871.825 4                     -1597.388 4        26.898    39818886.421 5 160334076.02705     -1235.221 5        31.019
C21        47.000                                                                                                                                    23093358.731 7 120253170.88907      1334.300 7        47.332                                                                    23093353.041 7  97715579.05907      1084.257 7        45.896
C45        49.000                                                                                                                                    23044006.638 7 119996138.87907      1809.159 7        45.691                                                                    23043995.517 7  97506685.06407      1470.140 7        42.880
C22        50.000                                                                                                                                    21497275.235 7 111941912.54407     -1564.973 7        42.097                                                                    21497270.369 7  90961960.97207     -1271.538 7        43.355
I09        58.000    38712181.803 6 151914925.42506     -1169.415 6        40.918
I02        59.000    38775726.134 5 152164286.77305       177.763 5        33.006
I06        60.000    37895818.122 4 148711214.70704      -634.950 4        29.118
> 2025 01 01 06 30 30.0000000  0 37
G13         2.000    22775815.506 7 119687804.68807      2210.737 7        45.016                                    22775814.070 3  93263160.93703      1722.640 3        22.552
G30         3.000    20440793.985 8 107417101.31908       -70.020 8        52.235                                    20440792.682 8  83701592.01708       -54.563 8        50.337    20440792.888 7  83701628.01607       -54.632 7        44.146
G14         4.000    23482790.328 6 123402914.20406      2666.634 6        39.273                                    23482789.238 3  96158116.19803      2077.913 3        19.672    23482789.483 6  96158110.20506      2078.087 6        37.985
G07         5.000    21172080.772 8 111260045.07208     -2248.829 8        49.007                                    21172074.281 6  86696138.69106     -1752.332 6        40.584    21172076.129 6  86696110.68106     -1752.408 6        36.870
E34         6.000    27342537.238 4 143686045.71804     -3945.963 4        27.449                                                                    27342543.032 5 107298024.88705     -2946.941 5        32.126    27342548.861 4 110097102.77004     -3023.399 4        28.815
G05         7.000    21785731.510 7 114484769.15907      1464.112 7        44.758                                    21785727.555 6  89208918.23006      1140.863 6        37.357    21785727.394 6  89208951.25406      1140.841 6        38.823
G09         9.000    22765604.033 4                     -3739.986 4        28.218
G20        10.000    20593141.326 7 108217710.07407      -950.732 7        47.633                                    20593137.035 5  84325457.02505      -740.832 5        34.495
E31        13.000    26802139.901 3                     -2525.764 3        22.381                                                                                                                                    26802108.321 4                     -1935.490 4        26.431
E25        14.000    26173497.079 6 137542634.56306      2156.299 6        37.047                                                                    26173496.901 5 102710421.64305      1610.014 5        34.310    26173488.423 4 105389822.21604      1651.941 4        25.639
E24        15.000    25173863.879 6 132289552.73206       105.449 6        41.147                                                                    25173862.154 6  98787673.34906        78.877 6        38.940    25173861.197 6 101364689.95906        80.817 6        40.837
E15        16.000    25827412.191 7 135724132.57407     -2410.025 7        44.020                                                                    25827411.301 7 101352309.76507     -1799.725 7        42.409    25827413.828 7 103996258.88607     -1846.652 7        45.050
E08        17.000    28020036.496 4                      1642.859 4        24.165                                                                    28020003.466 4 109956538.32904      1226.835 4        26.671    28020004.170 5 112825089.88405      1258.536 5        32.371
E05        21.000    22205511.641 7 116690730.82907     -1829.146 7        46.972                                                                    22205512.496 7  87139230.50507     -1365.908 7        46.055    22205512.150 8  89412415.75008     -1401.556 8        48.300
E13        22.000    27013363.771 5 141956396.87605       230.108 5        35.229                                                                    27013363.520 6 106006263.63006       171.802 6        37.883    27013365.166 7 108771690.57707       176.330 7        42.042
R07        23.000    21275262.892 7 113888080.07007     -3708.961 7        46.166                                                                    21275259.454 4  88579646.76404     -2884.228 4        28.370
S23        24.000    38072683.176 6 200073228.66406      -816.152 6        38.691
S36        25.000    38137368.541 5 200413142.91105      -819.159 5        34.876
G11        26.000    23870223.236 5 125438849.49805     -3783.844 5        35.881                                                                                                    23870252.370 4                     -2948.935 4        27.018
E03        27.000    23966913.893 6 125946983.56506       501.367 6        40.026                                                                    23966915.079 8  94051324.30808       374.469 8        50.504    23966914.355 8  96504812.73708       384.230 8        48.571
R11        28.000    21576729.209 6 115299560.15406      3239.352 6        37.667                                                                    21576739.219 5  89677401.57005      2519.536 5        30.551
R17        29.000    23179781.533 6 124039591.96606        22.296 6        38.276                                                                    23179786.157 5  96475314.17105        17.443 5        35.024
R10        30.000    19368552.843 7 103245274.78607      -293.424 7        45.290
R24        31.000    23052292.244 6 123271215.12806     -3231.748 6        39.273                                                                    23052297.275 5  95877425.36405     -2513.634 5        30.415
R09        32.000    20945915.765 6 111850023.97406     -3744.185 6        39.084                                                                    20945915.451 4  86994461.45304     -2911.966 4        29.943
C19        33.000                                                                                                                                    25085298.021 4 130625816.36304     -3733.368 4        29.668                                                                    25085314.857 5 106144064.63705     -3033.952 5        31.592
R08        35.000    19235403.374 7 103004753.99607      -645.569 7        47.479                                                                    19235403.812 7  80114789.38707      -502.079 7        46.770
C05        36.000                                                                                                                                                                                                    39193292.691 5 157815085.37405      -675.967 5        33.880
R01        38.000    21690065.924 5 115945849.45905      2559.970 5        32.575                                                                    21690069.263 5  90180206.24405      1991.073 5        34.629
C36        42.000                                                                                                                                    21830920.239 7 113679298.31007     -1070.906 7        44.671                                                                    21830923.236 7  92373776.94007      -870.141 7        44.611
C09        46.000                                                                                                                                    39820405.185 4                     -1596.899 4        27.293    39820419.493 5 160340251.60205     -1234.633 5        30.385
C21        47.000                                                                                                                                    23092079.553 7 120246502.43807      1333.158 7        47.995                                                                    23092072.292 7  97710160.38007      1083.370 7        45.168
C45        49.000                                                                                                                                    23042270.391 7 119987097.29507      1807.419 7        46.846                                                                    23042259.433 7  97499338.03207      1468.721 7        42.631
C22        50.000                                                                                                                                    21498777.835 7 111949742.07907     -1566.883 7        42.299                                                                    21498774.166 7  90968323.11907     -1273.373 7        42.633
I09        58.000    38713671.876 6 151920772.88406     -1169.420 6        41.008
I02        59.000    38775500.867 5 152163397.38305       177.818 5        32.922
I06        60.000    37896626.138 4 148714388.09104      -634.687 4        29.327
> 2025 01 01 06 30 35.0000000  0 36
G13         2.000    22773712.226 7 119676752.88507      2210.234 7        44.701                                    22773711.383 3  93254549.13103      1722.265 3        21.667
G30         3.000    20440861.681 8 107417457.68108       -72.180 8        52.267                                    20440860.387 8  83701869.69908       -56.242 8        50.238    20440861.021 7  83701905.68407       -56.185 7        44.414
G14         4.000    23480251.854 6 123389582.36806      2666.253 6        38.595                                    23480252.581 3  96147727.77703      2077.609 3        19.522    23480253.584 6  96147721.78406      2077.594 6        38.153
G07         5.000    21174220.734 8 111271293.60608     -2250.305 8        48.201                                    21174215.088 6  86704903.77206     -1753.482 6        40.465    21174216.789 6  86704875.76906     -1753.622 6        38.084
E34         6.000    27346293.017 5 143705775.68505     -3946.043 5        30.226                                                                    27346296.067 5 107312758.24005     -2946.681 5        30.626    27346300.188 4 110112220.45504     -3023.833 4        28.417
G05         7.000    21784339.089 7 114477454.97207      1461.866 7        43.886                                    21784335.325 6  89203218.86206      1139.119 6        37.180    21784336.595 6  89203251.86906      1139.066 6        39.288
G09         9.000    22769168.577 4                     -3740.072 4        24.677
G20        10.000    20594047.619 7 108222472.25707      -953.830 7        47.406                                    20594043.120 5  84329167.81005      -743.239 5        34.109
E31        13.000                                                                                                                                                                                                    26804513.983 4                     -1937.064 4        26.251
E25        14.000    26171444.386 6 137531856.38706      2155.552 6        37.059                                                                    26171445.372 5 102702373.03005      1609.638 5        33.216    26171436.997 4 105381563.60704      1651.550 4        25.173
E24        15.000    25173765.629 6 132289031.04806       103.490 6        41.859                                                                    25173763.136 6  98787283.77206        77.217 6        39.204    25173761.645 6 101364290.23006        79.287 6        40.598
E15        16.000    25829706.160 7 135736188.27507     -2411.951 7        44.004                                                                    25829705.353 7 101361312.38807     -1801.199 7        42.698    25829707.981 7 104005496.36507     -1848.170 7        45.243
E08        17.000    28018471.241 4                      1642.982 4        27.892                                                                    28018439.583 4 109950404.90404      1226.984 4        25.549    28018440.820 5 112818796.48205      1258.792 5        31.502
E05        21.000    22207252.504 7 116699879.28107     -1829.870 7        46.912                                                                    22207253.568 7  87146062.12807     -1366.503 7        46.062    22207252.939 8  89419425.58408     -1402.133 8        48.394
E13        22.000    27013145.872 5 141955252.56205       227.831 5        34.919                                                                    27013145.333 6 106005409.09206       170.235 6        37.077    27013147.433 6 108770813.75906       174.643 6        41.945
R07        23.000    21278729.539 7 113906629.52807     -3710.603 7        44.685                                                                    21278724.727 5  88594074.13105     -2886.092 5        30.838
S23        24.000    38073460.585 6 200077309.34706      -815.944 6        38.730
S36        25.000    38138150.927 5 200417239.36305      -819.049 5        34.948
G11        26.000    23873825.447 5 125457771.02605     -3784.606 5        34.114
E03        27.000    23966437.995 6 125944478.69506       500.872 6        39.417                                                                    23966438.370 8  94049453.78508       373.977 8        50.674    23966437.882 8  96502893.42308       383.714 8        48.894
R11        28.000    21573698.170 6 115283368.52006      3237.533 6        36.446                                                                    21573714.246 4  89664808.01504      2518.235 4        29.280
R10        30.000    19368829.807 7 103246753.37607      -297.705 7        45.321
R24        31.000    23055316.073 6 123287382.11206     -3234.597 6        41.256                                                                    23055321.151 5  95889999.64705     -2515.758 5        30.581
R09        32.000    20949424.314 7 111868752.48707     -3746.836 7        42.817                                                                    20949423.725 5  87009028.02505     -2914.078 5        30.483
C19        33.000                                                                                                                                    25088886.832 4 130644487.15204     -3734.457 4        25.594
R08        35.000    19236008.395 7 103007988.65307      -647.948 7        47.824                                                                    19236008.030 7  80117305.22707      -504.040 7        47.866
C05        36.000                                                                                                                                                                                                    39194132.528 5 157818465.75805      -675.676 5        33.671
R01        38.000    21687676.767 6 115933051.67906      2559.393 6        37.040                                                                    21687674.205 5  90170252.42805      1990.756 5        32.677
C36        42.000                                                                                                                                    21831949.512 7 113684659.69807     -1073.327 7        45.276                                                                    21831952.796 7  92378133.55107      -872.453 7        44.227
C09        46.000                                                                                                                                    39821939.962 4                     -1596.545 4        26.048    39821950.012 5 160346426.89605     -1234.820 5        30.317
C21        47.000                                                                                                                                    23090799.925 7 120239840.30107      1332.087 7        47.904                                                                    23090792.859 7  97704746.86507      1082.248 7        44.689
C45        49.000                                                                                                                                    23040536.096 7 119978064.33507      1806.044 7        47.552                                                                    23040525.142 7  97491998.04607      1467.329 7        43.045
C22        50.000                                                                                                                                    21500283.287 7 111957582.05307     -1568.767 7        42.076                                                                    21500279.961 7  90974693.74807     -1274.985 7        42.396
I09        58.000    38715161.591 6 151926620.80406     -1169.346 6        40.930
I02        59.000    38775273.901 5 152162508.24005       177.996 5        32.844
I06        60.000    37897430.848 4 148717561.57904      -634.495 4        29.062
> 2025 01 01 06 30 40.0000000  0 37
G13         2.000    22771610.129 7 119665704.07707      2209.403 7        44.817                                    22771609.095 3  93245939.65203      1721.625 3        21.024
G30         3.000    20440931.618 8 107417825.40908       -74.817 8        52.546                                    20440930.346 8  83702156.23208       -58.295 8        50.273    20440930.681 7  83702192.22707       -58.292 7        44.531
G14         4.000    23477716.224 6 123376253.06406      2665.523 6        38.949                                    23477716.397 3  96137341.29703      2077.028 3        19.672    23477717.158 6  96137335.29706      2077.004 6        38.357
G07         5.000    21176362.902 7 111282550.18707     -2252.290 7        47.542                                    21176357.563 6  86713675.12606     -1755.031 6        40.169    21176359.263 6  86713647.12406     -1755.020 6        39.357
E34         6.000    27350048.798 5 143725506.06105     -3946.149 5        32.102                                                                    27350048.981 4 107327491.94204     -2947.210 4        29.128    27350050.021 4 110127338.49804     -3024.065 4        28.929
G05         7.000    21782949.820 7 114470152.96107      1459.059 7        43.500                                    21782945.549 6  89197528.97506      1136.934 6        37.543    21782947.306 6  89197561.98506      1136.922 6        39.952
G09         9.000    22772735.940 4                     -3741.629 4        28.256                                                                                                    22772703.993 5                     -2915.444 5        30.823
G20        10.000    20594957.045 7 108227250.38207      -957.308 7        47.347                                    20594952.165 5  84332891.00805      -745.949 5        34.014
E31        13.000                                                                                                                                                                                                    26806921.880 4                     -1938.378 4        28.209
E25        14.000    26169392.087 6 137521081.34306      2154.525 6        36.870                                                                    26169394.238 5 102694326.80505      1608.676 5        32.281    26169386.413 3 105373307.33503      1652.355 3        23.752
E24        15.000    25173669.260 7 132288520.45407       100.821 7        42.256                                                                    25173665.861 6  98786902.48806        75.252 6        39.688    25173664.044 6 101363898.98806        77.425 6        40.665
E15        16.000    25832001.780 7 135748253.86607     -2414.185 7        43.905                                                                    25832001.219 7 101370322.38707     -1802.798 7        42.946    25832003.805 7 104014741.42507     -1849.964 7        45.368
E08        17.000    28016908.771 4                      1642.837 4        29.223                                                                    28016877.789 4 109944271.06704      1225.895 4        24.902    28016877.300 5 112812502.58705      1258.575 5        30.385
E05        21.000    22208994.238 7 116709032.09807     -1831.184 7        46.925                                                                    22208995.305 7  87152897.00707     -1367.456 7        46.057    22208994.620 8  89426438.77008     -1403.125 8        48.607
E13        22.000    27012930.781 5 141954119.40005       225.474 5        34.833                                                                    27012929.482 6 106004562.95806       168.188 6        36.681    27012931.606 7 108769945.53507       172.660 7        42.229
R07        23.000    21282194.910 6 113925187.63906     -3712.744 6        41.080                                                                    21282192.827 5  88608508.23005     -2887.642 5        33.946
S23        24.000    38074235.696 6 200081389.28606      -815.908 6        38.634
S36        25.000    38138926.240 5 200421335.42105      -819.257 5        35.267
G11        26.000    23877425.876 5 125476698.04405     -3786.258 5        32.275                                                                                                    23877429.561 4                     -2950.040 4        29.943
E03        27.000    23965962.632 6 125941977.40806       499.771 6        38.928                                                                    23965962.370 8  94047585.91708       373.173 8        50.585    23965961.945 8  96500976.82708       382.932 8        49.474
R11        28.000    21570668.806 5 115267185.79805      3235.556 5        34.929                                                                    21570685.293 4  89652221.40204      2516.543 4        28.464
R17        29.000    23179766.473 4 124039411.28204        13.976 4        29.185
R10        30.000    19369111.785 7 103248253.90707      -302.412 7        44.679
R24        31.000    23058343.462 7 123303563.84107     -3237.892 7        42.724                                                                    23058347.796 5  95902585.39605     -2518.175 5        32.293
R09        32.000    20952934.907 7 111887495.09507     -3750.039 7        44.832                                                                    20952933.272 5  87023605.61405     -2917.197 5        32.024
C19        33.000                                                                                                                                    25092462.578 3                     -3732.866 3        22.857                                                                    25092468.071 5 106174410.74305     -3035.222 5        34.724
R08        35.000    19236615.812 8 103011236.35008      -650.932 8        48.734                                                                    19236614.577 8  80119831.18608      -506.293 8        48.266
C05        36.000                                                                                                                                                                                                    39194972.827 5 157821845.59205      -675.886 5        33.802
R01        38.000    21685285.339 6 115920257.15006      2558.482 6        39.922                                                                    21685280.302 5  90160301.10805      1990.030 5        31.253
C36        42.000                                                                                                                                    21832980.412 7 113690033.64707     -1076.110 7        45.415                                                                    21832984.665 7  92382500.31307      -874.431 7        43.609
C09        46.000                                                                                                                                    39823472.329 4                     -1596.401 4        25.865    39823480.906 5 160352601.26705     -1234.994 5        30.121
C21        47.000                                                                                                                                    23089520.596 7 120233183.88407      1330.577 7        47.362                                                                    23089514.690 7  97699337.96607      1081.343 7        44.172
C45        49.000                                                                                                                                    23038803.027 7 119969039.42507      1804.067 7        47.983                                                                    23038792.630 7  97484664.56107      1465.993 7        43.769
C22        50.000                                                                                                                                    21501791.314 7 111965431.84907     -1571.057 7        42.193                                                                    21501787.523 7  90981072.33007     -1276.509 7        42.055
I09        58.000    38716652.481 6 151932468.67206     -1169.835 6        40.846
I02        59.000    38775046.838 5 152161619.20405       177.417 5        33.108
I06        60.000    37898240.652 4 148720734.67304      -634.643 4        29.251
> 2025 01 01 06 30 45.0000000  0 38
G13         2.000    22769508.373 7 119654658.69607      2208.688 7        45.249                                    22769506.985 3  93237332.85903      1721.051 3        20.786
G30         3.000    20441003.965 8 107418204.93208       -77.110 8        52.893                                    20441002.647 8  83702451.95708       -60.084 8        50.478    20441002.935 7  83702487.94707       -60.078 7        44.262
G14         4.000    23475181.250 6 123362926.73806      2664.866 6        40.248                                    23475180.969 3  96126957.13803      2076.531 3        19.672    23475181.385 6  96126951.14406      2076.607 6        38.655
G07         5.000    21178506.503 7 111293815.20907     -2253.961 7        46.770                                    21178501.720 6  86722453.05506     -1756.332 6        39.610    21178502.113 6  86722425.05406     -1756.357 6        39.793
E34         6.000    27353802.225 5 143745237.29505     -3946.489 5        33.970                                                                    27353802.343 4 107342226.22304     -2947.218 4        27.988    27353802.547 5 110142457.16605     -3023.790 5        30.045
G05         7.000    21781563.525 7 114462863.50707      1456.550 7        44.626                                    21781558.335 6  89191848.87406      1134.978 6        38.282    21781559.963 6  89191881.86406      1135.108 6        40.346
G09         9.000    22776298.141 5                     -3742.312 5        31.215                                                                                                    22776268.663 5                     -2916.114 5        30.536
G20        10.000    20595869.428 7 108232044.86107      -960.598 7        47.852                                    20595864.157 5  84336626.95305      -748.523 5        33.838
E31        13.000    26809326.644 4                     -2531.563 4        24.842                                                                                                                                    26809331.959 4                     -1939.457 4        29.772
E25        14.000    26167340.902 6 137510309.87806      2153.736 6        36.612                                                                    26167342.973 5 102686283.15505      1608.809 5        31.230    26167334.815 3                      1650.664 3        22.019
E24        15.000    25173573.326 7 132288021.38907        98.537 7        42.237                                                                    25173571.083 6  98786529.78406        73.602 6        40.000    25173568.857 6 101363516.59006        75.403 6        40.226
E15        16.000    25834299.202 7 135760329.77807     -2416.236 7        43.139                                                                    25834299.166 7 101379340.09107     -1804.368 7        43.060    25834301.603 7 104023994.37707     -1851.440 7        45.470
E08        17.000    28015350.191 4                      1642.722 4        28.938                                                                    28015318.766 4 109938136.99404      1226.099 4        25.398    28015313.590 5 112806208.54405      1258.624 5        30.121
G06        19.000    25592039.529 3                     -4251.458 3        21.024
E05        21.000    22210736.533 7 116718189.69207     -1832.004 7        47.030                                                                    22210738.018 7  87159735.45807     -1368.147 7        46.091    22210737.203 8  89433455.60908     -1403.832 8        48.515
E13        22.000    27012717.082 5 141952997.90005       222.924 5        34.810                                                                    27012715.968 6 106003725.47706       166.421 6        36.594    27012718.189 7 108769086.22007       170.881 7        42.209
R07        23.000    21285657.033 6 113943754.86506     -3714.411 6        37.467                                                                    21285659.814 5  88622949.48505     -2889.326 5        35.310
S23        24.000    38075011.067 6 200085469.03206      -815.849 6        38.973
S36        25.000    38139707.513 5 200425430.24405      -818.826 5        35.314
G11        26.000    23881029.837 5 125495631.01505     -3787.753 5        30.974                                                                                                    23881036.345 5                     -2951.187 5        33.024
E03        27.000    23965488.228 6 125939480.09506       498.924 6        38.943                                                                    23965487.064 8  94045721.02308       372.618 8        50.708    23965486.764 8  96499063.28208       382.333 8        49.955
R11        28.000    21567647.431 6 115251012.59606      3233.567 6        36.287                                                                    21567658.545 4  89639642.23804      2515.132 4        29.943
R17        29.000                                                                                                                                    23179766.748 5  96475127.93705         7.459 5        31.638
R10        30.000    19369396.814 7 103249776.71707      -306.939 7        44.807
R24        31.000    23061374.280 7 123319760.82307     -3240.996 7        44.336                                                                    23061381.327 5  95915182.99805     -2520.827 5        33.593
R09        32.000    20956447.684 7 111906252.22407     -3752.900 7        45.979                                                                    20956445.292 5  87038194.46105     -2919.104 5        33.365
C19        33.000                                                                                                                                    25096049.303 3                     -3735.939 3        23.010                                                                    25096054.758 5 106189588.75305     -3035.917 5        35.519
R08        35.000    19237226.668 8 103014497.51208      -653.660 8        49.725                                                                    19237223.186 8  80122367.62308      -508.414 8        48.185
C05        36.000                                                                                                                                                                                                    39195811.694 5 157825225.21205      -676.084 5        34.014
R01        38.000    21682890.564 6 115907466.28506      2557.716 6        41.218                                                                    21682888.825 4  90150352.64204      1989.246 4        29.374
C36        42.000                                                                                                                                    21834014.131 7 113695420.53307     -1078.705 7        45.555                                                                    21834018.796 7  92386877.56607      -876.596 7        42.861
C09        46.000                                                                                                                                    39824998.333 4                     -1597.146 4        24.421    39825015.545 5 160358775.15405     -1234.920 5        30.204
C21        47.000                                                                                                                                    23088243.683 7 120226533.59807      1329.372 7        46.747                                                                    23088237.486 7  97693934.03207      1080.156 7        43.653
C45        49.000                                                                                                                                    23037071.604 7 119960022.97407      1802.387 7        47.649                                                                    23037061.682 7  97477337.93207      1464.620 7        44.632
C22        50.000                                                                                                                                    21503301.201 7 111973291.85507     -1573.024 7        43.005                                                                    21503297.073 6  90987459.20406     -1278.267 6        41.778
I09        58.000    38718142.456 6 151938316.82806     -1169.708 6        40.729
I02        59.000    38774820.783 5 152160730.33805       178.122 5        33.126
I06        60.000    37899049.459 4 148723907.72904      -634.521 4        29.223
> 2025 01 01 06 30 50.0000000  0 37
G13         2.000    22767407.865 7 119643616.93207      2208.091 7        45.553                                    22767405.483 3  93228728.87303      1720.590 3        20.571
G30         3.000    20441078.662 8 107418596.43208       -79.447 8        52.637                                    20441077.279 8  83702757.01308       -61.909 8        50.617    20441077.443 7  83702793.00107       -61.846 7        44.197
G14         4.000    23472645.578 6 123349603.54706      2664.294 6        40.539                                    23472645.805 3  96116575.44103      2076.058 3        19.582    23472645.448 6  96116569.44506      2076.001 6        38.712
G07         5.000    21180651.689 7 111305088.84207     -2255.544 7        45.387                                    21180647.459 6  86731237.70306     -1757.566 6        38.697    21180647.458 6  86731209.70806     -1757.589 6        39.886
E34         6.000    27357556.924 5 143764969.50105     -3946.716 5        35.433                                                                    27357555.116 4 107356961.23704     -2946.270 4        26.695    27357557.948 5 110157576.64605     -3024.483 5        30.340
G05         7.000    21780179.118 7 114455586.63307      1454.062 7        45.965                                    21780173.680 6  89186178.57506      1133.034 6        39.132    21780175.192 6  89186211.58906      1132.965 6        40.801
G09         9.000                                                                                                                                                                    22779829.201 5                     -2916.936 5        30.226
G20        10.000    20596785.087 8 108236855.89908      -963.846 8        48.058                                    20596779.248 5  84340375.80305      -751.041 5        33.868
E31        13.000    26811737.832 4                     -2533.858 4        25.368                                                                                                                                    26811743.733 5                     -1941.348 5        31.223
E25        14.000    26165291.013 6 137499542.16206      2153.193 6        36.480                                                                    26165293.049 5 102678242.38005      1608.258 5        30.604    26165286.620 3                      1648.927 3        20.833
E24        15.000    25173478.991 7 132287534.01107        96.347 7        42.366                                                                    25173478.512 6  98786165.83106        71.860 6        40.346    25173476.108 6 101363143.14006        73.844 6        40.141
E15        16.000    25836598.731 7 135772416.19607     -2418.407 7        42.827                                                                    25836599.194 7 101388365.64407     -1805.878 7        43.168    25836601.453 7 104033255.37007     -1853.084 7        45.041
E08        17.000    28013785.485 4                      1642.659 4        29.678                                                                    28013760.446 4 109932002.87604      1227.567 4        25.684    28013749.612 4 112799914.45704      1258.964 4        28.161
E05        21.000    22212480.324 7 116727352.23307     -1832.973 7        47.395                                                                    22212481.597 7  87166577.59907     -1368.749 7        46.020    22212480.585 8  89440476.23608     -1404.498 8        48.319
E13        22.000    27012505.171 5 141951888.14905       220.994 5        34.829                                                                    27012504.808 6 106002896.79006       165.012 6        36.250    27012506.891 6 108768235.92006       169.095 6        41.881
R07        23.000    21289123.590 6 113962331.55806     -3716.180 6        38.000                                                                    21289131.824 6  88637398.02306     -2890.443 6        36.495
S23        24.000    38075786.160 6 200089548.60906      -815.837 6        39.027
S36        25.000    38140491.603 5 200429523.82905      -818.905 5        34.867
G11        26.000                                                                                                                                                                    23884642.423 5  97803619.68515     -2951.866 5        34.467
E03        27.000    23965013.234 6 125936986.93506       498.224 6        39.114                                                                    23965012.600 8  94043859.23708       372.062 8        50.594    23965012.313 8  96497152.92908       381.774 8        50.119
R11        28.000    21564625.415 6 115234849.04906      3231.792 6        39.297                                                                    21564635.130 5  89627070.60305      2513.521 5        30.906
R17        29.000    23179714.915 5 124039313.93905         5.541 5        34.919
R10        30.000    19369687.149 7 103251322.11107      -311.257 7        45.725
R24        31.000    23064408.564 7 123335973.16507     -3243.888 7        44.605                                                                    23064413.559 5  95927792.53705     -2523.096 5        33.114
R09        32.000    20959963.091 7 111925023.80007     -3755.823 7        46.552                                                                    20959959.879 5  87052794.55805     -2921.313 5        34.552
C19        33.000                                                                                                                                    25099636.590 4                     -3736.250 4        24.421                                                                    25099643.648 5 106204770.40905     -3036.675 5        35.914
R08        35.000    19237838.143 8 103017772.26508      -656.258 8        48.730                                                                    19237835.148 8  80124914.63008      -510.450 8        48.396
C05        36.000                                                                                                                                                                                                    39196650.427 5 157828604.69705      -675.868 5        33.695
R01        38.000    21680497.280 6 115894679.10606      2557.079 6        41.456                                                                    21680495.832 5  90140407.06005      1988.724 5        30.566
C36        42.000                                                                                                                                    21835050.621 7 113700820.51307     -1081.275 7        46.212                                                                    21835055.332 7  92391265.50307      -878.684 7        42.129
C09        46.000                                                                                                                                    39826530.297 3                     -1595.683 3        23.067    39826548.487 5 160364948.60205     -1234.561 5        30.000
C21        47.000                                                                                                                                    23086968.598 7 120219889.59807      1328.242 7        46.175                                                                    23086961.694 7  97688535.23307      1079.276 7        43.221
C45        49.000                                                                                                                                    23035342.059 7 119951015.16607      1800.728 7        46.947                                                                    23035332.051 7  97470018.34407      1463.238 7        45.476
C22        50.000                                                                                                                                    21504813.309 7 111981162.25307     -1575.078 7        43.482                                                                    21504808.172 6  90993854.55406     -1279.911 6        41.282
I09        58.000    38719632.632 6 151944165.38006     -1169.702 6        40.651
I02        59.000    38774593.978 5 152159841.82605       177.887 5        32.725
I06        60.000    37899859.831 4 148727080.85704      -634.680 4        29.536
> 2025 01 01 06 30 55.0000000  0 37
G13         2.000    22765307.205 7 119632579.48907      2207.524 7        45.511                                    22765304.594 3  93220128.25703      1720.148 3        20.429
G30         3.000    20441155.573 8 107419000.58108       -81.657 8        52.716                                    20441154.347 8  83703071.92708       -63.626 8        50.752    20441154.502 7  83703107.91507       -63.605 7        44.033
G14         4.000    23470110.956 6 123336284.25606      2663.962 6        40.777                                    23470111.397 3  96106196.75703      2075.825 3        19.910    23470110.730 6  96106190.78206      2075.604 6        38.535
G07         5.000    21182798.725 7 111316371.81307     -2257.076 7        43.700                                    21182794.898 6  86740029.62306     -1758.755 6        37.580    21182793.645 6  86740001.60806     -1758.824 6        39.529
E34         6.000    27361312.611 5 143784703.41305     -3946.605 5        35.943                                                                    27361310.591 4 107371697.56804     -2946.993 4        27.916    27361313.980 5 110172697.39305     -3023.959 5        31.185
G05         7.000    21778796.936 7 114448323.25307      1451.750 7        46.475                                    21778791.689 6  89180518.79806      1131.234 6        40.029    21778793.419 6  89180551.80006      1131.303 6        41.440
G09         9.000                                                                                                                                                                    22783389.945 4                     -2917.471 4        29.934
G20        10.000    20597703.990 8 108241684.18608      -966.900 8        48.286                                    20597697.652 5  84344138.09005      -753.429 5        33.964
E31        13.000    26814146.324 3                     -2535.222 3        22.914                                                                                                                                    26814156.406 5                     -1942.633 5        32.431
E25        14.000    26163243.310 6 137488778.92006      2152.476 6        36.151                                                                    26163245.122 5 102670204.94505      1607.215 5        30.551    26163236.466 3                      1653.070 3        19.254
E24        15.000    25173387.468 7 132287059.05007        94.132 7        42.089                                                                    25173388.219 6  98785811.13206        70.291 6        40.849    25173385.794 6 101362779.19706        72.142 6        40.002
E15        16.000    25838900.425 7 135784513.78507     -2420.261 7        42.248                                                                    25838901.319 7 101397399.52407     -1807.271 7        43.234    25838903.311 7 104042524.91107     -1854.351 7        44.634
E08        17.000                                                                                                                                                                                                    28012185.749 4 112793620.94904      1258.817 4        26.515
E05        21.000    22214225.278 7 116736520.44107     -1833.834 7        47.454                                                                    22214226.229 7  87173423.96707     -1369.316 7        45.997    22214225.126 8  89447501.20508     -1405.124 8        48.078
E13        22.000    27012296.941 5 141950790.93805       218.632 5        34.648                                                                    27012296.440 5 106002077.41605       163.443 5        35.914    27012298.117 6 108767395.17806       167.470 6        41.769
R07        23.000    21292599.661 6 113980918.33006     -3718.015 6        39.264                                                                    21292604.637 6  88651854.37606     -2891.663 6        37.403
S23        24.000    38076565.072 6 200093628.55806      -815.535 6        38.958
S36        25.000    38141265.417 5 200433618.64205      -818.634 5        34.876
G11        26.000                                                                                                                                                                    23888245.724 5  97818382.65805     -2952.806 5        35.405
E03        27.000    23964539.667 6 125934498.63806       497.595 6        38.246                                                                    23964539.068 8  94042001.07308       371.595 8        50.483    23964538.734 8  96495246.29108       381.276 8        50.352
R11        28.000    21561602.991 7 115218695.89507      3230.084 7        42.131                                                                    21561612.448 5  89614507.00605      2512.493 5        31.449
R17        29.000    23179714.092 5 124039297.52805         1.962 5        31.117
R10        30.000    19369982.204 7 103252890.78907      -315.581 7        46.589
R24        31.000    23067441.654 7 123352201.40407     -3246.893 7        42.239                                                                    23067448.587 5  95940414.47305     -2525.323 5        32.569
R09        32.000    20963481.359 7 111943810.78707     -3758.493 7        46.736                                                                    20963477.898 5  87067406.60805     -2923.203 5        35.067
C19        33.000                                                                                                                                    25103229.181 4                     -3738.014 4        28.104                                                                    25103232.240 5 106219956.28705     -3037.542 5        35.852
R08        35.000    19238450.872 8 103021061.33108      -658.786 8        48.392                                                                    19238449.312 8  80127472.78708      -512.358 8        48.605
C05        36.000                                                                                                                                                                                                    39197490.449 5 157831984.60205      -675.639 5        33.766
R01        38.000    21678105.412 7 115881896.35307      2556.585 7        42.557                                                                    21678108.499 5  90130464.92405      1988.307 5        33.030
C36        42.000                                                                                                                                    21836090.551 7 113706234.29907     -1083.727 7        47.288                                                                    21836094.565 6  92395664.67606      -880.954 6        41.366
C09        46.000                                                                                                                                    39828067.699 3                     -1598.306 3        22.876    39828085.789 5 160371122.22705     -1234.584 5        30.423
C21        47.000                                                                                                                                    23085694.835 7 120213252.60407      1327.193 7        46.427                                                                    23085687.229 7  97683142.16207      1078.243 7        43.344
C45        49.000                                                                                                                                    23033614.384 7 119942016.68607      1799.222 7        46.559                                                                    23033604.070 7  97462706.36907      1461.748 7        46.203
C22        50.000                                                                                                                                    21506326.559 7 111989043.77607     -1577.042 7        43.189                                                                    21506321.443 6  91000258.94106     -1281.759 6        40.937
I09        58.000    38721122.807 6 151950014.91706     -1169.869 6        40.453
I02        59.000    38774367.341 5 152158954.27905       177.621 5        32.275
I06        60.000    37900667.081 4 148730254.55104      -634.429 4        29.791
> 2025 01 01 06 31  0.0000000  0 37
G13         2.000    22763207.070 7 119621545.63907      2206.467 7        44.631                                    22763204.349 3  93211530.45403      1719.346 3        20.214
G30         3.000    20441234.868 8 107419416.65108       -84.343 8        53.060                                    20441233.665 8  83703396.12808       -65.718 8        50.723    20441233.951 7  83703432.12107       -65.666 7        43.918
G14         4.000    23467577.179 6 123322968.08406      2662.921 6        41.480                                    23467577.516 3  96095820.52003      2074.998 3        20.119    23467576.136 6  96095814.54106      2075.141 6        38.102
G07         5.000    21184947.791 6 111327663.37006     -2259.277 6        41.578                                    21184943.834 6  86748828.23706     -1760.478 6        36.318    21184942.032 6  86748800.23606     -1760.417 6        38.961
E34         6.000    27365068.357 5 143804438.27605     -3947.207 5        35.967                                                                    27365067.246 4 107386434.63604     -2947.846 4        27.593    27365070.482 5 110187818.88105     -3024.086 5        32.473
G05         7.000    21777416.959 7 114441072.61107      1448.840 7        46.555                                    21777412.238 6  89174868.94306      1128.964 6        40.682    21777413.954 6  89174901.94406      1129.043 6        41.859
G09         9.000    22786939.150 5                     -3745.304 5        30.732                                                                                                    22786949.089 4                     -2918.542 4        27.305
G20        10.000    20598625.734 8 108246528.99208      -970.713 8        48.157                                    20598619.392 5  84347913.25605      -756.397 5        33.922
E31        13.000    26816561.067 3                     -2537.332 3        23.486                                                                                                                                    26816571.279 5                     -1944.383 5        32.940
E25        14.000    26161195.689 5 137478019.38505      2151.367 5        35.210                                                                    26161198.027 5 102662170.22005      1606.682 5        30.589
E24        15.000    25173298.703 6 132286595.73406        91.503 6        41.445                                                                    25173300.017 6  98785465.13306        68.395 6        41.046    25173298.043 6 101362424.18306        70.211 6        40.126
E15        16.000    25841204.383 7 135796621.80407     -2422.690 7        42.135                                                                    25841205.596 7 101406441.20307     -1809.133 7        43.338    25841207.387 7 104051802.45907     -1856.307 7        43.991
E08        17.000    28010643.321 4                      1642.540 4        29.915                                                                    28010658.319 4 109919735.66204      1226.703 4        26.455    28010622.195 4 112787327.29004      1259.838 4        24.511
E05        21.000    22215971.034 7 116745693.55107     -1835.115 7        47.342                                                                    22215971.737 7  87180274.01207     -1370.385 7        46.124    22215970.665 7  89454529.93607     -1406.117 7        47.694
E13        22.000    27012091.012 5 141949705.48305       216.011 5        35.076                                                                    27012089.978 6 106001266.82506       161.353 6        36.053    27012091.692 6 108766563.45006       165.293 6        41.349
R07        23.000    21296077.724 6 113999514.25706     -3720.079 6        41.952                                                                    21296077.819 6  88666317.86306     -2893.408 6        37.962
S23        24.000    38077342.066 6 200097708.35906      -815.927 6        39.060
S36        25.000    38142044.423 5 200437712.21705      -818.951 5        35.405
G11        26.000                                                                                                                                                                    23891852.779 5  97833150.28805     -2954.070 5        35.462
E03        27.000    23964066.865 6 125932014.48106       496.294 6        37.947                                                                    23964066.360 8  94040145.99308       370.671 8        50.354    23964065.916 8  96493342.81908       380.347 8        50.314
R11        28.000    21558583.503 7 115202552.35807      3227.838 7        43.537                                                                    21558592.291 5  89601950.90305      2510.339 5        31.638
R17        29.000                                                                                                                                    23179711.918 4  96475088.99104        -2.605 4        27.820
R10        30.000    19370281.081 7 103254482.04907      -320.563 7        46.772
R24        31.000    23070477.970 6 123368445.04306     -3250.313 6        41.237                                                                    23070485.673 5  95953048.46405     -2527.808 5        30.083
R09        32.000    20967001.501 7 111962612.37507     -3761.793 7        46.422                                                                    20966999.514 6  87082030.07106     -2925.814 6        36.102
C19        33.000                                                                                                                                    25106820.368 5                     -3739.216 5        30.611                                                                    25106821.540 5 106235145.69405     -3038.167 5        35.181
R08        35.000    19239067.860 8 103024364.09508      -661.950 8        48.077                                                                    19239066.136 8  80130041.59508      -514.801 8        48.487
C05        36.000                                                                                                                                                                                                    39198329.634 5 157835364.42105      -675.961 5        33.874
R01        38.000    21675716.456 7 115869117.40907      2555.333 7        43.831                                                                    21675716.212 5  90120525.73205      1987.476 5        34.086
C36        42.000                                                                                                                                    21837132.947 7 113711661.16007     -1086.752 7        47.576                                                                    21837136.639 6  92400074.41806      -883.110 6        40.439
C09        46.000                                                                                                                                    39829603.863 3                     -1599.104 3        22.076    39829619.436 5 160377295.46005     -1234.680 5        30.060
C21        47.000                                                                                                                                    23084422.033 7 120206621.90607      1325.523 7        46.586                                                                    23084413.856 7  97677754.15507      1077.218 7        43.118
C45        49.000                                                                                                                                    23031888.380 7 119933026.82707      1797.113 7        45.854                                                                    23031877.541 7  97455401.33807      1460.353 7        46.444
C22        50.000                                                                                                                                    21507842.439 7 111996935.65107     -1579.383 7        42.588                                                                    21507836.497 6  91006671.68306     -1283.286 6        40.036
I09        58.000    38722613.644 6 151955864.79906     -1169.981 6        40.379
I02        59.000    38774141.271 5 152158067.12905       177.732 5        32.323
I06        60.000    37901475.706 4 148733428.34204      -635.233 4        29.725
> 2025 01 01 06 31  5.0000000  0 37
G13         2.000    22761107.649 7 119610515.80407      2205.588 7        43.054                                    22761104.963 3  93202935.75803      1718.648 3        19.761
G30         3.000    20441316.713 8 107419845.10308       -86.932 8        53.114                                    20441315.312 8  83703729.98008       -67.737 8        50.626    20441315.553 7  83703765.98107       -67.826 7        43.892
G14         4.000    23465043.854 7 123309655.51607      2662.124 7        42.258                                    23465044.315 3  96085447.08903      2074.365 3        20.929    23465042.718 6  96085441.10306      2074.437 6        37.970
G07         5.000    21187098.121 6 111338963.91606     -2261.005 6        40.591                                    21187094.336 5  86757633.84905     -1761.825 5        35.281    21187093.511 6  86757605.85606     -1761.934 6        38.489
E34         6.000    27368824.250 5 143824174.52305     -3947.521 5        35.500                                                                    27368824.989 4 107401172.60604     -2947.309 4        28.332    27368826.170 5 110202941.44605     -3024.664 5        32.689
G05         7.000    21776039.579 7 114433835.13207      1446.133 7        46.558                                    21776035.354 6  89169229.35006      1126.857 6        41.440    21776036.951 7  89169262.35507      1126.833 7        42.351
G09         9.000    22790509.781 5                     -3746.258 5        31.230                                                                                                    22790510.602 4                     -2919.449 4        26.240
G20        10.000    20599550.454 7 108251390.75407      -974.127 7        47.863                                    20599544.620 5  84351701.62205      -759.056 5        33.784
E31        13.000    26818980.662 3                     -2541.336 3        20.976                                                                                                                                    26818987.722 5                     -1945.971 5        33.245
E25        14.000    26159148.582 5 137467264.02405      2150.700 5        33.958                                                                    26159151.534 5 102654138.62305      1606.127 5        30.634
E24        15.000    25173212.996 6 132286144.53706        88.987 6        40.477                                                                    25173214.124 6  98785128.20106        66.419 6        41.008    25173212.668 6 101362078.46706        68.197 6        40.410
E15        16.000    25843510.844 7 135808740.68707     -2424.887 7        42.216                                                                    25843512.143 7 101415490.99807     -1810.797 7        43.644    25843513.726 7 104061088.33107     -1857.993 7        43.547
E08        17.000    28009086.499 4                      1642.499 4        28.512                                                                    28009094.206 4 109913602.30604      1227.048 4        26.180
E05        21.000    22217717.498 7 116754872.03107     -1836.317 7        47.179                                                                    22217718.336 7  87187128.05907     -1371.329 7        46.171    22217717.320 7  89461562.78107     -1407.013 7        47.586
E13        22.000    27011889.270 5 141948632.18805       213.376 5        35.695                                                                    27011886.040 6 106000465.33706       159.480 6        36.026    27011887.567 6 108765741.04106       163.585 6        40.906
R07        23.000    21299554.366 7 114018119.89507     -3722.054 7        44.122                                                                    21299554.440 6  88680788.88806     -2894.946 6        37.743
S23        24.000    38078117.056 6 200101788.52406      -815.975 6        38.988
S36        25.000    38142822.172 5 200441806.60705      -819.099 5        34.824
G11        26.000    23895445.136 4                     -3792.356 4        28.284                                                                                                    23895460.271 5  97847922.94505     -2955.123 5        34.752
E03        27.000    23963594.295 6 125929534.86906       495.500 6        38.450                                                                    23963594.446 8  94038294.32708       369.942 8        50.217    23963593.914 8  96491442.84708       379.668 8        50.525
R11        28.000    21555564.994 7 115186418.94307      3225.475 7        43.509                                                                    21555574.117 5  89589402.76805      2508.613 5        30.672
R17        29.000    23179735.422 3                       -10.829 3        21.357                                                                    23179720.722 4                        -7.791 4        24.586
R10        30.000    19370583.272 7 103256096.15407      -325.162 7        46.459
R24        31.000    23073517.867 6 123384704.36806     -3253.583 6        41.545                                                                    23073528.398 4  95965694.62904     -2530.463 4        26.299
R09        32.000    20970525.526 7 111981428.83907     -3764.880 7        46.306                                                                    20970524.553 6  87096665.06306     -2928.341 6        36.004
C19        33.000                                                                                                                                    25110413.420 5                     -3740.045 5        33.084                                                                    25110411.629 5 106250339.06205     -3039.232 5        34.490
R08        35.000    19239686.946 7 103027680.77607      -664.851 7        47.747                                                                    19239685.252 8  80132621.22508      -517.003 8        48.428
C05        36.000                                                                                                                                                                                                    39199169.230 5 157838744.39205      -675.979 5        34.186
R01        38.000    21673326.949 7 115856342.71307      2554.526 7        44.482                                                                    21673327.513 5  90110589.80405      1986.945 5        35.538
C36        42.000                                                                                                                                    21838177.334 7 113717101.52107     -1089.453 7        47.482                                                                    21838181.628 6  92404495.13506      -885.348 6        39.967
C09        46.000                                                                                                                                    39831138.792 3                     -1595.758 3        21.143    39831150.189 5 160383468.58805     -1234.426 5        30.536
C21        47.000                                                                                                                                    23083150.209 7 120199997.94807      1324.110 7        46.624                                                                    23083141.938 7  97672371.63407      1075.899 7        42.902
C45        49.000                                                                                                                                    23030163.421 7 119924046.01207      1795.324 7        45.693                                                                    23030152.640 7  97448103.67207      1458.765 7        46.499
C22        50.000                                                                                                                                    21509360.465 7 112004838.32907     -1581.728 7        42.614                                                                    21509353.747 6  91013093.21906     -1285.240 6        39.426
I09        58.000    38724104.612 6 151961715.42406     -1170.091 6        40.307
I02        59.000    38773915.241 5 152157180.71905       177.094 5        32.754
I06        60.000    37902286.699 4 148736602.47604      -634.933 4        28.957
> 2025 01 01 06 31 10.0000000  0 37
G13         2.000    22759010.028 6 119599489.66406      2204.863 6        41.409                                    22759005.885 3  93194343.96603      1718.081 3        19.045
G30         3.000    20441400.048 8 107420285.57908       -89.274 8        52.736                                    20441399.249 8  83704073.20108       -69.563 8        50.228    20441399.377 7  83704109.19607       -69.616 7        43.947
G14         4.000    23462510.901 7 123296346.21507      2661.571 7        42.770                                    23462511.807 3  96075076.21603      2073.945 3        20.238    23462510.668 6  96075070.22106      2074.012 6        37.716
G07         5.000    21189250.881 6 111350273.11106     -2262.686 6        41.569                                    21189246.389 5  86766446.21105     -1763.134 5        34.624    21189246.004 6  86766418.18206     -1763.148 6        38.360
E34         6.000    27372580.003 5 143843911.74905     -3947.428 5        35.143                                                                    27372581.859 5 107415911.46005     -2947.891 5        30.717    27372582.577 5 110218064.75205     -3024.612 5        33.838
G05         7.000    21774664.898 7 114426610.55207      1443.704 7        46.753                                    21774660.929 7  89163599.80607      1124.964 7        42.009    21774662.002 7  89163632.82007      1124.865 7        42.499
G09         9.000    22794075.403 4                     -3747.421 4        29.981                                                                                                    22794075.062 4                     -2920.367 4        25.188
G20        10.000    20600478.708 7 108256269.12607      -977.321 7        47.396                                    20600473.184 5  84355502.93505      -761.545 5        33.389
E31        13.000                                                                                                                                                                                                    26821405.886 5                     -1947.327 5        33.617
E25        14.000    26157102.814 5 137456512.51205      2150.169 5        32.383                                                                    26157105.950 5 102646109.95105      1605.302 5        30.543
E24        15.000    25173129.586 6 132285705.10106        86.618 6        39.450                                                                    25173130.416 6  98784800.04406        64.711 6        41.442    25173129.369 6 101361741.76106        66.478 6        41.085
E15        16.000    25845819.293 7 135820870.08707     -2426.809 7        42.476                                                                    25845820.612 7 101424548.65707     -1812.354 7        43.979    25845822.097 7 104070382.27307     -1859.606 7        43.073
E08        17.000    28007527.257 4                      1642.520 4        25.895                                                                    28007533.725 4 109907469.02604      1226.358 4        26.359    28007490.884 3                      1259.588 3        21.690
E05        21.000    22219464.915 7 116764055.51707     -1837.102 7        47.317                                                                    22219465.969 7  87193985.84707     -1371.959 7        46.424    22219464.854 7  89468599.47307     -1407.741 7        47.148
E13        22.000    27011687.347 6 141947570.80906       211.042 6        36.140                                                                    27011684.096 6 105999672.72506       157.666 6        36.378    27011685.542 6 108764927.75406       161.658 6        40.772
R07        23.000    21303032.398 7 114036734.92607     -3723.878 7        45.281                                                                    21303030.890 6  88695267.23106     -2896.555 6        37.784
S23        24.000    38078896.911 6 200105868.59406      -815.962 6        39.087
S36        25.000    38143604.111 5 200445901.38605      -819.086 5        34.757
G11        26.000    23899058.605 5                     -3793.314 5        30.445                                                                                                    23899068.711 5  97862700.36105     -2955.762 5        32.665
E03        27.000    23963123.433 6 125927059.46906       494.650 6        39.213                                                                    23963123.424 8  94036445.81108       369.415 8        50.351    23963122.744 8  96489546.11208       379.034 8        50.558
R11        28.000    21552547.479 7 115170295.25507      3223.820 7        43.143                                                                    21552557.872 4  89576862.14504      2507.080 4        28.047
R17        29.000    23179731.496 5                       -11.524 5        31.064                                                                    23179729.209 4                        -8.907 4        29.962
R10        30.000    19370890.535 7 103257732.87407      -329.532 7        46.304
R24        31.000    23076560.814 6 123400979.03506     -3256.495 6        41.077
R09        32.000    20974052.118 7 112000259.93007     -3767.607 7        46.078                                                                    20974051.486 6  87111311.42606     -2930.202 6        38.486
C19        33.000                                                                                                                                    25114007.173 5                     -3740.748 5        34.229                                                                    25114002.898 5 106265536.12205     -3039.944 5        34.324
R08        35.000    19240308.912 8 103031011.28908      -667.457 8        48.006                                                                    19240307.267 8  80135211.61108      -519.160 8        48.197
C05        36.000                                                                                                                                                                                                    39200009.144 5 157842124.34105      -676.025 5        33.850
R01        38.000    21670938.136 7 115843571.83507      2553.767 7        45.142                                                                    21670938.742 6  90100656.87506      1986.305 6        36.896
C36        42.000                                                                                                                                    21839224.878 7 113722555.04607     -1091.919 7        46.891                                                                    21839228.822 6  92408926.57106      -887.251 6        39.399
C09        46.000                                                                                                                                    39832665.775 3                     -1598.122 3        20.738    39832681.504 5 160389641.40305     -1234.301 5        30.770
C21        47.000                                                                                                                                    23081879.114 7 120193380.39707      1322.889 7        45.716                                                                    23081871.183 7  97666994.31707      1075.044 7        43.136
C45        49.000                                                                                                                                    23028439.387 7 119915073.92207      1793.645 7        45.416                                                                    23028429.491 7  97440813.11207      1457.430 7        46.739
C22        50.000                                                                                                                                    21510880.493 7 112012751.44407     -1583.600 7        43.657                                                                    21510873.109 6  91019523.28206     -1286.923 6        38.592
I09        58.000    38725595.720 6 151967566.52706     -1170.201 6        40.391
I02        59.000    38773689.414 5 152156294.54405       177.236 5        32.245
I06        60.000    37903093.777 5 148739776.71005      -634.834 5        30.158
> 2025 01 01 06 31 15.0000000  0 38
G13         2.000    22756913.587 6 119588466.84106      2204.154 6        39.838                                    22756907.509 3  93185754.74603      1717.516 3        18.955
G30         3.000    20441486.016 8 107420737.76208       -91.738 8        52.881                                    20441485.390 8  83704425.54608       -71.483 8        50.022    20441485.207 7  83704461.54307       -71.526 7        43.765
G14         4.000    23459978.721 7 123283039.90207      2660.857 7        42.969                                    23459979.729 3  96064707.65203      2073.394 3        20.548    23459978.292 6  96064701.66806      2073.485 6        37.633
G07         5.000    21191404.583 7 111361590.71607     -2264.535 7        42.692                                    21191400.093 5  86775265.12705     -1764.573 5        34.748    21191399.332 6  86775237.11106     -1764.399 6        38.504
E34         6.000    27376336.386 5 143863649.72805     -3947.931 5        34.190                                                                    27376338.849 5 107430650.79705     -2948.013 5        31.894    27376338.497 5 110233188.62105     -3024.898 5        34.652
G05         7.000    21773293.228 7 114419398.54607      1441.046 7        47.184                                    21773288.950 7  89157980.06207      1122.893 7        42.811    21773289.623 7  89158013.06707      1122.954 7        43.136
G09         9.000    22797639.367 5                     -3748.147 5        30.377                                                                                                    22797642.894 4                     -2920.871 4        26.263
G20        10.000    20601410.477 7 108261163.77807      -980.645 7        47.509                                    20601404.873 5  84359316.93405      -764.135 5        33.443
E09        12.000    27743526.075 3                     -3229.050 3        20.452
E31        13.000                                                                                                                                    26823844.283 4                     -1899.253 4        29.128    26823826.044 5                     -1948.845 5        32.982
E25        14.000    26155057.081 5 137445764.60405      2149.354 5        31.117                                                                    26155061.156 5 102638083.87505      1604.795 5        31.238    26155068.627 4                      1646.637 4        24.271
E24        15.000    25173048.367 6 132285277.15306        84.334 6        37.728                                                                    25173049.005 6  98784480.46506        62.929 6        41.371    25173048.400 6 101361413.85706        64.506 6        41.743
E15        16.000    25848129.555 7 135833009.70807     -2429.099 7        43.005                                                                    25848131.052 7 101433613.92007     -1813.918 7        44.146    25848132.255 7 104079684.03507     -1861.255 7        42.889
E08        17.000                                                                                                                                    28005973.750 4 109901335.46604      1226.469 4        28.047    28005927.220 3                      1258.907 3        21.524
E05        21.000    22221213.345 7 116773243.73607     -1838.230 7        47.351                                                                    22221214.593 7  87200847.16407     -1372.761 7        46.632    22221213.396 7  89475639.76807     -1408.486 7        47.095
E13        22.000    27011484.527 5 141946520.98605       208.915 5        35.681                                                                    27011484.335 6 105998888.77306       155.589 6        36.503    27011485.804 6 108764123.32906       159.870 6        40.765
R07        23.000    21306511.497 7 114055359.04107     -3725.866 7        45.840                                                                    21306510.954 6  88709752.63506     -2897.923 6        38.195
S23        24.000    38079672.250 6 200109948.08606      -815.963 6        39.105
S36        25.000    38144380.837 5 200449996.49205      -819.327 5        34.857
G11        26.000    23902670.397 5                     -3794.800 5        31.404                                                                                                    23902676.904 5  97877482.25005     -2956.863 5        30.219
E03        27.000    23962653.953 6 125924588.00206       493.803 6        40.641                                                                    23962653.064 8  94034600.22908       368.725 8        50.340    23962652.387 8  96487652.38408       378.351 8        50.666
R11        28.000    21549531.801 6 115154181.08206      3221.777 6        41.826                                                                    21549548.965 3                      2506.683 3        21.548
R17        29.000    23179748.922 4                       -15.724 4        27.713                                                                    23179745.535 5                       -12.644 5        33.108
R10        30.000    19371201.421 7 103259391.72307      -334.161 7        46.412
R24        31.000    23079606.820 6 123417268.70006     -3259.375 6        41.373
R09        32.000    20977581.506 7 112019105.29707     -3770.662 7        45.889                                                                    20977582.170 6  87125968.94606     -2932.565 6        40.224
C19        33.000                                                                                                                                    25117596.943 5 130793931.38615     -3741.993 5        34.105                                                                    25117594.776 5 106280736.53205     -3040.417 5        34.124
R08        35.000    19240933.907 8 103034355.22308      -670.238 8        48.160                                                                    19240931.693 8  80137812.43508      -521.295 8        48.014
C05        36.000                                                                                                                                                                                                    39200847.542 5 157845504.01805      -676.033 5        34.071
R01        38.000    21668549.384 7 115830804.51707      2553.065 7        44.838                                                                    21668549.782 6  90090726.76906      1985.679 6        38.802
C36        42.000                                                                                                                                    21840275.010 7 113728021.44307     -1094.670 7        45.257                                                                    21840278.618 6  92413368.43806      -889.503 6        39.901
C09        46.000                                                                                                                                    39834208.749 3                     -1596.469 3        20.357    39834212.493 5 160395813.61705     -1234.722 5        30.883
C21        47.000                                                                                                                                    23080609.435 7 120186768.97407      1321.498 7        44.060                                                                    23080601.589 7  97661621.96507      1073.938 7        43.678
C45        49.000                                                                                                                                    23026716.828 7 119906110.27207      1791.770 7        44.709                                                                    23026708.098 7  97433529.39507      1456.019 7        47.395
C22        50.000                                                                                                                                    21512401.947 7 112020674.72907     -1585.800 7        44.172                                                                    21512394.572 6  91025961.58506     -1288.621 6        38.414
I09        58.000    38727086.761 6 151973417.86506     -1170.418 6        40.315
I02        59.000    38773462.858 5 152155408.51505       177.398 5        31.872
I06        60.000    37903902.932 5 148742950.86605      -635.184 5        30.000
> 2025 01 01 06 31 20.0000000  0 38
G13         2.000    22754816.240 6 119577448.18106      2203.129 6        39.168                                    22754810.286 3  93177168.77203      1716.724 3        18.478
G30         3.000    20441574.517 8 107421202.43708       -94.312 8        52.921                                    20441573.870 8  83704787.62308       -73.489 8        49.699    20441573.385 7  83704823.61407       -73.467 7        43.010
G14         4.000    23457447.369 7 123269737.33607      2659.975 7        42.973                                    23457448.459 3  96054342.03003      2072.701 3        20.548    23457446.986 6  96054336.03606      2072.737 6        37.516
G07         5.000    21193559.364 7 111372917.40807     -2266.351 7        43.697                                    21193555.415 5  86784091.11505     -1765.986 5        35.438    21193555.542 6  86784063.10006     -1765.972 6        38.691
E34         6.000    27380092.788 5 143883389.15205     -3948.366 5        33.042                                                                    27380095.083 5 107445391.24205     -2948.861 5        33.048    27380094.694 5 110248313.60005     -3025.095 5        35.119
G05         7.000    21771923.530 7 114412199.97207      1438.190 7        47.449                                    21771919.494 7  89152370.77807      1120.668 7        43.308    21771919.588 7  89152403.77907      1120.704 7        43.314
G09         9.000    22801207.847 5                     -3749.273 5        32.904                                                                                                    22801211.177 4                     -2921.205 4        28.408
G20        10.000    20602345.086 7 108266075.51307      -984.192 7        47.150                                    20602339.706 5  84363144.24205      -766.897 5        33.455
E09        12.000    27746605.633 3                     -3229.279 3        21.833
E31        13.000                                                                                                                                    26826265.550 5                     -1900.898 5        30.219    26826247.396 5                     -1950.577 5        32.886
E25        14.000    26153012.183 4 137435020.96504      2148.000 4        29.242                                                                    26153016.753 5 102630061.04605      1604.266 5        31.283    26153023.029 4                      1645.795 4        26.132
E24        15.000    25172970.058 6 132284861.43506        81.815 6        36.064                                                                    25172969.692 6  98784169.99906        60.973 6        41.161    25172969.617 7 101361095.30007        62.639 7        42.275
E15        16.000    25850441.986 7 135845160.27607     -2431.334 7        43.348                                                                    25850443.508 7 101442687.39207     -1815.689 7        44.375    25850444.402 7 104088994.19407     -1862.984 7        42.597
E08        17.000                                                                                                                                    28004407.671 4 109895202.36104      1226.593 4        28.663    28004365.206 3                      1262.817 3        20.619
E05        21.000    22222962.840 7 116782437.41507     -1839.386 7        46.943                                                                    22222964.217 7  87207712.55107     -1373.465 7        46.919    22222962.922 7  89482684.26507     -1409.438 7        46.806
E13        22.000    27011286.604 5 141945483.50505       206.446 5        34.238                                                                    27011286.591 6 105998114.02606       153.886 6        36.820    27011288.529 6 108763328.38606       157.984 6        40.594
R07        23.000    21309992.933 7 114073993.03007     -3727.847 7        46.788                                                                    21309991.977 6  88724245.70206     -2899.432 6        38.610
S23        24.000    38080449.356 6 200114027.99106      -816.075 6        39.030
S36        25.000    38145161.993 5 200454091.45605      -818.938 5        34.614
G11        26.000    23906281.057 5                     -3796.063 5        31.457                                                                                                    23906287.826 4  97892269.25704     -2958.297 4        27.293
E03        27.000    23962185.167 7 125922121.22707       492.809 7        42.121                                                                    23962183.616 8  94032758.15008       367.941 8        50.398    23962182.866 8  96485762.25508       377.546 8        50.618
R11        28.000    21546519.133 6 115138077.23506      3219.579 6        40.274
R17        29.000                                                                                                                                    23179766.002 5                       -15.805 5        32.293
R10        30.000    19371517.460 7 103261073.56207      -338.899 7        46.550
R24        31.000    23082656.446 6 123433574.13206     -3262.735 6        39.637
R09        32.000    20981113.610 7 112037965.84707     -3773.723 7        44.957                                                                    20981113.614 6  87140638.25606     -2935.071 6        40.451
C19        33.000                                                                                                                                    25121190.085 5 130812642.75705     -3742.725 5        33.006                                                                    25121187.412 5 106295941.01905     -3041.159 5        33.832
R08        35.000    19241560.681 8 103037713.32808      -673.243 8        48.329                                                                    19241558.374 7  80140424.27407      -523.541 7        47.451
C05        36.000                                                                                                                                                                                                    39201687.585 5 157848883.96405      -676.100 5        34.081
R01        38.000    21666161.624 7 115818041.58707      2551.948 7        44.710                                                                    21666162.616 6  90080800.03206      1984.901 6        39.640
C36        42.000                                                                                                                                    21841327.866 7 113733501.45607     -1097.515 7        44.146                                                                    21841331.101 6  92417821.38606      -891.807 6        40.072
C09        46.000                                                                                                                                    39835741.876 3                     -1598.098 3        19.940    39835741.768 5 160401985.82605     -1234.807 5        30.521
C21        47.000                                                                                                                                    23079340.736 7 120180164.41107      1320.111 7        42.828                                                                    23079333.240 7  97656255.20407      1072.779 7        43.681
C45        49.000                                                                                                                                    23024996.036 7 119897155.81307      1789.802 7        44.334                                                                    23024988.627 7  97426253.15107      1454.487 7        47.704
C22        50.000                                                                                                                                    21513925.603 7 112028608.94507     -1588.035 7        44.707                                                                    21513918.232 6  91032408.79206     -1290.469 6        38.423
I09        58.000    38728578.110 6 151979269.99806     -1170.671 6        39.937
I02        59.000    38773238.368 5 152154523.17505       176.810 5        31.306
I06        60.000    37904709.096 4 148746125.44704      -635.242 4        29.981
> 2025 01 01 06 31 25.0000000  0 38
G13         2.000    22752720.605 6 119566432.82106      2202.605 6        39.520                                    22752713.936 3  93168585.36303      1716.313 3        18.328
G30         3.000    20441664.986 8 107421678.71308       -96.636 8        52.668                                    20441664.421 8  83705158.74108       -75.300 8        49.009    20441663.470 7  83705194.73107       -75.254 7        42.083
G14         4.000    23454916.177 7 123256437.63707      2659.501 7        42.597                                    23454917.731 3  96043978.63003      2072.341 3        19.791    23454916.235 6  96043972.64706      2072.308 6        37.660
G07         5.000    21195715.749 7 111384252.30807     -2267.914 7        44.640                                    21195712.293 6  86792923.50306     -1767.202 6        36.181    21195712.860 6  86792895.47106     -1767.108 6        39.498
E34         6.000    27383848.483 5 143903129.12105     -3948.128 5        30.808                                                                    27383851.402 5 107460132.10705     -2948.267 5        33.958    27383851.005 5 110263439.04405     -3025.333 5        35.733
G05         7.000    21770556.197 7 114405013.76507      1435.844 7        47.595                                    21770552.340 7  89146771.13607      1118.839 7        43.829    21770552.136 7  89146804.13807      1118.939 7        43.319
G09         9.000    22804777.525 5 119839911.24315     -3749.885 5        34.633                                                                                                    22804786.463 5                     -2922.159 5        31.102
G20        10.000    20603282.968 7 108271003.44207      -987.352 7        47.042                                    20603277.428 5  84366984.17105      -769.365 5        33.407
E09        12.000    27749686.478 3                     -3230.553 3        22.057
E31        13.000    26828681.552 3                     -2547.302 3        23.467                                                                    26828686.750 5                     -1902.349 5        30.204    26828670.770 5                     -1951.689 5        31.917
E25        14.000    26150968.848 4 137424280.77504      2148.006 4        28.370                                                                    26150972.233 5 102622040.78005      1604.056 5        31.291    26150979.395 4                      1645.630 4        27.856
E24        15.000    25172893.423 5 132284457.11205        79.516 5        35.895                                                                    25172892.361 6  98783868.05106        59.386 6        40.784    25172892.922 7 101360785.48907        60.882 7        42.489
E15        16.000    25852756.164 7 135857320.93207     -2433.388 7        43.033                                                                    25852757.796 7 101451768.37407     -1817.107 7        44.247    25852758.459 7 104098312.07707     -1864.537 7        42.102
E08        17.000    28002903.001 3                      1644.100 3        20.738                                                                    28002842.622 4 109889069.04204      1225.691 4        28.408
E05        21.000    22224713.227 7 116791635.69707     -1840.323 7        46.198                                                                    22224714.742 7  87214581.38507     -1374.249 7        47.011    22224713.232 7  89489732.28707     -1410.151 7        46.408
E13        22.000    27011091.873 5 141944457.51105       204.168 5        32.988                                                                    27011091.148 6 105997347.84106       152.356 6        36.454    27011093.435 6 108762542.21606       156.251 6        40.269
R07        23.000    21313480.282 7 114092635.81407     -3729.576 7        46.928                                                                    21313474.203 6  88738745.63206     -2900.790 6        39.649
S23        24.000    38081223.304 6 200118107.58006      -815.945 6        39.309
S36        25.000    38145942.985 5 200458186.11805      -819.211 5        34.481
G11        26.000    23909891.146 5                     -3797.017 5        30.302
E03        27.000    23961716.182 7 125919658.26507       492.051 7        43.101                                                                    23961714.885 8  94030918.91708       367.388 8        50.120    23961714.059 8  96483875.04208       376.971 8        50.326
R11        28.000    21543512.819 6 115121982.74706      3217.869 6        39.312
R17        29.000                                                                                                                                    23179783.473 4                       -19.575 4        28.322
R10        30.000    19371837.622 7 103262777.57507      -343.207 7        46.811
R24        31.000    23085705.591 6 123449894.36506     -3265.683 6        38.979
R09        32.000    20984648.246 7 112056840.45707     -3776.538 7        45.574                                                                    20984646.849 6  87155318.50506     -2937.318 6        40.415
C19        33.000                                                                                                                                    25124782.482 5 130831358.28605     -3743.987 5        30.777                                                                    25124781.300 5 106311148.80105     -3042.012 5        33.760
R08        35.000    19242190.154 8 103041084.60108      -675.843 8        48.182                                                                    19242188.109 7  80143046.37107      -525.607 7        46.961
C05        36.000                                                                                                                                                                                                    39202526.743 5 157852263.55405      -676.031 5        34.005
R01        38.000    21663774.837 7 115805282.11407      2551.404 7        45.391                                                                    21663776.334 6  90070875.99306      1984.413 6        39.775
C36        42.000                                                                                                                                    21842383.337 7 113738994.18507     -1100.003 7        43.896                                                                    21842386.181 6  92422284.65706      -893.744 6        40.729
C09        46.000                                                                                                                                    39837257.756 3                     -1593.391 3        19.343    39837269.557 5 160408157.33005     -1234.384 5        30.755
C21        47.000                                                                                                                                    23078072.499 7 120173565.84907      1318.903 7        42.497                                                                    23078066.229 7  97650893.32007      1071.638 7        44.003
C45        49.000                                                                                                                                    23023277.981 7 119888209.68307      1788.167 7        44.414                                                                    23023270.797 8  97418983.68808      1453.049 8        48.020
C22        50.000                                                                                                                                    21515451.640 7 112036553.22207     -1590.008 7        45.046                                                                    21515444.253 6  91038864.16006     -1292.192 6        38.372
I09        58.000    38730069.554 6 151985122.29506     -1170.573 6        40.205
I02        59.000    38773012.455 5 152153637.90505       176.987 5        31.509
I06        60.000    37905518.172 5 148749299.85905      -634.749 5        30.121
> 2025 01 01 06 31 30.0000000  0 38
G13         2.000    22750626.522 6 119555421.20306      2202.067 6        40.565                                    22750618.493 3  93160004.88103      1715.886 3        19.343
G30         3.000    20441757.883 8 107422167.00308       -98.877 8        52.617                                    20441757.068 8  83705539.21708       -77.043 8        48.405    20441756.241 6  83705575.21206       -77.091 6        41.485
G14         4.000    23452385.459 6 123243141.26206      2659.024 6        41.852                                    23452387.718 3  96033617.82603      2071.975 3        19.701    23452385.778 6  96033611.83206      2071.793 6        37.422
G07         5.000    21197874.153 7 111395595.85107     -2269.650 7        45.783                                    21197870.875 6  86801762.61706     -1768.554 6        37.085    21197871.356 6  86801734.59106     -1768.436 6        40.043
E34         6.000    27387603.718 4 143922870.08604     -3948.627 4        29.109                                                                    27387607.863 5 107474873.71605     -2948.582 5        34.462    27387607.699 5 110278565.22105     -3025.281 5        35.671
G05         7.000    21769191.119 7 114397840.35707      1433.339 7        47.621                                    21769187.502 7  89141181.45907      1116.891 7        44.084    21769186.773 7  89141214.45407      1116.925 7        42.637
G09         9.000    22808344.982 5 119858663.54405     -3750.866 5        34.852                                    22808345.995 2  93396361.37612     -2922.743 2        15.952    22808362.567 5                     -2922.809 5        33.054
G20        10.000    20604224.253 7 108275947.99307      -990.581 7        47.529                                    20604218.204 5  84370837.06005      -771.882 5        33.515
E09        12.000    27752763.115 3                     -3230.867 3        23.524
E31        13.000    26831105.927 4                     -2549.411 4        27.557                                                                    26831108.027 5                     -1903.842 5        30.060    26831096.893 5                     -1953.311 5        31.562
E25        14.000    26148925.918 4 137413544.51504      2146.878 4        29.706                                                                    26148929.009 5 102614023.41505      1603.474 5        31.449    26148936.369 4                      1644.781 4        28.891
E24        15.000    25172818.903 6 132284064.52006        77.636 6        36.083                                                                    25172817.391 6  98783574.87106        57.823 6        39.994    25172818.285 7 101360484.68707        59.265 7        42.536
E15        16.000    25855072.577 7 135869492.06007     -2435.238 7        43.365                                                                    25855073.941 7 101460857.19107     -1818.606 7        44.098    25855074.138 6 104107637.99106     -1865.954 6        41.828
E08        17.000                                                                                                                                    28001277.581 4 109882935.62304      1226.952 4        27.437
E05        21.000    22226464.435 7 116800838.98907     -1841.112 7        45.663                                                                    22226466.161 7  87221453.95607     -1374.874 7        46.892    22226464.679 7  89496784.13907     -1410.763 7        46.213
E13        22.000    27010899.686 5 141943443.42505       201.606 5        31.962                                                                    27010898.233 6 105996590.57306       150.488 6        36.227    27010900.376 6 108761765.15406       154.581 6        40.195
R07        23.000    21316968.502 7 114111288.05007     -3731.402 7        46.438                                                                    21316958.988 6  88753252.90006     -2902.264 6        39.832
S23        24.000    38082001.443 6 200122187.00506      -815.875 6        39.054
S36        25.000    38146717.237 5 200462280.79905      -819.075 5        34.543
G11        26.000    23913504.847 4                     -3798.335 4        29.014
E03        27.000    23961248.020 7 125917199.53207       491.249 7        44.020                                                                    23961246.911 8  94029082.84208       366.898 8        49.894    23961246.111 8  96481991.06708       376.468 8        50.186
R11        28.000    21540505.650 6 115105898.12916      3215.891 6        36.526                                                                    21540493.003 4                      2501.415 4        28.512
R17        29.000    23179809.414 5                       -28.486 5        33.617                                                                    23179805.155 4                       -23.105 4        28.531
R10        30.000    19372160.795 7 103264504.25407      -347.583 7        46.198
R24        31.000    23088761.052 6 123466229.97806     -3268.590 6        36.726
R09        32.000    20988185.901 7 112075729.68907     -3779.355 7        46.283                                                                    20988184.943 6  87170010.11106     -2939.510 6        41.528
C19        33.000                                                                                                                                    25128376.256 4 130850078.27204     -3743.871 4        27.856                                                                    25128375.982 5 106326360.22305     -3042.547 5        34.014
R08        35.000    19242822.288 8 103044469.71208      -678.431 8        48.263                                                                    19242820.421 7  80145679.23407      -527.743 7        46.964
C05        36.000                                                                                                                                                                                                    39203366.438 5 157855643.08405      -675.879 5        33.731
R01        38.000    21661388.900 7 115792526.59507      2550.791 7        44.993                                                                    21661390.682 6  90060955.01506      1983.900 6        38.979
C36        42.000                                                                                                                                    21843440.647 7 113744500.04207     -1102.538 7        43.632                                                                    21843444.145 6  92426758.62106      -895.807 6        41.681
C09        46.000                                                                                                                                    39838779.820 3                     -1600.857 3        19.373    39838799.244 5 160414328.51405     -1234.639 5        30.558
C21        47.000                                                                                                                                    23076806.628 7 120166973.68407      1317.837 7        42.607                                                                    23076800.207 7  97645536.64607      1070.714 7        44.203
C45        49.000                                                                                                                                    23021561.325 7 119879272.30107      1786.501 7        44.429                                                                    23021554.444 8  97411721.31908      1451.791 8        48.430
C22        50.000                                                                                                                                    21516979.719 7 112044507.95207     -1591.987 7        45.556                                                                    21516972.492 6  91045328.01506     -1293.698 6        38.667
I09        58.000    38731561.384 6 151990975.03806     -1170.691 6        40.400
I02        59.000    38772786.153 5 152152753.37205       177.009 5        31.011
I06        60.000    37906327.790 5 148752474.38305      -635.298 5        30.528
> 2025 01 01 06 31 35.0000000  0 38
G13         2.000    22748531.893 6 119544413.34306      2201.397 6        41.614                                    22748524.240 3  93151427.31403      1715.378 3        20.000
G30         3.000    20441853.106 8 107422667.39408      -101.176 8        52.337                                    20441851.831 7  83705929.12507       -78.839 7        47.853    20441851.497 6  83705965.12306       -78.827 6        40.486
G14         4.000    23449856.351 6 123229848.30106      2658.427 6        41.035                                    23449858.283 3  96023259.67603      2071.511 3        19.224    23449855.670 6  96023253.67506      2071.600 6        36.563
G07         5.000    21200034.461 7 111406948.08007     -2271.118 7        46.412                                    21200031.196 6  86810608.50406     -1769.700 6        38.123    21200031.394 6  86810580.49306     -1769.779 6        39.958
E34         6.000    27391360.904 4 143942612.13804     -3948.806 4        27.760                                                                    27391364.706 5 107489616.09105     -2948.432 5        34.833    27391364.101 6 110293692.18806     -3025.186 6        36.144
G05         7.000    21767828.775 8 114390679.97908      1430.948 8        48.403                                    21767824.990 7  89135601.94007      1115.029 7        44.164    21767823.751 7  89135634.95107      1114.981 7        42.207
G09         9.000    22811914.357 5 119877420.53705     -3751.845 5        32.916                                    22811917.104 2  93410977.18202     -2923.521 2        17.094    22811932.527 5  93411050.18415     -2923.531 5        34.210
G20        10.000    20605168.513 7 108280909.23907      -993.711 7        47.536                                    20605162.141 5  84374702.95705      -774.319 5        33.413
E09        12.000    27755828.265 3                     -3230.821 3        22.914
E31        13.000    26833531.747 4                     -2551.157 4        29.782                                                                    26833527.733 4                     -1905.005 4        29.412    26833525.713 5                     -1954.746 5        31.487
E25        14.000    26146884.535 5 137402812.18105      2146.440 5        30.566                                                                    26146886.603 5 102606009.05805      1602.703 5        30.725    26146895.028 4                      1644.670 4        29.564
E24        15.000    25172745.461 5 132283683.81405        74.995 5        35.476                                                                    25172744.485 6  98783290.57006        56.119 6        39.105    25172746.037 7 101360192.96607        57.496 7        42.506
E15        16.000    25857391.344 7 135881673.74407     -2437.168 7        43.693                                                                    25857392.030 7 101469953.89507     -1820.033 7        43.879    25857391.883 6 104116972.00806     -1867.560 6        41.542
E08        17.000                                                                                                                                    27999712.546 4 109876802.37404      1226.982 4        27.796
E05        21.000    22228216.668 7 116810047.37107     -1841.992 7        44.981                                                                    22228218.248 7  87228330.32707     -1375.491 7        46.754    22228216.985 7  89503839.89107     -1411.426 7        46.124
E13        22.000    27010709.655 5 141942441.28305       199.370 5        32.126                                                                    27010707.575 6 105995842.18906       148.876 6        36.231    27010709.642 6 108760997.25606       152.729 6        40.133
R07        23.000    21320453.642 7 114129949.69207     -3733.011 7        44.641                                                                    21320444.230 6  88767767.46806     -2903.500 6        38.994
S23        24.000    38082779.040 6 200126266.54406      -815.677 6        39.081
S36        25.000    38147500.978 5 200466374.89905      -818.582 5        34.490
G11        26.000    23917120.449 4                     -3799.613 4        28.379                                                                                                    23917107.946 4  97936657.43004     -2960.087 4        28.047
E03        27.000    23960780.614 7 125914745.10107       490.628 7        44.703                                                                    23960779.809 8  94027249.98108       366.365 8        49.666    23960779.002 8  96480110.39708       375.905 8        50.149
R11        28.000    21537496.691 4 115089823.61704      3213.771 4        29.782                                                                    21537488.498 5                      2499.876 5        30.408
R17        29.000    23179831.030 6 124039984.50416       -32.649 6        38.045                                                                    23179838.804 5                       -25.463 5        31.094
R10        30.000    19372488.012 7 103266253.76807      -351.971 7        45.074
R24        31.000    23091818.420 6 123482580.85706     -3271.466 6        36.193
R09        32.000    20991725.679 7 112094633.56307     -3782.073 7        46.767                                                                    20991725.992 7  87184713.10707     -2941.678 7        42.766
C19        33.000                                                                                                                                    25131971.081 4 130868802.80304     -3744.533 4        25.805                                                                    25131971.798 5 106341575.37405     -3042.972 5        33.934
R08        35.000    19243456.529 7 103047868.58507      -681.025 7        47.981                                                                    19243455.439 7  80148322.79707      -529.693 7        47.154
C05        36.000                                                                                                                                                                                                    39204205.788 5 157859022.61005      -675.662 5        33.760
R01        38.000    21659003.482 7 115779775.02807      2550.114 7        44.847                                                                    21659003.332 6  90051037.14606      1983.287 6        38.535
C36        42.000                                                                                                                                    21844499.229 7 113750019.11907     -1105.018 7        43.628                                                                    21844504.857 7  92431243.32607      -897.831 7        42.364
C09        46.000                                                                                                                                    39840309.025 3                     -1593.074 3        19.224    39840332.102 5 160420499.35005     -1234.154 5        30.702
C21        47.000                                                                                                                                    23075541.572 7 120160388.03007      1316.579 7        43.181                                                                    23075535.590 7  97640185.26707      1069.843 7        44.256
C45        49.000                                                                                                                                    23019845.593 7 119870343.74207      1785.045 7        44.629                                                                    23019839.847 8  97404466.13708      1450.458 8        48.668
C22        50.000                                                                                                                                    21518510.018 7 112052473.21407     -1593.931 7        46.398                                                                    21518502.422 6  91051800.45406     -1295.305 6        39.589
I09        58.000    38733053.145 6 151996828.29606     -1170.534 6        40.272
I02        59.000    38772563.369 5 152151869.06605       176.936 5        30.913
I06        60.000    37907137.823 5 148755649.07105      -634.848 5        30.045
> 2025 01 01 06 31 40.0000000  0 38
G13         2.000    22746438.176 7 119533409.32707      2200.395 7        42.281                                    22746430.640 3  93142852.76403      1714.594 3        20.619
G30         3.000    20441950.747 8 107423179.89908      -103.704 8        52.070                                    20441948.749 7  83706328.46907       -80.807 7        47.234    20441948.928 6  83706364.46806       -80.856 6        39.916
G14         4.000    23447327.950 6 123216558.78706      2657.614 6        40.737                                    23447329.303 3  96012904.19203      2070.865 3        19.104    23447327.321 6  96012898.22106      2070.763 6        36.155
G07         5.000    21202196.304 7 111418309.05507     -2273.084 7        46.355                                    21202193.190 6  86819461.19706     -1771.229 6        38.961    21202193.788 6  86819433.17606     -1771.197 6        39.982
E34         6.000    27395117.446 4 143962355.17804     -3948.940 4        28.284                                                                    27395121.703 5 107504359.29405     -2948.738 5        35.181    27395121.031 6 110308820.01606     -3025.505 6        36.023
G05         7.000    21766468.810 8 114383532.71808      1428.151 8        49.133                                    21766464.780 7  89130032.64607      1112.844 7        44.116    21766463.873 7  89130065.65007      1112.955 7        42.131
G09         9.000    22815483.396 5 119896182.33305     -3752.595 5        31.472                                    22815488.665 2  93425596.71202     -2924.085 2        17.774    22815498.679 5  93425669.74505     -2924.485 5        35.114
G20        10.000    20606115.422 7 108285887.20907      -997.257 7        46.936                                    20606109.306 5  84378581.88705      -777.085 5        33.497
E09        12.000    27758898.168 3                     -3231.237 3        23.962
E31        13.000    26835958.268 5                     -2553.113 5        30.845                                                                    26835950.051 4                     -1906.378 4        29.308    26835957.337 5                     -1956.366 5        31.834
E25        14.000    26144842.205 5 137392083.90105      2144.949 5        31.849                                                                    26144844.110 5 102597997.67805      1601.638 5        30.400    26144855.955 5                      1643.752 5        30.657
E24        15.000    25172675.520 5 132283314.98705        72.645 5        35.081                                                                    25172674.118 6  98783015.14106        54.291 6        38.240    25172676.164 7 101359910.35507        55.593 7        42.009
E15        16.000    25859711.326 7 135893866.02107     -2439.533 7        43.427                                                                    25859711.919 7 101479058.49907     -1821.676 7        43.551    25859711.307 6 104126314.10206     -1869.173 6        40.818
E08        17.000                                                                                                                                    27998147.623 4 109870669.28404      1226.510 4        27.928    27998144.473 4                      1258.612 4        26.731
E05        21.000    22229970.162 7 116819260.87607     -1843.148 7        44.962                                                                    22229971.300 7  87235210.52407     -1376.401 7        46.495    22229970.246 7  89510899.56707     -1412.287 7        45.848
E13        22.000    27010523.077 5 141941451.12405       196.964 5        33.192                                                                    27010519.176 5 105995102.80805       146.947 5        35.967    27010521.267 6 108760238.58206       150.770 6        39.652
R07        23.000    21323936.653 7 114148620.69007     -3735.124 7        42.899                                                                    21323932.499 6  88782289.31206     -2905.099 6        38.315
S23        24.000    38083555.774 6 200130346.20806      -815.958 6        39.186
S36        25.000    38148276.814 5 200470468.93205      -818.851 5        34.519
G11        26.000    23920730.144 4                     -3800.838 4        26.719                                                                                                    23920726.308 5  97951462.96505     -2961.933 5        30.332
E03        27.000    23960314.147 7 125912295.00507       489.624 7        45.205                                                                    23960313.450 8  94025420.36308       365.595 8        49.367    23960312.800 8  96478233.04608       375.148 8        49.922
R11        28.000                                                                                                                                    21534482.476 5                      2498.127 5        31.253
R17        29.000    23179865.197 7                       -36.972 7        42.095                                                                    23179876.827 5                       -28.820 5        32.623
R10        30.000    19372820.160 7 103268025.77207      -356.573 7        45.389
R24        31.000    23094880.001 6 123498947.03716     -3274.920 6        36.654
R09        32.000    20995268.454 7 112113551.96607     -3785.155 7        47.210                                                                    20995268.394 7  87199427.42207     -2943.958 7        43.704
C19        33.000                                                                                                                                    25135567.664 4 130887531.86704     -3746.196 4        26.012                                                                    25135568.692 5 106356794.22805     -3044.188 5        34.490
R08        35.000    19244093.548 7 103051281.37207      -683.868 7        47.604                                                                    19244092.565 7  80150977.18407      -531.925 7        47.261
C05        36.000                                                                                                                                                                                                    39205044.982 5 157862402.13605      -675.771 5        33.527
R01        38.000    21656618.133 7 115767027.45207      2549.110 7        44.456                                                                    21656617.801 6  90041122.31206      1982.625 6        37.558
C36        42.000                                                                                                                                    21845560.163 7 113755551.42607     -1107.715 7        43.568                                                                    21845567.753 7  92435738.76707      -900.036 7        42.700
C09        46.000                                                                                                                                                                                                    39841866.745 5 160426669.97105     -1233.989 5        31.555
C21        47.000                                                                                                                                    23074277.440 7 120153808.92607      1315.198 7        43.357                                                                    23074272.080 7  97634839.18507      1068.612 7        44.149
C45        49.000                                                                                                                                    23018131.371 7 119861424.07807      1783.042 7        44.336                                                                    23018126.890 8  97397218.13808      1448.895 8        48.622
C22        50.000                                                                                                                                    21520041.503 7 112060449.06807     -1596.214 7        46.819                                                                    21520034.407 6  91058281.44406     -1297.000 6        40.288
I09        58.000    38734544.800 6 152002682.10606     -1170.677 6        40.386
I02        59.000    38772337.960 5 152150985.32805       176.978 5        30.777
I06        60.000    37907946.079 4 148758823.95204      -634.982 4        29.640
> 2025 01 01 06 31 45.0000000  0 38
G13         2.000    22744344.165 7 119522408.43407      2199.982 7        43.283                                    22744337.947 3  93134280.63103      1714.268 3        21.238
G30         3.000    20442050.679 8 107423703.79108      -105.815 8        51.808                                    20442047.813 7  83706736.69307       -82.453 7        46.675    20442048.676 6  83706772.68406       -82.511 6        39.216
G14         4.000    23444799.663 6 123203271.99606      2657.178 6        40.944                                    23444800.743 3  96002550.85103      2070.518 3        19.254    23444798.447 5  96002544.85805      2070.630 5        35.505
G07         5.000    21204359.898 7 111429678.00207     -2274.473 7        46.580                                    21204356.744 6  86828320.10706     -1772.312 6        39.706    21204357.272 6  86828292.08206     -1772.364 6        40.145
E34         6.000    27398876.284 4 143982098.53404     -3948.036 4        29.621                                                                    27398878.349 5 107519102.72105     -2948.783 5        35.324    27398877.953 6 110323948.05706     -3025.436 6        36.163
G05         7.000    21765111.122 8 114376397.76808      1425.864 8        49.575                                    21765106.758 7  89124472.94007      1111.064 7        43.953    21765105.583 6  89124505.95206      1111.021 6        41.340
G09         9.000    22819052.877 5 119914948.12205     -3753.431 5        31.441                                    22819060.481 2  93440219.38002     -2924.746 2        16.868    22819065.829 5  93440292.42705     -2924.897 5        35.271
G20        10.000    20607065.321 7 108290881.15607     -1000.326 7        46.448                                    20607059.660 5  84382473.26605      -779.473 5        33.443
E09        12.000    27761974.237 4                     -3231.238 4        24.286
E31        13.000    26838384.870 5                     -2554.770 5        30.755                                                                    26838378.742 4                     -1908.077 4        28.455    26838390.302 5                     -1957.760 5        31.947
E25        14.000    26142800.489 5 137381358.85105      2144.839 5        33.066                                                                    26142802.682 4 102589988.73104      1601.120 4        29.545    26142818.577 5                      1643.274 5        31.291
E24        15.000    25172608.844 6 132282957.32306        70.499 6        36.026                                                                    25172605.603 6  98782748.04206        52.753 6        37.115    25172608.573 6 101359636.28506        54.012 6        41.664
E15        16.000    25862033.186 7 135906068.12407     -2441.425 7        43.158                                                                    25862033.794 7 101488170.44207     -1822.986 7        43.202    25862032.652 6 104135663.74806     -1870.627 6        40.179
E08        17.000                                                                                                                                    27996583.923 4 109864535.75604      1226.417 4        27.449    27996582.016 4                      1258.534 4        27.269
E05        21.000    22231724.234 7 116828478.75207     -1843.891 7        44.995                                                                    22231725.198 7  87242093.98807     -1377.057 7        46.234    22231724.334 7  89517962.59907     -1412.906 7        45.589
E13        22.000    27010336.336 5 141940472.24405       194.688 5        34.676                                                                    27010333.363 6 105994371.81806       145.547 6        36.095    27010334.905 6 108759488.52206       149.111 6        39.667
R07        23.000    21327421.403 6 114167300.45906     -3736.744 6        41.657                                                                    21327422.083 6  88796817.96506     -2906.135 6        37.561
S23        24.000    38084331.149 6 200134425.06306      -815.621 6        39.432
S36        25.000    38149056.213 5 200474562.58405      -818.717 5        34.871
G11        26.000    23924348.215 4                     -3801.979 4        28.161                                                                                                    23924348.001 5  97966272.63105     -2962.093 5        30.204
E03        27.000    23959848.057 7 125909848.52007       488.965 7        45.067                                                                    23959847.847 8  94023593.43708       365.161 8        49.069    23959847.342 8  96476358.46108       374.702 8        49.706
R11        28.000    21531477.007 5                      3210.137 5        32.287                                                                    21531473.141 5                      2496.807 5        31.472
R17        29.000    23179903.454 7 124040352.66717       -40.827 7        42.133                                                                    23179917.773 5                       -32.068 5        30.951
R10        30.000    19373157.909 7 103269819.68507      -360.833 7        46.558
R24        31.000    23097946.126 6 123515327.83106     -3277.589 6        39.084                                                                    23097962.059 4                     -2548.812 4        24.331
R09        32.000    20998813.863 7 112132484.24407     -3787.790 7        47.463                                                                    20998813.968 7  87214152.53407     -2946.103 7        44.327
C19        33.000                                                                                                                                    25139165.557 4 130906264.86004     -3747.162 4        27.509                                                                    25139166.559 5 106372016.25705     -3044.830 5        34.438
R08        35.000    19244733.915 8 103054707.25708      -686.406 8        48.059                                                                    19244732.361 7  80153641.75807      -533.916 7        47.252
C05        36.000                                                                                                                                                                                                    39205884.315 5 157865781.14005      -675.675 5        33.886
R01        38.000    21654233.542 7 115754283.23507      2548.665 7        44.254                                                                    21654234.436 6  90031210.14106      1982.426 6        36.575
C36        42.000                                                                                                                                    21846625.878 7 113761096.22807     -1110.025 7        43.579                                                                    21846632.645 7  92440244.42107      -902.215 7        42.993
C09        46.000                                                                                                                                    39843402.981 3                     -1597.675 3        21.667    39843400.693 5 160432839.71305     -1233.509 5        31.668
C21        47.000                                                                                                                                    23073014.311 7 120147235.65407      1314.155 7        43.700                                                                    23073009.729 7  97629497.85707      1067.702 7        44.093
C45        49.000                                                                                                                                    23016419.052 7 119852512.53707      1781.659 7        43.473                                                                    23016415.502 8  97389976.78408      1447.566 8        48.773
C22        50.000                                                                                                                                    21521574.864 7 112068434.75507     -1598.031 7        47.007                                                                    21521568.140 6  91064770.47206     -1298.569 6        41.027
I09        58.000    38736035.967 6 152008535.90306     -1170.539 6        40.436
I02        59.000    38772112.262 5 152150101.52505       176.638 5        30.211
I06        60.000    37908753.997 5 148761998.51405      -635.184 5        30.498
> 2025 01 01 06 31 50.0000000  0 38
G13         2.000    22742251.218 7 119511411.51407      2198.955 7        43.617                                    22742246.127 3  93125711.61003      1713.478 3        21.571
G30         3.000    20442152.777 8 107424239.99808      -108.542 8        51.214                                    20442149.283 7  83707154.51007       -84.578 7        46.116    20442150.860 6  83707190.49806       -84.396 6        39.000
G14         4.000    23442271.823 6 123189988.86906      2656.074 6        41.733                                    23442272.895 3  95992200.37003      2069.663 3        19.373    23442271.230 5  95992194.34705      2069.905 5        35.338
G07         5.000    21206525.203 7 111441055.84507     -2276.505 7        46.753                                    21206521.998 6  86837185.94806     -1773.897 6        40.296    21206522.596 6  86837157.93106     -1773.872 6        41.132
E34         6.000    27402633.874 5 144001843.19505     -3949.137 5        32.395                                                                    27402635.766 5 107533847.07605     -2948.972 5        35.348    27402635.169 6 110339077.05706     -3025.943 6        36.526
G05         7.000    21763755.688 8 114369276.08508      1422.925 8        49.942                                    21763751.096 7  89118923.57307      1108.777 7        43.740    21763750.160 6  89118956.57906      1108.728 6        40.975
G09         9.000    22822625.208 5 119933718.91505     -3754.591 5        32.748                                    22822633.048 2  93454845.93702     -2925.664 2        16.340    22822635.002 5  93454918.97005     -2925.503 5        35.100
G20        10.000    20608018.984 7 108295892.04407     -1003.948 7        46.693                                    20608013.314 5  84386377.85005      -782.299 5        33.180
E09        12.000    27765053.294 4                     -3231.453 4        25.925
E31        13.000    26840812.617 4                     -2557.086 4        29.972                                                                    26840810.169 4                     -1909.427 4        29.175    26840822.941 5                     -1959.275 5        32.497
E25        14.000    26140760.046 5 137370638.01105      2143.649 5        33.934                                                                    26140761.469 4 102581982.94104      1600.930 4        28.995    26140783.116 5                      1642.577 5        32.383
E24        15.000    25172544.136 6 132282611.72506        67.814 6        37.981                                                                    25172539.229 5  98782489.99605        50.553 5        35.852    25172543.223 6 101359371.49206        51.935 6        41.440
E15        16.000    25864357.151 7 135918280.98707     -2443.734 7        42.976                                                                    25864357.809 7 101497290.43207     -1824.969 7        42.927    25864356.606 6 104145021.63706     -1872.407 6        39.544
E08        17.000                                                                                                                                    27995019.495 4 109858402.41404      1226.492 4        25.203    27995017.614 4                      1258.476 4        27.401
E05        21.000    22233479.476 7 116837701.94807     -1845.292 7        44.928                                                                    22233480.219 7  87248981.41407     -1377.900 7        45.860    22233479.448 7  89525029.70907     -1413.854 7        45.454
E13        22.000    27010151.854 6 141939505.52206       192.126 6        36.147                                                                    27010149.807 5 105993649.95705       143.385 5        35.762    27010150.720 6 108758747.78906       147.195 6        39.438
R07        23.000    21330910.355 6 114185989.81506     -3738.844 6        39.871                                                                    21330914.709 6  88811354.11806     -2908.135 6        38.796
S23        24.000    38085106.153 6 200138504.08006      -815.941 6        39.495
S36        25.000    38149840.133 5 200478657.39505      -819.576 5        34.933
G11        26.000    23927967.112 4                     -3803.473 4        28.057                                                                                                    23927964.417 4  97981087.17304     -2963.416 4        29.469
E03        27.000    23959382.367 7 125907406.58207       487.915 7        44.451                                                                    23959383.065 8  94021769.90208       364.343 8        48.825    23959382.862 8  96474487.35608       373.796 8        49.775
R11        28.000    21528475.994 6 115041640.46216      3207.911 6        37.974                                                                    21528467.885 5                      2495.151 5        32.413
R17        29.000    23179942.854 6 124040568.44416       -45.553 6        41.783
R10        30.000    19373499.757 7 103271636.62007      -365.693 7        47.117
R24        31.000    23101015.733 6 123531724.08616     -3280.791 6        39.216                                                                    23101023.569 4                     -2551.161 4        24.286
R09        32.000    21002361.622 7 112151431.32907     -3790.934 7        47.494                                                                    21002362.693 7  87228889.15507     -2948.558 7        44.611
C19        33.000                                                                                                                                    25142763.078 4 130925002.56804     -3748.340 4        29.005                                                                    25142765.808 5 106387242.10305     -3045.425 5        34.990
R08        35.000    19245376.671 8 103058147.19908      -689.431 8        48.437                                                                    19245375.014 7  80156317.25307      -536.201 7        47.319
C05        36.000                                                                                                                                                                                                    39206723.236 5 157869160.30505      -675.783 5        33.527
R01        38.000    21651849.206 7 115741543.23407      2547.455 7        43.137                                                                    21651850.446 5  90021301.20005      1981.441 5        35.052
C36        42.000                                                                                                                                    21847697.059 7 113766654.45607     -1113.065 7        42.817                                                                    21847699.779 7  92444760.94707      -904.348 7        43.166
C09        46.000                                                                                                                                    39844943.970 3                     -1594.418 3        23.238    39844935.432 5 160439009.36905     -1233.982 5        32.006
C21        47.000                                                                                                                                    23071752.599 7 120140669.11907      1312.608 7        44.316                                                                    23071748.677 7  97624161.99307      1066.663 7        44.218
C45        49.000                                                                                                                                    23014709.530 7 119843610.08907      1779.466 7        42.599                                                                    23014705.950 8  97382742.77208      1446.163 8        48.965
C22        50.000                                                                                                                                    21523110.112 7 112076431.23607     -1600.467 7        46.807                                                                    21523104.010 7  91071268.22907     -1300.355 7        42.021
I09        58.000    38737528.415 6 152014390.37206     -1171.006 6        40.641
I02        59.000    38771886.716 5 152149218.39605       176.620 5        30.317
I06        60.000    37909563.606 5 148765173.34205      -634.807 5        30.030
> 2025 01 01 06 31 55.0000000  0 38
G13         2.000    22740158.496 7 119500418.42307      2198.180 7        43.302                                    22740155.075 3  93117145.54603      1712.863 3        22.438
G30         3.000    20442257.093 8 107424788.28008      -110.998 8        51.061                                    20442253.190 7  83707581.73907       -86.491 7        45.788    20442255.147 6  83707617.74506       -86.732 6        39.288
G14         4.000    23439745.953 7 123176709.16107      2655.397 7        42.772                                    23439745.413 3  95981852.53703      2069.130 3        19.731    23439744.287 5  95981846.56005      2069.169 5        35.619
G07         5.000    21208691.986 7 111452442.30907     -2278.277 7        46.897                                    21208688.919 6  86846058.50806     -1775.279 6        41.001    21208689.830 7  86846030.50707     -1775.262 7        42.102
E34         6.000    27406391.632 5 144021588.83005     -3949.128 5        34.062                                                                    27406393.147 5 107548592.16205     -2949.140 5        35.267    27406392.464 6 110354206.78906     -3026.075 6        36.117
G05         7.000    21762402.875 8 114362167.39508      1420.271 8        49.969                                    21762397.831 7  89113384.33007      1106.704 7        43.697    21762397.971 6  89113417.33006      1106.679 6        40.384
G09         9.000    22826201.324 5 119952494.41005     -3755.702 5        34.714                                    22826206.326 2  93469476.16702     -2926.532 2        17.283    22826205.845 5  93469549.22005     -2926.763 5        33.748
G20        10.000    20608975.838 7 108300919.58507     -1007.350 7        46.767                                    20608970.049 5  84390295.40105      -784.948 5        33.287
E09        12.000    27768129.949 4                     -3232.604 4        25.865
E31        13.000    26843241.576 4                     -2558.987 4        29.554                                                                    26843244.846 4                     -1911.156 4        29.479    26843256.966 5                     -1960.847 5        32.048
E25        14.000    26138720.697 5 137359921.14605      2143.219 5        34.024                                                                    26138721.897 4 102573980.07104      1600.230 4        29.005    26138746.856 5                      1641.905 5        32.940
E24        15.000    25172480.012 6 132282277.98706        65.481 6        39.838                                                                    25172475.466 5  98782240.77905        48.834 5        34.867    25172479.975 6 101359115.77106        50.122 6        41.027
E15        16.000    25866683.206 7 135930504.35707     -2445.875 7        43.056                                                                    25866683.888 7 101506418.26507     -1826.559 7        42.732    25866682.604 6 104154387.58006     -1874.218 6        38.970
E08        17.000                                                                                                                                                                                                    27993452.095 4                      1258.679 4        26.467
E05        21.000    22235235.378 7 116846930.20307     -1846.379 7        44.819                                                                    22235236.226 7  87255872.63207     -1378.746 7        45.433    22235235.425 7  89532100.69707     -1414.703 7        45.184
E13        22.000    27009970.123 5 141938550.75805       189.975 5        35.900                                                                    27009968.025 5 105992936.99705       141.481 5        35.814    27009968.822 6 108758016.24406       145.328 6        39.000
R07        23.000    21334403.514 6 114204688.47006     -3740.828 6        36.605                                                                    21334407.586 6  88825897.50406     -2909.633 6        39.865
S23        24.000    38085885.391 6 200142582.99106      -815.830 6        39.363
S36        25.000    38150612.168 5 200482752.61505      -818.878 5        34.609
G11        26.000    23931586.300 4                     -3804.002 4        26.479                                                                                                    23931581.526 4  97995906.33704     -2964.373 4        29.744
E03        27.000    23958918.354 7 125904968.93207       486.938 7        43.431                                                                    23958919.119 8  94019949.57308       363.629 8        48.478    23958919.226 8  96472619.54008       373.107 8        49.663
R11        28.000    21525473.345 6 115025605.18816      3205.887 6        40.667                                                                    21525468.973 5                      2493.400 5        33.701
R17        29.000    23179985.359 6 124040805.40316       -49.640 6        39.159
R10        30.000    19373844.525 7 103273476.19407      -370.323 7        47.393
R24        31.000    23104086.584 6                     -3284.043 6        39.219
R09        32.000    21005912.600 7 112170393.09207     -3793.975 7        46.848                                                                    21005913.212 7  87243637.16007     -2950.804 7        44.242
C19        33.000                                                                                                                                                                                                                                                                    25146364.783 5 106402471.68605     -3046.413 5        34.952
R08        35.000    19246021.580 8 103061600.99508      -692.300 8        48.575                                                                    19246019.791 7  80159003.54107      -538.453 7        47.111
C05        36.000                                                                                                                                                                                                    39207562.045 5 157872539.48905      -675.898 5        33.240
R01        38.000    21649465.985 7 115728807.21507      2546.627 7        42.506                                                                    21649466.297 5  90011395.44705      1980.703 5        33.790
C36        42.000                                                                                                                                    21848767.436 6 113772225.88606     -1115.794 6        41.843                                                                    21848769.280 7  92449288.22507      -906.735 7        42.971
C09        46.000                                                                                                                                    39846479.489 4                     -1595.090 4        24.346    39846469.557 5 160445178.68805     -1233.894 5        32.479
C21        47.000                                                                                                                                    23070492.253 7 120134109.09007      1311.191 7        45.208                                                                    23070488.778 7  97618831.44807      1065.461 7        44.012
C45        49.000                                                                                                                                    23013002.161 7 119834716.46207      1777.768 7        42.013                                                                    23012998.184 8  97375515.97708      1444.557 8        49.084
C22        50.000                                                                                                                                    21524646.983 7 112084438.25007     -1602.615 7        46.363                                                                    21524641.552 7  91077774.56107     -1302.233 7        42.624
I09        58.000    38739020.121 6 152020245.35606     -1171.175 6        40.625
I02        59.000    38771663.478 4 152148335.90604       176.236 4        29.621
I06        60.000    37910374.965 4 148768348.35704      -634.935 4        29.934
> 2025 01 01 06 32  0.0000000  0 38
G13         2.000    22738067.117 7 119489429.79407      2197.098 7        43.520                                    22738064.681 3  93108582.98903      1712.029 3        22.210
G30         3.000    20442364.227 8 107425349.24008      -113.676 8        50.585                                    20442359.664 7  83708018.84507       -88.575 7        45.636    20442362.246 6  83708054.85206       -88.665 6        39.258
G14         4.000    23437219.829 7 123163433.51407      2654.541 7        43.759                                    23437218.660 3  95971507.88403      2068.469 3        20.095    23437218.551 5  95971501.91305      2068.564 5        35.295
G07         5.000    21210860.681 7 111463838.01807     -2280.249 7        46.901                                    21210857.611 6  86854938.27406     -1776.814 6        41.573    21210858.345 7  86854910.26707     -1776.823 7        42.248
E34         6.000    27410149.608 5 144041336.06705     -3949.752 5        35.533                                                                    27410150.880 5 107563338.43705     -2949.353 5        35.176    27410150.310 5 110369337.75305     -3026.305 5        35.867
G05         7.000    21761052.562 8 114355072.37808      1417.473 8        49.923                                    21761047.146 7  89107855.73707      1104.524 7        43.738    21761048.059 6  89107888.75206      1104.486 6        39.991
G09         9.000    22829778.528 5 119971275.23905     -3756.768 5        35.995                                    22829780.463 3  93484110.56103     -2927.343 3        18.298    22829779.516 5  93484183.57505     -2927.467 5        32.473
G20        10.000    20609935.942 7 108305964.38707     -1010.802 7        46.499                                    20609929.928 5  84394226.41205      -787.632 5        32.976
E09        12.000    27771203.402 4                     -3233.198 4        24.887
E31        13.000    26845671.415 4                     -2560.803 4        29.564                                                                    26845680.253 5                     -1912.305 5        30.060    26845692.359 5                     -1962.206 5        31.675
E25        14.000    26136682.615 5 137349208.89005      2142.036 5        34.043                                                                    26136684.389 4 102565980.70904      1599.306 4        28.919    26136710.099 5                      1641.239 5        32.790
E24        15.000    25172418.992 6 132281956.74706        62.819 6        41.216                                                                    25172414.245 5  98782000.86605        46.861 5        33.976    25172419.100 6 101358869.61006        48.077 6        41.094
E15        16.000    25869011.329 7 135942738.85207     -2448.226 7        43.158                                                                    25869011.924 7 101515554.39807     -1828.277 7        42.188    25869010.589 6 104163762.03506     -1876.000 6        38.799
E08        17.000                                                                                                                                                                                                    27991885.931 4                      1258.797 4        26.216
E05        21.000    22236992.371 7 116856164.14607     -1847.495 7        44.692                                                                    22236993.353 7  87262768.09507     -1379.676 7        45.035    22236992.638 7  89539176.05007     -1415.655 7        45.038
E13        22.000    27009788.880 5 141937608.60605       187.017 5        35.838                                                                    27009788.799 5 105992233.43705       139.486 5        35.981    27009788.912 6 108757294.31906       143.278 6        38.967
R07        23.000    21337898.798 5 114223397.21805     -3742.777 5        35.490                                                                    21337901.418 6  88840448.75906     -2911.112 6        40.365
S23        24.000    38086660.095 6 200146662.72006      -816.200 6        39.288
S36        25.000    38151391.755 5 200486848.15705      -819.326 5        34.733
G11        26.000    23935203.459 4                     -3805.274 4        26.934                                                                                                    23935202.554 4  98010730.71404     -2965.577 4        28.967
E03        27.000    23958455.771 7 125902536.20207       485.865 7        42.480                                                                    23958456.068 8  94018132.91508       362.797 8        48.136    23958456.467 8  96470755.48108       372.320 8        49.594
R11        28.000    21522474.778 7 115009580.63217      3203.656 7        42.138                                                                    21522469.875 5  89451877.81515      2492.113 5        34.576
R17        29.000    23180033.181 6 124041064.19206       -54.235 6        38.811                                                                    23180024.632 3                       -40.276 3        22.952
R10        30.000    19374194.092 8 103275339.05508      -375.048 8        48.175
R24        31.000    23107157.456 6 123564562.81616     -3287.171 6        38.913
R09        32.000    21009466.130 7 112189369.96207     -3797.121 7        46.249                                                                    21009466.357 7  87258396.92507     -2953.248 7        43.149
C19        33.000                                                                                                                                                                                                                                                                    25149964.907 5 106417705.35705     -3047.101 5        35.010
R08        35.000    19246668.807 8 103065069.18908      -695.299 8        48.154                                                                    19246667.732 7  80161701.01507      -540.728 7        47.027
C05        36.000                                                                                                                                                                                                    39208401.977 5 157875919.11805      -676.062 5        33.641
R01        38.000    21647084.666 6 115716075.82706      2545.613 6        41.743                                                                    21647084.730 5  90001493.25505      1980.067 5        32.982
C36        42.000                                                                                                                                    21849836.248 6 113777811.15406     -1118.545 6        41.509                                                                    21849841.563 7  92453826.66007      -908.962 7        42.849
C09        46.000                                                                                                                                                                                                    39848000.881 5 160451348.23905     -1234.493 5        32.245
C21        47.000                                                                                                                                    23069233.942 7 120127556.18507      1309.674 7        45.917                                                                    23069230.455 7  97613506.67307      1064.198 7        43.769
C45        49.000                                                                                                                                    23011297.249 6 119825832.28406      1775.778 6        41.995                                                                    23011292.192 8  97368296.83808      1442.901 8        49.090
C22        50.000                                                                                                                                    21526186.462 7 112092456.39407     -1604.874 7        46.476                                                                    21526181.132 7  91084289.91007     -1304.106 7        42.707
I09        58.000    38740512.972 6 152026101.27606     -1171.249 6        40.980
I02        59.000    38771442.825 5 152147454.08105       175.673 5        30.075
I06        60.000    37911180.555 4 148771523.97804      -635.262 4        29.981
> 2025 01 01 06 32  5.0000000  0 38
G13         2.000    22735977.003 7 119478444.44507      2196.691 7        42.830                                    22735974.770 3  93100022.95703      1711.705 3        21.857
G30         3.000    20442473.244 8 107425921.76008      -115.740 8        49.589                                    20442468.517 7  83708464.95907       -90.185 7        45.543    20442471.151 6  83708500.94806       -90.137 6        39.823
G14         4.000    23434693.607 7 123150160.81707      2654.104 7        44.281                                    23434692.623 3  95961165.51703      2068.128 3        20.286    23434692.182 5  95961159.55905      2067.951 5        35.333
G07         5.000    21213031.087 7 111475241.86007     -2281.597 7        47.039                                    21213027.855 6  86863824.37606     -1777.863 6        41.764    21213027.947 6  86863796.36206     -1777.876 6        41.816
E34         6.000    27413907.408 6 144061083.78806     -3949.906 6        36.454                                                                    27413908.619 5 107578085.07405     -2949.515 5        34.576    27413907.997 5 110384469.07305     -3026.296 5        35.605
G05         7.000    21759704.512 8 114347989.73908      1415.214 8        49.962                                    21759698.853 7  89102336.79707      1102.762 7        43.936    21759700.405 6  89102369.79706      1102.763 6        39.799
G09         9.000    22833351.896 5 119990060.25605     -3757.597 5        35.814                                    22833355.319 3  93498748.21403     -2927.961 3        19.910    22833354.667 5  93498821.21505     -2927.713 5        31.796
G20        10.000    20610898.539 7 108311025.33307     -1013.903 7        45.983                                    20610892.834 5  84398169.99905      -790.054 5        32.533
E09        12.000    27774279.436 4                     -3232.311 4        25.609
E31        13.000    26848104.738 4                     -2562.692 4        29.308                                                                    26848117.560 5                     -1913.736 5        30.438    26848129.018 5                     -1963.594 5        31.004
E25        14.000    26134645.347 5 137338500.14605      2140.915 5        34.295                                                                    26134648.911 5 102557983.92705      1599.175 5        30.113    26134671.607 5                      1640.830 5        32.222
E24        15.000    25172360.339 6 132281646.81206        60.879 6        41.921                                                                    25172354.592 5  98781769.42805        45.610 5        32.796    25172360.315 6 101358632.13306        46.502 6        40.806
E15        16.000    25871341.711 7 135954983.31907     -2450.046 7        43.905                                                                    25871341.776 7 101524697.97307     -1829.496 7        42.188    25871340.796 6 104173144.14206     -1877.220 6        38.661
E08        17.000                                                                                                                                                                                                    27990318.306 4                      1258.816 4        25.759
E05        21.000    22238750.380 7 116865402.63907     -1848.148 7        44.700                                                                    22238751.336 7  87269666.95607     -1380.175 7        44.664    22238750.738 7  89546254.88207     -1416.168 7        44.913
E13        22.000    27009609.711 5 141936677.88605       185.100 5        35.995                                                                    27009611.859 5 105991538.41105       138.084 5        35.743    27009611.552 6 108756581.15306       141.687 6        38.628
R07        23.000    21341393.313 5 114242114.56705     -3744.495 5        32.491                                                                    21341397.848 6  88855006.68506     -2912.364 6        40.779
S23        24.000    38087434.053 6 200150741.84506      -815.918 6        39.393
S36        25.000    38152169.800 5 200490942.99505      -819.009 5        34.638
G11        26.000    23938827.780 4                     -3806.388 4        29.355                                                                                                    23938824.357 4  98025559.31804     -2966.385 4        29.118
E03        27.000    23957994.096 7 125900107.24407       485.438 7        42.002                                                                    23957993.803 7  94016319.08507       362.397 7        47.854    23957994.371 8  96468894.32708       371.921 8        49.586
R11        28.000    21519478.226 7 114993565.53107      3201.979 7        42.097                                                                    21519473.524 5  89439421.63905      2490.450 5        34.381
R17        29.000    23180091.028 6 124041343.65706       -58.095 6        40.062                                                                    23180078.403 4                       -45.012 4        25.669
R10        30.000    19374547.987 8 103277224.03808      -379.312 8        48.207
R24        31.000    23110236.392 6 123581004.85516     -3289.922 6        37.815                                                                    23110261.293 4                     -2558.640 4        28.635
R09        32.000    21013022.412 7 112208360.69907     -3799.603 7        45.446                                                                    21013022.372 7  87273167.50407     -2955.302 7        43.244
C19        33.000                                                                                                                                    25153608.663 5 130981243.61705     -3750.685 5        34.429                                                                    25153566.110 5 106432942.37605     -3047.717 5        34.695
R08        35.000    19247317.978 7 103068550.76907      -697.682 7        47.812                                                                    19247317.677 7  80164408.91207      -542.675 7        46.776
C05        36.000                                                                                                                                                                                                    39209241.345 5 157879298.30605      -675.838 5        33.844
R01        38.000    21644703.456 6 115703347.97406      2545.089 6        41.776                                                                    21644704.271 5  89991593.81405      1979.578 5        33.222
C36        42.000                                                                                                                                    21850910.924 6 113783409.09206     -1120.946 6        41.333                                                                    21850916.321 7  92458375.45007      -910.728 7        42.679
C09        46.000                                                                                                                                    39849525.120 3                     -1596.728 3        23.924    39849532.748 5 160457517.01005     -1233.640 5        32.204
C21        47.000                                                                                                                                    23067977.054 7 120121009.31407      1308.714 7        46.316                                                                    23067973.146 7  97608186.82907      1063.525 7        43.484
C45        49.000                                                                                                                                    23009594.524 7 119816956.45407      1774.242 7        42.844                                                                    23009587.720 8  97361084.52108      1441.782 8        49.028
C22        50.000                                                                                                                                    21527728.155 7 112100484.54307     -1606.749 7        47.096                                                                    21527722.508 7  91090813.44707     -1305.497 7        43.026
I09        58.000    38742005.966 6 152031957.33006     -1171.273 6        41.201
I02        59.000    38771222.421 5 152146572.46505       176.076 5        30.536
I06        60.000    37911990.355 5 148774699.39605      -635.619 5        30.362
> 2025 01 01 06 32 10.0000000  0 38
G13         2.000    22733886.706 7 119467462.66607      2195.649 7        42.011                                    22733885.141 3  93091465.71803      1710.906 3        21.762
G30         3.000    20442584.469 8 107426506.12908      -118.326 8        49.841                                    20442579.807 7  83708920.30507       -92.198 7        45.902    20442582.333 6  83708956.28006       -92.166 6        40.760
G14         4.000    23432168.227 7 123136891.37207      2653.305 7        44.531                                    23432166.907 3  95950825.70303      2067.509 3        20.452    23432167.198 5  95950819.72705      2067.371 5        34.638
G07         5.000    21215202.973 7 111486654.13907     -2283.578 7        47.389                                    21215199.593 6  86872717.04806     -1779.410 6        41.990    21215199.254 6  86872689.02406     -1779.295 6        40.930
E34         6.000    27417665.559 6 144080832.22006     -3950.074 6        36.703                                                                    27417666.666 5 107592832.25505     -2949.667 5        34.348    27417665.551 5 110399600.98005     -3026.840 5        34.876
G05         7.000    21758359.361 8 114340919.98308      1412.373 8        50.342                                    21758353.136 7  89096827.89307      1100.547 7        44.173    21758355.228 6  89096860.89106      1100.669 6        39.880
G09         9.000    22836926.211 6 120008849.78306     -3758.633 6        36.170                                    22836930.896 3  93513389.36803     -2928.806 3        20.738    22836930.820 5  93513462.38505     -2928.881 5        31.275
G20        10.000    20611864.465 7 108316102.74307     -1017.458 7        45.735                                    20611858.847 5  84402126.41805      -792.818 5        32.455
E09        12.000    27777355.505 4                     -3232.470 4        24.556
E31        13.000    26850544.916 4                     -2564.605 4        28.872                                                                    26850556.888 5                     -1915.473 5        30.294    26850566.021 5                     -1965.209 5        30.377
E25        14.000    26132608.459 5 137327795.14105      2140.354 5        34.948                                                                    26132615.645 5 102549989.99305      1598.366 5        31.268    26132633.808 5                      1640.143 5        31.555
E24        15.000    25172303.659 7 132281348.54307        58.219 7        42.015                                                                    25172297.917 5  98781546.69205        43.458 5        31.902    25172303.347 6 101358403.58306        44.508 6        40.887
E15        16.000    25873673.629 7 135967238.03907     -2452.329 7        44.110                                                                    25873673.519 7 101533849.22007     -1831.120 7        42.023    25873673.060 6 104182534.11706     -1879.066 6        39.126
E08        17.000                                                                                                                                                                                                    27988754.432 4                      1258.322 4        24.511
E05        21.000    22240509.459 7 116874645.98507     -1849.461 7        44.504                                                                    22240510.156 7  87276569.43107     -1381.085 7        44.340    22240509.801 7  89553337.43507     -1417.082 7        45.049
E13        22.000    27009434.623 6 141935758.94906       182.277 6        36.325                                                                    27009436.967 5 105990852.18205       136.170 5        35.643    27009436.593 6 108755877.02706       139.730 6        38.706
R07        23.000    21344890.627 5 114260841.19005     -3746.350 5        31.042                                                                    21344896.389 7  88869571.83407     -2914.079 7        42.061
S23        24.000    38088211.552 6 200154820.51906      -815.999 6        39.523
S36        25.000    38152950.607 5 200495037.35205      -819.083 5        34.724
G11        26.000    23942455.863 5                     -3807.868 5        31.238                                                                                                    23942445.320 4  98040392.38704     -2967.186 4        29.052
E03        27.000    23957532.456 6 125897682.39606       484.297 6        41.702                                                                    23957532.268 7  94014508.29807       361.673 7        47.598    23957533.056 8  96467036.30608       371.058 8        49.698
R11        28.000    21516483.034 6 114977560.24306      3199.749 6        41.321                                                                    21516479.318 5  89426973.03405      2488.972 5        34.281
R17        29.000    23180151.785 6 124041644.22316       -62.524 6        41.681                                                                    23180136.995 4                       -48.398 4        25.534
R10        30.000    19374905.234 7 103279131.39307      -383.994 7        47.172
R24        31.000    23113315.536 6 123597461.79316     -3293.156 6        38.360
R09        32.000    21016581.186 7 112227365.69307     -3802.661 7        45.258                                                                    21016581.729 7  87287949.15007     -2957.573 7        43.532
C19        33.000                                                                                                                                                                                                                                                                    25157167.308 5 106448182.85405     -3048.541 5        34.219
R08        35.000    19247970.724 7 103072045.86007      -700.734 7        47.767                                                                    19247969.783 7  80167127.31407      -545.017 7        46.069
C05        36.000                                                                                                                                                                                                    39210079.904 5 157882677.34505      -676.064 5        33.820
R01        38.000    21642324.466 7 115690624.07307      2544.027 7        42.423                                                                    21642322.743 5  89981697.45105      1978.706 5        33.329
C36        42.000                                                                                                                                    21851989.948 6 113789019.96606     -1123.741 6        41.397                                                                    21851993.928 7  92462934.73607      -913.106 7        42.637
C09        46.000                                                                                                                                    39851054.424 4                     -1595.526 4        24.105    39851063.921 5 160463685.29905     -1233.611 5        32.293
C21        47.000                                                                                                                                    23066721.553 7 120114468.77807      1307.109 7        46.971                                                                    23066716.896 7  97602872.11207      1062.204 7        43.191
C45        49.000                                                                                                                                    23007892.919 7 119808089.26607      1772.236 7        43.812                                                                    23007884.867 8  97353879.21408      1440.114 8        48.983
C22        50.000                                                                                                                                    21529271.920 7 112108522.99607     -1609.034 7        47.885                                                                    21529266.041 7  91097345.35607     -1307.494 7        43.187
I09        58.000    38743497.372 6 152037813.73206     -1171.449 6        41.111
I02        59.000    38771000.054 5 152145691.19305       176.448 5        30.641
I06        60.000    37912802.428 5 148777874.74605      -634.746 5        30.340
> 2025 01 01 06 32 15.0000000  0 38
G13         2.000    22731797.754 6 119456484.56906      2195.141 6        41.392                                    22731795.896 3  93082911.33203      1710.504 3        21.452
G30         3.000    20442698.149 8 107427102.46608      -120.469 8        50.588                                    20442693.556 7  83709384.97607       -93.869 7        46.281    20442695.713 6  83709420.95306       -93.923 6        40.825
G14         4.000    23429643.427 7 123123625.30507      2652.854 7        44.414                                    23429642.041 3  95940488.51903      2067.157 3        20.214    23429641.753 5  95940482.52905      2067.127 5        34.024
G07         5.000    21217376.402 7 111498074.97307     -2285.094 7        47.540                                    21217372.806 6  86881616.38806     -1780.589 6        41.805    21217372.172 6  86881588.36906     -1780.580 6        40.064
E34         6.000    27421423.950 6 144100581.49606     -3950.012 6        36.854                                                                    27421424.653 5 107607580.07005     -2949.780 5        34.248    27421423.743 5 110414733.48905     -3026.513 5        34.386
G05         7.000    21757016.558 8 114333863.09108      1409.987 8        50.385                                    21757010.035 7  89091329.01607      1098.690 7        44.299    21757012.633 6  89091362.00406      1098.836 6        40.176
G09         9.000    22840500.563 5 120027643.92905     -3759.495 5        35.571                                    22840507.581 3  93528034.10303     -2929.464 3        20.476    22840508.925 5  93528107.12305     -2929.232 5        30.672
G20        10.000    20612833.930 7 108321196.72707     -1020.506 7        45.243                                    20612828.174 5  84406095.75905      -795.192 5        32.275
E09        12.000    27780437.611 4                     -3232.799 4        24.211
E31        13.000    26852985.523 4                     -2566.900 4        29.924                                                                    26852997.670 5                     -1916.626 5        30.611    26853003.431 4                     -1966.855 4        29.090
E25        14.000    26130571.708 5 137317094.05205      2139.783 5        35.433                                                                    26130581.127 5 102541998.94805      1598.061 5        33.066    26130596.237 5                      1639.595 5        30.634
E24        15.000    25172249.482 6 132281062.03006        56.054 6        41.302                                                                    25172243.088 5  98781332.76505        41.704 5        31.426    25172248.769 6 101358184.02606        43.058 6        40.634
E15        16.000    25876006.928 7 135979503.14707     -2454.102 7        43.699                                                                    25876007.507 6 101543008.22206     -1832.558 6        41.940    25876007.113 6 104191932.04206     -1880.404 6        39.309
E08        17.000                                                                                                                                                                                                    27987191.823 3                      1258.979 3        23.314
E05        21.000    22242269.386 7 116883894.28707     -1850.216 7        44.372                                                                    22242269.896 7  87283475.61807     -1381.704 7        43.907    22242269.983 7  89560423.79207     -1417.731 7        45.219
E13        22.000    27009262.626 6 141934851.84506       180.195 6        37.161                                                                    27009264.048 5 105990174.80305       134.689 5        35.395    27009264.057 6 108755181.96606       138.033 6        38.727
R07        23.000    21348388.187 5 114279577.24505     -3748.226 5        32.922                                                                    21348396.589 7  88884144.29507     -2915.282 7        42.508
S23        24.000    38088986.126 6 200158899.16006      -815.792 6        39.622
S36        25.000    38153732.998 5 200499131.47305      -818.959 5        34.776
G11        26.000    23946081.879 5                     -3808.998 5        32.737                                                                                                    23946069.101 4  98055229.98604     -2967.740 4        27.713
E03        27.000    23957072.232 6 125895261.72806       483.762 6        41.204                                                                    23957071.584 7  94012700.64607       361.221 7        47.351    23957072.404 8  96465181.49808       370.628 8        49.591
R11        28.000    21513490.303 6 114961564.94106      3198.129 6        39.637                                                                    21513485.546 5  89414532.26805      2487.213 5        33.413
R17        29.000    23180211.020 6 124041965.85616       -66.438 6        39.486                                                                    23180193.355 4                       -51.166 4        27.832
R10        30.000    19375266.111 7 103281061.19307      -388.238 7        45.452
R24        31.000    23116389.215 6 123613933.71706     -3296.005 6        39.586
R09        32.000    21020143.027 7 112246385.03107     -3805.340 7        45.871                                                                    21020143.882 7  87302741.95007     -2959.675 7        43.833
C19        33.000                                                                                                                                    25160794.757 5 131018759.42205     -3752.330 5        33.419                                                                    25160769.461 5 106463426.89005     -3049.145 5        33.970
R08        35.000    19248625.748 8 103075554.72208      -703.205 8        48.261                                                                    19248625.535 7  80169856.40707      -546.978 7        45.404
C05        36.000                                                                                                                                                                                                    39210918.964 5 157886056.24305      -675.696 5        34.067
R01        38.000    21639945.231 7 115677904.11807      2543.600 7        43.189                                                                    21639944.998 5  89971804.11705      1978.489 5        34.167
C36        42.000                                                                                                                                    21853070.626 6 113794643.90906     -1126.079 6        41.154                                                                    21853074.057 7  92467504.63207      -915.095 7        42.811
C09        46.000                                                                                                                                    39852589.085 3                     -1595.270 3        23.143    39852595.279 5 160469853.22305     -1233.331 5        31.834
C21        47.000                                                                                                                                    23065467.239 7 120107934.66507      1306.163 7        47.187                                                                    23065461.918 7  97597562.61907      1061.232 7        43.109
C45        49.000                                                                                                                                    23006192.013 7 119799230.85107      1770.789 7        43.845                                                                    23006183.587 8  97346681.00808      1438.818 8        49.060
C22        50.000                                                                                                                                    21530817.731 8 112116571.86808     -1610.831 8        48.285                                                                    21530811.671 7  91103885.71007     -1308.955 7        43.634
I09        58.000    38744989.789 6 152043670.55406     -1171.525 6        41.201
I02        59.000    38770778.277 5 152144810.26805       176.292 5        30.241
I06        60.000    37913611.520 4 148781050.26004      -635.453 4        29.953
> 2025 01 01 06 32 20.0000000  0 38
G13         2.000    22729709.914 6 119445509.82406      2194.268 6        41.921                                    22729707.416 3  93074359.57503      1709.803 3        20.786
G30         3.000    20442813.839 8 107427710.40008      -123.047 8        51.003                                    20442809.688 7  83709858.67807       -95.877 7        46.900    20442811.325 6  83709894.66606       -95.899 6        41.027
G14         4.000    23427119.234 7 123110362.28307      2651.965 7        44.342                                    23427117.797 3  95930153.70203      2066.458 3        20.595    23427118.380 5  95930147.72605      2066.512 5        33.880
G07         5.000    21219550.954 7 111509503.99107     -2286.879 7        47.383                                    21219547.396 6  86890522.10306     -1781.983 6        41.557    21219547.169 6  86890494.09406     -1781.921 6        40.010
E34         6.000    27425182.199 6 144120331.25406     -3950.082 6        36.866                                                                    27425182.620 5 107622328.23105     -2949.854 5        34.033    27425181.931 5 110429866.39405     -3026.830 5        34.071
G05         7.000    21755676.034 8 114326818.81708      1407.363 8        50.238                                    21755669.488 7  89085839.97107      1096.647 7        44.459    21755672.245 6  89085872.97306      1096.609 6        40.520
G09         9.000    22844078.794 5 120046442.29605     -3760.399 5        34.533                                    22844084.835 3  93542682.12503     -2930.172 3        18.925    22844086.625 4  93542755.14404     -2930.339 4        29.668
G20        10.000    20613806.407 7 108326306.94507     -1023.977 7        45.719                                    20613800.658 5  84410077.74105      -797.893 5        32.323
E09        12.000    27783513.475 3                     -3232.797 3        22.362
E31        13.000    26855428.549 5                     -2568.366 5        30.694                                                                    26855440.531 4                     -1918.082 4        29.754    26855444.302 4                     -1968.018 4        28.938
E25        14.000    26128535.424 6 137306396.55906      2138.896 6        36.113                                                                    26128545.983 5 102534010.55905      1597.339 5        34.105    26128558.268 4                      1639.032 4        29.384
E24        15.000    25172195.230 6 132280786.90706        53.634 6        39.772                                                                    25172190.873 5  98781127.28605        40.094 5        31.525    25172196.325 6 101357973.22806        41.097 6        40.865
E15        16.000    25878342.374 7 135991778.27307     -2456.329 7        43.355                                                                    25878343.355 6 101552174.70106     -1834.289 6        41.738    25878343.147 6 104201337.63706     -1882.053 6        39.850
E08        17.000    27985644.089 5 147065548.96115      1642.484 5        31.796                                                                                                                                    27985627.609 3                      1258.297 3        21.119
E05        21.000    22244029.875 7 116893147.19307     -1851.340 7        44.498                                                                    22244030.610 7  87290385.24707     -1382.543 7        43.518    22244030.863 7  89567513.67307     -1418.553 7        45.461
E13        22.000    27009093.742 6 141933956.24706       177.644 6        37.709                                                                    27009093.316 5 105989506.02805       132.780 5        35.571    27009093.649 6 108754495.75606       136.057 6        38.670
R07        23.000    21351894.034 5 114298322.22405     -3750.313 5        35.014                                                                    21351898.703 7  88898723.61707     -2916.741 7        42.584
S23        24.000    38089764.251 6 200162977.38706      -815.723 6        39.480
S36        25.000    38154508.557 5 200503225.01305      -818.867 5        34.543
G11        26.000    23949705.624 5                     -3810.128 5        32.725                                                                                                    23949694.616 4  98070071.82804     -2968.742 4        27.473
E03        27.000    23956612.872 6 125892844.90906       482.734 6        41.099                                                                    23956611.587 7  94010895.86707       360.425 7        47.131    23956612.477 8  96463329.63208       369.866 8        49.663
R11        28.000    21510496.237 5 114945579.16805      3195.731 5        34.910                                                                    21510493.386 5  89402098.90405      2486.213 5        31.328
R17        29.000                                                                                                                                    23180257.617 4                       -54.489 4        28.692
R10        30.000    19375631.594 7 103283013.21407      -392.879 7        44.980
R24        31.000    23119468.048 6 123630420.26806     -3299.012 6        38.483                                                                    23119462.644 4                     -2565.907 4        29.687
R09        32.000    21023707.710 7 112265418.34607     -3808.387 7        45.968                                                                    21023708.358 7  87317545.61007     -2962.029 7        44.540
C19        33.000                                                                                                                                    25164396.854 5 131037523.58905     -3753.367 5        30.325                                                                    25164373.118 5 106478674.22405     -3050.046 5        33.473
R08        35.000    19249284.943 8 103079077.11008      -706.065 8        48.679                                                                    19249283.808 7  80172596.02207      -549.104 7        45.943
C05        36.000                                                                                                                                                                                                    39211758.658 5 157889434.82505      -676.168 5        33.485
R01        38.000    21637567.068 7 115665187.65707      2542.640 7        44.421                                                                    21637568.071 5  89961913.54605      1977.597 5        35.605
C36        42.000                                                                                                                                    21854152.385 6 113800280.56706     -1128.753 6        40.572                                                                    21854156.754 7  92472084.86707      -917.150 7        43.272
C09        46.000                                                                                                                                    39854124.394 3                     -1597.662 3        23.752    39854125.497 5 160476020.47605     -1233.869 5        30.928
C21        47.000                                                                                                                                    23064213.689 7 120101406.66007      1304.726 7        47.571                                                                    23064208.288 7  97592258.05907      1060.372 7        43.060
C45        49.000                                                                                                                                    23004492.118 7 119790380.87107      1768.805 7        43.534                                                                    23004483.831 8  97339489.64408      1437.524 8        48.939
C22        50.000                                                                                                                                    21532366.027 8 112124630.82608     -1613.068 8        48.413                                                                    21532359.399 7  91110434.24607     -1310.546 7        44.182
I09        58.000    38746482.880 6 152049527.51206     -1171.557 6        41.364
I02        59.000    38770553.165 5 152143929.54105       175.906 5        30.370
I06        60.000    37914419.255 5 148784225.50405      -635.276 5        30.166
> 2025 01 01 06 32 25.0000000  0 38
G13         2.000    22727622.746 7 119434539.10507      2193.713 7        42.307                                    22727619.539 3  93065810.96103      1709.384 3        20.262
G30         3.000    20442931.517 8 107428330.61008      -125.240 8        51.322                                    20442928.271 7  83710341.94807       -97.586 7        47.650    20442929.914 6  83710377.93706       -97.597 6        41.735
G14         4.000    23424596.366 7 123097102.94907      2651.506 7        44.158                                    23424594.353 3  95919821.78203      2066.103 3        20.238    23424594.958 5  95919815.76605      2066.272 5        33.904
G07         5.000    21221727.865 7 111520941.81107     -2288.318 7        47.513                                    21221723.529 6  86899434.67606     -1783.100 6        41.507    21221723.984 6  86899406.66106     -1782.974 6        39.402
E34         6.000    27428940.167 6 144140082.14906     -3950.411 6        36.457                                                                    27428941.120 5 107637077.23605     -2950.056 5        33.323    27428940.270 5 110445000.13705     -3027.023 5        32.766
G05         7.000    21754337.947 8 114319787.76008      1404.936 8        50.073                                    21754331.619 7  89080361.22307      1094.754 7        44.640    21754334.152 6  89080394.21706      1094.734 6        40.884
G09         9.000    22847657.035 5 120065245.54305     -3760.955 5        32.934                                    22847662.759 2  93557333.96602     -2930.608 2        17.245    22847664.396 4  93557406.97504     -2930.850 4        28.161
G20        10.000    20614782.300 7 108331434.01807     -1027.042 7        46.759                                    20614776.416 5  84414072.85505      -800.291 5        32.796
E09        12.000    27786589.656 3                     -3233.242 3        22.133
E31        13.000    26857874.281 5                     -2570.582 5        32.084                                                                    26857885.287 4                     -1919.573 4        29.185    26857889.206 4                     -1969.282 4        28.512
E25        14.000    26126500.176 5 137295703.25105      2138.389 5        35.938                                                                    26126511.150 5 102526025.31905      1596.831 5        34.595    26126519.235 4                      1638.241 4        28.237
E24        15.000    25172143.576 6 132280523.87906        51.477 6        38.195                                                                    25172141.083 5  98780930.85505        38.382 5        32.048    25172146.208 6 101357771.65606        39.377 6        40.641
E15        16.000    25880680.015 7 136004064.03807     -2458.070 7        42.633                                                                    25880681.036 6 101561349.13306     -1835.565 6        41.623    25880681.204 6 104210751.40406     -1883.444 6        40.179
E08        17.000    27984081.047 5 147057336.01105      1642.811 5        30.732
E05        21.000    22245791.568 7 116902405.36007     -1852.143 7        44.460                                                                    22245792.406 7  87297298.80007     -1383.203 7        43.079    22245792.911 7  89574607.58707     -1419.196 7        45.603
E13        22.000    27008926.169 6 141933072.84706       175.531 6        38.601                                                                    27008925.143 5 105988846.36805       131.130 5        35.505    27008925.475 6 108753818.85306       134.446 6        38.486
R07        23.000    21355402.331 6 114317076.61206     -3751.904 6        36.809                                                                    21355402.713 7  88913310.30607     -2917.959 7        42.698
S23        24.000    38090541.562 6 200167055.66206      -815.578 6        39.405
S36        25.000    38155286.780 5 200507318.93405      -818.857 5        34.662
G11        26.000    23953333.858 5                     -3811.253 5        30.875
E03        27.000    23956154.448 6 125890432.56706       482.016 6        41.080                                                                    23956152.580 7  94009094.44207       359.957 7        46.956    23956153.387 8  96461481.21108       369.362 8        49.545
R11        28.000                                                                                                                                    21507503.574 4  89389673.57704      2484.548 4        28.739
R17        29.000    23180330.878 5                       -74.987 5        35.005                                                                    23180325.729 4                       -58.123 4        29.280
R10        30.000    19376002.637 7 103284988.05607      -397.237 7        44.966
R24        31.000    23122553.466 6 123646922.20316     -3301.789 6        37.784                                                                    23122550.604 5                     -2568.072 5        30.725
R09        32.000    21027275.213 7 112284466.35007     -3810.968 7        46.067                                                                    21027275.556 7  87332360.70507     -2964.116 7        45.050
C19        33.000                                                                                                                                    25167999.959 4 131056292.42204     -3753.932 4        27.856                                                                    25167977.624 5 106493925.36205     -3050.631 5        32.563
R08        35.000    19249946.159 8 103082613.41008      -708.674 8        48.651                                                                    19249944.800 7  80175346.46307      -551.159 7        46.350
C05        36.000                                                                                                                                                                                                    39212598.080 5 157892813.48905      -675.471 5        34.090
R01        38.000    21635189.247 7 115652475.54407      2542.021 7        45.222                                                                    21635188.300 5  89952026.33505      1977.190 5        35.790
C36        42.000                                                                                                                                    21855235.836 6 113805930.57606     -1131.245 6        39.513                                                                    21855242.044 7  92476675.93807      -919.201 7        43.551
C09        46.000                                                                                                                                    39855653.224 3                     -1595.098 3        23.048    39855654.484 5 160482187.52405     -1233.116 5        30.355
C21        47.000                                                                                                                                    23062961.793 7 120094885.40707      1303.648 7        47.854                                                                    23062955.973 7  97586958.99807      1059.396 7        43.043
C45        49.000                                                                                                                                    23002793.695 7 119781539.97707      1767.229 7        42.519                                                                    23002785.843 8  97332305.65508      1436.196 8        48.642
C22        50.000                                                                                                                                    21533916.602 8 112132700.50108     -1614.942 8        48.565                                                                    21533909.390 7  91116991.50407     -1312.261 7        44.433
I09        58.000    38747975.695 6 152055385.11606     -1171.499 6        41.380
I02        59.000    38770329.048 5 152143049.31605       176.114 5        30.491
I06        60.000    37915227.359 5 148787401.06405      -634.990 5        30.272
> 2025 01 01 06 32 30.0000000  0 38
G13         2.000    22725535.257 7 119423571.57407      2192.979 7        42.849                                    22725531.823 3  93057264.82603      1708.798 3        20.071
G30         3.000    20443051.473 8 107428962.23408      -127.669 8        51.381                                    20443049.072 8  83710834.11008       -99.477 8        48.336    20443050.526 7  83710870.10207       -99.423 7        42.381
G14         4.000    23422074.039 7 123083846.52007      2650.793 7        43.634                                    23422071.548 3  95909492.09303      2065.551 3        20.167    23422073.219 5  95909486.10005      2065.582 5        33.844
G07         5.000    21223905.930 7 111532387.57807     -2290.078 7        47.802                                    21223901.111 6  86908353.43906     -1784.472 6        41.344    21223901.720 6  86908325.42906     -1784.464 6        38.853
E34         6.000    27432698.880 5 144159833.29705     -3950.399 5        35.967                                                                    27432699.801 5 107651826.45405     -2949.824 5        32.946    27432698.818 5 110460134.13305     -3027.293 5        32.647
G05         7.000    21753002.313 8 114312769.25008      1402.351 8        49.766                                    21752996.276 7  89074892.25007      1092.742 7        44.680    21752998.937 6  89074925.24206      1092.678 6        41.597
G09         9.000    22851237.161 5 120084052.85605     -3762.215 5        30.604                                    22851241.586 2  93571988.96502     -2931.561 2        14.524    22851242.977 4  93572061.87304     -2930.829 4        25.744
G20        10.000    20615761.656 7 108336577.14007     -1030.373 7        47.204                                    20615755.231 5  84418080.47105      -802.880 5        33.365
E09        12.000    27789663.754 3                     -3235.358 3        22.705
E31        13.000    26860321.761 5                     -2572.375 5        32.725                                                                    26860331.721 4                     -1920.777 4        28.758    26860338.421 4                     -1970.978 4        27.269
E25        14.000    26124466.326 5 137285013.38205      2137.255 5        35.633                                                                    26124477.816 5 102518042.60805      1596.091 5        35.224
E24        15.000    25172095.908 6 132280272.05406        49.005 6        37.180                                                                    25172094.096 5  98780742.86405        36.454 5        32.581    25172098.033 6 101357578.71106        37.596 6        40.412
E15        16.000    25883019.595 6 136016359.65706     -2460.306 6        41.874                                                                    25883020.873 6 101570530.91406     -1837.208 6        41.356    25883021.030 6 104220172.70206     -1885.155 6        40.775
E08        17.000    27982525.566 4 147049122.39504      1642.664 4        29.071                                                                                                                                    27982488.240 3                      1258.477 3        23.314
E05        21.000    22247554.144 7 116911667.97907     -1853.052 7        44.626                                                                    22247555.113 7  87304215.67207     -1383.935 7        42.811    22247555.644 7  89581704.90607     -1419.877 7        46.022
E13        22.000    27008759.699 6 141932200.79906       173.262 6        39.093                                                                    27008758.749 5 105988195.15905       129.406 5        35.014    27008759.751 6 108753150.65706       132.694 6        38.592
R07        23.000    21358912.830 6 114335839.78506     -3753.588 6        36.994                                                                    21358907.584 7  88927903.85207     -2919.409 7        42.227
S23        24.000    38091314.817 6 200171133.05306      -815.756 6        39.471
S36        25.000    38156064.341 5 200511411.42305      -818.435 5        34.643
G11        26.000    23956965.222 4                     -3812.445 4        29.374
E03        27.000    23955696.184 6 125888023.91706       481.028 6        41.347                                                                    23955694.256 7  94007295.75807       359.355 7        46.942    23955695.000 8  96459635.60208       368.744 8        49.494
R11        28.000                                                                                                                                    21504516.179 4  89377255.60104      2482.264 4        28.284
R17        29.000    23180410.304 5 124043056.37915       -78.912 5        35.624                                                                    23180397.717 4                       -61.652 4        28.085
R10        30.000    19376377.680 7 103286984.89907      -401.791 7        44.730
R24        31.000    23125643.772 6 123663438.77006     -3304.827 6        37.183                                                                    23125647.278 5                     -2570.408 5        33.599
R09        32.000    21030844.564 7 112303528.13207     -3813.870 7        45.363                                                                    21030845.398 7  87347186.52007     -2966.302 7        45.449
C19        33.000                                                                                                                                                                                                                                                                    25171582.723 5 106509179.66505     -3051.614 5        32.311
R08        35.000    19250608.407 8 103086162.96408      -711.338 8        48.491                                                                    19250608.142 7  80178107.22507      -553.252 7        46.735
C05        36.000                                                                                                                                                                                                    39213436.411 5 157896191.69005      -675.593 5        34.105
R01        38.000    21632812.009 7 115639766.91007      2541.254 7        45.892                                                                    21632810.068 6  89942141.83906      1976.465 6        36.234
C36        42.000                                                                                                                                    21856323.418 6 113811593.12406     -1133.776 6        38.940                                                                    21856329.658 7  92481277.22007      -921.300 7        43.954
C09        46.000                                                                                                                                    39857181.441 4                     -1595.098 4        24.120    39857185.487 4 160488353.82604     -1233.156 4        29.403
C21        47.000                                                                                                                                    23061710.900 7 120088370.09707      1302.288 7        47.467                                                                    23061705.065 7  97581664.77707      1058.310 7        42.995
C45        49.000                                                                                                                                    23001096.195 6 119772707.35206      1765.668 6        41.163                                                                    23001089.435 8  97325128.40108      1434.715 8        48.584
C22        50.000                                                                                                                                    21535469.137 8 112140780.08008     -1617.058 8        49.088                                                                    21535461.328 7  91123556.81307     -1313.887 7        45.100
I09        58.000    38749467.945 6 152061242.74506     -1171.685 6        41.185
I02        59.000    38770104.390 5 152142169.12205       175.916 5        30.498
I06        60.000    37916037.100 5 148790576.37905      -635.302 5        30.053
> 2025 01 01 06 32 35.0000000  0 38
G13         2.000    22723448.505 7 119412608.09007      2192.456 7        43.520                                    22723444.747 3  93048721.84603      1708.400 3        20.262
G30         3.000    20443173.803 8 107429606.16708      -129.958 8        51.231                                    20443172.149 8  83711335.86608      -101.263 8        48.798    20443172.957 7  83711371.86107      -101.289 7        42.700
G14         4.000    23419552.293 7 123070593.85307      2650.163 7        43.245                                    23419549.683 3  95899165.33403      2065.053 3        20.167    23419550.405 5  95899159.33805      2065.271 5        33.311
G07         5.000    21226085.956 8 111543842.18608     -2291.708 8        48.508                                    21226080.285 6  86917279.08906     -1785.748 6        41.178    21226081.199 6  86917251.07606     -1785.949 6        38.054
E34         6.000    27436457.527 5 144179585.62205     -3950.473 5        35.181                                                                    27436457.937 5 107666576.53305     -2950.177 5        33.018    27436457.667 5 110475268.98005     -3027.017 5        32.084
G05         7.000    21751669.567 8 114305764.10708      1399.850 8        48.914                                    21751663.589 7  89069433.69107      1090.793 7        44.608    21751665.706 7  89069466.68507      1090.754 7        42.051
G09         9.000    22854815.785 4 120102865.04104     -3762.635 4        28.303                                    22854821.419 1  93586647.77601     -2931.910 1        11.111    22854821.534 3  93586720.72303     -2931.497 3        23.181
G20        10.000    20616743.555 7 108341737.18407     -1033.642 7        46.779                                    20616737.142 5  84422101.28105      -805.436 5        33.796
E09        12.000    27792736.268 3                     -3233.659 3        22.838
E31        13.000    26862771.334 5                     -2574.362 5        33.096                                                                    26862779.680 4                     -1922.178 4        28.502    26862791.168 4                     -1972.579 4        28.436
E25        14.000    26122432.369 5 137274327.80205      2136.587 5        34.914                                                                    26122444.467 5 102510063.10205      1595.501 5        35.362    26122433.827 5                      1637.121 5        30.166
E24        15.000    25172051.214 6 132280032.36906        46.769 6        37.577                                                                    25172049.646 5  98780563.88105        34.762 5        33.497    25172052.333 6 101357395.03406        35.770 6        39.949
E15        16.000    25885361.597 6 136028665.94906     -2462.168 6        41.159                                                                    25885362.695 6 101579720.67206     -1838.661 6        41.387    25885362.790 6 104229602.19806     -1886.601 6        41.313
E08        17.000                                                                                                                                    27980942.725 5 109803231.38515      1226.965 5        31.291    27980929.853 4                      1259.357 4        26.419
E05        21.000    22249318.065 7 116920935.89007     -1853.974 7        44.618                                                                    22249318.929 7  87311136.48007     -1384.373 7        42.741    22249319.353 7  89588806.29007     -1420.646 7        46.246
E13        22.000    27008595.489 6 141931340.98406       170.826 6        38.865                                                                    27008595.062 5 105987553.08905       127.594 5        35.210    27008596.033 6 108752491.84306       130.850 6        38.667
R07        23.000    21362418.047 6 114354612.47506     -3755.197 6        36.612                                                                    21362413.078 6  88942504.76806     -2920.890 6        40.710
S23        24.000    38092092.455 6 200175210.72806      -815.295 6        39.405
S36        25.000    38156844.666 5 200515503.11205      -818.422 5        34.795
G11        26.000                                                                                                                                                                    23960593.774 5  98114624.65605     -2971.396 5        31.170
E03        27.000    23955238.929 7 125885619.80107       480.519 7        42.040                                                                    23955236.876 7  94005500.47307       358.809 7        46.978    23955237.416 8  96457793.48008       368.149 8        49.369
R11        28.000    21501549.900 4                      3189.941 4        29.725                                                                    21501528.910 4  89364845.61214      2481.299 4        29.090
R17        29.000    23180488.175 5 124043462.25315       -83.418 5        31.223                                                                    23180473.793 4                       -63.779 4        24.451
R10        30.000    19376756.529 7 103289004.54007      -406.170 7        44.561
R24        31.000    23128734.549 6 123679970.54506     -3307.855 6        36.526                                                                    23128746.184 5                     -2572.894 5        33.850
R09        32.000    21034416.858 7 112322604.46507     -3816.629 7        44.486                                                                    21034417.490 7  87362023.66007     -2968.486 7        45.837
C19        33.000                                                                                                                                    25175227.891 5 131093842.71305     -3756.276 5        31.411                                                                    25175189.613 5 106524437.79305     -3052.294 5        32.856
R08        35.000    19251273.465 8 103089726.71908      -714.020 8        48.859                                                                    19251273.503 7  80180879.02407      -555.374 7        46.901
C05        36.000                                                                                                                                                                                                    39214275.466 5 157899570.05405      -675.618 5        33.886
R01        38.000    21630435.074 7 115627062.49407      2540.512 7        46.373                                                                    21630433.121 5  89932260.58705      1976.255 5        35.338
C36        42.000                                                                                                                                    21857414.946 6 113817269.02806     -1136.256 6        38.646                                                                    21857419.353 7  92485889.38407      -923.508 7        44.138
C09        46.000                                                                                                                                    39858712.659 3                     -1595.163 3        23.638    39858718.865 4 160494519.93004     -1232.888 4        27.389
C21        47.000                                                                                                                                    23060460.941 7 120081861.60307      1301.064 7        47.040                                                                    23060455.298 7  97576376.09307      1057.225 7        43.329
C45        49.000                                                                                                                                    22999401.387 6 119763883.83006      1763.935 6        40.679                                                                    22999394.853 8  97317958.56408      1433.191 8        48.589
C22        50.000                                                                                                                                    21537023.372 8 112148870.44508     -1619.068 8        49.691                                                                    21537015.324 7  91130130.89907     -1315.725 7        45.913
I09        58.000    38750960.939 6 152067101.06906     -1171.576 6        41.292
I02        59.000    38769881.449 4 152141289.38404       175.706 4        29.687
I06        60.000    37916849.272 5 148793751.98905      -635.356 5        30.309
> 2025 01 01 06 32 40.0000000  0 38
G13         2.000    22721363.243 7 119401649.14907      2191.543 7        43.932                                    22721358.226 3  93040182.40403      1707.693 3        20.500
G30         3.000    20443298.675 8 107430262.88808      -132.383 8        50.839                                    20443297.511 8  83711847.58408      -103.152 8        49.009    20443298.258 7  83711883.58607      -103.214 7        43.122
G14         4.000    23417031.278 7 123057345.44107      2649.530 7        42.430                                    23417028.470 3  95888841.90603      2064.573 3        18.716    23417027.764 5  95888835.95305      2064.384 5        32.802
G07         5.000    21228267.430 8 111555306.09408     -2293.550 8        49.153                                    21228261.269 6  86926211.98706     -1787.175 6        40.927    21228262.424 6  86926183.95406     -1787.135 6        37.108
E34         6.000    27440216.871 5 144199339.53105     -3950.634 5        34.562                                                                    27440217.080 5 107681327.82605     -2950.258 5        32.701    27440216.960 5 110490405.09105     -3027.371 5        31.472
G05         7.000    21750338.857 7 114298772.83507      1396.998 7        47.659                                    21750333.653 7  89063985.94007      1088.571 7        44.394    21750335.525 7  89064018.92607      1088.610 7        42.318
G09         9.000                                                                                                                                                                    22858396.120 3                     -2934.124 3        21.548
G20        10.000    20617728.170 7 108346914.61907     -1037.011 7        46.108                                    20617722.406 5  84426135.63805      -808.057 5        33.719
E09        12.000    27795813.451 3                     -3233.792 3        22.933
E31        13.000    26865221.474 5                     -2576.183 5        32.647                                                                    26865230.804 4                     -1923.924 4        27.916    26865246.367 4                     -1974.246 4        28.341
E25        14.000    26120399.525 5 137263646.98805      2135.587 5        34.205                                                                    26120411.927 5 102502087.13105      1595.078 5        35.195    26120403.706 5                      1636.570 5        30.521
E24        15.000    25172008.936 6 132279805.27006        44.237 6        38.270                                                                    25172007.914 5  98780394.28605        33.345 5        34.948    25172009.040 6 101357221.01606        34.007 6        39.315
E15        16.000    25887706.107 6 136040983.40306     -2464.360 6        40.639                                                                    25887706.741 6 101588918.76306     -1840.264 6        41.170    25887706.560 6 104239040.22306     -1888.257 6        41.926
E08        17.000    27979431.955 4 147032696.87104      1642.705 4        29.772                                                                    27979380.138 5 109797098.84605      1226.597 5        31.109    27979368.478 4                      1258.383 4        26.898
E05        21.000    22251082.996 7 116930209.59107     -1855.124 7        44.686                                                                    22251083.894 7  87318061.64207     -1385.278 7        42.737    22251084.103 7  89595912.10207     -1421.340 7        46.282
E13        22.000    27008434.002 6 141930493.85906       168.378 6        38.535                                                                    27008433.959 5 105986920.48205       125.835 5        35.305    27008434.790 6 108751842.73606       129.097 6        38.342
R07        23.000    21365918.847 6 114373395.24606     -3757.267 6        38.123                                                                    21365920.984 6  88957113.55606     -2922.350 6        39.784
S23        24.000    38092868.912 6 200179289.33306      -815.674 6        39.538
S36        25.000    38157629.749 5 200519595.57705      -818.641 5        34.919
G11        26.000    23964244.890 5                     -3814.529 5        34.257                                                                                                    23964219.832 5  98129485.36205     -2972.550 5        31.623
E03        27.000    23954782.766 7 125883220.72907       479.486 7        42.770                                                                    23954780.465 7  94003708.95307       358.060 7        47.084    23954780.780 8  96455955.21508       367.409 8        49.174
R11        28.000    21498559.390 4                      3187.947 4        28.844                                                                    21498546.277 4  89352444.09104      2479.764 4        29.915
R17        29.000    23180559.194 5 124043890.14905       -87.672 5        34.133                                                                    23180554.591 3                       -68.789 3        21.810
R10        30.000    19377139.267 7 103291047.60207      -410.895 7        44.053
R24        31.000    23131829.077 5 123696518.17105     -3311.091 5        34.609                                                                    23131835.319 5  96208270.59715     -2574.915 5        33.156
R09        32.000    21037992.313 7 112341695.96807     -3819.602 7        42.461                                                                    21037993.347 7  87376872.59607     -2970.767 7        46.006
C19        33.000                                                                                                                                    25178833.151 5 131112625.36805     -3756.967 5        32.455                                                                    25178796.484 5 106539700.12805     -3052.982 5        33.162
R08        35.000    19251941.768 8 103093305.02208      -716.927 8        48.859                                                                    19251941.480 7  80183662.12907      -557.570 7        47.052
C05        36.000                                                                                                                                                                                                    39215114.915 5 157902948.93705      -675.544 5        34.257
R01        38.000    21628059.356 7 115614362.97207      2539.674 7        46.323                                                                    21628057.076 5  89922383.15905      1975.504 5        35.157
C36        42.000                                                                                                                                    21858511.665 6 113822958.81406     -1139.214 6        38.150                                                                    21858511.697 7  92490512.77907      -925.698 7        44.196
C09        46.000                                                                                                                                    39860240.460 4                     -1595.263 4        24.451    39860250.740 4 160500686.35204     -1233.309 4        25.759
C21        47.000                                                                                                                                    23059212.578 7 120075360.41207      1299.723 7        46.514                                                                    23059206.928 7  97571093.29807      1056.177 7        43.399
C45        49.000                                                                                                                                    22997709.743 7 119755069.90107      1762.067 7        42.053                                                                    22997702.182 8  97310796.51508      1431.798 8        48.384
C22        50.000                                                                                                                                    21538578.961 8 112156972.04408     -1621.250 8        50.105                                                                    21538571.449 7  91136714.08007     -1317.425 7        46.550
I09        58.000    38752453.932 6 152072960.42206     -1171.737 6        41.199
I02        59.000    38769656.143 4 152140410.86204       176.074 4        29.886
I06        60.000    37917658.430 5 148796928.25305      -635.103 5        30.649
> 2025 01 01 06 32 45.0000000  0 38
G13         2.000    22719278.720 7 119390694.09207      2190.515 7        43.812                                    22719272.768 3  93031645.98503      1706.897 3        20.333
G30         3.000    20443425.808 8 107430931.72208      -135.018 8        51.261                                    20443425.002 8  83712368.74308      -105.209 8        49.446    20443425.665 7  83712404.74807      -105.229 7        43.206
G14         4.000    23414510.367 6 123044100.67306      2648.469 6        41.704                                    23414507.870 3  95878521.30803      2063.748 3        18.388    23414507.733 5  95878515.32805      2063.519 5        32.683
G07         5.000    21230450.289 8 111566778.67308     -2295.546 8        49.564                                    21230444.003 6  86935151.63706     -1788.734 6        41.020    21230446.503 6  86935123.62406     -1788.854 6        36.798
E34         6.000    27443975.301 5 144219094.42305     -3951.151 5        33.635                                                                    27443976.082 5 107696079.80005     -2950.345 5        32.389    27443976.453 5 110505541.87505     -3027.402 5        31.592
G05         7.000    21749010.955 7 114291794.72707      1394.186 7        46.432                                    21749006.251 7  89058548.44107      1086.380 7        44.289    21749007.720 7  89058581.43307      1086.345 7        42.639
G09         9.000    22861971.930 3                     -3758.637 3        18.478                                                                                                    22861977.084 3                     -2934.154 3        21.571
G20        10.000    20618716.532 7 108352108.79707     -1040.700 7        46.086                                    20618710.920 5  84430183.04605      -810.932 5        33.928
E09        12.000    27798892.856 3                     -3235.319 3        23.029
E31        13.000    26867674.284 5                     -2578.383 5        31.630                                                                    26867681.289 4                     -1925.454 4        26.994    26867699.280 4                     -1975.851 4        29.261
E25        14.000    26118367.622 5 137252970.28905      2134.968 5        32.988                                                                    26118380.264 5 102494114.25505      1594.294 5        34.871    26118372.449 5                      1635.698 5        30.521
E24        15.000    25171968.138 6 132279590.10006        41.607 6        38.952                                                                    25171968.096 5  98780233.63905        30.871 5        35.976    25171967.725 6 101357056.14006        31.961 6        38.835
E15        16.000    25890052.581 6 136053311.37306     -2466.745 6        40.369                                                                    25890052.660 6 101598124.70306     -1842.114 6        41.342    25890052.604 7 104248486.32307     -1890.094 7        42.561
E08        17.000    27977867.818 4 147024484.73204      1641.862 4        28.720                                                                    27977816.174 5 109790966.43605      1226.222 5        30.264    27977806.603 4                      1258.400 4        29.118
E05        21.000    22252848.810 7 116939488.41007     -1856.427 7        44.634                                                                    22252849.892 7  87324990.61707     -1386.211 7        42.967    22252849.711 7  89603021.85007     -1422.398 7        46.395
E13        22.000    27008275.214 6 141929658.80806       165.792 6        38.168                                                                    27008275.170 5 105986296.89605       123.905 5        35.281    27008275.725 6 108751202.88006       126.845 6        38.138
R07        23.000    21369428.127 6 114392187.50006     -3759.377 6        40.153                                                                    21369430.875 6  88971729.73506     -2924.128 6        38.991
S23        24.000    38093643.656 6 200183367.80906      -815.928 6        39.369
S36        25.000    38158402.052 5 200523688.33605      -818.716 5        35.152
G11        26.000    23967869.548 5 125952033.30315     -3816.285 5        34.152                                                                                                    23967845.649 5  98144350.62905     -2973.610 5        32.090
E03        27.000    23954326.348 7 125880826.02307       478.389 7        43.613                                                                    23954324.913 7  94001920.68507       357.269 7        47.262    23954324.945 8  96454120.30208       366.564 8        48.953
R11        28.000    21495582.041 3                      3186.674 3        22.171                                                                    21495564.777 5  89340050.52105      2478.260 5        31.268
R17        29.000    23180647.185 6 124044339.51906       -92.163 6        36.707
R10        30.000    19377527.010 7 103293113.42407      -415.571 7        44.438
R24        31.000    23134923.977 5 123713080.82905     -3314.141 5        33.862                                                                    23134930.191 5  96221152.67305     -2577.682 5        33.802
R09        32.000    21041570.858 6 112360801.96206     -3822.784 6        40.372                                                                    21041570.758 7  87391732.82807     -2973.249 7        45.368
C19        33.000                                                                                                                                    25182435.135 5 131131412.57705     -3758.082 5        32.222                                                                    25182404.767 5 106554966.17005     -3053.523 5        33.808
R08        35.000    19252612.317 8 103096897.17508      -719.937 8        48.584                                                                    19252612.168 7  80186456.01907      -560.016 7        46.838
C05        36.000                                                                                                                                                                                                    39215954.511 5 157906327.87205      -675.922 5        34.229
R01        38.000    21625683.108 7 115601667.57407      2538.560 7        45.297                                                                    21625682.488 5  89912508.99605      1974.317 5        34.829
C36        42.000                                                                                                                                    21859608.921 6 113828661.80806     -1141.889 6        36.159                                                                    21859606.344 7  92495146.95607      -928.058 7        44.080
C09        46.000                                                                                                                                    39861769.053 3                     -1592.555 3        23.448    39861779.496 3 160506852.48303     -1234.059 3        23.314
C21        47.000                                                                                                                                    23057965.710 7 120068865.87607      1298.095 7        46.281                                                                    23057959.866 7  97565815.95707      1054.735 7        43.812
C45        49.000                                                                                                                                    22996019.452 7 119746264.94807      1759.929 7        44.099                                                                    22996011.209 8  97303641.78808      1430.069 8        48.322
C22        50.000                                                                                                                                    21540136.388 8 112165084.24908     -1623.610 8        50.280                                                                    21540129.497 7  91143305.89907     -1319.272 7        47.536
I09        58.000    38753947.320 6 152078820.32406     -1172.135 6        41.118
I02        59.000    38769428.999 4 152139532.70304       175.694 4        29.763
I06        60.000    37918465.977 5 148800104.74805      -635.496 5        30.860
> 2025 01 01 06 32 50.0000000  0 38
G13         2.000    22717194.613 7 119379743.69607      2189.834 7        42.701                                    22717188.026 3  93023113.21603      1706.361 3        20.310
G30         3.000    20443555.928 8 107431613.45008      -137.366 8        51.365                                    20443554.799 8  83712899.95408      -107.039 8        49.470    20443555.004 7  83712935.94407      -106.999 7        43.026
G14         4.000    23411990.881 6 123030860.29106      2647.945 6        41.049                                    23411988.205 3  95868204.10903      2063.346 3        18.179    23411989.671 5  95868198.15105      2063.189 5        33.192
G07         5.000    21232635.091 8 111578260.66208     -2297.053 8        49.371                                    21232628.645 6  86944098.61706     -1789.905 6        40.803    21232631.681 6  86944070.62406     -1790.055 6        36.749
E34         6.000    27447734.540 5 144238851.00405     -3951.053 5        31.811                                                                    27447736.170 5 107710833.06805     -2950.366 5        32.629    27447735.852 5 110520680.01905     -3027.348 5        31.992
G05         7.000    21747686.072 7 114284830.57507      1391.694 7        46.483                                    21747681.462 7  89053121.81507      1084.440 7        43.837    21747682.028 7  89053154.81207      1084.529 7        42.895
G09         9.000                                                                                                                                                                    22865555.992 3                     -2934.550 3        22.076
G20        10.000    20619709.089 7 108357320.45607     -1043.811 7        46.079                                    20619702.811 5  84434244.06805      -813.361 5        33.683
E09        12.000    27801974.520 3                     -3234.650 3        23.790
E31        13.000    26870130.471 5                     -2580.618 5        30.392                                                                    26870131.287 4                     -1927.004 4        27.928    26870153.489 4                     -1977.007 4        29.403
E25        14.000    26116337.497 5 137242298.51105      2134.386 5        31.955                                                                    26116349.324 5 102486145.03405      1593.806 5        34.729    26116342.175 5                      1635.258 5        31.208
E24        15.000    25171930.087 6 132279387.67306        39.509 6        39.607                                                                    25171929.945 6  98780082.47206        29.483 6        36.832    25171929.354 6 101356901.04106        30.138 6        38.438
E15        16.000    25892400.947 6 136065650.58006     -2468.746 6        39.973                                                                    25892400.985 6 101607339.02906     -1843.564 6        41.437    25892400.710 7 104257941.02607     -1891.456 7        43.098
E08        17.000    27976296.488 4 147016273.44604      1642.336 4        27.521                                                                    27976251.342 4 109784834.72604      1226.712 4        29.128    27976244.026 4                      1258.522 4        29.934
E05        21.000    22254615.314 7 116948773.12307     -1857.196 7        44.131                                                                    22254616.946 7  87331923.99807     -1386.943 7        43.312    22254616.493 7  89610136.10507     -1423.069 7        46.528
E13        22.000    27008119.314 6 141928836.58806       163.421 6        37.399                                                                    27008118.771 5 105985682.91005       121.953 5        35.586    27008119.212 6 108750572.84606       125.428 6        37.913
R07        23.000    21372946.370 6 114410989.77606     -3761.262 6        40.751                                                                    21372943.912 6  88986353.66606     -2925.408 6        39.417
S23        24.000    38094419.273 6 200187447.01306      -815.784 6        39.255
S36        25.000    38159183.012 5 200527782.58005      -818.474 5        35.010
G11        26.000    23971498.794 5 125971117.11705     -3817.273 5        32.293                                                                                                    23971475.929 5  98159221.10105     -2974.405 5        33.467
E03        27.000    23953870.699 7 125878436.46707       477.678 7        43.816                                                                    23953870.364 7  94000136.25907       356.701 7        47.503    23953870.082 8  96452289.32008       366.022 8        48.841
R11        28.000                                                                                                                                    21492588.972 5  89327665.57705      2476.056 5        32.557
R17        29.000    23180735.699 5 124044810.75905       -96.169 5        34.576
R10        30.000    19377919.338 7 103295202.71307      -419.912 7        45.010
R24        31.000    23138025.842 6 123729659.46606     -3316.844 6        36.945                                                                    23138030.786 5  96234047.10605     -2579.860 5        33.192
R09        32.000    21045151.216 6 112379923.03806     -3825.364 6        37.864                                                                    21045151.646 7  87406604.81007     -2975.323 7        44.764
C19        33.000                                                                                                                                    25186043.609 5 131150205.05305     -3758.502 5        31.034                                                                    25186014.522 5 106570236.53305     -3054.427 5        34.548
R08        35.000    19253285.617 8 103100504.10808      -722.585 8        48.216                                                                    19253285.348 7  80189261.40207      -561.966 7        46.575
C05        36.000                                                                                                                                                                                                    39216793.334 5 157909707.43105      -675.995 5        34.029
R01        38.000    21623307.868 7 115588977.19707      2537.826 7        43.947                                                                    21623308.946 5  89902638.68105      1973.938 5        34.452
C36        42.000                                                                                                                                    21860703.002 5 113834378.76005     -1144.412 5        34.786                                                                    21860704.058 7  92499792.46607      -929.983 7        43.653
C09        46.000                                                                                                                                    39863292.808 3                     -1595.365 3        23.867    39863303.890 3                     -1234.247 3        21.643
C21        47.000                                                                                                                                    23056720.063 7 120062378.73507      1296.991 7        46.158                                                                    23056714.052 7  97560544.61407      1053.821 7        43.951
C45        49.000                                                                                                                                    22994330.180 7 119737469.70707      1758.447 7        45.236                                                                    22994322.135 8  97296494.94808      1428.797 8        48.070
C22        50.000                                                                                                                                    21541695.775 8 112173207.79508     -1625.601 8        50.407                                                                    21541689.675 8  91149906.93108     -1320.971 8        48.171
I09        58.000    38755440.545 6 152084681.35106     -1172.123 6        40.818
I02        59.000    38769197.154 4 152138655.63704       175.056 4        29.213
I06        60.000    37919273.259 5 148803281.99505      -635.002 5        30.377
