     3.04           OBSERVATION DATA    M                   RINEX VERSION / TYPE
ssrcrin-15.6.1x                         20250101 043000 UTC PGM / RUN BY / DATE 
(00000000023479385599111004) Septentrio proprietary         COMMENT             
ract                                                        MARKER NAME         
01                                                          MARKER NUMBER       
geodetic                                                    MARKER TYPE         
NFB                 CLIMERS@TUW                             OBSERVER / AGENCY   
3296359             SEPT ASTERX SB3 PROB4.14.4              REC # / TYPE / VERS 
Unknown             Unknown                                 ANT # / TYPE        
  4127446.8503  1206915.0127  4695543.4812                  APPROX POSITION XYZ 
        0.0000        0.0000        0.0000                  ANTENNA: DELTA H/E/N
G   23 X1  C1C L1C D1C S1C C1W S1W C2W L2W D2W S2W C2L L2L  SYS / # / OBS TYPES 
       D2L S2L C5Q L5Q D5Q S5Q C1L L1L D1L S1L              SYS / # / OBS TYPES 
E   21 X1  C1C L1C D1C S1C C6C L6C D6C S6C C5Q L5Q D5Q S5Q  SYS / # / OBS TYPES 
       C7Q L7Q D7Q S7Q C8Q L8Q D8Q S8Q                      SYS / # / OBS TYPES 
S    9 X1  C1C L1C D1C S1C C5I L5I D5I S5I                  SYS / # / OBS TYPES 
R   17 X1  C1C L1C D1C S1C C2P L2P D2P S2P C2C L2C D2C S2C  SYS / # / OBS TYPES 
       C3Q L3Q D3Q S3Q                                      SYS / # / OBS TYPES 
C   25 X1  C1P L1P D1P S1P C5P L5P D5P S5P C2I L2I D2I S2I  SYS / # / OBS TYPES 
       C7I L7I D7I S7I C6I L6I D6I S6I C7D L7D D7D S7D      SYS / # / OBS TYPES 
J   17 X1  C1C L1C D1C S1C C2L L2L D2L S2L C5Q L5Q D5Q S5Q  SYS / # / OBS TYPES 
       C1L L1L D1L S1L                                      SYS / # / OBS TYPES 
I    5 X1  C5A L5A D5A S5A                                  SYS / # / OBS TYPES 
SEPTENTRIO RECEIVERS OUTPUT ALIGNED CARRIER PHASES.         COMMENT             
NO FURTHER PHASE SHIFT APPLIED IN THE RINEX ENCODER.        COMMENT             
G L1C                                                       SYS / PHASE SHIFT   
G L2W                                                       SYS / PHASE SHIFT   
G L2L  0.00000                                              SYS / PHASE SHIFT   
G L5Q  0.00000                                              SYS / PHASE SHIFT   
G L1L  0.00000                                              SYS / PHASE SHIFT   
E L1C  0.00000                                              SYS / PHASE SHIFT   
E L6C  0.00000                                              SYS / PHASE SHIFT   
E L5Q  0.00000                                              SYS / PHASE SHIFT   
E L7Q  0.00000                                              SYS / PHASE SHIFT   
E L8Q  0.00000                                              SYS / PHASE SHIFT   
S L1C                                                       SYS / PHASE SHIFT   
S L5I                                                       SYS / PHASE SHIFT   
R L1C                                                       SYS / PHASE SHIFT   
R L2P  0.00000                                              SYS / PHASE SHIFT   
R L2C                                                       SYS / PHASE SHIFT   
R L3Q  0.00000                                              SYS / PHASE SHIFT   
C L1P  0.00000                                              SYS / PHASE SHIFT   
C L5P  0.00000                                              SYS / PHASE SHIFT   
C L2I                                                       SYS / PHASE SHIFT   
C L7I                                                       SYS / PHASE SHIFT   
C L6I                                                       SYS / PHASE SHIFT   
C L7D                                                       SYS / PHASE SHIFT   
J L1C                                                       SYS / PHASE SHIFT   
J L2L  0.00000                                              SYS / PHASE SHIFT   
J L5Q  0.00000                                              SYS / PHASE SHIFT   
J L1L  0.00000                                              SYS / PHASE SHIFT   
I L5A                                                       SYS / PHASE SHIFT   
  2025     1     1     4    30    0.0000000     GPS         TIME OF FIRST OBS   
 C1C    0.000 C2C    0.000 C2P    0.000                     GLONASS COD/PHS/BIS 
DBHZ                                                        SIGNAL STRENGTH UNIT
    18                                                      LEAP SECONDS        
 24 R01  1 R02 -4 R03  5 R04  6 R05  1 R06 -4 R07  5 R08  6 GLONASS SLOT / FRQ #
    R09 -2 R10 -7 R11  0 R12 -1 R13 -2 R14 -7 R15  0 R16 -1 GLONASS SLOT / FRQ #
    R17  4 R18 -3 R19  3 R20  2 R21  4 R22 -3 R23  3 R24  2 GLONASS SLOT / FRQ #
                                                            END OF HEADER       
> 2025 01 01 04 30  0.0000000  0 38
G30         3.000    23681847.459 6 124448986.60206      2658.832 6        40.825                                    23681843.776 4  96973176.32904      2071.808 4        26.287    23681842.955 5  96973205.35105      2071.900 5        33.892
G07         5.000    21470127.601 6 112826294.13406      1088.049 6        41.218                                    21470120.374 5  87916595.07205       847.827 5        30.604    21470119.309 5  87916552.05105       847.933 5        34.452
E34         6.000    24223999.032 6 127297980.87906     -1763.315 6        39.168                                                                    24223998.618 7  95060222.63307     -1316.764 7        43.081    24223993.605 5  97540022.75005     -1350.823 5        30.506
G03         8.000    23903419.691 5                     -4299.806 5        30.966
G09         9.000    20099615.275 8 105624188.21808     -1619.772 8        51.205                                    20099613.206 8  82304572.86208     -1262.160 8        50.140    20099613.356 7  82304563.86807     -1262.122 7        44.567
G20        10.000    23217024.214 7 122006253.85007      2392.602 7        44.691                                    23217017.986 4  95069847.28904      1864.360 4        25.068
G04        11.000    21473899.043 7 112846162.36607     -3109.727 7        45.986                                    21473893.949 4  87932058.70204     -2423.157 4        27.138    21473895.422 6  87932007.70406     -2423.255 6        38.580
E09        12.000    24818747.231 6 130423346.62106     -2619.666 6        41.719                                                                    24818745.267 7  97394153.86007     -1956.159 7        47.426    24818744.463 7  99934847.87307     -2007.256 7        47.289
E31        13.000    26797600.083 5 140822340.46405       768.895 5        34.310                                                                    26797601.221 4                       574.130 4        24.000
E06        14.000    26479026.255 5 139148137.56605     -3210.145 5        33.671                                                                    26479012.222 6 103909334.36006     -2397.162 6        36.412    26479017.316 5 106620063.94705     -2459.440 5        34.276
E15        16.000    26113697.522 8 137228389.60908      1036.264 8        48.068                                                                    26113697.380 7 102475795.65907       773.737 7        46.542    26113695.880 7 105149093.86207       793.983 7        45.269
G06        19.000    21536960.986 7 113177668.08207     -2420.819 7        43.560                                    21536958.316 6  88190389.46506     -1886.355 6        39.685    21536960.271 7  88190278.48507     -1886.451 7        42.080
E36        20.000    26201967.750 5 137692287.32305     -3925.154 5        30.604                                                                    26201966.498 5 102822186.02505     -2931.189 5        30.611    26201967.918 5 105504469.71905     -3007.792 5        34.324
E05        21.000    21929624.090 6 115240982.23106      -251.082 6        38.814                                                                    21929623.115 7  86056608.70307      -187.511 7        45.309    21929622.275 7  88301550.92807      -192.336 7        45.288
R07        23.000    19479003.023 8 104272716.69408      -706.671 8        49.101                                                                    19479001.412 7  81100927.84207      -549.653 7        44.453
S23        24.000    38137567.354 6 200414180.69406      -822.770 6        40.453
S36        25.000    38197068.597 5 200726941.56405      -826.954 5        34.467
G11        26.000    22253641.538 5 116943554.97405       218.437 5        32.084                                    22253596.185 1  91124770.23201       170.158 1         8.667    22253592.461 5  91124731.32505       170.290 5        34.524
E03        27.000    26581976.222 4 139689203.56004      1506.718 4        29.915                                                                    26581970.397 6 104313353.48506      1125.238 6        37.792
R06        29.000    21267302.983 6 113486411.01606     -3387.954 6        38.775
R24        31.000                                                                                                                                    23732531.830 5                      1844.369 5        30.574
R09        32.000    20957399.260 6 111911527.78006      2071.818 6        37.017                                                                    20957396.708 6  87042189.31506      1611.419 6        36.370
C19        33.000                                                                                                                                    22283815.325 7 116037665.72507     -1904.991 7        42.561                                                                    22283809.211 7  94290074.03007     -1547.920 7        42.811
C20        34.000                                                                                                                                    25617100.013 5 133394961.16005     -3509.932 5        35.614
R08        35.000    21568001.745 7 115495668.76007      1873.070 7        45.860                                                                    21568014.200 6  89829960.61806      1456.810 6        40.091
R22        37.000    21774857.328 4 116235707.49104     -4374.955 4        27.868
R16        39.000    21170629.093 6 113089749.72706     -1927.661 6        36.408                                                                    21170622.946 6  87958732.63806     -1499.296 6        40.236
C06        41.000                                                                                                                                    39274006.527 3                     -1819.121 3        22.724    39273945.856 5 158139893.16805     -1405.155 5        35.195    39273933.118 4                     -1476.788 4        25.654
C36        42.000                                                                                                                                    24064202.646 6 125308875.09006      2196.181 6        38.703                                                                    24064204.995 5 101823547.49205      1784.141 5        35.095
C16        45.000                                                                                                                                    39854671.507 3                     -1826.701 3        22.267    39854561.766 4 160477833.61904     -1413.175 4        28.948
C09        46.000                                                                                                                                    38830624.353 6 202201285.52506     -1443.961 6        39.832    38830623.689 6 156354796.14206     -1116.466 6        38.156    38830619.411 4                     -1173.315 4        29.450
C44        48.000                                                                                                                                    24639619.872 6 128304835.23606     -2539.030 6        39.859
C37        49.000                                                                                                                                    25779144.542 5 134238790.75505     -3125.407 5        35.867
C22        50.000                                                                                                                                    22360357.723 7 116436217.50407       835.382 7        45.986                                                                    22360351.083 6  94613992.40406       678.722 6        40.405
C11        52.000                                                                                                                                                                                                    26821571.986 5 107999396.23205       978.314 5        30.196
C12        56.000                                                                                                                                                                                                    24805245.591 4  99880453.68204      -928.912 4        29.479    24805233.490 3                      -974.617 3        23.105
I01        59.000   339076132.626 6  27466773.98106     -3121.873 6        36.091
I06        60.000    37964055.280 6 148979114.19306      -586.731 6        36.605
> 2025 01 01 04 30  5.0000000  0 40
G30         3.000    23679317.985 6 124435695.13106      2658.005 6        40.953                                    23679315.132 4  96962819.36004      2071.163 4        26.790    23679313.328 5  96962848.39605      2071.209 5        34.414
G07         5.000    21469092.471 6 112820859.54806      1085.713 6        40.813                                    21469085.972 5  87912360.33105       846.005 5        30.574    21469085.343 5  87912317.32005       846.118 5        34.929
E34         6.000    24225678.121 6 127306803.32406     -1765.525 6        38.760                                                                    24225677.635 7  95066810.85007     -1318.557 7        43.418    24225672.465 5  97546782.83005     -1353.066 5        30.053
G03         8.000    23907511.700 4                     -4300.784 4        28.863
G09         9.000    20101157.614 8 105632292.24708     -1621.724 8        51.217                                    20101155.352 8  82310887.69508     -1263.680 8        50.557    20101155.505 7  82310878.69507     -1263.669 7        45.120
G20        10.000    23214748.313 7 121994292.71007      2391.792 7        43.194                                    23214741.778 4  95060526.91704      1863.744 4        24.391
G04        11.000    21476858.191 7 112861714.30007     -3111.015 7        45.619                                    21476853.452 4  87944177.08504     -2424.169 4        27.006    21476855.308 6  87944126.08606     -2424.322 6        38.628
E09        12.000    24821239.664 7 130436446.64407     -2620.256 7        42.502                                                                    24821238.220 7  97403936.35007     -1956.719 7        47.565    24821237.395 7  99944885.55807     -2007.842 7        47.215
E31        13.000    26796866.822 5 140818500.39405       767.031 5        34.143                                                                    26796871.483 3                       572.420 3        23.924
E06        14.000    26482081.850 5 139164189.09605     -3210.818 5        33.269                                                                    26482067.552 6 103921320.90906     -2397.296 6        36.480    26482070.770 5 106632363.18105     -2459.939 5        33.629
E15        16.000    26112712.494 8 137223213.48108      1034.312 8        48.123                                                                    26112712.540 7 102471930.37007       772.369 7        46.845    26112710.785 7 105145127.74507       792.522 7        45.031
G06        19.000    21539266.152 7 113189780.22407     -2423.967 7        44.190                                    21539263.115 6  88199827.50906     -1888.808 6        40.246    21539265.552 6  88199716.51606     -1888.845 6        41.957
E36        20.000    26205704.106 4 137711916.41004     -3926.433 4        28.749                                                                    26205702.561 5 102836844.08805     -2931.624 5        31.155    26205703.522 5 105519510.18205     -3008.317 5        33.856
E05        21.000    21929863.350 6 115242240.41506      -252.287 6        37.762                                                                    21929862.490 7  86057548.26907      -188.376 7        45.391    21929861.909 7  88302515.00107      -193.205 7        45.446
R07        23.000    19479664.740 8 104276254.99908      -708.633 8        49.784                                                                    19479662.575 7  81103679.86207      -551.279 7        44.143
S23        24.000    38138348.663 6 200418293.94906      -822.524 6        40.338
S36        25.000    38197850.738 5 200731076.19005      -826.970 5        34.514
G11        26.000                                                                                                                                                                    22253385.982 5  91123885.96505       167.624 5        34.986
E03        27.000                                                                                                                                    26580536.678 6 104307728.32306      1124.863 6        37.667    26580562.990 4 107028885.69614      1154.285 4        28.853
R15        28.000    24484340.518 4                     -4670.034 4        24.195
R06        29.000    21270477.307 6 113503354.37106     -3389.347 6        39.622
R24        31.000                                                                                                                                    23730314.263 4                      1842.262 4        29.431
R09        32.000    20955460.011 6 111901177.10106      2068.653 6        36.397                                                                    20955456.048 5  87034138.80605      1608.960 5        35.862
C19        33.000                                                                                                                                    22285644.556 7 116047193.80807     -1906.242 7        43.473                                                                    22285639.103 7  94297816.36307     -1549.099 7        43.403
C20        34.000                                                                                                                                    25620468.957 5 133412511.77405     -3510.391 5        34.819
R08        35.000    21566252.860 7 115486305.77507      1872.203 7        44.993                                                                    21566266.766 6  89822678.29606      1456.122 6        38.682
R22        37.000    21778954.920 3                     -4378.004 3        22.781
R16        39.000    21172431.046 5 113099399.28505     -1932.105 5        32.198                                                                    21172429.243 6  87966237.89406     -1502.727 6        39.736
C06        41.000                                                                                                                                    39275746.958 3                     -1815.425 3        22.286    39275689.708 5 158146918.79205     -1405.193 5        35.143    39275678.576 4                     -1476.615 4        25.579
C36        42.000                                                                                                                                    24062094.424 6 125297898.01806      2194.886 6        39.162                                                                    24062096.974 5 101814627.68905      1783.265 5        35.305
C16        45.000                                                                                                                                    39856419.473 3                     -1827.677 3        23.143    39856317.408 4 160484897.83604     -1413.140 4        29.185
C09        46.000                                                                                                                                    38832010.985 6 202208505.88806     -1444.242 6        39.946    38832011.769 6 156360379.39506     -1116.809 6        38.306    38832005.730 4                     -1173.568 4        28.825
C44        48.000                                                                                                                                    24642056.518 6 128317535.51606     -2541.153 6        40.486
C37        49.000                                                                                                                                    25782145.251 5 134254423.04005     -3127.364 5        34.871
C22        50.000                                                                                                                                    22359555.922 7 116432043.82907       834.247 7        45.806                                                                    22359549.360 6  94610600.94506       677.816 6        39.670
C35        51.000                                                                                                                                    25918496.883 3                     -3848.103 3        19.791
C11        52.000                                                                                                                                                                                                    26820345.813 4 107994508.44004       976.865 4        29.403
C12        56.000                                                                                                                                                                                                    24806400.964 4  99885103.94804      -931.189 4        28.720    24806390.970 3                      -977.168 3        22.933
I01        59.000   339080110.552 5  27482384.07505     -3122.149 5        35.700
I06        60.000    37964802.460 6 148982047.03606      -586.305 6        36.340
> 2025 01 01 04 30 10.0000000  0 40
G30         3.000    23676789.202 6 124422408.26806      2657.193 6        40.918                                    23676787.095 4  96952465.97904      2070.533 4        26.611    23676785.774 5  96952494.99805      2070.411 5        34.857
G07         5.000    21468060.695 6 112815436.56006      1083.563 6        41.964                                    21468053.917 5  87908134.62405       844.334 5        30.596    21468053.771 5  87908091.64205       844.232 5        35.190
E34         6.000    24227358.652 6 127315638.32406     -1768.307 6        37.747                                                                    24227359.122 7  95073408.42007     -1320.297 7        43.477    24227354.140 4  97553552.52204     -1354.415 4        29.355
G03         8.000    23911599.805 4                     -4301.601 4        26.970
G09         9.000    20102701.768 8 105640406.51408     -1623.722 8        50.798                                    20102699.426 8  82317210.50208     -1265.240 8        50.896    20102699.672 7  82317201.50907     -1265.215 7        45.198
G20        10.000    23212473.291 6 121982336.27906      2390.954 6        40.984                                    23212466.706 3  95051210.22903      1863.091 3        23.486
G04        11.000    21479819.226 7 112877272.70107     -3112.188 7        44.950                                    21479814.207 4  87956300.51104     -2425.086 4        26.754    21479815.606 6  87956249.50806     -2425.023 6        39.069
E09        12.000    24823733.058 7 130449550.44507     -2621.045 7        42.781                                                                    24823731.835 7  97413721.65307     -1957.201 7        47.935    24823730.920 7  99954926.13007     -2008.268 7        47.210
E31        13.000    26796137.525 5 140814670.10105       765.286 5        33.377                                                                    26796147.237 3                       571.370 3        22.743
E06        14.000    26485137.463 5 139180242.13105     -3210.913 5        31.706                                                                    26485122.233 6 103933308.56106     -2397.489 6        36.299    26485124.000 5 106644663.54305     -2460.328 5        33.192
E15        16.000    26111729.344 8 137218047.26608      1032.418 8        48.254                                                                    26111729.515 7 102468072.48207       770.999 7        47.078    26111727.563 7 105141169.22807       791.016 7        44.826
G06        19.000    21541574.237 7 113201907.89907     -2427.027 7        44.427                                    21541570.880 6  88209277.65206     -1891.198 6        40.439    21541572.850 6  88209166.65106     -1891.146 6        41.254
E36        20.000    26209441.887 4 137731550.02104     -3927.266 4        28.882                                                                    26209439.776 5 102851505.59105     -2932.610 5        31.532    26209440.408 5 105534554.13605     -3008.985 5        33.982
E05        21.000    21930103.530 6 115243505.08606      -253.580 6        37.777                                                                    21930103.075 7  86058492.64907      -189.263 7        45.526    21930102.778 7  88303484.02907      -194.218 7        45.711
R07        23.000    19480327.987 8 104279803.60808      -710.686 8        49.940                                                                    19480325.571 7  81106439.88107      -552.739 7        43.873
S23        24.000    38139130.450 6 200422407.44606      -822.489 6        40.148
S36        25.000    38198639.755 5 200735211.11905      -826.720 5        34.448
G11        26.000                                                                                                                                                                    22253181.425 5  91123053.49805       165.070 5        35.062
E03        27.000                                                                                                                                    26579103.786 6 104302105.56206      1124.539 6        37.187    26579132.748 4 107023116.25504      1154.213 4        24.135
R06        29.000    21273655.205 6 113520304.45606     -3390.587 6        39.892
R24        31.000                                                                                                                                    23728101.982 4                      1840.386 4        28.294
R09        32.000    20953525.826 6 111890842.70806      2065.211 6        36.461                                                                    20953519.354 5  87026100.88705      1606.348 5        33.742
C19        33.000                                                                                                                                    22287475.790 7 116056729.27707     -1907.716 7        44.470                                                                    22287470.504 7  94305564.71607     -1550.062 7        44.050
C20        34.000                                                                                                                                    25623837.487 5 133430065.19705     -3510.925 5        34.190
R08        35.000    21564507.131 7 115476947.66607      1871.218 7        45.369
R22        37.000    21783059.784 4                     -4380.154 4        26.156                                                                    21783028.805 4                     -3406.809 4        28.322
R16        39.000    21174236.684 5 113109071.39005     -1936.226 5        34.119                                                                    21174240.192 6  87973760.67206     -1506.087 6        39.453
C06        41.000                                                                                                                                    39277488.307 3                     -1821.834 3        20.524    39277434.732 5 158153945.41205     -1405.412 5        34.681    39277424.972 4                     -1476.432 4        25.594
C36        42.000                                                                                                                                    24059987.090 6 125286927.11106      2193.671 6        40.470                                                                    24059990.225 5 101805712.92005      1782.555 5        35.719
C21        43.000                                                                                                                                    26835008.845 3                      2023.279 3        20.786
C16        45.000                                                                                                                                    39858164.873 4                     -1827.566 4        24.767    39858071.505 4 160491962.79204     -1412.431 4        28.265
C09        46.000                                                                                                                                    38833398.056 6 202215728.26806     -1444.716 6        40.262    38833400.797 6 156365964.19606     -1117.124 6        38.526    38833392.738 5                     -1173.850 5        30.106
C44        48.000                                                                                                                                    24644495.857 6 128330246.48706     -2543.106 6        41.354                                                                    24644480.945 5 104278908.08115     -2066.355 5        35.371
C37        49.000                                                                                                                                    25785147.413 5 134270065.19705     -3129.490 5        33.970
C22        50.000                                                                                                                                    22358754.571 7 116427876.05407       833.059 7        45.512                                                                    22358748.864 6  94607214.28506       676.935 6        39.126
C35        51.000                                                                                                                                    25922192.710 3                     -3852.051 3        21.976
C11        52.000                                                                                                                                                                                                    26819130.681 4 107989628.71404       975.390 4        28.370
C12        56.000                                                                                                                                                                                                    24807561.440 4  99889765.29604      -933.297 4        29.706
I01        59.000   339084088.125 5  27497995.00805     -3121.890 5        35.771
I06        60.000    37965550.193 6 148984980.32106      -586.800 6        36.359
> 2025 01 01 04 30 15.0000000  0 41
G30         3.000    23674262.082 6 124409125.58006      2656.036 6        40.610                                    23674259.631 4  96942115.84104      2069.649 4        27.162    23674257.688 5  96942144.86105      2069.551 5        35.010
G07         5.000    21467031.940 7 112810024.66907      1081.352 7        43.518                                    21467023.982 5  87903917.57605       842.610 5        31.042    21467023.277 5  87903874.57105       842.461 5        35.238
E34         6.000    24229040.916 6 127324485.42806     -1770.618 6        36.684                                                                    24229042.586 7  95080015.01307     -1322.197 7        43.234    24229038.324 5  97560331.46805     -1356.510 5        30.143
G03         8.000    23915690.074 4                     -4302.290 4        27.006
G09         9.000    20104247.858 8 105648530.53908     -1625.708 8        51.037                                    20104245.346 8  82323540.91308     -1266.786 8        51.458    20104245.556 7  82323531.91507     -1266.767 7        45.219
G20        10.000    23210198.061 6 121970384.12906      2389.995 6        39.177                                    23210192.461 3  95041896.86203      1862.339 3        22.819
G04        11.000    21482781.086 7 112892837.12107     -3113.390 7        44.009                                    21482776.362 4  87968428.63604     -2426.025 4        26.407    21482777.690 6  87968377.61406     -2426.042 6        39.030
E09        12.000    24826227.048 7 130462657.55707     -2621.709 7        43.253                                                                    24826226.163 8  97423509.42708     -1957.754 8        48.112    24826225.122 7  99964969.24007     -2008.829 7        47.255
E31        13.000    26795406.877 5 140810849.10605       763.485 5        31.155                                                                    26795427.753 4                       570.600 4        24.917
E06        14.000    26488193.481 5 139196296.24405     -3210.995 5        30.241                                                                    26488177.411 6 103945297.04506     -2397.665 6        36.064    26488177.128 5 106656964.74605     -2460.402 5        33.162
E15        16.000    26110747.841 8 137212890.49908      1030.518 8        48.177                                                                    26110748.275 7 102464221.66607       769.497 7        47.225    26110746.177 7 105137217.95007       789.636 7        44.700
G06        19.000    21543885.236 7 113214050.64207     -2429.974 7        44.411                                    21543881.559 6  88218739.52906     -1893.487 6        40.591    21543883.481 6  88218628.52606     -1893.495 6        40.672
E36        20.000    26213178.555 4 137751187.75504     -3927.926 4        29.118                                                                    26213176.720 5 102866170.16005     -2933.411 5        31.479    26213177.206 5 105549601.22405     -3009.870 5        34.167
E05        21.000    21930346.397 6 115244775.74806      -254.549 6        38.450                                                                    21930344.797 7  86059441.51407      -190.174 7        45.792    21930344.946 7  88304457.64707      -195.195 7        46.011
R07        23.000    19480992.269 8 104283361.98008      -712.566 8        50.001                                                                    19480989.786 7  81109207.50907      -554.158 7        43.575
S23        24.000    38139914.455 6 200426520.83506      -822.557 6        40.322
S36        25.000    38199427.776 5 200739345.51905      -826.879 5        34.567
G11        26.000                                                                                                                                                                    22252982.101 5  91122233.58305       162.720 5        35.538
E03        27.000    26577708.487 4 139666614.15704      1505.262 4        29.867                                                                    26577671.522 6 104296484.86706      1123.912 6        37.316
R15        28.000    24493104.219 4                     -4674.726 4        26.443
R06        29.000    21276832.699 6 113537260.61106     -3391.841 6        39.649
R24        31.000    23725864.605 5                      2362.809 5        32.659
R09        32.000    20951597.917 5 111880524.22005      2062.169 5        33.443                                                                    20951586.391 5  87018075.36305      1603.893 5        32.222
C19        33.000                                                                                                                                    22289307.709 7 116066271.67907     -1909.069 7        44.406                                                                    22289303.326 7  94313318.67807     -1551.268 7        44.302
C20        34.000                                                                                                                                    25627209.179 5 133447620.96805     -3511.291 5        33.000
R08        35.000    21562761.312 7 115467593.96807      1870.344 7        45.416                                                                    21562756.990 6  89808124.65006      1454.906 6        39.096
R22        37.000    21787169.872 4                     -4382.570 4        25.639                                                                    21787142.425 5                     -3408.477 5        34.195
R16        39.000    21176053.605 5 113118765.78105     -1941.031 5        35.700                                                                    21176054.623 6  87981300.72006     -1509.689 6        38.697
C06        41.000                                                                                                                                                                                                    39279180.673 5 158160972.75805     -1405.589 5        34.876    39279170.041 4                     -1476.848 4        25.759
C36        42.000                                                                                                                                    24057879.933 6 125275961.95106      2192.559 6        41.397                                                                    24057884.751 6 101796802.80706      1781.814 6        36.106
R23        44.000    21037877.097 5 112538414.75015     -1318.105 5        31.509
C16        45.000                                                                                                                                                                                                    39859825.426 4 160499028.20704     -1412.766 4        28.114
C09        46.000                                                                                                                                    38834786.202 6 202222952.15306     -1444.790 6        40.253    38834790.559 6 156371550.15306     -1117.258 6        38.595    38834780.167 5                     -1174.208 5        30.174
C44        48.000                                                                                                                                    24646938.279 6 128342967.70606     -2545.122 6        41.263                                                                    24646926.277 5 104289245.11905     -2068.151 5        35.443
C37        49.000                                                                                                                                    25788151.448 5 134285716.72405     -3131.122 5        32.886
C22        50.000                                                                                                                                    22357955.088 7 116423713.68307       832.068 7        44.898                                                                    22357949.719 6  94603832.02306       676.175 6        38.568
C35        51.000                                                                                                                                    25925888.502 4                     -3850.057 4        24.256
C11        52.000                                                                                                                                                                                                    26817923.858 4 107984756.76904       973.825 4        27.437
C12        56.000                                                                                                                                    24808766.666 4 129185640.98614     -1210.139 4        25.173
I01        59.000   339088065.965 5  27513606.54705     -3122.521 5        35.519
I06        60.000    37966297.825 6 148987913.61906      -586.721 6        36.571
> 2025 01 01 04 30 20.0000000  0 39
G30         3.000    23671735.330 6 124395846.89306      2655.353 6        39.793                                    23671732.624 4  96931768.82904      2069.107 4        26.946    23671730.595 5  96931797.82705      2069.165 5        35.419
G07         5.000    21466004.459 7 112804623.77907      1079.106 7        44.116                                    21465996.215 5  87899709.09905       840.856 5        31.630    21465996.294 5  87899666.09905       840.849 5        34.829
E34         6.000    24230726.514 6 127333344.43706     -1772.967 6        36.866                                                                    24230728.407 7  95086630.51707     -1323.911 7        43.350    24230725.617 5  97567119.51705     -1358.281 5        30.136
G03         8.000    23919776.605 4                     -4302.891 4        27.509
G09         9.000    20105795.775 8 105656664.19708     -1627.677 8        51.012                                    20105793.104 8  82329878.83008     -1268.319 8        51.822    20105793.582 7  82329869.83607     -1268.334 7        45.389
G20        10.000    23207924.715 6 121958436.08106      2389.178 6        39.162                                    23207918.842 3  95032586.68703      1861.690 3        21.952
G04        11.000    21485743.395 7 112908407.40907     -3114.667 7        42.677                                    21485739.590 4  87980561.32504     -2427.021 4        25.789    21485740.159 6  87980510.32406     -2427.125 6        38.766
E09        12.000    24828721.809 7 130475767.84307     -2622.276 7        43.657                                                                    24828721.016 8  97433299.56708     -1958.161 8        48.386    24828719.963 7  99975014.79007     -2009.305 7        47.143
E31        13.000    26794681.373 5 140807037.33705       761.520 5        30.083                                                                    26794705.881 4                       568.715 4        24.887    26794688.277 5 107891106.26715       583.843 5        30.000
E06        14.000    26491249.254 4 139212351.33904     -3211.062 4        28.427                                                                    26491232.649 5 103957286.20905     -2397.927 5        35.290    26491229.939 5 106669266.63905     -2460.093 5        32.808
E15        16.000    26109768.065 7 137207743.06207      1028.528 7        47.802                                                                    26109768.794 7 102460377.79807       768.081 7        47.378    26109766.512 7 105133273.81607       788.170 7        44.305
G06        19.000    21546199.268 7 113226208.33007     -2433.077 7        44.295                                    21546195.029 6  88228213.04706     -1895.904 6        40.670    21546197.769 6  88228102.04606     -1895.890 6        40.708
E36        20.000    26216921.063 4 137770829.38004     -3928.853 4        28.209                                                                    26216914.497 5 102880837.59805     -2933.515 5        31.698    26216915.056 5 105564651.32705     -3010.091 5        34.481
E05        21.000    21930589.379 6 115246052.26406      -255.872 6        39.090                                                                    21930587.611 7  86060394.75507      -191.122 7        46.102    21930588.175 7  88305435.75107      -196.065 7        46.085
R07        23.000    19481658.574 8 104286930.03708      -714.600 8        50.183                                                                    19481656.350 7  81111982.66207      -555.773 7        43.664
S23        24.000    38140697.074 6 200430633.89206      -822.553 6        40.274
S36        25.000    38200215.877 5 200743480.38205      -826.989 5        34.976
G11        26.000    22252791.183 6 116939313.20706       205.537 6        36.571                                    22252789.097 2  91121465.06002       160.161 2        13.939    22252784.942 5  91121426.13005       160.230 5        35.143
E03        27.000    26576272.074 4 139659089.82204      1504.838 4        28.967                                                                    26576239.539 6 104290866.09806      1123.438 6        37.202    26576279.373 3                      1152.526 3        22.857
R15        28.000    24497487.742 4                     -4675.511 4        25.910
R06        29.000    21280011.233 6 113554222.87206     -3392.993 6        38.913
R09        32.000    20949669.379 4 111870221.30104      2058.938 4        28.863                                                                    20949658.441 5  87010062.06705      1601.633 5        31.155
C19        33.000                                                                                                                                    22291140.879 7 116075820.84807     -1910.496 7        44.089                                                                    22291137.210 7  94321078.16507     -1552.455 7        44.689
C20        34.000                                                                                                                                    25630581.946 5 133465178.95305     -3511.461 5        32.653
R08        35.000    21561014.734 7 115458244.59107      1869.514 7        45.413                                                                    21561011.739 6  89800852.91206      1454.170 6        39.213
R22        37.000    21791281.390 4                     -4385.158 4        25.023                                                                    21791251.967 6  90473570.47116     -3410.274 6        36.681
R16        39.000    21177874.117 6 113128482.04806     -1945.463 6        36.238                                                                    21177874.241 6  87988857.80506     -1513.129 6        38.453
C06        41.000                                                                                                                                                                                                    39280925.377 5 158168000.62605     -1405.618 5        34.629    39280914.984 4                     -1477.425 4        24.992
C36        42.000                                                                                                                                    24055774.368 7 125265002.41307      2191.335 7        42.080                                                                    24055780.602 6 101787897.31406      1780.399 6        36.295
C16        45.000                                                                                                                                    39861659.898 4                     -1827.672 4        25.609    39861582.723 4 160506094.03404     -1413.138 4        28.104
C09        46.000                                                                                                                                    38836173.843 6 202230177.46006     -1445.274 6        40.408    38836180.710 6 156377137.20806     -1117.508 6        39.141    38836167.885 5                     -1174.451 5        30.581
C44        48.000                                                                                                                                    24649382.357 6 128355699.06206     -2547.287 6        40.207                                                                    24649371.323 5 104299590.41105     -2069.861 5        35.619
C37        49.000                                                                                                                                    25791158.018 5 134301377.57405     -3133.165 5        31.872
C22        50.000                                                                                                                                    22357157.167 7 116419556.59807       830.963 7        43.642                                                                    22357151.542 6  94600454.07206       675.026 6        38.432
C35        51.000                                                                                                                                    25929588.930 4                     -3848.021 4        24.586
C11        52.000                                                                                                                                                                                                    26816716.094 4 107979892.38604       972.090 4        26.180
C12        56.000                                                                                                                                                                                                                                                                    24809898.752 4                      -985.134 4        28.768
I01        59.000   339092044.800 5  27529218.43805     -3122.354 5        35.295
I06        60.000    37967044.410 6 148990846.86106      -586.672 6        36.393
> 2025 01 01 04 30 25.0000000  0 40
G30         3.000    23669209.123 6 124382572.36306      2654.431 6        38.348                                    23669206.273 4  96921425.03704      2068.380 4        26.647    23669205.031 5  96921454.04405      2068.271 5        35.314
G07         5.000    21464977.797 7 112799234.01107      1076.828 7        44.095                                    21464970.559 5  87895509.28505       839.085 5        32.168    21464970.564 5  87895466.29605       838.769 5        34.929
E34         6.000    24232415.939 6 127342215.46806     -1775.524 6        38.538                                                                    24232416.604 7  95093255.00907     -1325.905 7        42.995    24232415.160 5  97573916.81705     -1360.212 5        30.453
G03         8.000    23923865.470 4                     -4303.717 4        28.682
G09         9.000    20107345.329 8 105664807.56308     -1629.759 8        51.069                                    20107342.727 8  82336224.31008     -1269.943 8        52.023    20107343.531 7  82336215.31707     -1270.014 7        45.652
G20        10.000    23205652.760 6 121946492.26406      2388.251 6        40.381                                    23205646.131 3  95023279.80903      1860.996 3        21.167
G04        11.000    21488707.573 6 112923983.66606     -3116.000 6        41.797                                    21488704.034 4  87992698.66004     -2428.056 4        24.677    21488704.203 6  87992647.65606     -2428.189 6        38.577
E09        12.000    24831217.276 7 130488881.39107     -2623.145 7        44.355                                                                    24831216.520 8  97443092.15608     -1958.850 8        48.461    24831215.334 7  99985062.83207     -2009.974 7        47.097
E31        13.000    26793960.125 4 140803234.78904       759.746 4        26.802                                                                    26793982.757 4                       566.522 4        25.504    26793961.409 4 107888192.60704       582.212 4        29.005
E06        14.000    26494305.357 4 139228407.40104     -3211.213 4        27.796                                                                    26494287.320 5 103969276.13905     -2398.391 5        34.657    26494283.783 5 106681569.29105     -2460.725 5        32.371
E15        16.000    26108790.167 7 137202605.05007      1026.519 7        47.405                                                                    26108791.127 7 102456540.97307       766.555 7        47.230    26108788.776 7 105129336.90607       786.570 7        44.185
G06        19.000    21548515.494 7 113238381.01607     -2436.178 7        44.685                                    21548511.276 6  88237698.25806     -1898.319 6        40.861    21548514.039 6  88237587.26206     -1898.286 6        40.892
E36        20.000                                                                                                                                    26220652.787 5 102895508.13005     -2934.532 5        31.887    26220653.486 5 105579704.55205     -3011.090 5        35.086
E05        21.000    21930832.427 6 115247334.72806      -257.274 6        38.907                                                                    21930831.652 7  86061352.43707      -192.059 7        46.368    21930832.469 7  88306418.42307      -197.105 7        46.335
R07        23.000    19482326.598 8 104290508.08808      -716.685 8        49.412                                                                    19482324.074 7  81114765.59107      -557.499 7        43.363
S23        24.000    38141479.711 6 200434746.68306      -822.763 6        40.262
S36        25.000    38201000.759 5 200747614.98805      -826.984 5        34.529
G11        26.000    22252598.366 6 116938293.02106       202.174 6        38.027                                    22252594.711 2  91120670.12002       157.528 2        15.810    22252590.196 5  91120631.20205       157.627 5        34.148
E03        27.000    26574841.798 4 139651568.28104      1504.428 4        29.649                                                                    26574808.516 6 104285249.36406      1123.009 6        37.561    26574850.614 4                      1152.441 4        27.257
R15        28.000    24501859.674 4                     -4677.683 4        26.108
R06        29.000    21283190.544 6 113571191.22506     -3394.372 6        38.901
R24        31.000    23721478.404 5                      2357.703 5        33.371                                                                    23721509.267 4                      1833.039 4        26.180
R09        32.000                                                                                                                                    20947730.813 5  87002061.00205      1599.156 5        31.766
C19        33.000                                                                                                                                    22292976.041 7 116085376.91007     -1911.989 7        43.498                                                                    22292972.312 7  94328843.25607     -1553.677 7        45.014
C20        34.000                                                                                                                                    25633956.388 5 133482739.27305     -3512.212 5        32.377
R08        35.000    21559270.231 7 115448899.58407      1868.362 7        46.855                                                                    21559268.013 6  89793584.57806      1453.104 6        38.760
R22        37.000    21795387.167 4                     -4387.204 4        28.256                                                                    21795362.263 6  90490626.67716     -3412.310 6        36.760
R16        39.000    21179698.468 6 113138220.47006     -1950.075 6        38.192                                                                    21179696.436 6  87996432.12406     -1516.777 6        38.273
C06        41.000                                                                                                                                    39282661.719 3                     -1815.877 3        23.010    39282671.392 5 158175029.14005     -1405.955 5        34.557    39282660.894 4                     -1476.815 4        25.038
C36        42.000                                                                                                                                    24053670.487 6 125254048.59806      2190.040 6        41.831                                                                    24053677.422 6 101778996.47006      1779.387 6        36.960
C16        45.000                                                                                                                                    39863415.524 4                     -1828.118 4        25.128    39863336.096 4 160513160.24804     -1413.301 4        28.246
C09        46.000                                                                                                                                    38837561.679 6 202237404.24506     -1445.563 6        40.503    38837570.272 6 156382725.42606     -1117.839 6        39.192    38837555.783 5                     -1174.500 5        30.370
C44        48.000                                                                                                                                    24651826.879 6 128368440.58806     -2549.365 6        38.904                                                                    24651816.642 5 104309943.99505     -2071.794 5        35.819
C37        49.000                                                                                                                                    25794169.526 5 134317047.71805     -3134.897 5        31.019
C22        50.000                                                                                                                                    22356359.947 6 116415404.92706       829.686 6        41.511                                                                    22356354.879 6  94597080.49906       674.148 6        38.541
C35        51.000                                                                                                                                    25933282.835 3                     -3850.196 3        23.581
C11        52.000                                                                                                                                                                                                    26815507.107 4 107975035.80004       969.700 4        25.654
C12        56.000                                                                                                                                    24811051.437 5 129197766.06605     -1215.260 5        33.826    24811089.686 4  99903813.00204      -939.701 4        29.204    24811054.313 4                      -987.710 4        29.412
I01        59.000   339096023.209 5  27544830.82205     -3122.687 5        35.186
I06        60.000    37967792.661 6 148993780.11206      -586.771 6        36.185
> 2025 01 01 04 30 30.0000000  0 38
G30         3.000    23666683.296 6 124369302.23906      2653.365 6        36.760                                    23666680.589 4  96911084.68904      2067.544 4        25.835    23666680.306 5  96911113.68505      2067.798 5        35.286
G07         5.000    21463953.492 7 112793855.64707      1074.452 7        44.226                                    21463947.277 5  87891318.35705       837.231 5        32.581    21463947.108 6  87891275.35806       837.081 6        36.106
E34         6.000    24234107.023 6 127351098.82206     -1778.139 6        40.067                                                                    24234107.283 7  95099888.69707     -1327.837 7        42.859    24234106.663 5  97580723.59005     -1362.195 5        31.328
G03         8.000    23927963.314 4                     -4304.727 4        28.701
G09         9.000    20108896.719 8 105672960.93608     -1631.780 8        51.115                                    20108894.255 8  82342577.58908     -1271.516 8        52.037    20108894.655 7  82342568.59307     -1271.554 7        46.103
G20        10.000    23203381.515 6 121934552.96806      2387.358 6        41.538                                    23203374.225 3  95013976.48703      1860.268 3        20.619
G04        11.000    21491672.516 6 112939566.16606     -3117.146 6        41.113                                    21491669.579 3  88004840.86403     -2428.951 3        23.086    21491669.273 6  88004789.85706     -2429.032 6        38.453
E09        12.000    24833713.104 7 130501998.49507     -2623.838 7        44.403                                                                    24833712.594 8  97452887.39008     -1959.396 8        48.469    24833711.390 7  99995113.59007     -2010.484 7        47.039
E31        13.000                                                                                                                                    26793262.924 4                       566.609 4        24.647    26793236.571 4 107885286.31904       580.661 4        28.436
E06        14.000    26497357.803 4 139244464.82104     -3210.488 4        26.240                                                                    26497342.787 5 103981267.03005     -2398.365 5        34.038    26497339.044 5 106693872.98605     -2461.030 5        32.251
E15        16.000    26107814.250 7 137197476.76107      1024.556 7        46.655                                                                    26107815.221 7 102452711.39807       765.115 7        47.138    26107812.862 7 105125407.45007       784.942 7        44.114
G06        19.000    21550834.524 7 113250568.98107     -2439.183 7        46.226                                    21550830.354 6  88247195.36806     -1900.661 6        41.132    21550833.304 6  88247084.38006     -1900.663 6        41.197
E36        20.000    26224415.373 4 137810125.06004     -3930.432 4        25.970                                                                    26224391.956 5 102910181.85305     -2934.766 5        31.034    26224393.119 5 105594761.06505     -3011.739 5        35.543
E05        21.000    21931076.705 6 115248623.44506      -258.470 6        38.535                                                                    21931076.970 7  86062314.77907      -193.032 7        46.783    21931077.997 7  88307405.87207      -198.116 7        46.593
R07        23.000    19482996.257 8 104294096.05708      -718.723 8        48.304                                                                    19482994.345 7  81117556.24807      -559.042 7        42.933
S23        24.000    38142264.615 6 200438859.56806      -822.506 6        40.176
S36        25.000    38201786.619 5 200751749.25105      -827.024 5        34.824
G11        26.000    22252408.612 6 116937289.21006       199.050 6        40.379                                    22252402.919 2  91119887.96602       155.103 2        16.038    22252399.401 5  91119849.02205       155.094 5        32.569
E03        27.000    26573415.650 4 139644049.72604      1502.914 4        29.374                                                                    26573377.971 6 104279634.89206      1122.608 6        38.015    26573419.775 4                      1151.954 4        28.199
R06        29.000    21286371.838 6 113588165.97706     -3395.780 6        39.258
R24        31.000    23719276.577 5                      2354.821 5        33.162
R09        32.000    20945842.392 5 111849663.00905      2052.564 5        34.462                                                                    20945810.430 5  86994072.54405      1596.342 5        34.186
C19        33.000                                                                                                                                    22294812.633 7 116094940.11807     -1913.408 7        43.077                                                                    22294808.840 7  94336614.12407     -1554.834 7        45.193
C20        34.000                                                                                                                                    25637334.057 5 133500302.18005     -3512.509 5        31.374
R08        35.000    21557526.660 7 115439559.31907      1867.565 7        47.982                                                                    21557522.856 6  89786319.89706      1452.413 6        38.847
R22        37.000    21799493.431 5                     -4389.685 5        32.880                                                                    21799470.847 6  90507692.28116     -3414.152 6        36.280
R16        39.000    21181529.447 6 113147981.18506     -1954.557 6        40.420                                                                    21181526.430 6  88004023.77806     -1520.219 6        39.712
C06        41.000                                                                                                                                    39284421.133 4                     -1818.088 4        24.376    39284416.538 5 158182058.48005     -1405.920 5        34.252    39284406.610 4                     -1477.266 4        25.338
C36        42.000                                                                                                                                    24051568.255 6 125243100.79506      2188.855 6        41.833                                                                    24051575.738 6 101770100.46706      1778.520 6        37.456
C16        45.000                                                                                                                                    39865176.610 4                     -1827.985 4        26.060    39865090.494 4 160520227.08504     -1413.918 4        27.904
C09        46.000                                                                                                                                    38838950.338 6 202244632.82806     -1445.935 6        40.684    38838959.084 6 156388314.99006     -1118.008 6        39.207    38838943.802 5                     -1174.825 5        30.483
C44        48.000                                                                                                                                    24654274.756 6 128381192.62606     -2551.533 6        38.402                                                                    24654265.404 5 104320306.07605     -2073.408 5        35.743
C37        49.000                                                                                                                                    25797181.857 5 134332727.50005     -3137.335 5        31.109
C22        50.000                                                                                                                                    22355563.052 6 116411258.96806       828.438 6        38.105                                                                    22355558.837 6  94593711.50906       673.328 6        38.805
C11        52.000                                                                                                                                                                                                    26814302.857 4 107970186.92704       969.460 4        26.311
C12        56.000                                                                                                                                    24812229.065 5 129203849.55105     -1218.357 5        34.362    24812256.827 4  99908517.07904      -942.266 4        27.880    24812219.855 4                      -990.151 4        29.621
I01        59.000   339100001.661 5  27560443.90905     -3122.683 5        34.848
I06        60.000    37968539.709 6 148996713.58106      -586.834 6        36.268
> 2025 01 01 04 30 35.0000000  0 39
G30         3.000    23664158.933 5 124356037.15905      2652.547 5        35.529                                    23664155.830 4  96900748.26304      2066.930 4        24.857    23664156.136 5  96900777.26205      2066.878 5        34.662
G07         5.000    21462932.665 7 112788489.25607      1072.052 7        44.772                                    21462926.513 5  87887136.76505       835.359 5        33.084    21462926.769 6  87887093.75306       835.395 6        36.726
E34         6.000    24235800.115 6 127359995.04606     -1780.494 6        40.439                                                                    24235800.558 7  95106532.00807     -1329.660 7        42.779    24235800.179 5  97587540.20605     -1364.215 5        32.018
G03         8.000    23932064.159 4                     -4305.474 4        28.360
G09         9.000    20110450.385 8 105681124.89208     -1633.863 8        51.604                                    20110447.777 8  82348939.11708     -1273.141 8        52.098    20110448.540 7  82348930.12007     -1273.112 7        46.215
G20        10.000    23201110.876 7 121922618.79007      2386.267 7        42.574                                    23201103.101 3  95004677.12203      1859.435 3        21.071
G04        11.000    21494639.144 6 112955155.48506     -3118.614 6        39.814                                    21494636.429 3  88016988.39503     -2430.090 3        21.238    21494635.716 6  88016937.36506     -2429.847 6        38.282
E09        12.000    24836209.729 7 130515119.71907     -2624.659 7        44.948                                                                    24836209.360 8  97462685.70308     -1959.918 8        48.450    24836208.298 7 100005167.51307     -2011.101 7        47.017
E31        13.000    26792523.812 3                       756.853 3        21.690                                                                    26792546.454 4                       565.379 4        24.286    26792514.799 4 107882387.87104       577.725 4        27.126
E06        14.000                                                                                                                                    26500398.111 5 103993259.33505     -2398.649 5        33.126    26500395.196 5 106706178.12905     -2461.125 5        32.467
E15        16.000    26106840.142 7 137192358.78907      1022.500 7        46.449                                                                    26106841.253 7 102448889.53307       763.631 7        46.983    26106838.838 7 105121485.88207       783.598 7        44.062
G06        19.000    21553156.653 7 113262772.80607     -2442.300 7        47.439                                    21553152.449 6  88256704.84206     -1903.089 6        41.578    21553155.155 6  88256593.86306     -1903.250 6        40.994
E36        20.000    26228154.427 4 137829780.06204     -3931.554 4        27.784                                                                    26228131.842 5 102924859.22705     -2935.921 5        30.174    26228133.268 5 105609821.31705     -3012.299 5        35.662
E05        21.000    21931322.570 6 115249918.97806      -259.878 6        38.330                                                                    21931323.635 7  86063282.21707      -193.902 7        47.150    21931324.794 7  88308398.54307      -199.006 7        46.796
R07        23.000    19483668.024 7 104297694.69207      -720.813 7        47.953                                                                    19483666.674 7  81120355.19607      -560.575 7        42.954
S23        24.000    38143043.303 6 200442973.13506      -822.829 6        40.207
S36        25.000    38202574.139 5 200755884.32105      -827.078 5        34.724
G11        26.000    22252220.651 7 116936302.33707       195.690 7        42.411                                    22252213.971 2  91119119.01502       152.473 2        17.245    22252212.151 5  91119080.07605       152.077 5        32.180
E03        27.000    26571987.025 4 139636534.65704      1503.267 4        29.147                                                                    26571948.098 6 104274023.08306      1122.077 6        38.327    26571991.820 4                      1151.498 4        29.081
R06        29.000    21289554.537 6 113605147.75506     -3396.972 6        39.441
R24        31.000    23717068.642 5                      2351.619 5        32.964                                                                    23717081.632 3                      1831.422 3        23.752
R09        32.000    20943914.581 5 111839408.74005      2048.958 5        31.804                                                                    20943890.541 6  86986097.05506      1593.920 6        36.079
C19        33.000                                                                                                                                    22296650.639 7 116104511.04207     -1914.980 7        42.809                                                                    22296646.653 7  94344391.30107     -1556.115 7        45.377
C20        34.000                                                                                                                                    25640714.567 5 133517868.21805     -3513.588 5        30.189
R08        35.000    21555782.760 7 115430224.26307      1866.449 7        47.464                                                                    21555780.141 6  89779059.28506      1451.665 6        38.532
R22        37.000    21803600.974 5 116389104.38715     -4391.807 5        34.467                                                                    21803582.968 5  90524767.59615     -3415.941 5        34.286
R16        39.000    21183360.521 6 113157764.81106     -1959.125 6        40.794                                                                    21183362.421 6  88011633.30106     -1523.693 6        39.871
C06        41.000                                                                                                                                    39286168.039 4                     -1815.863 4        24.797    39286163.346 5 158189089.16705     -1406.289 5        34.148    39286152.471 4                     -1477.498 4        24.977
C36        42.000                                                                                                                                    24049467.952 6 125232159.61406      2187.566 6        41.542                                                                    24049474.857 6 101761209.84806      1777.594 6        37.754
R23        44.000    21042764.878 6 112564968.36706     -1337.082 6        36.503
C16        45.000                                                                                                                                    39866933.184 4                     -1828.471 4        26.168    39866846.347 4 160527295.02204     -1414.291 4        27.593
C09        46.000                                                                                                                                    38840338.689 6 202251863.76406     -1446.369 6        40.758    38840346.297 6 156393906.42906     -1118.558 6        38.874    38840332.379 5                     -1175.230 5        30.777
C44        48.000                                                                                                                                    24656730.240 6 128393955.68206     -2553.661 6        38.315                                                                    24656716.563 6 104330677.11206     -2074.933 6        36.060
C37        49.000                                                                                                                                    25800194.294 4 134348417.45704     -3138.843 4        29.905
C22        50.000                                                                                                                                    22354768.132 5 116407119.25105       827.220 5        33.120                                                                    22354764.378 6  94590347.60606       672.388 6        39.270
C11        52.000                                                                                                                                                                                                    26813099.771 4 107965346.48704       967.809 4        26.000
C12        56.000                                                                                                                                    24813404.773 5 129209947.66705     -1220.983 5        32.162                                                                    24813391.751 5                      -992.287 5        30.664
I01        59.000   339103980.899 5  27576058.14305     -3122.751 5        34.538
I06        60.000    37969287.580 6 148999647.73306      -586.944 6        36.299
> 2025 01 01 04 30 40.0000000  0 37
G30         3.000    23661636.197 5 124342776.40505      2652.084 5        34.052                                    23661631.912 4  96890415.20204      2066.575 4        24.481    23661632.597 5  96890444.17905      2066.582 5        34.671
G07         5.000    21461914.031 7 112783134.13407      1070.221 7        45.583                                    21461907.980 5  87882963.94805       833.935 5        33.581    21461907.756 6  87882920.92306       833.903 6        37.335
E34         6.000    24237495.092 6 127368903.46606     -1782.495 6        40.117                                                                    24237495.864 7  95113184.40707     -1331.158 7        42.705    24237495.256 5  97594366.17005     -1365.871 5        32.497
G09         9.000    20112005.840 8 105689298.69708     -1635.343 8        50.961                                    20112003.169 8  82355308.31808     -1274.294 8        52.243    20112003.563 7  82355299.32507     -1274.333 7        46.490
G20        10.000    23198840.400 7 121910689.03207      2385.829 7        43.113                                    23198832.550 3  94995381.21503      1859.085 3        21.000
G04        11.000    21497607.269 6 112970750.89806     -3119.491 6        38.018                                    21497604.289 3  88029140.66403     -2430.780 3        19.731    21497603.037 6  88029089.63706     -2430.919 6        37.974
E09        12.000    24838707.171 7 130528244.34707     -2624.846 7        45.100                                                                    24838706.835 8  97472486.56008     -1960.060 8        48.421    24838705.843 7 100015224.03807     -2011.223 7        47.052
E31        13.000                                                                                                                                    26791833.928 4                       562.346 4        25.218    26791795.603 4 107879496.58904       577.554 4        25.835
E06        14.000    26503448.153 4 139276584.58404     -3212.051 4        29.175                                                                    26503455.151 5 104005252.48705     -2398.465 5        32.856    26503451.577 5 106718484.11405     -2461.031 5        32.204
E15        16.000    26105868.030 7 137187250.40707      1021.129 7        46.065                                                                    26105869.207 7 102445074.84007       762.556 7        46.856    26105866.847 7 105117571.68807       782.456 7        44.015
G06        19.000    21555481.493 8 113274991.79508     -2444.992 8        48.047                                    21555477.541 7  88266226.13007     -1905.188 7        42.119    21555480.143 6  88266115.13306     -1905.104 6        41.309
E36        20.000    26231891.948 4 137849439.19904     -3931.880 4        28.777                                                                    26231872.285 5 102939539.70805     -2935.954 5        30.053    26231874.036 6 105624884.77006     -3012.632 6        36.261
E05        21.000    21931569.903 6 115251220.59706      -260.560 6        38.577                                                                    21931571.513 7  86064254.21107      -194.608 7        47.567    21931572.560 7  88309395.88407      -199.589 7        46.924
R07        23.000    19484342.831 7 104301303.43207      -722.407 7        47.904                                                                    19484340.401 7  81123161.97507      -561.802 7        43.308
S23        24.000    38143826.910 6 200447086.70506      -822.347 6        40.124
S36        25.000    38203360.510 5 200760019.14105      -826.716 5        35.005
G11        26.000    22252036.151 7 116935331.71407       192.815 7        43.507                                    22252027.473 3  91118362.70503       150.220 3        18.687    22252029.270 5  91118323.75405       149.961 5        33.880
E03        27.000    26570549.819 5 139629022.51705      1502.263 5        31.019                                                                    26570518.798 6 104268413.41706      1122.001 6        38.715
R15        28.000                                                                                                                                    24514931.686 3                     -3642.383 3        19.493
R06        29.000    21292737.948 6 113622135.81706     -3397.943 6        39.838
R24        31.000    23714874.502 5 126814081.10615      2349.495 5        35.852                                                                    23714883.298 3                      1826.109 3        23.600
R09        32.000    20941988.355 4 111829170.30904      2046.649 4        29.147                                                                    20941972.801 6  86978133.97506      1591.774 6        36.635
C19        33.000                                                                                                                                    22298489.079 7 116114088.99607     -1915.888 7        42.474                                                                    22298486.097 7  94352174.18807     -1556.897 7        45.324
R08        35.000    21554039.336 7 115420893.64507      1866.093 7        47.288                                                                    21554037.611 6  89771802.14006      1451.270 6        38.727
R22        37.000    21807712.916 6 116411070.22406     -4394.009 6        36.998                                                                    21807697.188 5  90541852.20205     -3417.602 5        31.811
R16        39.000    21185194.529 6 113167570.80206     -1963.043 6        40.913                                                                    21185202.680 6  88019260.20206     -1526.705 6        39.712
C06        41.000                                                                                                                                    39287913.112 3                     -1818.119 3        23.905    39287909.775 5 158196120.57105     -1406.229 5        33.988    39287898.961 4                     -1477.445 4        26.036
C36        42.000                                                                                                                                    24047368.995 6 125221224.34206      2186.762 6        41.538                                                                    24047374.989 6 101752324.03806      1776.936 6        37.974
C16        45.000                                                                                                                                    39868684.450 4                     -1828.201 4        27.665    39868601.280 4 160534363.33704     -1413.246 4        27.904
C09        46.000                                                                                                                                    38841728.346 6 202259096.35406     -1446.312 6        40.923    38841734.023 6 156399499.09606     -1118.417 6        39.141    38841721.381 5                     -1175.510 5        30.875
C44        48.000                                                                                                                                    24659193.892 6 128406729.12906     -2555.441 6        38.501                                                                    24659170.022 6 104341056.60606     -2076.497 6        36.215
C37        49.000                                                                                                                                    25803209.050 4 134364116.90704     -3140.497 4        28.834
C22        50.000                                                                                                                                    22353972.412 4 116402985.11404       826.896 4        28.957                                                                    22353970.739 6  94586988.23506       671.590 6        39.604
C11        52.000                                                                                                                                                                                                    26811903.733 4 107960513.99504       965.669 4        28.464
C12        56.000                                                                                                                                    24814575.990 4 129216059.72304     -1223.550 4        28.673                                                                    24814567.381 5                      -994.284 5        32.251
I01        59.000   339107959.765 5  27591672.99205     -3122.847 5        34.386
I06        60.000    37970036.047 6 149002581.96206      -586.554 6        36.306
> 2025 01 01 04 30 45.0000000  0 42
G30         3.000    23659111.330 5 124329519.39205      2650.665 5        32.353                                    23659108.844 4  96880085.07104      2065.461 4        24.030    23659109.382 5  96880114.05305      2065.531 5        33.737
G07         5.000    21460896.811 7 112777789.74407      1067.691 7        46.298                                    21460891.464 5  87878799.49705       831.960 5        33.892    21460890.842 6  87878756.47206       832.029 6        37.399
E34         6.000    24239191.846 6 127377823.50606     -1785.368 6        40.124                                                                    24239193.406 7  95119845.49607     -1333.265 7        42.339    24239192.622 5  97601201.04205     -1368.193 5        32.491
G03         8.000    23940286.015 4                     -4307.028 4        28.417
G09         9.000    20113562.684 8 105697481.83308     -1637.661 8        50.654                                    20113560.348 8  82361684.79408     -1276.102 8        52.194    20113560.891 7  82361675.79807     -1276.095 7        46.652
G20        10.000    23196570.602 7 121898763.15607      2384.701 7        43.577                                    23196562.598 3  94986088.33603      1858.206 3        21.405
G04        11.000    21500575.300 6 112986351.87306     -3121.038 6        36.578                                    21500572.852 3  88041297.26803     -2431.968 3        18.209    21500571.818 6  88041246.24806     -2431.952 6        37.198
E09        12.000    24841205.413 7 130541371.84707     -2625.929 7        45.494                                                                    24841204.895 8  97482289.56008     -1960.961 8        48.338    24841203.873 7 100025282.76607     -2012.062 7        46.986
E31        13.000                                                                                                                                    26791122.332 4                       561.385 4        26.084
E06        14.000    26506507.593 4 139292645.62604     -3212.681 4        29.621                                                                    26506513.390 5 104017246.09605     -2398.551 5        32.533    26506507.735 5 106730790.63305     -2461.493 5        32.329
E15        16.000    26104898.103 7 137182151.10707      1018.847 7        46.053                                                                    26104898.889 7 102441266.93307       760.767 7        46.636    26104896.609 7 105113664.45107       780.643 7        44.047
G06        19.000    21557809.119 7 113287225.36407     -2448.242 7        47.843                                    21557805.624 7  88275758.77907     -1907.719 7        42.495    21557808.485 6  88275647.79006     -1907.733 6        41.595
E36        20.000    26235625.803 5 137869101.91005     -3933.006 5        30.853                                                                    26235614.160 4 102954222.92304     -2936.663 4        29.460    26235615.666 6 105639951.00106     -3013.828 6        36.166
E05        21.000    21931820.000 6 115252527.78406      -262.190 6        38.781                                                                    21931820.364 7  86065230.34807      -195.716 7        47.814    21931821.346 7  88310397.48907      -200.843 7        46.966
R07        23.000    19485019.251 7 104304921.45207      -724.679 7        47.182                                                                    19485015.994 7  81125975.98607      -563.631 7        42.499
S23        24.000    38144610.785 6 200451199.56906      -822.792 6        40.324
S36        25.000    38204146.608 5 200764153.89105      -827.203 5        35.086
G11        26.000    22251854.308 7 116934376.79307       189.302 7        44.763                                    22251843.989 3  91117618.65803       147.497 3        19.701    22251847.568 5  91117579.66805       147.473 5        34.871
E03        27.000    26569113.728 5 139621512.78105      1501.398 5        31.834                                                                    26569089.725 6 104262805.49406      1121.412 6        38.640    26569151.258 5                      1150.664 5        31.660
R15        28.000    24519328.756 4                     -4685.099 4        25.489
R06        29.000    21295922.915 6 113639129.60106     -3399.288 6        40.317
R24        31.000    23712681.309 6 126802341.89206      2346.446 6        38.009                                                                    23712702.344 4                      1825.857 4        24.466
R09        32.000    20940076.370 5 111818947.54405      2042.994 5        35.400                                                                    20940060.069 6  86970183.01906      1588.958 6        36.189
C19        33.000                                                                                                                                    22300328.376 6 116123673.44306     -1917.637 6        41.776                                                                    22300326.786 7  94359962.32907     -1558.139 7        45.335
C20        34.000                                                                                                                                    25647476.848 4 133553007.24304     -3515.247 4        27.988
R08        35.000    21552297.491 7 115411567.17707      1864.820 7        46.093                                                                    21552295.864 6  89764548.23206      1450.256 6        39.640
R22        37.000    21811827.030 6 116433047.42006     -4396.872 6        37.977                                                                    21811814.545 4  90558945.58804     -3420.087 4        25.925
R16        39.000    21187034.479 6 113177398.40606     -1967.790 6        41.673                                                                    21187045.514 6  88026903.93106     -1530.342 6        39.583
C06        41.000                                                                                                                                    39289658.480 3                     -1819.525 3        23.124    39289655.757 5 158203152.29105     -1406.500 5        33.820    39289645.277 4                     -1478.440 4        25.383
C36        42.000                                                                                                                                    24045270.677 6 125210294.42406      2185.289 6        41.628                                                                    24045276.242 6 101743442.56806      1775.888 6        38.189
R23        44.000    21045294.681 5 112578385.60805     -1346.444 5        35.333
C16        45.000                                                                                                                                    39870433.856 4                     -1828.227 4        27.042    39870356.673 4 160541431.87604     -1414.168 4        27.629
C09        46.000                                                                                                                                    38843117.815 6 202266330.02206     -1446.960 6        41.116    38843123.569 6 156405092.62506     -1118.787 6        38.859    38843110.088 5                     -1175.689 5        31.358
C21        47.000                                                                                                                                    26821314.599 5 139665621.22515      2025.410 5        32.521
C44        48.000                                                                                                                                    24661656.096 6 128419512.32506     -2557.792 6        38.030                                                                    24661625.321 6 104351443.96906     -2078.210 6        36.643
C37        49.000                                                                                                                                    25806224.438 4 134379825.33904     -3143.119 4        27.784
C22        50.000                                                                                                                                    22353177.777 4 116398855.92404       824.965 4        29.877                                                                    22353177.980 6  94583632.88506       670.709 6        40.150
C35        51.000                                                                                                                                    25948076.970 3                     -3848.512 3        19.940
C11        52.000                                                                                                                                                                                                    26810705.938 4 107955688.70704       963.983 4        28.844
C12        56.000                                                                                                                                                                                                                                                                    24815745.162 5                      -996.696 5        34.467
I01        59.000   339111938.518 5  27607288.02805     -3123.371 5        33.683
I06        60.000    37970783.635 6 149005515.96506      -587.073 6        36.121
> 2025 01 01 04 30 50.0000000  0 40
G30         3.000    23656587.612 5 124316267.18105      2650.312 5        32.090                                    23656586.818 3  96869758.66703      2065.179 3        22.876    23656588.323 5  96869787.64005      2065.308 5        33.204
G07         5.000    21459881.953 7 112772457.09907      1065.792 7        45.722                                    21459877.063 5  87874644.19605       830.489 5        33.605    21459875.472 6  87874601.17706       830.370 6        36.518
E34         6.000    24240891.912 6 127386756.19006     -1787.358 6        41.147                                                                    24240893.080 6  95126516.00606     -1334.806 6        41.831    24240893.586 5  97608045.58505     -1369.493 5        33.329
G03         8.000    23944386.578 4                     -4307.454 4        26.719
G09         9.000    20115122.017 8 105705675.26808     -1639.329 8        50.593                                    20115119.523 8  82368069.29708     -1277.401 8        51.943    20115119.958 7  82368060.29707     -1277.425 7        46.577
G20        10.000    23194301.746 7 121886842.13507      2384.087 7        44.066                                    23194293.415 3  94976799.24103      1857.731 3        21.881
G04        11.000    21503545.199 6 113001959.38306     -3121.562 6        36.866                                    21503542.832 2  88053458.96002     -2432.393 2        16.641    21503541.713 6  88053407.94806     -2432.560 6        36.684
E09        12.000    24843704.463 7 130554503.19307     -2626.256 7        45.535                                                                    24843703.662 8  97492095.43908     -1961.137 8        48.452    24843702.623 7 100035344.45207     -2012.376 7        46.732
E31        13.000    26790404.778 4                       749.520 4        26.695                                                                    26790405.902 4                       560.691 4        26.503    26790364.395 4 107873735.28004       577.226 4        24.211
E06        14.000    26509564.442 4 139308708.25504     -3212.330 4        29.754                                                                    26509573.343 5 104029240.96705     -2398.778 5        32.503    26509564.261 5 106743098.33605     -2461.402 5        32.335
E15        16.000    26103930.099 7 137177061.86407      1017.237 7        45.938                                                                    26103930.375 7 102437466.52907       759.578 7        46.436    26103928.206 7 105109764.90507       779.490 7        44.053
G06        19.000    21560139.693 7 113299474.51507     -2451.003 7        47.561                                    21560136.909 7  88285303.56807     -1909.869 7        42.741    21560139.087 7  88285192.57207     -1909.844 7        42.178
E36        20.000    26239352.811 5 137888769.29605     -3933.583 5        32.683                                                                    26239357.308 4 102968909.54904     -2937.238 4        29.327    26239358.385 6 105655020.75306     -3014.158 6        36.057
E05        21.000    21932069.787 6 115253841.49706      -263.148 6        38.228                                                                    21932070.460 8  86066211.38608      -196.361 8        48.135    21932071.426 7  88311404.11607      -201.556 7        47.025
R07        23.000    19485697.098 7 104308550.01307      -726.253 7        45.941                                                                    19485693.260 6  81128798.20906      -564.978 6        41.237
S23        24.000    38145393.793 6 200455312.84306      -822.347 6        40.219
S36        25.000    38204931.418 5 200768290.01005      -826.938 5        34.843
G11        26.000    22251675.843 7 116933438.58707       186.444 7        45.020                                    22251664.341 3  91116887.60603       145.283 3        20.238    22251668.467 5  91116848.62505       145.419 5        35.095
E03        27.000    26567678.539 5 139614006.43905      1501.175 5        30.136                                                                    26567661.424 6 104257200.06006      1121.358 6        38.718    26567717.106 5                      1150.160 5        31.532
R06        29.000    21299109.259 6 113656130.13506     -3400.204 6        40.458
R24        31.000    23710492.556 6 126790617.06006      2343.908 6        38.847
R09        32.000    20938175.083 5 111808741.49005      2039.989 5        33.593                                                                    20938146.840 5  86962244.93805      1586.590 5        34.876
C19        33.000                                                                                                                                    22302169.846 6 116133265.37906     -1918.708 6        41.671                                                                    22302168.622 7  94367756.57907     -1559.117 7        45.138
R08        35.000    21550555.360 7 115402245.60307      1864.296 7        44.843                                                                    21550556.782 6  89757298.09906      1450.076 6        40.355
R22        37.000    21815936.757 6 116455036.88706     -4398.728 6        37.648                                                                    21815927.425 4  90576048.53804     -3420.516 4        27.210
R16        39.000    21188878.402 6 113187248.64806     -1972.000 6        40.863                                                                    21188889.068 6  88034565.25406     -1533.630 6        39.039
C06        41.000                                                                                                                                    39291405.212 3                     -1819.189 3        23.810    39291403.393 5 158210185.11305     -1406.310 5        33.611    39291391.204 4                     -1476.426 4        24.331
C36        42.000                                                                                                                                    24043173.762 7 125199370.89707      2184.540 7        42.263                                                                    24043178.590 6 101734566.30506      1774.999 6        38.354
R23        44.000    21046546.738 5 112585129.38705     -1350.704 5        34.286
C16        45.000                                                                                                                                    39872181.058 4                     -1828.134 4        27.257    39872110.560 4 160548501.21804     -1412.776 4        27.677
C09        46.000                                                                                                                                    38844507.360 6 202273565.82706     -1447.031 6        41.254    38844512.867 6 156410687.81706     -1119.028 6        39.027    38844499.744 5                     -1175.493 5        30.936
C21        47.000                                                                                                                                    26819366.474 5 139655493.17405      2026.045 5        34.552
C44        48.000                                                                                                                                    24664114.676 5 128432306.33305     -2559.615 5        34.267                                                                    24664082.920 6 104361840.11806     -2079.528 6        36.730
C37        49.000                                                                                                                                    25809243.078 4 134395543.65704     -3144.096 4        27.006
C22        50.000                                                                                                                                    22352386.707 5 116394732.66205       824.514 5        32.257                                                                    22352386.229 6  94580282.45506       669.888 6        40.150
C35        51.000                                                                                                                                    25951778.664 4                     -3850.376 4        24.977
C11        52.000                                                                                                                                                                                                    26809510.349 5 107950871.54405       963.137 5        30.098
C12        56.000                                                                                                                                                                                                                                                                    24816923.813 5                      -998.496 5        35.648
I01        59.000   339115917.455 5  27622903.95505     -3123.187 5        33.910
I06        60.000    37971531.031 6 149008450.38306      -586.663 6        36.284
> 2025 01 01 04 30 55.0000000  0 40
G30         3.000    23654068.729 5 124303018.66805      2649.182 5        31.464                                    23654065.686 3  96859435.14803      2064.298 3        21.714    23654068.394 5  96859464.12805      2064.269 5        32.868
G07         5.000    21458868.818 7 112767135.11907      1063.250 7        44.802                                    21458864.500 5  87870497.20105       828.502 5        32.964    21458861.627 5  87870454.18505       828.663 5        34.948
E34         6.000    24242594.218 7 127395700.38807     -1790.106 7        42.040                                                                    24242594.684 6  95133195.13306     -1336.649 6        41.116    24242596.921 5  97614898.94805     -1371.621 5        34.224
G09         9.000    20116683.158 8 105713877.91308     -1641.524 8        50.476                                    20116680.495 8  82374460.97208     -1279.112 8        51.581    20116680.521 7  82374451.96907     -1279.123 7        46.528
G20        10.000    23192034.245 7 121874924.89707      2383.080 7        44.382                                    23192025.019 3  94967513.10503      1856.951 3        22.229
G04        11.000    21506517.668 6 113017572.36206     -3123.089 6        38.634                                    21506513.765 2  88065624.91902     -2433.572 2        16.264    21506513.527 6  88065573.87906     -2433.805 6        36.272
E09        12.000    24846203.962 7 130567637.30807     -2627.227 7        45.588                                                                    24846202.983 8  97501903.38208     -1961.852 8        48.386    24846201.853 7 100045408.25507     -2013.022 7        46.585
E31        13.000    26789685.799 4                       747.955 4        25.173                                                                    26789685.036 4                       558.437 4        25.744
E06        14.000    26512622.033 4 139324771.41404     -3212.607 4        29.526                                                                    26512633.598 5 104041236.22805     -2398.956 5        32.916    26512620.820 5 106755406.49805     -2461.927 5        32.269
E15        16.000    26102963.580 7 137171981.62207      1015.060 7        46.126                                                                    26102963.618 7 102433672.83307       758.031 7        46.274    26102961.572 7 105105872.26307       777.809 7        44.048
G06        19.000    21562473.482 7 113311738.13407     -2454.232 7        47.468                                    21562471.096 7  88294859.63007     -1912.387 7        43.232    21562473.072 7  88294748.63507     -1912.314 7        42.872
E36        20.000    26243098.337 5 137908440.09705     -3934.485 5        33.689                                                                    26243102.036 4 102983598.85704     -2938.413 4        29.829    26243101.246 5 105670093.16905     -3014.504 5        35.557
E05        21.000    21932319.798 6 115255160.65906      -264.513 6        36.862                                                                    21932321.525 8  86067196.49808      -197.440 8        48.342    21932322.409 7  88312414.91807      -202.662 7        47.011
R07        23.000    19486376.415 7 104312187.74507      -728.595 7        44.728                                                                    19486372.637 6  81131627.55506      -566.721 6        40.994
S23        24.000    38146176.944 6 200459425.50406      -822.573 6        39.766
S36        25.000    38205719.572 5 200772425.38905      -827.109 5        34.743
G11        26.000    22251500.336 7 116932516.01307       182.931 7        44.215                                    22251488.374 3  91116168.74903       142.539 3        20.595    22251494.006 6  91116129.75306       142.584 6        36.790
E03        27.000                                                                                                                                    26566233.473 6 104251596.32106      1120.533 6        38.456    26566283.356 5                      1149.495 5        30.128
R15        28.000    24528123.042 3                     -4687.160 3        23.924
R06        29.000    21302296.444 6 113673136.24506     -3401.760 6        40.508
R24        31.000    23708307.264 6 126778905.41016      2340.838 6        39.459                                                                    23708335.116 4                      1820.632 4        27.976
R09        32.000                                                                                                                                    20936238.982 5  86954318.80705      1583.950 5        35.252
C19        33.000                                                                                                                                    22304014.305 7 116142863.69507     -1920.259 7        42.008                                                                    22304011.825 7  94375556.03207     -1560.385 7        44.975
R08        35.000    21548815.772 7 115392927.99707      1863.011 7        43.746                                                                    21548819.058 6  89750051.07506      1449.019 6        40.629
R22        37.000    21820049.581 6 116477037.48506     -4401.236 6        36.219                                                                    21820049.897 4  90593160.09904     -3423.254 4        29.716
R16        39.000    21190723.244 6 113197120.31006     -1976.613 6        39.970
C06        41.000                                                                                                                                    39293150.724 4                     -1819.908 4        24.662    39293150.592 5 158217218.18405     -1406.751 5        32.916    39293138.853 4                     -1478.185 4        24.060
C36        42.000                                                                                                                                    24041078.103 7 125188452.66607      2182.921 7        42.955                                                                    24041081.298 6 101725694.37306      1773.880 6        38.486
R23        44.000    21047806.853 5 112591895.79305     -1355.448 5        35.462
C16        45.000                                                                                                                                                                                                    39873866.253 4 160555570.73304     -1414.921 4        27.210
C09        46.000                                                                                                                                    38845897.353 6 202280802.60406     -1447.605 6        41.292    38845902.970 6 156416283.72906     -1119.117 6        38.730    38845889.332 5                     -1176.236 5        30.747
C21        47.000                                                                                                                                    26817422.373 5 139645364.24505      2025.912 5        34.605
C44        48.000                                                                                                                                    24666563.555 5 128445110.00205     -2562.096 5        30.823                                                                    24666542.087 6 104372244.14306     -2081.597 6        37.584
C37        49.000                                                                                                                                    25812266.080 4                     -3146.294 4        26.515
C22        50.000                                                                                                                                    22351597.512 6 116390614.36306       822.900 6        36.348                                                                    22351595.305 6  94576936.04406       668.852 6        40.172
C35        51.000                                                                                                                                    25955472.953 4                     -3851.136 4        27.257
C11        52.000                                                                                                                                                                                                    26808316.357 5 107946061.76105       960.913 5        30.498
C12        56.000                                                                                                                                    24818128.884 3                     -1233.555 3        22.590                                                                    24818106.390 6 105013526.32316     -1001.161 6        36.023
I01        59.000   339119896.651 5  27638520.06105     -3123.339 5        33.581
I06        60.000    37972277.691 6 149011384.45606      -586.514 6        36.170
> 2025 01 01 04 31  0.0000000  0 40
G30         3.000    23651550.337 5 124289774.59305      2648.126 5        31.419                                    23651545.506 3  96849115.05803      2063.477 3        20.595    23651549.065 5  96849144.09605      2063.496 5        32.784
G07         5.000    21457858.306 7 112761824.49907      1060.905 7        43.962                                    21457853.806 5  87866359.05205       826.681 5        31.894    21457851.378 5  87866316.04905       826.609 5        32.012
E34         6.000    24244298.391 7 127404656.79907     -1792.636 7        42.125                                                                    24244298.815 6  95139883.38406     -1338.524 6        40.491    24244302.930 5  97621761.68205     -1373.565 5        35.124
G09         9.000    20118245.845 8 105722090.47608     -1643.570 8        50.222                                    20118243.385 8  82380860.37708     -1280.705 8        51.170    20118243.470 7  82380851.37407     -1280.683 7        46.050
G20        10.000    23189767.456 7 121863012.17207      2382.005 7        44.930                                    23189757.687 3  94958230.45903      1856.108 3        22.648
G04        11.000    21509489.530 6 113033191.45606     -3124.503 6        40.105                                    21509485.981 2  88077795.64902     -2434.667 2        15.762    21509486.289 5  88077744.57905     -2434.645 5        35.371
E09        12.000    24848704.151 7 130580774.88307     -2627.988 7        45.193                                                                    24848703.029 8  97511713.91408     -1962.369 8        48.588    24848701.847 7 100055474.70007     -2013.551 7        46.391
E31        13.000                                                                                                                                    26788968.051 4                       557.647 4        25.865
E06        14.000    26515679.332 4 139340835.83604     -3213.309 4        29.943                                                                    26515691.336 5 104053232.37805     -2399.569 5        33.018    26515677.585 5 106767715.54705     -2461.982 5        32.623
E15        16.000    26101998.544 7 137166911.07707      1013.059 7        46.067                                                                    26101998.683 7 102429886.38507       756.563 7        46.214    26101996.787 7 105101987.05507       776.123 7        44.178
G06        19.000    21564810.289 7 113324016.93807     -2457.367 7        47.534                                    21564808.203 7  88304427.52007     -1914.831 7        43.416    21564809.688 7  88304316.53707     -1914.749 7        43.281
E36        20.000    26246845.356 5 137928115.10905     -3935.488 5        34.690                                                                    26246850.212 5 102998291.28705     -2938.925 5        31.721    26246845.233 5 105685168.81405     -3015.329 5        35.524
E05        21.000    21932572.404 6 115256486.01306      -265.937 6        36.057                                                                    21932573.678 8  86068186.21408      -198.430 8        48.611    21932574.616 7  88313430.44907      -203.631 7        47.074
R07        23.000    19487057.158 7 104315835.55407      -730.655 7        45.264                                                                    19487055.368 6  81134464.75306      -568.338 6        40.443
S23        24.000    38146958.132 6 200463538.04606      -822.517 6        40.167
S36        25.000    38206504.870 5 200776560.39505      -826.985 5        34.729
G11        26.000    22251326.720 7 116931609.75207       179.683 7        42.336                                    22251316.225 3  91115462.57703       140.014 3        20.119    22251321.511 6  91115423.59206       139.835 6        38.015
E03        27.000    26564810.562 4 139599001.07304      1499.911 4        26.527                                                                    26564806.156 6 104245994.76506      1119.947 6        38.360    26564853.380 4                      1149.267 4        29.090
R06        29.000    21305484.189 6 113690148.68906     -3403.276 6        41.023
R24        31.000    23706121.248 6 126767207.75406      2338.142 6        37.826
R09        32.000    20934317.510 5 111788376.34705      2033.263 5        34.343                                                                    20934334.309 6  86946405.29206      1581.456 6        37.868
C19        33.000                                                                                                                                    22305859.496 7 116152469.10507     -1921.791 7        42.356                                                                    22305856.246 7  94383361.23407     -1561.663 7        44.787
C20        34.000                                                                                                                                    25657575.929 4 133605733.16704     -3516.055 4        26.599
R08        35.000    21547078.112 7 115383615.05407      1862.081 7        44.888                                                                    21547078.833 6  89742807.67606      1448.281 6        40.560
R22        37.000    21824173.233 5 116499049.91905     -4403.624 5        35.924                                                                    21824177.849 5  90610280.86105     -3425.214 5        30.974
R16        39.000    21192574.938 6 113207014.40506     -1981.177 6        40.236                                                                    21192571.897 6  88049938.60606     -1540.932 6        37.826
C06        41.000                                                                                                                                    39294896.669 4                     -1818.862 4        24.451    39294896.456 5 158224252.06605     -1406.960 5        32.922    39294885.187 4                     -1477.558 4        24.030
C36        42.000                                                                                                                                    24038982.673 7 125177540.44707      2181.895 7        43.113                                                                    24038985.812 6 101716827.28206      1773.070 6        38.495
R23        44.000    21049076.533 5 112598685.66405     -1360.586 5        33.742
C16        45.000                                                                                                                                                                                                    39875622.161 4 160562640.64004     -1414.050 4        27.677
C09        46.000                                                                                                                                    38847287.137 6 202288041.08806     -1448.003 6        41.611    38847292.338 6 156421881.02306     -1119.853 6        38.604    38847279.362 5                     -1176.628 5        30.989
C21        47.000                                                                                                                                    26815476.192 5 139635235.13705      2025.657 5        34.490
C44        48.000                                                                                                                                    24669017.081 4 128457923.98004     -2563.692 4        28.626                                                                    24669003.132 6 104382656.56006     -2083.373 6        37.501
C37        49.000                                                                                                                                    25815289.145 4                     -3149.005 4        26.766
C22        50.000                                                                                                                                    22350809.537 6 116386501.65306       821.986 6        39.535                                                                    22350805.354 6  94573594.18006       667.749 6        40.021
C35        51.000                                                                                                                                    25959168.248 4                     -3851.219 4        29.384
C11        52.000                                                                                                                                                                                                    26807124.004 5 107941259.97205       959.271 5        31.177
C12        56.000                                                                                                                                                                                                    24819230.613 3                      -955.242 3        23.543    24819291.063 6 105018537.57206     -1003.282 6        36.045
I01        59.000   339123877.227 5  27654136.83005     -3123.501 5        33.377
I06        60.000    37973026.317 5 149014318.73605      -586.897 5        35.886
> 2025 01 01 04 31  5.0000000  0 41
G30         3.000    23649029.846 5 124276534.85105      2647.940 5        31.215                                    23649026.323 3  96838798.36803      2063.321 3        20.548    23649029.469 5  96838827.39005      2063.449 5        32.742
G07         5.000    21456850.387 7 112756525.18607      1058.899 7        43.843                                    21456844.896 5  87862229.71405       825.120 5        30.558    21456844.887 4  87862186.69104       825.266 4        29.156
E34         6.000    24246004.943 7 127413625.39307     -1794.754 7        42.030                                                                    24246005.931 6  95146580.73206     -1340.219 6        40.567    24246011.016 6  97628633.72106     -1375.304 6        36.715
G03         8.000    23956638.600 5                     -4309.836 5        30.438
G09         9.000    20119810.468 8 105730312.90608     -1645.267 8        50.007                                    20119808.122 8  82387267.46908     -1282.025 8        50.926    20119808.361 7  82387258.45707     -1281.967 7        46.088
G20        10.000    23187501.384 7 121851103.90407      2381.467 7        45.147                                    23187491.482 3  94948951.30703      1855.682 3        22.857
G04        11.000    21512462.430 6 113048816.64706     -3125.497 6        41.058                                    21512459.337 2  88089971.13602     -2435.448 2        15.476    21512459.890 5  88089920.06505     -2435.698 5        34.210
E09        12.000    24851204.954 7 130593915.85807     -2628.372 7        44.993                                                                    24851203.648 8  97521526.98808     -1962.729 8        48.677    24851202.471 7 100065543.76507     -2013.910 7        46.319
E31        13.000                                                                                                                                    26788252.905 4                       555.527 4        26.599
E06        14.000    26518736.126 4 139356901.37004     -3213.148 4        29.545                                                                    26518748.691 5 104065229.35805     -2399.365 5        33.269    26518734.352 5 106780025.49405     -2461.709 5        32.617
E15        16.000    26101035.344 7 137161850.18407      1011.409 7        46.258                                                                    26101035.512 7 102426107.14907       755.330 7        46.155    26101033.912 7 105098109.22607       774.955 7        44.497
G06        19.000    21567149.714 7 113336310.87507     -2460.141 7        47.120                                    21567148.167 7  88314007.20507     -1916.991 7        43.915    21567149.435 7  88313896.21107     -1917.039 7        43.814
E36        20.000    26250589.562 5 137947794.25705     -3936.025 5        35.738                                                                    26250597.757 5 103012986.75205     -2939.241 5        32.473    26250590.157 5 105700247.66005     -3016.175 5        35.343
E05        21.000    21932826.862 6 115257817.47906      -266.868 6        36.215                                                                    21932827.027 8  86069180.49208      -199.184 8        48.819    21932827.836 7  88314450.65707      -204.350 7        47.212
R07        23.000    19487740.935 7 104319493.37707      -732.379 7        45.660                                                                    19487738.489 6  81137309.70006      -569.579 6        40.610
S23        24.000    38147742.048 6 200467650.53806      -822.302 6        40.105
S36        25.000    38207293.007 5 200780694.68005      -826.505 5        34.471
G11        26.000    22251155.745 6 116930719.79906       176.480 6        40.057                                    22251147.279 3  91114769.13303       137.513 3        19.075    22251151.062 6  91114730.12606       137.613 6        38.120
E03        27.000    26563391.340 4 139591502.80204      1499.675 4        25.880                                                                    26563379.377 6 104240395.33506      1119.902 6        38.087    26563426.892 4                      1149.033 4        27.952
R06        29.000    21308674.242 6 113707167.45306     -3404.251 6        41.209
R24        31.000    23703935.344 6 126755524.07616      2335.586 6        37.085                                                                    23703936.676 4                      1816.637 4        28.009
R09        32.000                                                                                                                                    20932433.850 6  86938504.28806      1579.182 6        39.946
C19        33.000                                                                                                                                    22307704.849 7 116162081.57607     -1923.090 7        42.125                                                                    22307702.038 7  94391172.17007     -1562.685 7        44.546
C20        34.000                                                                                                                                    25660957.652 4 133623313.18504     -3515.750 4        27.174
R08        35.000    21545341.214 7 115374306.64707      1861.383 7        44.843                                                                    21545339.820 6  89735567.79106      1447.880 6        41.216
R22        37.000    21828301.006 5 116521074.11005     -4405.618 5        35.424                                                                    21828303.226 4  90627410.76704     -3426.924 4        29.488
R16        39.000    21194432.366 7 113216930.57007     -1985.288 7        42.290                                                                    21194431.208 6  88057651.13406     -1544.144 6        38.637
C06        41.000                                                                                                                                    39296641.317 4                     -1819.071 4        24.316    39296643.380 5 158231286.70005     -1407.028 5        32.407    39296632.536 3                     -1478.364 3        23.790
C36        42.000                                                                                                                                    24036887.790 7 125166634.22207      2180.759 7        42.083                                                                    24036891.448 6 101707965.09406      1771.879 6        38.589
R23        44.000    21050347.707 4 112605498.67004     -1364.820 4        29.640
C16        45.000                                                                                                                                                                                                    39877378.529 4 160569711.12204     -1413.677 4        27.269
C09        46.000                                                                                                                                    38848677.365 6 202295281.19706     -1447.887 6        41.337    38848682.800 6 156427479.51206     -1119.750 6        38.492    38848669.232 5                     -1176.659 5        31.026
C21        47.000                                                                                                                                    26813530.688 5 139625105.71905      2026.208 5        33.557
C44        48.000                                                                                                                                    24671475.868 5 128470748.28805     -2565.821 5        31.109                                                                    24671465.772 6 104393077.36406     -2085.111 6        37.550
C37        49.000                                                                                                                                    25818311.919 4 134442753.47714     -3150.002 4        27.042
C22        50.000                                                                                                                                    22350029.554 6 116382394.56906       821.087 6        40.851                                                                    22350016.256 6  94570256.85206       667.152 6        40.033
C35        51.000                                                                                                                                    25962865.855 5                     -3851.313 5        30.626
C11        52.000                                                                                                                                                                                                    26805933.312 5 107936465.99105       958.424 5        31.796
C12        56.000                                                                                                                                    24820477.925 5                     -1237.403 5        34.905                                                                    24820477.914 5 105023560.22905     -1005.488 5        35.510
I01        59.000   339127855.735 5  27669754.19905     -3123.352 5        32.725
I06        60.000    37973774.419 5 149017253.13105      -586.874 5        35.786
> 2025 01 01 04 31 10.0000000  0 41
G30         3.000    23646510.674 5 124263299.35805      2646.772 5        31.630                                    23646507.834 3  96828485.00003      2062.425 3        21.190    23646511.370 5  96828514.03405      2062.336 5        33.725
G07         5.000    21455843.968 7 112751237.02307      1056.405 7        42.732                                    21455837.668 4  87858109.05804       823.168 4        28.711    21455838.124 4  87858066.03704       823.755 4        26.958
E34         6.000    24247713.848 6 127422605.99606     -1797.384 6        41.628                                                                    24247715.458 6  95153287.04006     -1342.225 6        40.963    24247720.874 6  97635514.95206     -1377.203 6        37.527
G03         8.000    23960747.216 5                     -4310.865 5        31.208
G09         9.000    20121376.833 8 105738545.00308     -1647.332 8        49.648                                    20121374.630 8  82393682.09308     -1283.638 8        50.637    20121374.800 7  82393673.08907     -1283.709 7        45.776
G20        10.000    23185235.680 7 121839199.98007      2380.326 7        45.071                                    23185226.127 3  94939675.53303      1854.800 3        23.429
G04        11.000    21515436.470 7 113064447.74407     -3126.845 7        42.072                                    21515433.686 2  88102151.21502     -2436.485 2        15.762    21515433.678 5  88102100.08705     -2436.273 5        32.653
E09        12.000    24853706.161 7 130607060.07007     -2629.229 7        44.591                                                                    24853704.942 8  97531342.47308     -1963.352 8        48.845    24853703.618 7 100075615.30507     -2014.595 7        46.201
E31        13.000    26787529.158 4                       742.699 4        26.826
E06        14.000    26521798.835 5 139372967.86105     -3213.404 5        30.204                                                                    26521806.516 5 104077227.09805     -2399.542 5        32.251    26521791.811 5 106792336.22105     -2462.263 5        33.341
E15        16.000    26100073.811 7 137156798.76307      1009.303 7        46.484                                                                    26100074.162 7 102422334.98207       753.667 7        45.991    26100072.744 7 105094238.65507       773.310 7        44.605
G06        19.000    21569491.591 7 113348619.71807     -2463.289 7        47.151                                    21569490.877 7  88323598.50507     -1919.445 7        44.026    21569491.748 7  88323487.51507     -1919.422 7        43.617
E36        20.000    26254335.843 6 137967477.37706     -3937.112 6        36.567                                                                    26254343.917 5 103027685.19105     -2939.988 5        33.186    26254335.943 5 105715329.51505     -3016.933 5        35.086
E05        21.000    21933082.101 6 115259154.86406      -268.028 6        36.888                                                                    21933081.478 8  86070179.20308      -200.263 8        49.052    21933082.238 7  88315475.41507      -205.497 7        47.205
R07        23.000    19488425.759 7 104323160.89907      -734.569 7        45.296                                                                    19488423.633 6  81140162.21806      -571.380 6        40.841
S23        24.000    38148523.366 6 200471762.98406      -822.627 6        40.107
S36        25.000    38208076.395 5 200784828.48305      -826.790 5        34.557
G11        26.000    22250989.369 6 116929845.93606       173.107 6        38.273                                    22250981.547 3  91114088.21103       134.861 3        18.627    22250985.705 6  91114049.24006       134.893 6        38.766
E03        27.000    26561966.337 4 139584007.29804      1498.285 4        27.820                                                                    26561952.890 6 104234797.94406      1119.216 6        37.588    26561999.510 4                      1148.293 4        27.210
R15        28.000    24541308.869 3                     -4692.910 3        23.486
R06        29.000    21311864.654 6 113724192.33006     -3405.496 6        40.765
R24        31.000    23701757.229 6 126743854.07606      2332.692 6        37.172                                                                    23701758.334 4                      1814.167 4        29.052
R09        32.000    20930539.679 7 111768075.44807      2026.772 7        42.337                                                                    20930535.061 6  86930615.71306      1576.442 6        41.030
C19        33.000                                                                                                                                    22309551.126 7 116171700.92307     -1924.666 7        42.116                                                                    22309549.204 7  94398988.66607     -1563.953 7        44.445
R08        35.000    21543602.843 7 115365002.58507      1860.391 7        44.552                                                                    21543602.709 6  89728331.30806      1447.022 6        41.273
R22        37.000    21832429.598 5 116543109.88905     -4408.447 5        34.667                                                                    21832425.277 4  90644549.62104     -3428.892 4        28.796
R16        39.000    21196295.015 7 113226868.93107     -1989.856 7        42.893                                                                    21196293.995 6  88065380.95706     -1547.629 6        40.420
C06        41.000                                                                                                                                    39298391.412 4                     -1819.654 4        24.105    39298391.136 5 158238321.93705     -1406.917 5        32.407    39298378.826 4                     -1478.056 4        25.444
C36        42.000                                                                                                                                    24034794.032 6 125155733.81406      2179.538 6        39.441                                                                    24034798.212 6 101699107.58806      1770.992 6        38.291
R23        44.000    21051624.978 4 112612334.83304     -1369.555 4        28.389
C16        45.000                                                                                                                                    39879134.529 4                     -1828.901 4        27.533    39879133.315 4 160576782.04804     -1414.771 4        28.303
C09        46.000                                                                                                                                    38850067.864 6 202302522.79406     -1448.528 6        41.306    38850073.313 6 156433079.17306     -1120.007 6        38.291    38850059.495 5                     -1177.049 5        30.966
C21        47.000                                                                                                                                    26811589.185 5 139614975.92505      2025.880 5        32.365
C44        48.000                                                                                                                                    24673945.486 5 128483582.76605     -2568.149 5        34.529                                                                    24673930.240 6 104403506.36706     -2086.909 6        37.059
C37        49.000                                                                                                                                    25821337.051 4 134458508.69604     -3151.549 4        29.033
C22        50.000                                                                                                                                    22349251.599 6 116378292.94806       819.728 6        40.701                                                                    22349228.239 6  94566923.90906       665.927 6        39.339
C35        51.000                                                                                                                                    25966564.035 5                     -3851.430 5        30.913
C11        52.000                                                                                                                                                                                                    26804746.536 5 107931679.87105       956.359 5        32.359
C12        56.000                                                                                                                                    24821668.502 6                     -1240.139 6        37.520                                                                    24821667.310 5 105028593.99505     -1008.103 5        33.910
I01        59.000   339131836.303 5  27685372.08405     -3123.788 5        33.467
I06        60.000    37974521.847 5 149020187.50905      -586.958 5        35.905
> 2025 01 01 04 31 15.0000000  0 41
G30         3.000    23643992.649 5 124250068.71705      2645.863 5        32.725                                    23643990.181 3  96818175.39303      2061.713 3        22.000    23643992.497 5  96818204.42905      2061.458 5        34.100
G07         5.000    21454839.424 6 112745960.61106      1054.119 6        41.466                                    21454832.411 4  87853997.56004       821.390 4        26.455    21454834.110 4  87853954.55904       821.608 4        28.578
E34         6.000    24249425.209 6 127431599.20806     -1799.964 6        41.387                                                                    24249427.932 6  95160002.77606     -1344.157 6        41.664    24249432.604 6  97642405.86406     -1379.302 6        38.547
G03         8.000    23964851.955 5                     -4311.741 5        31.117
G09         9.000    20122944.920 8 105746787.41408     -1649.557 8        49.376                                    20122943.007 8  82400104.75208     -1285.372 8        50.251    20122942.854 7  82400095.75507     -1285.373 7        45.297
G20        10.000    23182971.311 7 121827300.99907      2379.269 7        44.689                                    23182962.180 3  94930403.60803      1853.978 3        23.867
G04        11.000    21518412.280 7 113080085.37907     -3128.281 7        42.906                                    21518409.068 2  88114336.39902     -2437.631 2        16.075    21518409.105 5  88114285.29105     -2437.663 5        31.275
E09        12.000    24856208.113 7 130620208.13707     -2630.006 7        44.290                                                                    24856206.953 8  97541160.83808     -1963.959 8        48.743    24856205.608 7 100085689.79707     -2015.236 7        45.980
E31        13.000    26786830.780 4                       740.380 4        28.142                                                                    26786824.986 4                       553.040 4        26.407
E06        14.000                                                                                                                                    26524865.089 5 104089226.03905     -2399.740 5        31.570    26524849.438 5 106804648.15605     -2462.558 5        32.880
E15        16.000    26099114.420 7 137151757.47507      1007.178 7        46.668                                                                    26099114.659 7 102418570.38307       752.140 7        45.667    26099113.435 7 105090375.85107       771.747 7        44.767
G06        19.000    21571836.652 7 113360944.11807     -2466.404 7        47.360                                    21571836.386 7  88333201.92707     -1921.874 7        43.769    21571836.538 7  88333090.93307     -1921.859 7        42.825
E36        20.000    26258083.900 6 137987165.03606     -3937.993 6        37.399                                                                    26258090.335 5 103042387.03605     -2940.857 5        33.407    26258082.307 5 105730414.84405     -3017.481 5        34.519
E05        21.000    21933337.583 6 115260498.85806      -269.584 6        38.429                                                                    21933337.174 8  86071182.81208      -201.232 8        48.941    21933337.830 7  88316505.20807      -206.590 7        47.256
R07        23.000    19489112.348 7 104326839.01707      -736.707 7        44.840                                                                    19489110.281 6  81143022.97606      -572.955 6        40.975
S23        24.000    38149307.514 6 200475875.85206      -822.565 6        40.060
S36        25.000    38208864.697 5 200788962.24505      -826.715 5        34.738
G11        26.000    22250830.900 6 116928988.81906       169.698 6        36.582                                    22250819.075 2  91113420.34802       132.231 2        17.283    22250822.860 6  91113381.37806       132.220 6        39.189
E03        27.000    26560539.786 4 139576515.11904      1497.113 4        27.665                                                                    26560527.069 6 104229203.04106      1118.842 6        37.301    26560568.323 4                      1147.550 4        28.133
R15        28.000    24545702.417 3                     -4695.070 3        23.829
R06        29.000    21315055.582 6 113741223.94006     -3407.111 6        40.305
R24        31.000                                                                                                                                    23699586.020 5                      1812.200 5        30.581
R09        32.000    20928642.805 7 111757949.54207      2023.349 7        42.624                                                                    20928637.976 7  86922740.01707      1573.766 7        42.442
C19        33.000                                                                                                                                    22311399.958 7 116181327.74207     -1926.174 7        42.701                                                                    22311397.954 7  94406811.27307     -1565.171 7        44.426
C20        34.000                                                                                                                                    25667729.378 5 133658480.95405     -3517.634 5        30.355
R08        35.000    21541865.784 7 115355703.69907      1859.233 7        46.214                                                                    21541867.445 6  89721098.86706      1446.083 6        41.139
R22        37.000    21836559.347 5 116565157.87405     -4410.899 5        33.725                                                                    21836554.200 5  90661698.00005     -3430.758 5        30.453
R16        39.000    21198159.432 6 113236829.72106     -1994.404 6        41.998                                                                    21198159.420 7  88073128.24507     -1551.308 7        42.273
C06        41.000                                                                                                                                    39300140.478 4                     -1818.690 4        24.556    39300139.247 5 158245358.27105     -1407.579 5        32.162    39300126.609 4                     -1479.034 4        24.211
C36        42.000                                                                                                                                    24032701.921 5 125144839.91705      2178.105 5        35.052                                                                    24032706.329 6 101690255.37306      1769.874 6        37.955
R23        44.000    21052911.920 5 112619194.81405     -1374.378 5        33.377
C16        45.000                                                                                                                                    39880895.494 4                     -1829.031 4        27.485    39880889.203 4 160583853.84604     -1414.867 4        28.445
C09        46.000                                                                                                                                    38851459.486 6 202309766.55506     -1449.022 6        41.199    38851463.673 6 156438680.52906     -1120.529 6        38.198    38851450.434 5                     -1177.429 5        30.762
C21        47.000                                                                                                                                    26809647.080 5 139604846.22305      2026.127 5        31.109
C44        48.000                                                                                                                                    24676418.959 5 128496427.91705     -2570.201 5        35.652                                                                    24676396.644 6 104413944.09006     -2088.611 6        36.518
C22        50.000                                                                                                                                    22348468.309 6 116374197.35106       818.488 6        40.238                                                                    22348441.380 6  94563595.90606       665.030 6        38.745
C35        51.000                                                                                                                                    25970264.571 5                     -3851.879 5        30.581
C11        52.000                                                                                                                                                                                                    26803558.891 5 107926901.81405       954.626 5        31.087
C12        56.000                                                                                                                                    24822862.707 6 129259141.05416     -1243.417 6        39.444                                                                    24822859.266 5 105033639.48205     -1010.393 5        32.000
I01        59.000   339135816.764 5  27700990.85805     -3123.853 5        33.623
I06        60.000    37975269.126 6 149023122.39306      -587.034 6        36.193
> 2025 01 01 04 31 20.0000000  0 41
G30         3.000    23641477.911 5 124236842.82405      2644.631 5        33.635                                    23641473.717 3  96807869.50003      2060.749 3        22.933    23641475.945 5  96807898.52405      2061.000 5        34.267
G07         5.000    21453836.777 6 112740695.86806      1051.821 6        39.024                                    21453829.292 4  87849895.15704       819.599 4        24.241    21453834.380 5  87849852.13705       819.691 5        30.060
E34         6.000    24251138.993 6 127440604.97006     -1802.447 6        41.139                                                                    24251142.457 7  95166727.86707     -1345.923 7        42.347    24251146.429 6  97649306.38606     -1381.039 6        39.066
G03         8.000    23968953.269 5                     -4312.423 5        31.306
G09         9.000    20124515.385 8 105755040.04908     -1651.572 8        48.956                                    20124513.257 8  82406535.38108     -1286.941 8        49.945    20124513.452 7  82406526.37207     -1286.928 7        44.927
G20        10.000    23180707.985 7 121815406.85307      2378.336 7        44.846                                    23180699.343 4  94921135.44704      1853.245 4        24.466
G04        11.000    21521389.644 7 113095729.45807     -3129.555 7        43.522                                    21521385.791 2  88126526.58502     -2438.585 2        16.755    21521388.330 5  88126475.44905     -2438.884 5        30.362
E09        12.000    24858710.887 7 130633359.98607     -2630.714 7        43.740                                                                    24858709.694 8  97550982.02508     -1964.522 8        48.666    24858708.379 7 100095767.18607     -2015.751 7        45.728
E31        13.000    26786132.241 4                       738.707 4        27.593                                                                    26786122.856 4                       551.789 4        25.835
E06        14.000    26527948.027 5 139405105.53805     -3214.086 5        32.491                                                                    26527925.069 5 104101226.19105     -2400.538 5        31.125    26527907.757 5 106816961.28105     -2462.508 5        33.018
E15        16.000    26098156.844 7 137146726.23307      1005.193 7        46.833                                                                    26098157.021 7 102414813.29307       750.678 7        45.479    26098156.025 7 105086520.73907       770.325 7        45.064
G06        19.000    21574184.985 7 113373283.98007     -2469.559 7        46.989                                    21574184.655 7  88342817.39607     -1924.328 7        43.477    21574184.430 6  88342706.40806     -1924.416 6        41.621
E36        20.000    26261832.159 6 138006857.21206     -3939.024 6        37.909                                                                    26261838.392 5 103057092.21305     -2941.442 5        33.928    26261829.506 5 105745503.65905     -3018.264 5        33.796
E05        21.000    21933594.330 6 115261849.28506      -270.802 6        39.703                                                                    21933594.086 8  86072191.26708      -202.166 8        49.008    21933594.489 7  88317539.96307      -207.480 7        47.255
R07        23.000    19489802.387 7 104330527.29007      -738.676 7        44.390                                                                    19489799.871 6  81145891.64706      -574.518 6        41.590
S23        24.000    38150087.222 6 200479988.83906      -822.532 6        40.410
S36        25.000    38209649.954 5 200793096.27805      -826.851 5        34.838
G11        26.000    22250676.267 6 116928148.34406       166.520 6        36.321                                    22250659.577 2  91112765.48102       129.719 2        17.660    22250662.719 6  91112726.51506       129.665 6        39.267
E03        27.000    26559109.099 4 139569026.25304      1497.280 4        29.137                                                                    26559101.736 6 104223610.60006      1118.300 6        37.138    26559139.769 4                      1147.449 4        29.251
R15        28.000    24550101.358 4                     -4696.175 4        24.301
R06        29.000    21318247.832 6 113758262.17706     -3408.372 6        39.159
R24        31.000    23697424.882 5 126720557.17215      2326.970 5        35.171                                                                    23697414.734 5                      1809.710 5        32.251
R09        32.000    20926745.826 7 111747840.11007      2020.113 7        42.277                                                                    20926744.856 7  86914877.16007      1571.173 7        42.899
C19        33.000                                                                                                                                    22313250.763 7 116190961.99907     -1927.659 7        42.753                                                                    22313248.196 7  94414639.90907     -1566.378 7        44.590
C20        34.000                                                                                                                                    25671103.444 5 133676069.05805     -3517.876 5        30.219
R08        35.000    21540132.648 7 115346409.74707      1858.237 7        45.854                                                                    21540132.267 6  89713870.21406      1445.350 6        41.928
R22        37.000    21840690.490 4 116587217.84704     -4413.358 4        29.934                                                                    21840687.372 5  90678855.74605     -3432.722 5        30.762
R16        39.000    21200026.851 6 113246813.24906     -1998.895 6        41.480                                                                    21200029.792 7  88080893.18207     -1554.686 7        44.146
C06        41.000                                                                                                                                    39301888.918 3                     -1820.158 3        23.714    39301887.592 5 158252395.65405     -1407.518 5        31.992    39301873.381 3                     -1479.674 3        23.638
C36        42.000                                                                                                                                                                                                                                                                    24030615.378 6 101681408.31006      1768.935 6        37.410
R23        44.000    21054202.485 6 112626078.54006     -1379.143 6        38.688
C16        45.000                                                                                                                                    39882652.091 4                     -1829.738 4        27.377    39882647.382 4 160590926.37304     -1414.283 4        28.502
C09        46.000                                                                                                                                    38852850.673 6 202317012.31306     -1449.457 6        40.918    38852856.013 6 156444283.39106     -1120.644 6        38.006    38852841.712 5                     -1177.798 5        30.808
C21        47.000                                                                                                                                    26807701.582 4 139594716.70604      2025.685 4        28.246
C44        48.000                                                                                                                                    24678888.405 5 128509283.68005     -2572.119 5        33.491                                                                    24678865.203 5 104424390.46805     -2090.258 5        35.633
C22        50.000                                                                                                                                                                                                                                                                    22347655.574 6  94560272.75206       664.167 6        38.108
C35        51.000                                                                                                                                    25973965.983 4                     -3852.276 4        29.393
C11        52.000                                                                                                                                    26802382.236 5                      1232.501 5        31.162    26802375.262 5 107922131.96305       953.063 5        32.222
C12        56.000                                                                                                                                    24824059.856 6 129265364.57206     -1246.057 6        39.673                                                                    24824052.950 4 105038696.57204     -1012.668 4        28.919
I01        59.000   339139796.729 5  27716610.58305     -3123.917 5        33.892
I06        60.000    37976017.944 6 149026057.71706      -587.336 6        36.302
> 2025 01 01 04 31 25.0000000  0 41
G30         3.000    23638961.766 5 124223621.27605      2643.612 5        34.600                                    23638958.269 4  96797567.00404      2059.972 4        24.105    23638959.001 5  96797596.02805      2059.901 5        34.181
G07         5.000    21452835.946 6 112735442.37006      1049.505 6        36.786                                    21452828.481 3  87845801.52703       817.781 3        21.357    21452831.514 4  87845758.48804       818.264 4        29.365
E34         6.000    24252855.449 6 127449622.79806     -1805.074 6        41.116                                                                    24252858.710 7  95173461.97607     -1347.808 7        42.535    24252861.880 6  97656216.16906     -1382.968 6        39.592
G03         8.000    23973057.580 5                     -4313.291 5        31.879
G09         9.000    20126087.667 8 105763302.45908     -1653.658 8        48.073                                    20126085.345 8  82412973.62108     -1288.568 8        49.268    20126085.610 7  82412964.61407     -1288.503 7        44.814
G20        10.000    23178445.921 7 121803517.14907      2377.283 7        44.710                                    23178437.551 4  94911870.75104      1852.429 4        24.812
G04        11.000    21524367.743 7 113111379.52707     -3130.827 7        44.072                                    21524363.503 3  88138721.44603     -2439.596 3        18.030    21524363.855 5  88138670.35405     -2439.507 5        30.219
E09        12.000    24861214.085 7 130646515.14807     -2631.625 7        43.344                                                                    24861213.026 8  97560805.68908     -1965.107 8        48.400    24861211.617 7 100105847.11607     -2016.365 7        45.592
E31        13.000    26785429.601 4                       736.463 4        26.539                                                                    26785419.698 4                       549.356 4        24.226
E06        14.000    26531007.805 5 139421176.22205     -3213.857 5        32.228                                                                    26530985.863 5 104113227.11405     -2400.843 5        30.717    26530965.947 5 106829275.25405     -2462.976 5        33.066
E15        16.000    26097201.131 7 137141704.60107      1003.138 7        47.172                                                                    26097201.278 7 102411063.37607       749.166 7        45.106    26097200.637 7 105082672.99607       768.661 7        45.264
G06        19.000    21576535.852 7 113385638.86207     -2472.632 7        46.403                                    21576535.610 7  88352444.57107     -1926.726 7        42.785    21576535.665 6  88352333.58106     -1926.812 6        40.772
E36        20.000    26265581.269 6 138026553.40106     -3939.934 6        38.574                                                                    26265587.069 5 103071800.40605     -2941.698 5        33.102    26265577.560 5 105760595.54705     -3018.969 5        33.461
E05        21.000    21933852.655 6 115263205.76006      -272.156 6        41.154                                                                    21933852.150 8  86073204.22208      -203.178 8        48.828    21933852.319 7  88318579.33807      -208.472 7        47.276
R07        23.000    19490494.522 7 104334225.62207      -740.930 7        45.583                                                                    19490491.658 6  81148768.12906      -576.157 6        41.723
S23        24.000    38150872.399 6 200484101.70706      -822.707 6        40.479
S36        25.000    38210438.015 5 200797230.00905      -826.978 5        35.124
G11        26.000    22250521.737 5 116927324.16105       162.993 5        35.867                                    22250502.954 2  91112123.30602       126.993 2        16.641    22250505.985 6  91112084.31506       127.038 6        38.751
E03        27.000    26557674.576 5 139561540.05605      1496.422 5        30.611                                                                    26557677.438 6 104218020.24006      1117.720 6        37.372    26557713.286 5                      1147.196 5        30.136
R15        28.000    24554502.181 3                     -4698.480 3        23.695
R06        29.000    21321441.931 6 113775306.61506     -3409.741 6        38.871
R24        31.000    23695249.980 5 126708929.85705      2324.094 5        32.497                                                                    23695238.244 5                      1807.417 5        31.917
R09        32.000    20924853.406 7 111737746.81707      2016.903 7        42.483                                                                    20924854.329 7  86907026.84807      1568.657 7        43.173
C19        33.000                                                                                                                                    22315102.507 7 116200603.20507     -1929.138 7        43.082                                                                    22315099.883 7  94422474.18007     -1567.572 7        44.855
C20        34.000                                                                                                                                    25674476.915 4 133693659.59704     -3518.863 4        28.787
R08        35.000    21538397.207 7 115337120.37107      1857.330 7        43.858                                                                    21538398.097 6  89706645.15706      1444.561 6        41.395
R22        37.000    21844824.272 4 116609289.57404     -4415.370 4        26.790                                                                    21844822.564 5  90696022.52505     -3434.168 5        31.713
R16        39.000    21201899.150 6 113256818.82206     -2003.605 6        39.117                                                                    21201903.367 7  88088675.29907     -1558.261 7        45.296
C06        41.000                                                                                                                                    39303638.306 4                     -1821.428 4        24.241    39303635.666 5 158259433.73105     -1407.980 5        31.389    39303621.168 4                     -1480.758 4        24.496
C36        42.000                                                                                                                                                                                                                                                                    24028525.917 6 101672566.06806      1767.883 6        36.473
R23        44.000    21055494.283 6 112632985.45206     -1383.713 6        39.556
C16        45.000                                                                                                                                    39884407.770 4                     -1829.171 4        26.742    39884404.077 4 160597999.41304     -1414.827 4        28.464
C09        46.000                                                                                                                                    38854242.652 6 202324259.59406     -1449.804 6        40.753    38854249.189 6 156449887.43706     -1120.873 6        37.580    38854233.366 5                     -1177.869 5        30.770
C44        48.000                                                                                                                                                                                                                                                                    24681335.564 5 104434845.12205     -2092.062 5        34.262
C37        49.000                                                                                                                                    25830455.713 5 134505833.36305     -3158.036 5        33.659
C22        50.000                                                                                                                                    22346873.464 6 116366023.62806       816.013 6        38.477                                                                    22346870.577 6  94556954.06006       663.153 6        37.255
C35        51.000                                                                                                                                    25977669.296 4                     -3851.795 4        27.509
C11        52.000                                                                                                                                    26801200.024 5                      1230.458 5        31.404    26801192.281 5 107917369.74205       951.409 5        30.951
C12        56.000                                                                                                                                    24825256.116 6 129271601.94706     -1248.974 6        38.997                                                                    24825246.593 4 105043764.85004     -1014.231 4        26.395
I01        59.000   339143777.484 5  27732230.87805     -3124.443 5        33.904
I06        60.000    37976766.685 6 149028993.04406      -587.390 6        36.181
> 2025 01 01 04 31 30.0000000  0 41
G30         3.000    23636446.772 5 124210403.99605      2643.168 5        35.195                                    23636443.562 4  96787267.81504      2059.617 4        25.053    23636444.028 5  96787296.86305      2059.481 5        34.443
G07         5.000    21451837.783 5 112730200.05905      1047.433 5        34.433                                    21451829.811 3  87841716.62803       816.178 3        18.388    21451833.419 4  87841673.65504       815.848 4        29.137
E34         6.000    24254574.107 6 127458652.66106     -1807.043 6        40.951                                                                    24254576.344 7  95180205.06207     -1349.500 7        42.499    24254579.051 6  97663135.16706     -1384.661 6        40.191
G03         8.000    23977161.000 5                     -4313.911 5        31.970
G09         9.000    20127661.905 7 105771574.56707     -1655.409 7        47.609                                    20127659.343 8  82419419.42708     -1289.927 8        48.863    20127659.657 7  82419410.42307     -1289.941 7        44.656
G20        10.000    23176184.381 7 121791631.86307      2376.644 7        44.400                                    23176176.569 4  94902609.48304      1851.928 4        25.248
G04        11.000    21527347.424 7 113127035.52007     -3131.738 7        44.129                                    21527342.207 3  88150920.92103     -2440.335 3        19.284    21527343.388 4  88150869.84804     -2439.954 4        29.915
E09        12.000    24863718.189 7 130659673.56407     -2631.958 7        42.138                                                                    24863716.935 8  97570631.78208     -1965.446 8        48.305    24863715.459 7 100115929.53407     -2016.702 7        45.317
E31        13.000                                                                                                                                    26784717.331 4                       548.103 4        24.421
E06        14.000                                                                                                                                    26534047.734 5 104125228.80405     -2400.547 5        30.279    26534024.278 5 106841589.97005     -2463.123 5        32.437
E15        16.000    26096247.213 7 137136692.52807      1001.534 7        46.964                                                                    26096247.332 7 102407320.59507       747.940 7        44.838    26096246.967 7 105078832.58007       767.404 7        45.455
G06        19.000    21578889.615 7 113398008.66107     -2475.390 7        45.765                                    21578889.302 7  88362083.37107     -1928.876 7        42.345    21578889.695 6  88361972.37406     -1928.823 6        40.710
E36        20.000    26269330.374 6 138046253.51706     -3940.290 6        38.856                                                                    26269336.332 5 103086511.57205     -2942.716 5        32.838    26269325.839 5 105775690.44305     -3019.372 5        32.904
E05        21.000    21934111.869 7 115264568.19507      -272.974 7        42.423                                                                    21934111.442 8  86074221.62908      -203.935 8        48.835    21934111.216 7  88319623.28207      -209.194 7        47.267
R07        23.000    19491187.363 7 104337933.71207      -742.577 7        47.173                                                                    19491183.542 6  81151652.20306      -577.567 6        41.571
S23        24.000    38151655.438 6 200488214.48606      -822.524 6        40.768
S36        25.000    38211230.065 5 200801363.59005      -826.613 5        35.310
G11        26.000    22250366.787 5 116926516.13905       159.888 5        32.892                                    22250349.608 2  91111493.69902       124.574 2        16.943    22250352.338 6  91111454.70806       124.732 6        37.153
E03        27.000    26556251.220 5 139554056.59805      1496.236 5        32.383                                                                    26556253.624 6 104212431.94306      1117.461 6        37.497    26556289.016 4                      1146.544 4        29.621
R15        28.000    24558902.991 3                     -4700.931 3        23.429
R06        29.000    21324636.891 6 113792357.15506     -3410.550 6        39.267
R24        31.000                                                                                                                                    23693061.775 4                      1805.219 4        29.289
R09        32.000    20922966.429 6 111727669.63506      2013.913 6        41.988                                                                    20922967.232 7  86899189.04407      1566.322 7        42.906
C19        33.000                                                                                                                                    22316956.280 7 116210251.31107     -1930.328 7        44.385                                                                    22316952.914 7  94430314.07907     -1568.601 7        45.103
C20        34.000                                                                                                                                    25677851.000 4 133711252.32504     -3518.569 4        28.730
R08        35.000    21536659.868 7 115327835.39507      1856.544 7        42.880                                                                    21536664.275 6  89699423.51306      1443.997 6        40.489
R22        37.000    21848963.873 4 116631372.69404     -4417.034 4        28.171                                                                    21848960.016 5  90713198.27305     -3435.880 5        34.071
R16        39.000    21203773.502 5 113266846.33105     -2007.552 5        35.481                                                                    21203780.604 7  88096474.51007     -1561.468 7        45.314
C06        41.000                                                                                                                                    39305385.414 4                     -1820.284 4        25.429    39305384.280 5 158266472.43905     -1407.857 5        31.049    39305368.334 4                     -1479.044 4        24.211
C36        42.000                                                                                                                                    24026468.511 5                      2174.688 5        34.629                                                                    24026439.929 5 101663728.61105      1766.984 5        34.819
R23        44.000    21056786.359 6 112639915.47706     -1388.238 6        39.279
C16        45.000                                                                                                                                    39886163.696 4                     -1828.903 4        26.683    39886159.650 4 160605072.89904     -1414.597 4        28.076
C09        46.000                                                                                                                                    38855634.094 6 202331508.41106     -1449.925 6        40.634    38855641.394 6 156455492.70506     -1121.145 6        37.142    38855625.208 5                     -1178.416 5        30.528
C44        48.000                                                                                                                                    24683811.689 5 128535026.00905     -2576.499 5        30.566                                                                    24683807.506 5 104445307.93705     -2093.167 5        32.359
C37        49.000                                                                                                                                    25833485.732 5 134521626.96505     -3159.652 5        33.210
C22        50.000                                                                                                                                    22346093.899 6 116361944.97306       815.020 6        39.174                                                                    22346087.099 6  94553639.81806       662.229 6        36.393
C35        51.000                                                                                                                                    25981371.370 4                     -3851.952 4        24.556
C11        52.000                                                                                                                                    26800020.745 5                      1228.641 5        31.072    26800012.775 5 107912615.41205       950.044 5        31.396
C12        56.000                                                                                                                                    24826451.934 6 129277853.09106     -1251.522 6        37.943                                                                    24826441.582 4 105048844.34004     -1015.893 4        25.053
I01        59.000   339147758.685 5  27747851.63205     -3123.767 5        34.038
I06        60.000    37977513.762 6 149031928.42906      -587.052 6        36.378
> 2025 01 01 04 31 35.0000000  0 39
G30         3.000    23633932.874 5 124197190.96205      2642.082 5        35.938                                    23633929.755 4  96776971.94504      2058.771 4        25.188    23633929.442 5  96777000.94405      2058.849 5        34.176
G07         5.000    21450842.835 5 112724968.89105      1044.834 5        34.214                                    21450833.556 2  87837640.40502       814.161 2        15.429    21450835.402 4  87837597.41204       814.224 4        27.389
E34         6.000    24256294.637 6 127467694.45306     -1809.630 6        40.460                                                                    24256296.222 6  95186957.05606     -1351.394 6        41.836    24256299.390 6  97670063.30506     -1386.646 6        41.139
G03         8.000    23981264.559 5                     -4314.640 5        30.943
G09         9.000    20129238.093 7 105779856.28407     -1657.353 7        47.778                                    20129235.241 8  82425872.71508     -1291.439 8        48.549    20129235.994 7  82425863.70707     -1291.458 7        44.635
G20        10.000    23173923.651 7 121779750.87607      2375.744 7        43.987                                    23173916.504 4  94893351.56604      1851.234 4        25.895
G04        11.000    21530328.181 7 113142697.34207     -3132.994 7        43.991                                    21530322.070 3  88163124.92703     -2441.299 3        20.262    21530323.840 5  88163073.89205     -2441.146 5        31.185
E09        12.000    24866222.709 6 130672835.15106     -2632.760 6        40.725                                                                    24866221.434 8  97580460.23108     -1965.978 8        48.160    24866219.828 7 100126014.37307     -2017.238 7        44.880
E31        13.000    26784014.391 4                       732.985 4        26.515                                                                    26784018.931 4                       546.833 4        26.084
E06        14.000    26537102.638 5 139453320.78405     -3214.761 5        31.758                                                                    26537107.957 5 104137231.15205     -2400.515 5        30.234    26537082.837 5 106853905.38505     -2463.193 5        32.192
E15        16.000    26095294.997 7 137131689.91907       999.501 7        46.788                                                                    26095295.143 7 102403584.88607       746.373 7        44.704    26095295.116 7 105074999.40607       765.952 7        45.472
G06        19.000    21581246.161 7 113410393.30707     -2478.442 7        45.338                                    21581245.762 6  88371733.73706     -1931.252 6        41.778    21581246.946 6  88371622.74206     -1931.311 6        40.925
E36        20.000    26273079.486 6 138065957.52206     -3941.164 6        38.736                                                                    26273087.756 5 103101225.62605     -2943.326 5        32.443    26273074.425 5 105790788.28905     -3019.878 5        31.517
E05        21.000    21934371.849 7 115265936.51107      -274.298 7        43.065                                                                    21934371.774 8  86075243.42108      -204.864 8        48.788    21934371.205 7  88320671.73107      -210.130 7        47.136
R07        23.000    19491881.885 7 104341651.59507      -744.559 7        47.493                                                                    19491878.859 6  81154543.88806      -578.984 6        41.695
S23        24.000    38152436.357 6 200492326.88906      -822.547 6        41.046
S36        25.000    38212010.265 5 200805497.01805      -826.570 5        35.257
G11        26.000    22250219.432 4 116925724.16804       156.608 4        29.839                                    22250199.080 2  91110876.62702       122.014 2        15.000    22250202.204 6  91110837.67206       122.125 6        36.454
E03        27.000    26554829.588 5 139546575.81505      1495.573 5        34.386                                                                    26554830.474 6 104206845.64006      1117.073 6        37.762    26554864.911 4                      1146.323 4        28.370
R15        28.000    24563300.922 3                     -4700.442 3        23.371
R06        29.000    21327834.102 6 113809413.73006     -3411.897 6        39.228
R09        32.000    20921080.689 6 111717608.47006      2010.592 6        38.910                                                                    20921082.186 7  86891363.70107      1563.714 7        42.148
C19        33.000                                                                                                                                    22318811.249 7 116219906.22807     -1931.716 7        45.297                                                                    22318807.081 7  94438159.49307     -1569.714 7        44.873
C20        34.000                                                                                                                                    25681224.687 4 133728847.36804     -3519.073 4        27.018
R08        35.000    21534929.202 6 115318554.74306      1855.659 6        41.859                                                                    21534931.332 6  89692205.26406      1443.396 6        38.751
R22        37.000    21853108.592 4 116653467.17604     -4419.531 4        24.060                                                                    21853100.069 5  90730382.87205     -3437.863 5        34.881
R16        39.000    21205654.141 5 113276895.73505     -2012.126 5        32.096                                                                    21205660.225 7  88104290.78507     -1564.982 7        44.566
C06        41.000                                                                                                                                    39307135.061 4                     -1821.188 4        25.474    39307132.707 5 158273511.71805     -1407.968 5        30.521    39307116.993 4                     -1479.631 4        24.211
C36        42.000                                                                                                                                    24024370.746 6 125101261.10116      2173.341 6        37.871                                                                    24024358.394 5 101654895.80005      1766.082 5        33.940
R23        44.000    21058085.028 6 112646868.55106     -1392.941 6        38.015
C16        45.000                                                                                                                                    39887918.938 4                     -1829.226 4        27.090    39887917.564 4 160612146.68804     -1414.829 4        28.180
C09        46.000                                                                                                                                    38857026.822 6 202338758.62006     -1450.322 6        40.341    38857033.124 6 156461099.02606     -1121.445 6        36.628    38857017.376 5                     -1178.384 5        30.762
C44        48.000                                                                                                                                    24686289.566 5 128547912.16105     -2578.075 5        30.362                                                                    24686280.845 5 104455778.95805     -2094.712 5        30.226
C37        49.000                                                                                                                                    25836512.164 5 134537429.70205     -3161.467 5        33.180
C22        50.000                                                                                                                                    22345314.402 6 116357871.69306       814.004 6        38.610                                                                    22345304.347 5  94550329.92305       661.642 5        35.695
C11        52.000                                                                                                                                    26798843.094 5                      1226.763 5        32.000    26798834.231 5 107907868.81805       948.418 5        30.732
C12        56.000                                                                                                                                    24827652.482 6 129284117.91606     -1254.348 6        36.722                                                                    24827645.944 4 105053935.06104     -1019.248 4        25.820
I01        59.000   339151741.013 5  27763472.89905     -3124.373 5        34.186
I06        60.000    37978263.105 6 149034863.78706      -587.096 6        36.151
> 2025 01 01 04 31 40.0000000  0 39
G30         3.000    23631419.170 6 124183982.86506      2641.326 6        36.098                                    23631416.837 4  96766679.93804      2058.184 4        25.308    23631413.967 5  96766708.98005      2057.968 5        33.635
G07         5.000    21449850.668 5 112719749.65205      1042.799 5        33.964                                    21449839.724 2  87833573.45202       812.570 2        13.273    21449841.554 4  87833530.41904       813.341 4        25.414
E34         6.000    24258016.596 6 127476748.99606     -1812.264 6        39.456                                                                    24258018.686 6  95193718.56206     -1353.211 6        41.180    24258023.188 6  97677001.19406     -1388.459 6        41.888
G03         8.000    23985370.304 5                     -4315.797 5        30.528
G09         9.000    20130816.126 8 105788148.43108     -1659.464 8        48.733                                    20130813.201 8  82432334.12808     -1293.089 8        48.472    20130813.689 7  82432325.12207     -1293.022 7        44.916
G20        10.000    23171663.804 7 121767875.04107      2374.646 7        43.490                                    23171657.306 4  94884097.66404      1850.379 4        26.216
G04        11.000    21533309.772 7 113158365.80007     -3134.284 7        44.023                                    21533303.184 3  88175334.12703     -2442.308 3        21.476    21533306.319 5  88175283.12105     -2442.443 5        32.844
E09        12.000    24868727.630 6 130686000.70906     -2633.688 6        38.646                                                                    24868726.590 7  97590291.65007     -1966.600 7        47.851    24868725.192 7 100136102.26207     -2017.830 7        44.348
E31        13.000    26783318.647 4                       730.693 4        27.653                                                                    26783324.470 4                       546.620 4        26.144
E06        14.000    26540159.451 5 139469395.25105     -3215.541 5        30.740                                                                    26540166.752 5 104149234.79705     -2400.797 5        31.034    26540142.223 5 106866222.18205     -2463.340 5        31.600
E15        16.000    26094344.865 7 137126697.60407       997.491 7        46.582                                                                    26094345.003 7 102399856.85607       744.842 7        44.492    26094345.172 7 105071174.12007       764.299 7        45.777
G06        19.000    21583606.037 7 113422793.59007     -2481.622 7        45.694                                    21583605.183 6  88381396.29006     -1933.733 6        41.416    21583606.256 6  88381285.28606     -1933.745 6        41.044
E36        20.000    26276828.863 6 138085666.20406     -3942.196 6        38.366                                                                    26276840.807 5 103115943.15105     -2944.136 5        31.177    26276824.172 5 105805889.75105     -3020.863 5        30.113
E05        21.000    21934633.760 7 115267311.52807      -275.724 7        43.228                                                                    21934633.539 8  86076270.21008      -205.857 8        48.826    21934632.462 7  88321725.31507      -211.256 7        47.168
R07        23.000    19492577.435 7 104345380.02407      -746.827 7        47.205                                                                    19492574.968 6  81157443.79306      -580.909 6        41.592
S23        24.000    38153222.665 6 200496439.69306      -822.523 6        40.751
S36        25.000    38212799.993 5 200809630.49505      -826.935 5        35.200
G11        26.000                                                                                                                                                                    22250055.302 6  91110233.74706       119.635 6        36.533
E03        27.000    26553407.453 5 139539098.47505      1495.202 5        35.033                                                                    26553407.949 6 104201261.94606      1116.491 6        37.860    26553443.427 4                      1145.260 4        27.653
R06        29.000    21331031.789 6 113826477.21606     -3413.485 6        39.715
R24        31.000    23688716.109 3                      2315.033 3        21.786                                                                    23688710.676 4                      1801.159 4        29.498
R09        32.000    20919196.574 6 111707564.08906      2007.124 6        37.535                                                                    20919202.361 6  86883551.45506      1561.095 6        41.993
C19        33.000                                                                                                                                    22320667.440 7 116229568.77707     -1933.326 7        45.863                                                                    22320662.738 7  94446011.12007     -1570.918 7        44.945
R08        35.000    21533198.020 6 115309279.34906      1854.497 6        40.980                                                                    21533193.560 5  89684991.11905      1442.335 5        34.752
R22        37.000                                                                                                                                    21857239.251 5  90747576.99515     -3439.941 5        35.486
R16        39.000    21207538.490 5 113286967.93805     -2017.005 5        34.029                                                                    21207544.864 7  88112124.75707     -1568.656 7        43.211
C06        41.000                                                                                                                                    39308885.161 4                     -1821.266 4        26.048    39308881.304 5 158280552.14105     -1407.944 5        30.302    39308864.061 3                     -1480.056 3        23.962
C36        42.000                                                                                                                                                                                                                                                                    24022277.526 5 101646068.46305      1764.914 5        33.030
R23        44.000    21059390.290 6 112653845.45006     -1397.781 6        40.672
C16        45.000                                                                                                                                    39889675.856 4                     -1829.705 4        27.497    39889673.521 4 160619221.44604     -1415.007 4        28.550
C09        46.000                                                                                                                                    38858419.139 6 202346011.06406     -1450.729 6        40.248    38858424.719 6 156466707.08406     -1121.971 6        36.302    38858409.830 5                     -1178.918 5        30.717
C21        47.000                                                                                                                                    26799938.665 4                      2025.899 4        26.383
C44        48.000                                                                                                                                    24688767.797 5 128560809.14305     -2580.320 5        31.698                                                                    24688756.367 4 104466258.78104     -2096.551 4        27.569
C37        49.000                                                                                                                                    25839541.493 5 134553242.38205     -3163.592 5        31.351
C22        50.000                                                                                                                                    22344531.748 6 116353804.58306       813.056 6        37.898                                                                    22344523.055 5  94547025.07805       660.523 5        34.924
C11        52.000                                                                                                                                    26797666.034 5                      1224.368 5        31.728    26797658.780 5 107903130.51105       947.189 5        31.706
C12        56.000                                                                                                                                    24828857.408 6 129290397.24006     -1257.290 6        36.586                                                                    24828853.628 4 105059037.51904     -1022.360 4        26.455
I01        59.000   339155722.390 5  27779095.18705     -3124.636 5        34.438
I06        60.000    37979010.418 6 149037799.73406      -587.400 6        36.219
> 2025 01 01 04 31 45.0000000  0 41
G30         3.000    23628905.522 6 124170779.91406      2640.296 6        36.650                                    23628904.970 4  96756391.93104      2057.374 4        24.662    23628903.287 5  96756420.97505      2057.363 5        33.485
G07         5.000    21448858.808 5 112714542.44205      1040.241 5        33.006                                    21448848.312 2  87829515.86502       810.596 2        12.242    21448851.878 4  87829472.84904       811.463 4        25.383
E34         6.000    24259741.236 6 127485816.30106     -1814.464 6        38.997                                                                    24259744.101 6  95200489.62106     -1355.130 6        40.501    24259749.295 7  97683948.89207     -1390.384 7        42.781
G03         8.000    23989474.936 5                     -4316.360 5        30.174
G09         9.000    20132395.938 8 105796451.03708     -1661.430 8        49.301                                    20132393.182 8  82438803.69308     -1294.625 8        48.381    20132393.269 7  82438794.69107     -1294.643 7        44.912
G20        10.000    23169404.647 7 121756004.37607      2373.802 7        42.734                                    23169398.958 4  94874847.79404      1849.712 4        26.012
G04        11.000    21536293.171 7 113174040.96007     -3135.608 7        44.280                                    21536285.841 3  88187548.52703     -2443.335 3        22.286    21536288.660 5  88187497.51005     -2443.229 5        34.719
E09        12.000    24871233.115 6 130699170.26806     -2634.408 6        36.306                                                                    24871232.623 7  97600126.06707     -1967.136 7        47.613    24871231.322 7 100146193.22307     -2018.411 7        44.236
E31        13.000    26782629.198 4                       728.523 4        28.275                                                                    26782631.024 4                       544.204 4        26.922
E06        14.000    26543217.911 5 139485471.44505     -3215.469 5        30.053                                                                    26543224.644 5 104161239.76005     -2400.941 5        31.064    26543201.683 5 106878540.29505     -2463.641 5        31.404
E15        16.000    26093396.849 7 137121715.62707       995.481 7        46.747                                                                    26093396.930 7 102396136.55207       743.357 7        44.448    26093397.183 7 105067356.75407       762.789 7        45.889
G06        19.000    21585969.021 7 113435209.55407     -2484.641 7        46.025                                    21585967.581 6  88391071.05606     -1936.081 6        41.082    21585968.711 6  88390960.05006     -1935.922 6        40.932
E36        20.000    26280579.510 6 138105379.58706     -3943.092 6        38.375                                                                    26280595.035 4 103130664.21204     -2944.347 4        29.460    26280575.026 4 105820994.80904     -3021.219 4        29.024
E05        21.000    21934897.120 7 115268693.26007      -276.863 7        43.738                                                                    21934896.584 8  86077302.03408      -206.735 8        48.819    21934895.106 7  88322784.04807      -212.146 7        47.227
R07        23.000    19493275.235 7 104349119.03907      -748.676 7        47.754                                                                    19493272.855 6  81160351.93206      -582.348 6        40.970
S23        24.000    38154001.904 6 200500553.08606      -822.671 6        40.856
S36        25.000    38213581.226 5 200813763.90305      -826.656 5        35.176
G11        26.000    22249905.058 5 116924191.34515       150.176 5        32.737                                                                                                    22249912.811 6  91109643.08206       117.019 6        37.565
E03        27.000    26551984.995 5 139531624.69105      1494.638 5        35.533                                                                    26551985.676 6 104195680.90806      1115.994 6        38.324    26552021.290 4                      1145.360 4        27.222
R15        28.000    24572082.209 3                     -4703.178 3        22.705
R06        29.000    21334231.076 6 113843547.63906     -3414.587 6        39.955
R24        31.000                                                                                                                                    23686537.423 5                      1798.974 5        30.996
R09        32.000    20917319.387 6 111697536.71706      2004.020 6        36.779                                                                    20917324.586 6  86875752.39306      1558.433 6        40.584
C19        33.000                                                                                                                                    22322525.244 7 116239238.99507     -1934.696 7        45.780                                                                    22322519.818 7  94453868.97907     -1572.160 7        44.615
C20        34.000                                                                                                                                    25687971.318 4 133764046.79404     -3520.386 4        27.701
R08        35.000    21531467.328 6 115300009.20206      1853.665 6        41.731                                                                    21531460.120 5  89677780.91605      1441.862 5        30.974
R22        37.000    21861435.621 5                     -4424.862 5        31.645                                                                    21861383.183 5  90764780.58615     -3441.612 5        35.719
R16        39.000    21209430.977 6 113297062.93006     -2021.171 6        39.703                                                                    21209434.215 6  88119976.35406     -1571.916 6        40.653
C06        41.000                                                                                                                                    39310636.297 4                     -1821.583 4        25.910    39310630.768 4 158287593.84404     -1408.343 4        29.621    39310612.970 4                     -1480.149 4        24.000
C36        42.000                                                                                                                                    24020178.450 6 125079541.08306      2170.800 6        41.831                                                                    24020193.978 5 101637246.50605      1764.044 5        32.138
R23        44.000    21060700.962 7 112660846.23707     -1402.441 7        42.053
C16        45.000                                                                                                                                    39891434.983 4                     -1830.412 4        26.982    39891431.961 4 160626297.15804     -1414.633 4        29.175
C09        46.000                                                                                                                                    38859812.228 6 202353265.75706     -1451.167 6        39.961    38859816.231 5 156472316.88405     -1122.199 5        35.705    38859803.094 5                     -1179.311 5        30.309
C21        47.000                                                                                                                                    26797986.860 4                      2026.279 4        26.563
C44        48.000                                                                                                                                    24691248.483 5 128573716.91405     -2582.576 5        34.129
C22        50.000                                                                                                                                    22343751.186 6 116349743.70506       811.631 6        39.538                                                                    22343743.445 5  94543725.31205       659.249 5        33.874
C35        51.000                                                                                                                                    25992453.652 3                     -3855.543 3        22.114
C11        52.000                                                                                                                                    26796491.195 5                      1222.307 5        30.355    26796486.197 5 107898400.54305       944.994 5        30.619
C12        56.000                                                                                                                                    24830066.355 6 129296691.09806     -1260.180 6        36.756    24830067.487 6  99980502.90416      -974.128 6        39.622    24830063.859 4 105064151.75304     -1023.809 4        28.095
I01        59.000   339159702.433 5  27794718.64905     -3124.656 5        34.281
I06        60.000    37979758.185 6 149040736.26806      -587.343 6        36.386
> 2025 01 01 04 31 50.0000000  0 42
G30         3.000    23626394.834 6 124157581.22506      2639.097 6        37.316                                    23626393.720 3  96746107.25303      2056.443 3        23.676    23626392.111 5  96746136.29405      2056.187 5        32.587
G07         5.000    21447871.197 5 112709346.40105      1037.735 5        32.359                                    21447858.916 1  87825466.99101       808.631 1        11.852    21447863.585 4  87825424.07704       808.884 4        24.421
E34         6.000    24261469.981 6 127494895.60706     -1817.524 6        37.675                                                                    24261471.894 6  95207269.62306     -1357.196 6        39.949    24261477.174 7  97690905.76107     -1392.384 7        43.382
G03         8.000    23993583.874 5                     -4317.321 5        30.589
G09         9.000    20133977.508 8 105804763.29008     -1663.734 8        49.569                                    20133974.987 8  82445280.77308     -1296.416 8        48.376    20133974.882 7  82445271.77007     -1296.355 7        44.528
G20        10.000    23167146.858 7 121744138.10707      2372.438 7        42.590                                    23167141.356 4  94865601.35504      1848.658 4        26.120
G04        11.000    21539277.310 7 113189721.97107     -3137.095 7        44.572                                    21539269.782 3  88199767.49303     -2444.496 3        22.686    21539272.428 6  88199716.50606     -2444.592 6        36.461
E09        12.000    24873739.526 5 130712343.01805     -2635.191 5        33.587                                                                    24873739.285 7  97609962.87107     -1967.827 7        47.125    24873738.140 7 100156286.64507     -2019.136 7        44.158
E31        13.000    26781937.962 4                       726.645 4        29.441                                                                    26781937.878 4                       543.058 4        25.970
E06        14.000    26546280.284 4 139501548.63704     -3215.544 4        28.294                                                                    26546282.991 5 104173245.46405     -2401.508 5        30.377    26546262.364 5 106890859.21305     -2464.058 5        31.087
E15        16.000    26092450.802 7 137116743.20507       993.192 7        46.880                                                                    26092450.535 7 102392423.38107       741.692 7        44.138    26092451.102 7 105063546.70807       761.083 7        45.997
G06        19.000    21588334.665 7 113447640.38207     -2487.915 7        46.667                                    21588332.788 6  88400757.40606     -1938.630 6        41.077    21588333.465 6  88400646.40906     -1938.707 6        40.834
E36        20.000    26284330.419 6 138125096.89106     -3944.287 6        37.966                                                                    26284350.985 4 103145388.17904     -2944.999 4        28.152    26284326.045 4 105836102.87404     -3022.113 4        28.521
E05        21.000    21935161.053 7 115270080.94207      -278.496 7        44.048                                                                    21935160.658 8  86078338.28308      -207.989 8        48.820    21935158.824 7  88323847.33407      -213.378 7        47.162
R07        23.000    19493975.830 7 104352867.86907      -751.102 7        47.507                                                                    19493973.184 6  81163267.68406      -584.351 6        41.147
S23        24.000    38154784.058 6 200504666.29806      -822.853 6        40.806
S36        25.000    38214364.721 5 200817896.77905      -826.784 5        35.081
G11        26.000    22249767.271 6 116923449.47306       146.378 6        36.408                                                                                                    22249772.462 6  91109065.01106       113.898 6        37.966
E03        27.000    26550563.356 5 139524153.65305      1493.715 5        35.619                                                                    26550563.952 6 104190101.85706      1115.428 6        38.381    26550599.712 4                      1144.635 4        26.623
R15        28.000    24576483.520 3                     -4703.873 3        21.048
R06        29.000    21337430.852 6 113860624.03506     -3416.286 6        40.110
R24        31.000                                                                                                                                    23684376.404 5                      1796.552 5        32.234
R09        32.000    20915447.692 6 111687525.40906      2000.322 6        36.321                                                                    20915449.468 6  86867965.78006      1555.823 6        39.841
C19        33.000                                                                                                                                    22324384.480 7 116248916.08607     -1936.411 7        45.523                                                                    22324377.981 7  94461732.40707     -1573.398 7        44.348
C20        34.000                                                                                                                                    25691357.160 4 133781650.19604     -3520.779 4        26.695
R08        35.000    21529737.350 6 115290743.54506      1852.238 6        40.977                                                                    21529732.339 5  89670574.32605      1441.106 5        31.540
R22        37.000    21865575.226 5                     -4426.694 5        34.248                                                                    21865529.032 6  90781993.06306     -3443.830 6        36.068
R16        39.000    21211331.183 6 113307179.92606     -2025.959 6        41.788                                                                    21211327.597 6  88127845.09606     -1575.744 6        39.667
C06        41.000                                                                                                                                    39312382.618 4                     -1821.182 4        26.419    39312380.031 4 158294636.07504     -1408.343 4        29.128    39312360.977 4                     -1481.419 4        24.481
C36        42.000                                                                                                                                    24018089.714 7 125068690.36107      2169.212 7        43.082                                                                    24018112.370 5 101628429.38805      1763.159 5        31.819
R23        44.000    21062012.176 6 112667870.04206     -1407.463 6        40.682
C16        45.000                                                                                                                                    39893192.103 4                     -1829.815 4        26.611    39893191.063 4 160633373.35104     -1415.696 4        29.014
C09        46.000                                                                                                                                    38861205.475 6 202360521.90006     -1451.811 6        39.895    38861209.993 5 156477927.75905     -1122.365 5        35.414    38861196.581 5                     -1179.495 5        30.098
C21        47.000                                                                                                                                    26796030.923 3                      2025.635 3        23.848
C44        48.000                                                                                                                                    24693728.992 5 128586634.73105     -2584.642 5        35.290                                                                    24693714.930 4 104487244.20704     -2100.567 4        24.571
C37        49.000                                                                                                                                    25845601.466 4 134584897.04304     -3167.412 4        28.682
C22        50.000                                                                                                                                    22342973.674 6 116345688.24206       810.175 6        41.535                                                                    22342964.965 5  94540429.93605       658.719 5        33.030
C35        51.000                                                                                                                                    25996157.296 4                     -3853.127 4        25.549
C11        52.000                                                                                                                                    26795318.222 4                      1220.072 4        28.521    26795314.707 5 107893678.52805       943.356 5        30.694
C12        56.000                                                                                                                                    24831279.534 6 129302998.70606     -1263.179 6        37.176    24831277.071 6  99985380.34506      -976.768 6        40.577    24831276.373 4 105069277.15904     -1026.437 4        29.564
I01        59.000   339163685.589 5  27810342.53805     -3124.916 5        34.271
I06        60.000    37980506.953 6 149043672.80406      -587.416 6        36.155
> 2025 01 01 04 31 55.0000000  0 41
G30         3.000    23623884.480 6 124144387.02206      2638.235 6        37.240                                    23623883.262 3  96735826.05303      2055.764 3        22.362    23623881.359 5  96735855.11205      2055.803 5        31.789
G07         5.000    21446887.003 5 112704161.59205      1035.739 5        34.533                                    21446871.694 2  87821426.92302       807.058 2        12.909    21446873.634 3                       806.906 3        21.595
E34         6.000    24263200.251 5 127503987.03505     -1819.743 5        35.886                                                                    24263202.391 6  95214058.68906     -1358.932 6        39.553    24263206.990 7  97697871.94707     -1394.271 7        43.663
G03         8.000    23997694.230 5                     -4318.023 5        30.030
G09         9.000    20135561.024 8 105813085.38108     -1665.537 8        49.964                                    20135558.612 8  82451765.52008     -1297.820 8        48.443    20135558.332 7  82451756.50407     -1297.850 7        43.691
G20        10.000    23164890.104 7 121732276.38407      2371.710 7        43.198                                    23164884.519 4  94856358.44204      1848.092 4        26.359
G04        11.000    21542262.344 7 113205409.01307     -3138.251 7        44.787                                    21542255.055 3  88211991.16603     -2445.390 3        23.581    21542257.684 6  88211940.16006     -2445.483 6        37.637
E09        12.000    24876246.568 5 130725519.17505     -2635.715 5        31.713                                                                    24876246.562 7  97619802.19507     -1968.299 7        46.979    24876245.833 7 100166382.64907     -2019.621 7        44.212
E31        13.000    26781244.565 4                       725.275 4        28.038                                                                    26781245.837 4                       541.599 4        25.970
E06        14.000    26549346.002 4 139517626.96804     -3215.293 4        25.925                                                                    26549342.396 5 104185252.03105     -2401.732 5        30.649    26549323.154 5 106903178.93605     -2464.090 5        30.921
E15        16.000    26091506.506 7 137111780.48907       991.355 7        46.903                                                                    26091506.154 7 102388717.47507       740.244 7        44.278    26091506.808 7 105059744.11807       759.624 7        46.264
G06        19.000    21590703.379 7 113460086.23207     -2490.794 7        47.144                                    21590700.821 6  88410455.46106     -1940.878 6        41.282    21590701.968 6  88410344.47106     -1941.009 6        39.790
E36        20.000    26288082.767 6 138144818.22706     -3944.935 6        37.444                                                                    26288106.914 4 103160115.27804     -2946.444 4        26.036    26288079.004 4 105851213.97504     -3022.501 4        27.245
E05        21.000    21935426.615 7 115271474.69807      -279.529 7        44.242                                                                    21935425.930 8  86079379.07508      -208.776 8        49.025    21935423.948 7  88324915.27807      -214.209 7        47.383
R07        23.000    19494677.633 7 104356626.69807      -753.006 7        46.594                                                                    19494675.346 6  81166191.21406      -585.651 6        41.647
S23        24.000    38155567.629 6 200508779.38406      -822.722 6        40.687
S36        25.000    38215156.941 5 200822030.51005      -826.714 5        34.914
G11        26.000    22249635.232 6 116922723.93806       143.293 6        37.263                                                                                                    22249633.852 6  91108499.65606       111.523 6        37.414
E03        27.000    26549141.961 5 139516685.47205      1493.290 5        35.662                                                                    26549142.756 6 104184525.00706      1114.846 6        38.330    26549177.942 4                      1144.459 4        26.479
R15        28.000    24580889.485 3                     -4705.822 3        20.762
R06        29.000    21340632.771 6 113877706.76106     -3417.367 6        40.579
R24        31.000    23682273.163 3                      2308.803 3        23.371                                                                    23682218.927 5                      1794.351 5        31.351
R09        32.000                                                                                                                                    20913577.537 6  86860191.83206      1553.324 6        39.646
C19        33.000                                                                                                                                    22326244.915 7 116258600.20007     -1937.690 7        46.280                                                                    22326237.465 7  94469601.53807     -1574.295 7        43.996
R08        35.000    21528009.874 6 115281482.44006      1851.535 6        41.614                                                                    21528005.461 5  89663371.26405      1439.891 5        33.275
R22        37.000    21869717.574 6 116742069.84916     -4429.666 6        37.686                                                                    21869678.855 6  90799214.50806     -3445.292 6        36.242
R16        39.000    21213230.914 7 113317319.06307     -2030.226 7        43.585                                                                    21213226.566 6  88135731.10606     -1579.172 6        39.925
C06        41.000                                                                                                                                    39314132.619 4                     -1822.119 4        25.338    39314130.546 4 158301679.15104     -1408.742 4        29.611    39314111.241 4                     -1480.988 4        24.346
C36        42.000                                                                                                                                    24016009.824 7 125057845.69107      2168.136 7        44.199                                                                    24016033.918 5 101619617.25505      1762.195 5        31.615
R23        44.000    21063327.797 6 112674917.05606     -1411.840 6        40.195
C16        45.000                                                                                                                                    39894947.979 4                     -1830.359 4        26.683    39894950.734 4 160640450.03404     -1415.906 4        29.336
C09        46.000                                                                                                                                    38862599.111 6 202367779.68606     -1451.835 6        39.784    38862605.049 5 156483539.97205     -1122.640 5        34.471    38862589.921 5                     -1179.694 5        30.347
C21        47.000                                                                                                                                    26794084.949 3                      2024.324 3        22.210
C44        48.000                                                                                                                                    24696210.701 5 128599562.78505     -2586.616 5        35.652                                                                    24696199.473 4 104497749.25004     -2101.629 4        26.144
C37        49.000                                                                                                                                    25848647.137 4 134600738.31304     -3169.775 4        28.777
C22        50.000                                                                                                                                    22342196.956 7 116341638.39307       809.272 7        43.064                                                                    22342186.913 5  94537139.14105       657.697 5        31.955
C35        51.000                                                                                                                                    25999865.903 4                     -3853.300 4        26.826
C11        52.000                                                                                                                                    26794144.600 4                      1218.202 4        25.835    26794143.535 5 107888964.27105       941.966 5        30.000
C12        56.000                                                                                                                                    24832494.308 6 129309320.19806     -1266.014 6        37.845    24832493.497 6  99990268.49806      -978.845 6        40.436    24832490.304 5 105074413.87905     -1028.463 5        30.619
I01        59.000   339167668.577 5  27825967.09205     -3125.099 5        34.405
I06        60.000    37981254.606 6 149046609.48806      -587.538 6        36.110
> 2025 01 01 04 32  0.0000000  0 41
G30         3.000    23621373.691 6 124131197.14806      2637.519 6        37.229                                    23621373.157 3  96725548.23903      2055.206 3        20.500    23621368.298 5  96725577.31805      2055.387 5        30.641
G07         5.000    21445902.750 6 112698988.13106      1033.539 6        36.677                                    21445886.734 2  87817395.66502       805.349 2        14.333    21445888.625 3                       804.903 3        21.405
E34         6.000    24264931.588 5 127513090.51205     -1821.949 5        35.719                                                                    24264935.441 6  95220856.73406     -1360.501 6        39.312    24264938.948 7  97704847.34307     -1396.054 7        43.579
G03         8.000    24001805.337 4                     -4318.454 4        28.720
G09         9.000    20137146.653 8 105821417.16808     -1667.435 8        49.859                                    20137144.003 8  82458257.82508     -1299.300 8        48.184    20137143.602 7  82458248.80207     -1299.243 7        42.535
G20        10.000    23162633.436 7 121720419.10207      2370.876 7        44.334                                    23162628.206 4  94847119.00304      1847.446 4        26.036
G04        11.000    21545247.549 7 113221101.97107     -3139.253 7        45.050                                    21545241.750 4  88224219.43704     -2446.175 4        24.105    21545243.438 6  88224168.44906     -2446.137 6        38.544
E09        12.000    24878753.243 5 130738698.63305     -2636.531 5        30.189                                                                    24878754.523 7  97629643.95607     -1968.616 7        46.653    24878753.877 7 100176481.15407     -2019.989 7        44.269
E31        13.000    26780552.966 4                       723.280 4        28.967                                                                    26780555.400 4                       540.599 4        26.443
E06        14.000    26552412.880 3 139533706.34603     -3216.027 3        23.886                                                                    26552402.309 5 104197259.30405     -2401.374 5        30.491    26552384.802 5 106915499.46005     -2464.144 5        31.313
E15        16.000    26090564.076 7 137106827.39707       989.589 7        47.019                                                                    26090563.442 7 102385018.74307       738.940 7        44.193    26090564.246 7 105055948.89707       758.223 7        46.149
G06        19.000    21593074.340 7 113472546.99807     -2493.670 7        47.344                                    21593071.653 6  88420165.13906     -1943.121 6        41.161    21593073.041 6  88420054.14006     -1943.073 6        38.721
E36        20.000    26291836.723 6 138164543.49406     -3945.444 6        36.794                                                                    26291862.453 4 103174845.24404     -2946.712 4        24.286    26291832.522 4 105866328.14104     -3023.257 4        27.126
E05        21.000    21935692.970 7 115272874.45007      -280.617 7        44.617                                                                    21935692.225 8  86080424.33708      -209.538 8        49.149    21935690.478 7  88325987.80907      -215.019 7        47.332
R07        23.000    19495380.576 7 104360395.35207      -754.742 7        45.673                                                                    19495378.360 6  81169122.39806      -587.036 6        41.304
S23        24.000    38156351.129 6 200512892.10406      -822.627 6        40.634
S36        25.000    38215946.451 5 200826163.92505      -826.918 5        34.690
G11        26.000    22249497.909 5 116922014.70305       140.112 5        35.067                                                                                                    22249497.273 6  91107946.96206       109.127 6        36.987
E03        27.000    26547720.959 5 139509220.11105      1492.446 5        35.762                                                                    26547722.525 6 104178950.22506      1114.569 6        38.273    26547756.444 4                      1143.774 4        27.018
R15        28.000    24585288.154 3                     -4711.455 3        21.381
R06        29.000    21343836.286 6 113894795.53806     -3418.490 6        40.117
R24        31.000                                                                                                                                    23680062.527 5                      1792.108 5        30.725
R09        32.000    20911730.415 5 111667551.27505      1994.159 5        33.994                                                                    20911709.393 6  86852430.47906      1550.993 6        38.679
C19        33.000                                                                                                                                    22328106.401 7 116268291.24407     -1938.975 7        47.186                                                                    22328098.367 7  94477476.33007     -1575.545 7        43.426
R08        35.000    21526281.686 7 115272225.91407      1850.818 7        42.476                                                                    21526275.649 5  89656171.70405      1439.508 5        35.248
R22        37.000    21873866.322 6 116764223.11006     -4431.962 6        37.989                                                                    21873827.785 5  90816444.85405     -3447.040 5        35.529
R16        39.000    21215129.754 7 113327480.08507     -2034.467 7        43.278                                                                    21215130.820 6  88143634.15206     -1582.446 6        38.372
C06        41.000                                                                                                                                    39315883.201 4                     -1822.057 4        26.563    39315879.505 4 158308722.84604     -1409.397 4        29.213    39315859.843 4                     -1481.022 4        24.977
C36        42.000                                                                                                                                    24013931.495 7 125047007.00407      2167.000 7        44.486                                                                    24013957.650 5 101610809.92705      1760.751 5        31.479
R23        44.000    21064649.747 6 112681987.17906     -1416.379 6        39.847
C16        45.000                                                                                                                                    39896705.349 4                     -1830.684 4        27.653    39896707.376 4 160647527.09004     -1415.572 4        29.526
C09        46.000                                                                                                                                    38863993.071 6 202375038.98606     -1452.120 6        39.225    38863998.822 5 156489153.32305     -1122.654 5        33.581    38863984.204 5                     -1179.971 5        30.423
C21        47.000                                                                                                                                    26792137.280 4                      2025.624 4        25.429
C44        48.000                                                                                                                                    24698694.344 5 128612500.92105     -2588.900 5        35.486
C37        49.000                                                                                                                                    25851696.033 4 134616588.73604     -3171.078 4        29.355
C22        50.000                                                                                                                                    22341420.619 7 116337594.06807       808.326 7        43.867                                                                    22341410.374 5  94533852.82205       656.818 5        30.883
C35        51.000                                                                                                                                    26003574.957 4                     -3853.289 4        26.575
C11        52.000                                                                                                                                    26792969.936 3                      1217.345 3        21.690    26792976.138 4 107884257.97004       940.584 4        28.758
C12        56.000                                                                                                                                    24833711.170 6 129315655.44506     -1268.460 6        38.279    24833707.985 6  99995167.30306      -980.943 6        39.381    24833707.424 5 105079561.74605     -1030.494 5        31.638
I01        59.000   339171650.166 5  27841592.23005     -3125.189 5        34.214
I06        60.000    37982003.109 6 149049546.19706      -587.545 6        36.193
> 2025 01 01 04 32  5.0000000  0 40
G30         3.000    23618863.389 6 124118011.66306      2636.240 6        36.318                                    23618863.946 3  96715273.84803      2054.205 3        19.134    23618860.060 4  96715302.89904      2054.328 4        28.863
G07         5.000    21444918.951 6 112693825.98306      1031.093 6        38.411                                    21444904.193 2  87813373.20002       803.436 2        16.491    21444910.784 3                       802.501 3        22.552
E34         6.000    24266665.705 5 127522206.01305     -1825.042 5        35.290                                                                    24266670.480 6  95227663.77106     -1362.615 6        38.892    24266673.490 7  97711831.95107     -1398.105 7        43.380
G03         8.000    24005919.333 4                     -4319.353 4        24.571
G09         9.000    20138733.797 8 105829758.65408     -1669.649 8        49.888                                    20138731.143 8  82464757.67808     -1301.024 8        48.253    20138731.570 7  82464748.65707     -1300.920 7        42.123
G20        10.000    23160377.982 7 121708566.30607      2369.737 7        45.338                                    23160372.634 4  94837883.04704      1846.552 4        26.287
G04        11.000    21548234.793 7 113236800.84507     -3140.706 7        45.177                                    21548229.568 4  88236452.32704     -2447.304 4        24.541    21548230.455 6  88236401.32906     -2447.319 6        39.504
E09        12.000    24881261.515 4 130751881.27904     -2637.380 4        29.554                                                                    24881262.925 7  97639488.15107     -1969.346 7        46.120    24881262.354 7 100186582.15507     -2020.682 7        44.281
E31        13.000    26779866.089 4                       721.247 4        29.374                                                                    26779863.345 4                       538.644 4        26.587
E06        14.000    26555484.180 3                     -3215.755 3        21.262                                                                    26555462.990 5 104209267.41305     -2401.914 5        30.566    26555445.802 5 106927820.80205     -2464.844 5        30.913
E15        16.000    26089623.448 7 137101883.93207       987.431 7        47.137                                                                    26089622.625 7 102381327.20107       737.327 7        44.069    26089623.652 7 105052161.04207       756.609 7        46.155
G06        19.000    21595448.524 7 113485022.66907     -2496.885 7        47.368                                    21595445.293 6  88429886.43406     -1945.626 6        41.030    21595446.874 6  88429775.44206     -1945.602 6        37.164
E36        20.000    26295591.178 6 138184272.69306     -3946.653 6        36.030                                                                    26295614.732 3                     -2946.658 3        21.452    26295586.610 4 105881445.28704     -3023.837 4        27.868
E05        21.000    21935960.315 7 115274280.17607      -282.079 7        44.617                                                                    21935959.727 8  86081474.06808      -210.624 8        49.116    21935958.228 7  88327064.92607      -216.158 7        47.484
R07        23.000    19496087.386 7 104364173.98307      -757.173 7        46.153                                                                    19496083.354 6  81172061.30206      -588.799 6        40.396
S23        24.000    38157133.175 6 200517004.74006      -822.780 6        40.398
S36        25.000    38216729.691 5 200830297.81805      -826.978 5        34.886
G11        26.000    22249362.341 5 116921321.55005       136.638 5        35.219                                                                                                    22249365.865 6  91107406.88006       106.511 6        36.699
E03        27.000    26546300.533 5 139501757.49005      1491.865 5        34.876                                                                    26546302.732 6 104173377.50506      1113.938 6        38.267    26546336.391 4                      1143.068 4        28.512
R06        29.000    21347038.642 6 113911890.47306     -3420.008 6        39.183
R24        31.000                                                                                                                                    23677907.706 5                      1789.845 5        30.709
R09        32.000    20909862.513 5 111657588.81505      1990.350 5        32.850                                                                    20909840.679 6  86844681.81006      1548.224 6        36.132
C19        33.000                                                                                                                                    22329968.799 7 116277989.21807     -1940.574 7        47.799                                                                    22329960.665 7  94485356.70507     -1576.982 7        43.204
R08        35.000    21524553.174 7 115262973.91707      1849.590 7        42.305                                                                    21524547.644 6  89648975.72206      1438.585 6        36.945
R22        37.000    21878019.102 5 116786387.73205     -4434.357 5        32.641                                                                    21877979.847 5  90833684.05805     -3448.887 5        35.410
R16        39.000    21217032.911 6 113337663.19806     -2039.136 6        40.610                                                                    21217035.782 6  88151554.34606     -1586.053 6        36.900
C06        41.000                                                                                                                                    39317637.092 4                     -1822.189 4        26.683    39317629.040 5 158315767.16805     -1409.513 5        30.068    39317609.177 4                     -1480.509 4        25.609
C36        42.000                                                                                                                                    24011851.410 7 125036174.29407      2165.515 7        44.316                                                                    24011880.063 5 101602007.43705      1759.759 5        31.291
R23        44.000    21065974.763 6 112689080.41906     -1421.100 6        36.261
C16        45.000                                                                                                                                    39898461.794 4                     -1830.600 4        27.545    39898465.205 5 160654604.51505     -1415.494 5        30.068
C09        46.000                                                                                                                                    38865387.349 6 202382299.77606     -1452.593 6        39.207    38865391.129 5 156494767.82905     -1123.321 5        33.269    38865378.299 5                     -1180.288 5        30.770
C21        47.000                                                                                                                                    26790186.096 4                      2026.336 4        28.445
C44        48.000                                                                                                                                    24701179.442 5 128625449.10305     -2591.054 5        35.190                                                                    24701188.533 5 104518783.80805     -2105.458 5        30.521
C37        49.000                                                                                                                                    25854750.727 5 134632448.50905     -3173.114 5        30.075
C22        50.000                                                                                                                                    22340644.755 7 116333555.25707       806.850 7        43.924                                                                    22340634.417 5  94530570.94105       655.820 5        30.423
C35        51.000                                                                                                                                    26007274.693 4                     -3853.011 4        25.970
C11        52.000                                                                                                                                                                                                    26791809.947 4 107879559.35604       938.630 4        27.880
C12        56.000                                                                                                                                    24834930.954 6 129322004.49706     -1271.387 6        38.862    24834924.830 6 100000076.73206      -983.098 6        38.186    24834927.762 5 105084720.85705     -1033.621 5        32.611
I01        59.000   339175632.077 5  27857217.85505     -3125.443 5        34.362
I06        60.000    37982751.737 6 149052483.01306      -587.587 6        36.136
> 2025 01 01 04 32 10.0000000  0 41
G16         1.000    23581711.012 5 123922729.62515      -137.748 5        31.343
G30         3.000    23616354.549 5 124104830.96405      2635.725 5        35.519                                    23616355.308 2  96705003.20202      2053.769 2        17.887    23616353.662 4  96705032.35204      2053.621 4        27.365
G07         5.000    21443938.557 6 112688675.49806      1028.898 6        40.224                                    21443924.711 3  87809359.81303       801.739 3        19.104    21443927.242 4                       802.434 4        26.072
E34         6.000    24268403.221 5 127531333.96405     -1826.823 5        35.019                                                                    24268408.345 6  95234480.09206     -1364.195 6        38.799    24268410.342 7  97718826.10207     -1399.795 7        42.946
G09         9.000    20140323.266 8 105838110.27308     -1671.344 8        50.265                                    20140320.152 8  82471265.42808     -1302.347 8        48.451    20140321.034 7  82471256.41607     -1302.334 7        42.138
G20        10.000    23158122.932 7 121696718.42407      2369.122 7        46.038                                    23158118.060 4  94828650.92104      1846.072 4        26.611
G04        11.000    21551223.837 7 113252506.03807     -3141.655 7        45.535                                    21551218.718 4  88248690.13404     -2448.031 4        24.812    21551219.284 6  88248639.14006     -2448.022 6        40.212
E09        12.000    24883771.531 4 130765067.55204     -2637.249 4        29.791                                                                    24883772.173 7  97649335.09007     -1969.611 7        45.716    24883771.535 7 100196685.96907     -2021.034 7        44.488
E31        13.000    26779181.649 4                       719.317 4        29.924                                                                    26779177.456 4                       537.692 4        25.128
E06        14.000                                                                                                                                    26558523.718 4 104221276.51204     -2401.218 4        29.972    26558506.211 5 106940143.24905     -2464.983 5        30.340
E15        16.000    26088684.716 7 137096950.52407       985.785 7        47.451                                                                    26088683.831 7 102377643.16407       736.114 7        44.147    26088684.786 7 105048380.90507       755.263 7        46.212
G06        19.000    21597825.399 7 113497513.63907     -2499.632 7        47.524                                    21597821.857 6  88439619.65606     -1947.766 6        40.858    21597824.406 6  88439508.67806     -1947.810 6        36.998
E36        20.000    26299346.630 5 138204006.22705     -3947.456 5        34.790                                                                    26299365.958 3                     -2947.280 3        21.024    26299343.034 4 105896565.83204     -3024.585 4        29.166
E05        21.000    21936229.074 7 115275692.31807      -283.045 7        44.495                                                                    21936228.462 8  86082528.58808      -211.327 8        49.408    21936227.171 7  88328146.95407      -216.803 7        47.785
R07        23.000    19496796.033 7 104367962.90307      -758.834 7        46.549                                                                    19496792.162 6  81175008.24106      -590.084 6        40.975
S23        24.000    38157914.931 6 200521117.79106      -822.532 6        40.269
S36        25.000    38217521.580 5 200834431.92205      -827.158 5        34.762
G11        26.000    22249237.023 5 116920645.11905       133.631 5        35.976                                                                                                    22249235.645 6  91106879.82306       103.960 6        37.335
E03        27.000    26544881.729 5 139494298.11505      1491.600 5        34.471                                                                    26544882.929 6 104167807.18506      1113.876 6        38.243    26544916.839 5                      1142.918 5        30.770
R15        28.000    24594103.591 3                     -4713.365 3        22.343
R06        29.000    21350242.826 6 113928991.96306     -3420.869 6        38.547
R24        31.000    23675762.570 5                      2298.354 5        30.845                                                                    23675758.939 5                      1787.726 5        32.162
R09        32.000                                                                                                                                    20907975.279 5  86836946.19305      1546.040 5        32.784
C19        33.000                                                                                                                                    22331832.077 8 116287694.55408     -1941.813 8        48.172                                                                    22331824.441 7  94493243.10907     -1578.001 7        42.811
R08        35.000    21522826.606 7 115253726.79407      1849.022 7        43.331                                                                    21522820.877 6  89641783.51106      1438.097 6        37.807
R22        37.000                                                                                                                                    21882134.132 6  90850932.44306     -3450.621 6        36.113
R16        39.000    21218945.076 6 113347868.67006     -2043.357 6        40.143                                                                    21218945.965 5  88159491.90505     -1589.090 5        33.569
C06        41.000                                                                                                                                    39319386.364 4                     -1822.258 4        26.826    39319379.059 4 158322812.46604     -1409.235 4        29.554    39319358.440 4                     -1480.769 4        24.932
C36        42.000                                                                                                                                    24009770.431 7 125025348.00007      2164.703 7        43.380                                                                    24009803.228 5 101593210.19905      1758.744 5        30.664
R23        44.000    21067307.398 6 112696197.36906     -1425.765 6        37.146
C16        45.000                                                                                                                                    39900219.150 4                     -1831.122 4        27.593    39900226.328 5 160661682.84005     -1416.475 5        30.015
C09        46.000                                                                                                                                    38866782.020 6 202389562.54306     -1452.677 6        38.955    38866786.768 5 156500383.84105     -1123.084 5        32.551    38866773.566 5                     -1180.276 5        30.302
C21        47.000                                                                                                                                    26788234.671 5                      2026.293 5        31.638
C44        48.000                                                                                                                                    24703665.656 5 128638407.75005     -2592.692 5        34.629                                                                    24703673.132 5 104529313.77705     -2106.802 5        30.626
C37        49.000                                                                                                                                    25857803.480 5 134648317.87005     -3174.683 5        30.438
C22        50.000                                                                                                                                    22339868.586 7 116329522.37507       806.027 7        43.096                                                                    22339860.359 5  94527293.96905       654.462 5        30.453
C35        51.000                                                                                                                                    26010980.331 4                     -3853.377 4        25.504
C11        52.000                                                                                                                                                                                                    26790648.379 4 107874869.00804       937.257 4        28.265
C12        56.000                                                                                                                                    24836153.304 6 129328367.73806     -1274.099 6        38.646    24836146.597 6 100004997.17706      -985.070 6        37.255    24836150.252 5 105089891.50305     -1035.367 5        33.144
I01        59.000   339179616.040 5  27872844.38405     -3125.371 5        34.790
I06        60.000    37983499.683 6 149055420.14906      -587.322 6        36.110
> 2025 01 01 04 32 15.0000000  0 40
G30         3.000    23613846.715 5 124091654.97705      2634.713 5        34.643                                    23613847.385 2  96694736.21402      2053.039 2        15.524    23613842.495 4  96694765.34004      2052.496 4        26.886
G07         5.000    21442960.983 6 112683536.53106      1026.526 6        41.571                                    21442948.498 3  87805355.41803       799.900 3        21.571    21442953.966 4                       799.413 4        28.967
E34         6.000    24270142.835 5 127540474.22605     -1829.475 5        34.257                                                                    24270148.343 6  95241305.62106     -1366.184 6        38.372    24270149.258 7  97725829.68707     -1401.720 7        42.347
G09         9.000    20141914.466 8 105846471.86808     -1673.442 8        50.308                                    20141911.053 8  82477780.95208     -1303.981 8        48.662    20141912.650 7  82477771.94007     -1304.034 7        42.461
G20        10.000    23155868.479 7 121684875.28107      2368.022 7        45.943                                    23155864.268 4  94819422.49104      1845.211 4        26.719
G04        11.000    21554213.351 7 113268217.41807     -3142.993 7        44.894                                    21554209.129 4  88260932.76704     -2449.088 4        24.887    21554209.260 6  88260881.77806     -2449.068 6        40.880
E09        12.000    24886282.556 5 130778257.48205     -2638.564 5        31.608                                                                    24886282.131 7  97659184.67807     -1970.281 7        45.130    24886281.306 7 100206792.49907     -2021.666 7        44.752
E31        13.000    26778497.732 4                       717.550 4        28.626                                                                    26778495.091 4                       535.479 4        24.526
E06        14.000                                                                                                                                    26561584.920 4 104233286.66104     -2402.139 4        29.953    26561566.057 4 106952466.62404     -2464.491 4        29.867
E15        16.000    26087747.816 7 137092027.03707       983.593 7        47.980                                                                    26087746.876 7 102373966.53407       734.530 7        43.879    26087747.821 7 105044608.35407       753.650 7        46.157
G06        19.000    21600205.464 7 113510019.81007     -2502.953 7        47.240                                    21600201.373 6  88449364.71906     -1950.349 6        40.451    21600204.753 6  88449253.74906     -1950.359 6        38.574
E36        20.000    26303102.917 5 138223743.93405     -3948.050 5        34.086                                                                                                                                    26303099.726 5 105911689.51805     -3025.249 5        30.000
E05        21.000    21936499.024 7 115277110.71507      -284.411 7        44.588                                                                    21936498.341 8  86083587.78508      -212.475 8        49.346    21936497.451 8  88329233.79008      -218.038 8        48.153
R07        23.000    19497505.693 7 104371761.95107      -760.975 7        46.697                                                                    19497502.539 6  81177963.06806      -591.861 6        41.390
S23        24.000    38158698.346 6 200525230.98706      -822.797 6        40.248
S36        25.000    38218305.692 5 200838566.36205      -827.054 5        34.395
G11        26.000    22249113.691 6 116919985.22106       130.157 6        39.955                                                                                                    22249111.568 6  91106365.63106       101.434 6        38.568
E03        27.000    26543464.072 5 139486841.82805      1490.830 5        34.805                                                                    26543463.608 6 104162239.17706      1113.268 6        37.694    26543498.574 5                      1142.375 5        31.215
R15        28.000    24598518.276 3                     -4714.480 3        23.181
R06        29.000    21353448.935 6 113946099.85006     -3422.295 6        37.191
R24        31.000    23673617.653 5                      2295.733 5        32.928                                                                    23673613.522 5                      1785.572 5        33.862
R09        32.000    20906114.217 6 111637713.47906      1984.089 6        39.775
C19        33.000                                                                                                                                    22333696.934 8 116297407.08108     -1943.416 8        48.703                                                                    22333689.970 7  94501135.31907     -1579.303 7        42.392
R08        35.000    21521102.654 7 115244484.52407      1847.820 7        44.001                                                                    21521093.484 6  89634595.04206      1436.951 6        36.809
R22        37.000                                                                                                                                    21886289.604 6  90868189.89106     -3452.312 6        36.503
R16        39.000    21220861.420 6 113358096.44506     -2048.007 6        40.968                                                                    21220855.869 4  88167446.81604     -1593.505 4        26.970
C06        41.000                                                                                                                                    39321130.864 4                     -1823.509 4        25.925    39321129.529 4 158329858.61004     -1409.320 4        29.706    39321109.067 4                     -1480.795 4        26.012
C36        42.000                                                                                                                                    24007690.942 7 125014528.02107      2163.225 7        42.512                                                                    24007726.582 5 101584418.03605      1757.203 5        30.415
R23        44.000    21068641.471 6 112703337.77606     -1430.604 6        36.832
C16        45.000                                                                                                                                    39901978.510 4                     -1831.338 4        28.095    39901989.330 5 160668761.69905     -1415.958 5        30.566
C09        46.000                                                                                                                                    38868176.620 6 202396827.09406     -1453.167 6        38.354    38868183.824 5 156506001.25405     -1123.768 5        31.796    38868168.382 5                     -1180.597 5        30.294
C21        47.000                                                                                                                                    26786292.189 5                      2026.381 5        32.946
C44        48.000                                                                                                                                    24706156.171 5 128651376.73605     -2594.745 5        33.886                                                                    24706157.685 5 104539852.16805     -2108.695 5        30.445
C37        49.000                                                                                                                                    25860849.829 4 134664196.73204     -3176.542 4        28.768
C22        50.000                                                                                                                                    22339094.409 7 116325495.28807       804.764 7        42.559                                                                    22339087.222 5  94524021.65405       654.103 5        31.238
C35        51.000                                                                                                                                    26014683.411 3                     -3854.094 3        22.533
C11        52.000                                                                                                                                                                                                    26789486.660 4 107870186.66904       935.803 4        28.028
C12        56.000                                                                                                                                    24837376.964 6 129334745.02206     -1276.950 6        37.868    24837371.397 6 100009928.51106      -987.489 6        36.771    24837375.793 5 105095073.53205     -1037.300 5        33.251
I01        59.000   339183598.494 5  27888471.66905     -3125.601 5        34.971
I06        60.000    37984248.940 6 149058357.56406      -587.471 6        36.110
> 2025 01 01 04 32 20.0000000  0 41
G30         3.000    23611341.175 5 124078483.63705      2633.552 5        33.677                                    23611340.329 2  96684472.85902      2052.097 2        14.667    23611335.643 4  96684501.92704      2052.646 4        25.008
G07         5.000    21441985.134 7 112678409.07307      1024.126 7        42.665                                    21441974.346 3  87801360.00303       798.024 3        23.790    21441979.054 5                       798.406 5        30.249
E34         6.000    24271886.035 5 127549626.72105     -1832.199 5        33.251                                                                    24271890.994 6  95248140.30206     -1367.904 6        37.803    24271890.148 6  97732842.67206     -1403.760 6        41.440
G09         9.000    20143507.589 8 105854843.39808     -1675.534 8        50.655                                    20143503.912 8  82484304.21708     -1305.612 8        48.736    20143505.107 7  82484295.21307     -1305.603 7        42.434
G20        10.000    23153615.455 7 121673036.89407      2366.972 7        45.666                                    23153611.089 4  94810197.76604      1844.397 4        26.515
G04        11.000    21557203.176 7 113283934.92507     -3144.270 7        43.962                                    21557200.474 4  88273180.18604     -2450.089 4        24.707    21557200.446 6  88273129.21006     -2450.203 6        41.263
E09        12.000    24888793.974 5 130791450.87005     -2639.550 5        31.691                                                                    24888792.749 7  97669036.87107     -1970.909 7        44.530    24888791.721 7 100216901.69507     -2022.187 7        44.846
E31        13.000    26777814.437 4                       715.587 4        26.695
E06        14.000                                                                                                                                    26564646.783 4 104245297.78504     -2403.202 4        28.976    26564626.675 4 106964791.05304     -2465.042 4        29.327
E15        16.000    26086813.032 8 137087113.43208       981.485 8        48.129                                                                    26086811.684 7 102370297.29507       732.889 7        43.788    26086812.777 7 105040843.38507       752.054 7        46.030
G06        19.000    21602588.037 7 113522541.07207     -2505.882 7        47.145                                    21602583.845 6  88459121.54106     -1952.634 6        40.219    21602586.825 6  88459010.56506     -1952.738 6        40.198
E36        20.000    26306859.850 5 138243485.77105     -3948.990 5        33.515                                                                    26306854.012 5                     -2948.713 5        31.577    26306856.829 5 105926816.37505     -3025.806 5        30.340
E05        21.000    21936770.698 7 115278535.34307      -285.847 7        44.926                                                                    21936769.399 8  86084651.62008      -213.379 8        49.557    21936768.774 8  88330325.38708      -218.965 8        48.371
R07        23.000    19498217.298 7 104375571.08407      -763.115 7        46.381                                                                    19498214.994 7  81180925.71407      -593.380 7        42.525
S23        24.000    38159479.789 6 200529344.16206      -822.875 6        40.167
S36        25.000    38219087.631 5 200842701.09805      -827.375 5        34.971
G11        26.000    22248991.868 6 116919341.81306       126.724 6        41.545                                                                                                    22248990.979 6  91105864.28006        98.880 6        39.180
E03        27.000    26542045.025 5 139479388.56505      1490.136 5        34.395                                                                    26542045.483 6 104156673.42206      1112.738 6        37.096    26542081.486 5                      1142.093 5        30.657
R15        28.000    24602931.481 3                     -4717.524 3        22.057
R06        29.000    21356655.118 5 113963214.18205     -3423.802 5        34.895
R24        31.000    23671478.791 5                      2292.694 5        33.000                                                                    23671467.672 5  98452649.58915      1782.978 5        34.148
R09        32.000    20904263.587 7                      1980.565 7        42.387
C19        33.000                                                                                                                                    22335563.562 8 116307126.76208     -1944.902 8        49.512                                                                    22335556.550 7  94509033.36507     -1580.308 7        42.006
C20        34.000                                                                                                                                    25711766.177 3                     -3522.540 3        22.781
R08        35.000    21519375.717 6 115235246.97206      1846.794 6        41.580                                                                    21519367.055 5  89627410.27105      1436.499 5        34.595
R22        37.000    21890436.987 5 116852952.17205     -4441.514 5        31.328                                                                    21890449.234 6  90885456.34206     -3454.232 6        36.533
R16        39.000    21222780.746 7 113368346.36307     -2052.409 7        42.809                                                                    21222771.633 4  88175418.78604     -1596.602 4        27.329
C06        41.000                                                                                                                                    39322881.174 4                     -1822.721 4        26.790    39322878.864 4 158336905.63504     -1410.090 4        29.934    39322859.506 4                     -1481.115 4        26.754
C36        42.000                                                                                                                                    24005614.871 6 125003714.29606      2161.891 6        41.688                                                                    24005652.279 4 101575630.95204      1757.004 4        28.806
R23        44.000    21069977.794 5 112710501.28705     -1435.180 5        34.457
C16        45.000                                                                                                                                    39903737.615 4                     -1831.475 4        28.654    39903748.275 5 160675841.13505     -1416.127 5        30.174
C09        46.000                                                                                                                                    38869572.045 6 202404093.38206     -1453.553 6        38.189    38869579.116 5 156511620.00805     -1123.706 5        31.381    38869563.810 5                     -1180.916 5        30.204
C21        47.000                                                                                                                                    26784346.488 5                      2026.265 5        32.617
C44        48.000                                                                                                                                    24708647.982 5 128664356.02305     -2596.985 5        32.509                                                                    24708645.095 5 104550398.84705     -2109.966 5        30.415
C37        49.000                                                                                                                                    25863895.187 4 134680084.98904     -3179.172 4        26.742
C22        50.000                                                                                                                                    22338321.891 6 116321473.96706       803.479 6        41.509                                                                    22338315.858 5  94520754.01105       652.838 5        32.461
C35        51.000                                                                                                                                    26018392.850 3                     -3854.101 3        19.493
C11        52.000                                                                                                                                                                                                    26788326.952 4 107865512.49004       933.426 4        29.280
C12        56.000                                                                                                                                    24838603.531 6 129341136.34306     -1279.954 6        37.187    24838600.366 6 100014870.68306      -989.650 6        37.327    24838603.675 5 105100267.01505     -1039.729 5        33.754
I01        59.000   339187581.981 5  27904099.54305     -3125.831 5        35.429
I06        60.000    37984997.349 6 149061295.20306      -587.626 6        36.469
> 2025 01 01 04 32 25.0000000  0 39
G16         1.000    23582092.580 3 123924869.95503      -147.636 3        23.086
G30         3.000    23608835.500 5 124065316.95905      2632.903 5        32.671                                    23608834.217 2  96674213.15502      2051.657 2        13.636    23608831.740 3                      2052.020 3        22.857
G07         5.000    21441011.337 7 112673293.20207      1022.206 7        44.006                                    21441001.893 4  87797373.59404       796.519 4        25.414    21441006.588 5                       796.471 5        31.464
E34         6.000    24273630.019 5 127558791.49505     -1834.158 5        32.329                                                                    24273635.658 6  95254984.18906     -1369.647 6        36.423    24273633.667 6  97739865.09806     -1405.491 6        40.839
G03         8.000    24022365.723 3                     -4322.232 3        19.194
G09         9.000    20145102.858 8 105863224.91908     -1677.215 8        51.008                                    20145098.738 8  82490835.27008     -1306.918 8        48.752    20145099.930 7  82490826.26007     -1306.936 7        42.645
G20        10.000    23151363.757 7 121661203.33407      2366.375 7        44.924                                    23151358.845 4  94800976.80804      1843.932 4        26.335
G04        11.000    21560194.574 7 113299658.62307     -3145.237 7        42.409                                    21560193.143 4  88285432.40704     -2450.833 4        24.211    21560192.266 6  88285381.42606     -2450.750 6        41.263
E09        12.000    24891304.825 5 130804647.78005     -2639.690 5        33.503                                                                    24891304.132 7  97678891.70607     -1971.241 7        44.009    24891302.983 7 100227013.62107     -2022.635 7        45.065
E31        13.000    26777136.387 4                       712.882 4        27.138
E06        14.000                                                                                                                                    26567707.838 4 104257309.78704     -2402.163 4        28.427    26567687.908 4 106977116.44704     -2465.448 4        28.957
E15        16.000    26085879.959 8 137082209.79008       979.825 8        48.404                                                                    26085878.485 7 102366635.47607       731.666 7        43.543    26085879.558 7 105037086.03807       750.763 7        45.901
G06        19.000    21604973.824 7 113535077.50707     -2508.718 7        47.059                                    21604969.290 6  88468890.18306     -1954.840 6        40.086    21604971.344 6  88468779.20306     -1954.845 6        39.955
E36        20.000    26310616.924 5 138263231.81205     -3949.412 5        33.389                                                                    26310615.179 5                     -2949.485 5        33.216    26310615.034 5 105941946.45105     -3026.044 5        31.962
E05        21.000    21937043.826 7 115279966.21807      -286.732 7        45.460                                                                    21937041.683 8  86085720.14408      -214.153 8        49.494    21937041.233 8  88331421.78808      -219.738 8        48.791
R07        23.000    19498930.582 7 104379390.53407      -764.880 7        46.907                                                                    19498929.028 7  81183896.40907      -594.925 7        43.951
S23        24.000    38160261.464 6 200533457.61906      -822.720 6        40.238
S36        25.000    38219876.779 5 200846835.82505      -827.147 5        34.838
G11        26.000    22248871.774 7 116918714.94707       123.747 7        42.110                                                                                                    22248871.488 6  91105375.80306        96.435 6        39.504
E03        27.000    26540626.524 5 139471938.38805      1489.746 5        34.824                                                                    26540627.529 6 104151109.96506      1112.594 6        36.688    26540662.881 4                      1141.642 4        29.820
R06        29.000    21359863.522 5 113980334.90405     -3424.481 5        33.168
R24        31.000    23669340.806 5                      2289.929 5        32.455                                                                    23669324.785 5  98443738.86405      1780.835 5        33.832
R09        32.000    20902416.302 7 111617904.12017      1977.707 7        43.412                                                                    20902413.385 5  86813781.24215      1538.073 5        35.562
C19        33.000                                                                                                                                    22337431.685 8 116316853.67108     -1945.978 8        49.458                                                                    22337424.426 6  94516937.28806     -1581.274 6        41.311
R08        35.000    21517646.121 6 115226014.17006      1846.114 6        39.309                                                                    21517643.038 5  89620229.18405      1435.883 5        31.683
R22        37.000                                                                                                                                    21894611.135 6  90902731.81906     -3456.041 6        36.212
R16        39.000    21224705.384 7 113378618.73007     -2056.693 7        43.215
C06        41.000                                                                                                                                    39324635.736 4                     -1822.213 4        25.925    39324628.081 5 158343953.45305     -1409.233 5        30.309    39324609.435 4                     -1481.436 4        26.335
C36        42.000                                                                                                                                    24003539.728 6 124992906.90506      2161.058 6        40.250                                                                    24003577.169 4 101566849.01204      1756.353 4        26.838
R23        44.000    21071319.044 5 112717688.34605     -1439.790 5        35.890
C16        45.000                                                                                                                                    39905495.057 4                     -1831.341 4        28.190    39905504.626 5 160682921.23605     -1415.965 5        30.340
C09        46.000                                                                                                                                    38870967.608 6 202411361.47606     -1453.594 6        37.709    38870974.336 4 156517240.14804     -1123.845 4        29.886    38870960.087 4                     -1181.459 4        29.915
C21        47.000                                                                                                                                    26782399.472 5                      2026.381 5        31.698
C44        48.000                                                                                                                                    24711140.509 5 128677345.70105     -2599.021 5        31.298                                                                    24711136.565 5 104560954.01805     -2111.468 5        30.355
C37        49.000                                                                                                                                    25866941.539 3                     -3181.004 3        22.267
C22        50.000                                                                                                                                    22337549.994 6 116317458.46306       802.657 6        40.222                                                                    22337547.105 5  94517491.12905       652.198 5        33.766
C12        56.000                                                                                                                                    24839834.586 6 129347541.72406     -1282.432 6        36.174    24839835.619 6 100019823.73506      -991.655 6        38.252    24839834.699 5 105105471.93505     -1042.082 5        33.503
I01        59.000   339191564.854 5  27919728.14405     -3125.677 5        35.314
I06        60.000    37985745.881 6 149064233.11006      -587.534 6        36.019
> 2025 01 01 04 32 30.0000000  0 40
G16         1.000    23582242.124 4                      -150.987 4        24.767
G30         3.000    23606329.625 5 124052154.35505      2632.195 5        31.781                                    23606328.982 2  96663956.61702      2051.036 2        13.455    23606321.577 3                      2052.167 3        19.373
G07         5.000    21440039.643 7 112668188.26507      1019.946 7        44.790                                    21440031.184 4  87793395.72504       794.763 4        26.814    21440033.984 5                       794.655 5        31.208
E34         6.000    24275375.087 5 127567967.94805     -1836.247 5        30.279                                                                    24275381.552 5  95261836.77405     -1371.353 5        35.243    24275379.392 6  97746896.43006     -1407.112 6        40.489
G03         8.000    24026467.811 3                     -4322.821 3        21.238
G09         9.000    20146699.605 8 105871615.73308     -1679.003 8        50.928                                    20146695.412 8  82497373.56108     -1308.311 8        49.049    20146696.700 7  82497364.55807     -1308.345 7        43.236
G20        10.000    23149112.251 7 121649373.91907      2365.570 7        43.600                                    23149107.378 4  94791759.07204      1843.301 4        25.774
G04        11.000    21563188.458 6 113315387.81706     -3146.342 6        40.482                                    21563186.698 3  88297688.93903     -2451.697 3        23.886    21563185.599 6  88297637.95806     -2451.666 6        40.849
E09        12.000    24893817.062 5 130817847.55305     -2640.146 5        34.181                                                                    24893815.894 7  97688748.67507     -1971.559 7        43.213    24893814.744 7 100237127.72207     -2022.907 7        45.081
E31        13.000    26776459.410 4                       711.663 4        27.401                                                                    26776476.091 4                       531.117 4        25.444
E06        14.000                                                                                                                                    26570769.202 4 104269322.34204     -2402.568 4        28.445    26570748.795 4 106989442.31204     -2465.428 4        28.616
E15        16.000    26084948.732 8 137077315.41508       978.032 8        48.413                                                                    26084947.118 7 102362980.59007       730.374 7        43.672    26084948.093 7 105033335.80607       749.406 7        45.618
G06        19.000    21607362.355 7 113547628.41007     -2511.532 7        46.931                                    21607357.481 6  88478670.09606     -1957.033 6        40.188    21607359.302 6  88478559.11806     -1957.081 6        39.108
E36        20.000    26314375.527 5 138282981.39005     -3950.354 5        33.096                                                                    26314373.421 5 103263254.45715     -2949.923 5        34.214    26314373.121 5 105957079.21405     -3026.738 5        32.748
E05        21.000    21937316.989 7 115281402.70207      -287.683 7        45.308                                                                    21937314.973 8  86086792.84308      -214.922 8        49.631    21937314.794 8  88332522.47608      -220.494 8        49.055
R07        23.000    19499645.940 7 104383219.43607      -766.589 7        47.903                                                                    19499644.308 7  81186874.44407      -596.193 7        44.944
S23        24.000    38161044.991 6 200537570.62406      -822.503 6        40.050
S36        25.000    38220662.362 5 200850970.38605      -826.548 5        34.329
G11        26.000    22248755.280 7 116918103.95307       120.774 7        42.021                                                                                                    22248755.427 6  91104899.73406        93.876 6        40.286
E03        27.000    26539209.180 5 139464490.59905      1489.319 5        34.090                                                                    26539210.326 5 104145548.32605      1112.103 5        35.805    26539240.771 5                      1141.149 5        30.317
R06        29.000    21363073.933 5 113997461.26205     -3425.638 5        32.772
R24        31.000    23667203.138 5                      2287.385 5        33.551                                                                    23667183.083 5  98434838.76305      1779.010 5        32.497
R09        32.000    20900566.487 7 111608023.70607      1974.646 7        43.807                                                                    20900563.476 6  86806096.34306      1536.033 6        36.684
C19        33.000                                                                                                                                    22339300.715 8 116326587.13108     -1947.252 8        48.951                                                                    22339293.336 6  94524846.51206     -1582.328 6        40.980
R08        35.000    21515926.955 6 115216785.58006      1845.534 6        39.634                                                                    21515920.921 4  89613051.43904      1435.020 4        27.269
R22        37.000    21898791.117 6 116897385.96706     -4445.486 6        38.303                                                                    21898772.433 6  90920015.80506     -3457.383 6        36.386
R16        39.000    21226632.174 7 113388912.47007     -2060.773 7        42.557                                                                    21226636.355 5  88191414.52905     -1602.915 5        32.557
C06        41.000                                                                                                                                    39326391.187 4                     -1822.850 4        26.719    39326377.761 5 158351001.67705     -1409.549 5        30.521    39326359.521 4                     -1481.127 4        26.647
C36        42.000                                                                                                                                    24001465.047 6 124982105.21606      2159.725 6        37.618                                                                    24001503.750 4 101558071.73904      1754.984 4        24.556
R23        44.000    21072667.540 5 112724898.07105     -1444.126 5        34.433
C16        45.000                                                                                                                                    39907251.488 4                     -1831.210 4        29.270    39907264.241 5 160690001.49005     -1416.118 5        30.400
C09        46.000                                                                                                                                    38872363.631 6 202418630.71406     -1453.752 6        36.991    38872373.177 4 156522861.22904     -1124.179 4        29.147    38872356.038 4                     -1181.489 4        29.991
C21        47.000                                                                                                                                    26780450.676 5                      2026.411 5        30.325
C44        48.000                                                                                                                                    24713635.335 5 128690344.90305     -2600.712 5        31.675                                                                    24713632.482 4 104571517.02404     -2113.364 4        29.735
C37        49.000                                                                                                                                    25869995.863 3                     -3182.236 3        21.810
C22        50.000                                                                                                                                    22336780.187 6 116313448.11706       801.650 6        39.129                                                                    22336778.637 5  94514232.41105       651.206 5        35.562
C35        51.000                                                                                                                                    26025758.923 4                     -3853.635 4        26.120
C12        56.000                                                                                                                                    24841067.266 5 129353960.50005     -1285.151 5        33.293    24841075.112 6 100024787.09406      -993.473 6        38.631    24841067.785 5 105110687.68605     -1043.894 5        32.503
I01        59.000   339195546.867 5  27935357.01205     -3125.677 5        35.467
I06        60.000    37986494.438 6 149067170.81306      -587.468 6        36.015
> 2025 01 01 04 32 35.0000000  0 38
G30         3.000    23603826.324 5 124038995.65605      2631.502 5        30.943                                    23603824.556 2  96653703.08002      2050.544 2        14.048    23603812.084 3                      2048.864 3        21.500
G07         5.000    21439070.287 7 112663094.10407      1017.496 7        45.639                                    21439062.242 4  87789426.25304       792.858 4        28.152    21439062.139 5                       792.784 5        30.355
E34         6.000    24277122.089 4 127577155.83704     -1839.159 4        29.943                                                                    24277127.965 5  95268697.98905     -1373.221 5        33.539    24277127.011 6  97753936.56806     -1409.057 6        40.093
G03         8.000    24030591.577 3                     -4324.662 3        23.448
G09         9.000    20148298.035 8 105880015.71408     -1681.152 8        51.269                                    20148293.896 8  82503918.99408     -1309.988 8        49.129    20148294.890 7  82503909.99307     -1310.055 7        43.503
G20        10.000    23146862.134 7 121637548.52707      2364.381 7        42.466                                    23146856.829 4  94782544.47104      1842.371 4        25.278
G04        11.000    21566183.864 6 113331122.35306     -3147.800 6        39.213                                    21566181.138 3  88309949.62903     -2452.835 3        23.067    21566179.100 6  88309898.64506     -2452.714 6        40.276
E09        12.000    24896329.601 5 130831050.02805     -2641.015 5        35.738                                                                    24896328.135 7  97698607.67807     -1972.243 7        42.766    24896327.125 7 100247243.90907     -2023.616 7        45.022
E31        13.000    26775781.342 4                       709.791 4        27.293                                                                    26775792.912 4                       530.288 4        26.886
E06        14.000    26573931.251 4                     -3217.440 4        25.293                                                                    26573830.688 4 104281335.18904     -2402.718 4        28.303    26573811.229 4 107001768.55304     -2465.419 4        27.305
E15        16.000    26084018.830 8 137072430.18508       975.836 8        48.456                                                                    26084017.549 7 102359332.53507       728.758 7        43.532    26084018.321 7 105029592.57407       747.727 7        45.321
G06        19.000    21609753.666 7 113560193.64707     -2514.748 7        47.466                                    21609748.381 6  88488461.17806     -1959.540 6        40.200    21609750.991 6  88488350.19706     -1959.639 6        38.306
E36        20.000    26318134.121 5 138302734.25205     -3951.184 5        32.114                                                                    26318133.776 5 103278005.03005     -2950.563 5        34.781    26318131.542 5 105972214.58605     -3027.680 5        33.413
E05        21.000    21937590.877 7 115282844.64207      -289.188 7        45.365                                                                    21937589.253 8  86087869.61308      -215.963 8        49.606    21937589.365 8  88333627.34908      -221.676 8        49.374
R07        23.000    19500362.738 8 104387057.52408      -768.856 8        48.367                                                                    19500361.354 7  81189859.63807      -598.057 7        45.502
S23        24.000    38161825.007 6 200541682.75006      -822.652 6        40.296
S36        25.000    38221454.931 5 200855103.90805      -826.609 5        34.700
G11        26.000    22248641.507 7 116917508.70507       117.217 7        42.317                                                                                                    22248642.279 6  91104435.89506        91.233 6        40.429
E03        27.000    26537792.407 5 139457045.03705      1488.616 5        34.029                                                                    26537793.431 5 104139988.35705      1111.498 5        35.119    26537817.597 5                      1140.695 5        32.054
R06        29.000    21366283.155 5 114014593.23705     -3427.240 5        33.036
R24        31.000    23665065.179 5 126547744.04815      2284.186 5        34.862                                                                    23665044.471 5  98425949.27105      1776.650 5        32.126
R09        32.000    20898716.650 7 111598159.04107      1971.067 7        42.652                                                                    20898716.166 6  86798423.86506      1533.133 6        36.450
C19        33.000                                                                                                                                    22341170.673 8 116336327.00508     -1948.890 8        48.469                                                                    22341163.528 6  94532760.95406     -1583.716 6        40.510
R08        35.000    21514205.154 6 115207561.04706      1844.245 6        39.757                                                                    21514201.453 4  89605876.78804      1433.827 4        27.198
R22        37.000    21902950.066 6 116919619.00006     -4448.003 6        39.456                                                                    21902937.629 5  90937308.14705     -3459.664 5        35.219
R16        39.000    21228562.051 7 113399227.66207     -2065.412 7        42.597                                                                    21228560.402 5  88199437.53805     -1606.428 5        30.672
C06        41.000                                                                                                                                    39328142.409 4                     -1823.310 4        26.479    39328126.418 5 158358050.11905     -1409.526 5        30.777    39328110.854 4                     -1481.313 4        27.054
C36        42.000                                                                                                                                    23999391.155 5 124971309.05605      2158.379 5        35.010                                                                    23999428.445 3                      1754.646 3        23.238
C16        45.000                                                                                                                                    39909011.885 4                     -1831.230 4        28.673    39909025.507 5 160697081.72005     -1416.377 5        30.906
C09        46.000                                                                                                                                    38873759.100 6 202425900.91306     -1454.267 6        36.480    38873770.039 4 156528483.02304     -1124.533 4        28.540    38873752.356 5                     -1181.945 5        30.309
C21        47.000                                                                                                                                    26778502.779 4                      2026.464 4        27.916
C44        48.000                                                                                                                                    24716133.988 5 128703353.66305     -2602.769 5        32.533                                                                    24716131.363 5 104582087.67105     -2115.112 5        30.475
C37        49.000                                                                                                                                    25873048.622 3                     -3181.850 3        20.500
C22        50.000                                                                                                                                    22336012.662 6 116309442.75106       800.208 6        38.342                                                                    22336010.059 6  94510977.73406       650.012 6        37.365
C35        51.000                                                                                                                                    26029464.744 5                     -3854.382 5        30.023
C12        56.000                                                                                                                                    24842301.196 4 129360392.46904     -1287.827 4        29.687    24842310.330 6 100029760.71006      -995.965 6        38.153    24842303.482 5 105115914.20705     -1046.705 5        31.253
I01        59.000   339199531.272 5  27950985.99805     -3125.987 5        35.748
I06        60.000    37987242.590 6 149070108.16006      -587.682 6        36.049
