     3.04           OBSERVATION DATA    M                   RINEX VERSION / TYPE
ssrcrin-15.6.1x                         20250101 224500 UTC PGM / RUN BY / DATE 
(00000000023479385599111004) Septentrio proprietary         COMMENT             
ract                                                        MARKER NAME         
01                                                          MARKER NUMBER       
geodetic                                                    MARKER TYPE         
NFB                 CLIMERS@TUW                             OBSERVER / AGENCY   
3296359             SEPT ASTERX SB3 PROB4.14.4              REC # / TYPE / VERS 
Unknown             Unknown                                 ANT # / TYPE        
  4127446.4733  1206914.9051  4695541.3930                  APPROX POSITION XYZ 
        0.0000        0.0000        0.0000                  ANTENNA: DELTA H/E/N
G   23 X1  C1C L1C D1C S1C C1W S1W C2W L2W D2W S2W C2L L2L  SYS / # / OBS TYPES 
       D2L S2L C5Q L5Q D5Q S5Q C1L L1L D1L S1L              SYS / # / OBS TYPES 
E   21 X1  C1C L1C D1C S1C C6C L6C D6C S6C C5Q L5Q D5Q S5Q  SYS / # / OBS TYPES 
       C7Q L7Q D7Q S7Q C8Q L8Q D8Q S8Q                      SYS / # / OBS TYPES 
S    9 X1  C1C L1C D1C S1C C5I L5I D5I S5I                  SYS / # / OBS TYPES 
R   17 X1  C1C L1C D1C S1C C2P L2P D2P S2P C2C L2C D2C S2C  SYS / # / OBS TYPES 
       C3Q L3Q D3Q S3Q                                      SYS / # / OBS TYPES 
C   25 X1  C1P L1P D1P S1P C5P L5P D5P S5P C2I L2I D2I S2I  SYS / # / OBS TYPES 
       C7I L7I D7I S7I C6I L6I D6I S6I C7D L7D D7D S7D      SYS / # / OBS TYPES 
J   17 X1  C1C L1C D1C S1C C2L L2L D2L S2L C5Q L5Q D5Q S5Q  SYS / # / OBS TYPES 
       C1L L1L D1L S1L                                      SYS / # / OBS TYPES 
I    5 X1  C5A L5A D5A S5A                                  SYS / # / OBS TYPES 
SEPTENTRIO RECEIVERS OUTPUT ALIGNED CARRIER PHASES.         COMMENT             
NO FURTHER PHASE SHIFT APPLIED IN THE RINEX ENCODER.        COMMENT             
G L1C                                                       SYS / PHASE SHIFT   
G L2W                                                       SYS / PHASE SHIFT   
G L2L  0.00000                                              SYS / PHASE SHIFT   
G L5Q  0.00000                                              SYS / PHASE SHIFT   
G L1L  0.00000                                              SYS / PHASE SHIFT   
E L1C  0.00000                                              SYS / PHASE SHIFT   
E L6C  0.00000                                              SYS / PHASE SHIFT   
E L5Q  0.00000                                              SYS / PHASE SHIFT   
E L7Q  0.00000                                              SYS / PHASE SHIFT   
E L8Q  0.00000                                              SYS / PHASE SHIFT   
S L1C                                                       SYS / PHASE SHIFT   
S L5I                                                       SYS / PHASE SHIFT   
R L1C                                                       SYS / PHASE SHIFT   
R L2P  0.00000                                              SYS / PHASE SHIFT   
R L2C                                                       SYS / PHASE SHIFT   
R L3Q  0.00000                                              SYS / PHASE SHIFT   
C L1P  0.00000                                              SYS / PHASE SHIFT   
C L5P  0.00000                                              SYS / PHASE SHIFT   
C L2I                                                       SYS / PHASE SHIFT   
C L7I                                                       SYS / PHASE SHIFT   
C L6I                                                       SYS / PHASE SHIFT   
C L7D                                                       SYS / PHASE SHIFT   
J L1C                                                       SYS / PHASE SHIFT   
J L2L  0.00000                                              SYS / PHASE SHIFT   
J L5Q  0.00000                                              SYS / PHASE SHIFT   
J L1L  0.00000                                              SYS / PHASE SHIFT   
I L5A                                                       SYS / PHASE SHIFT   
  2025     1     1    22    45    0.0000000     GPS         TIME OF FIRST OBS   
 C1C    0.000 C2C    0.000 C2P    0.000                     GLONASS COD/PHS/BIS 
DBHZ                                                        SIGNAL STRENGTH UNIT
    18                                                      LEAP SECONDS        
 24 R01  1 R02 -4 R03  5 R04  6 R05  1 R06 -4 R07  5 R08  6 GLONASS SLOT / FRQ #
    R09 -2 R10 -7 R11  0 R12 -1 R13 -2 R14 -7 R15  0 R16 -1 GLONASS SLOT / FRQ #
    R17  4 R18 -3 R19  3 R20  2 R21  4 R22 -3 R23  3 R24  2 GLONASS SLOT / FRQ #
                                                            END OF HEADER       
> 2025 01 01 22 45  0.0000000  0 36
G03         1.000                                                                                                                                                                    23384045.980 5  95753758.47305      2000.169 5        31.660
G10         2.000    22658070.862 6 119069025.57206     -3563.870 6        41.399                                    22658068.649 6  92781059.43606     -2777.043 6        37.146    22658068.268 6  92781031.46006     -2777.158 6        41.156
G32         3.000    21856841.422 7 114858413.01407      -586.029 7        46.589                                    21856840.092 4  89500076.91004      -456.639 4        28.152
G14         4.000    23874346.810 5 125460508.26905      -593.974 5        33.671                                    23874341.742 2  97761415.09502      -462.823 2        15.476    23874342.276 6  97761435.10806      -462.609 6        38.417
E07         5.000    24696862.399 6 129782851.59806       279.373 6        39.793                                                                                                                                    24696877.673 4  99444022.62804       214.179 4        28.512
G08         6.000    21103351.331 8 110899391.95908     -3072.290 8        52.187                                    21103349.162 8  86414676.30308     -2393.990 8        48.376    21103349.424 7  86414704.30107     -2393.983 7        43.810
G27         7.000    23293981.391 5 122410678.30805     -4514.289 5        32.754                                    23293978.294 4  95384960.38504     -3517.635 4        25.549    23293979.331 6  95384960.39006     -3517.350 6        38.589
G21         8.000    20634344.231 6 108434196.26906      -562.462 6        39.318                                    20634337.159 4  84494153.65804      -438.282 4        24.391
G02         9.000    21515756.056 7 113066116.17707       815.471 7        43.907                                    21515745.682 4  88103438.73204       635.432 4        25.684
G17        11.000    25660012.030 4                      2511.975 4        26.000
E08        12.000    26484545.399 6 139177275.78106     -2457.166 6        36.136                                                                    26484551.700 5 103931004.21205     -1834.767 5        31.932    26484549.771 5 106642314.59705     -1882.727 5        34.933
E29        14.000    26585918.574 6 139710001.96306      2233.502 6        39.673                                                                    26585917.338 7 104328848.06707      1667.903 7        42.887    26585917.590 6 107050484.84006      1711.495 6        38.919
E24        15.000    28029468.062 4 147295892.10204       287.675 4        28.474                                                                    28029464.642 5 109993642.41605       215.070 5        33.820    28029462.222 5 112863107.29205       220.435 5        35.848
E13        16.000    26710731.747 4                     -3122.227 4        24.556                                                                    26710723.278 5 104818611.38305     -2331.383 5        31.608
E31        17.000    26275862.387 6 138080578.72506     -2128.550 6        38.619                                                                    26275868.197 6 103112141.97706     -1589.639 6        36.870    26275852.848 3                     -1630.127 3        20.310
E26        19.000    23509732.242 7 123544465.15507     -1412.185 7        47.585                                                                    23509730.932 6  92257304.61706     -1054.478 6        36.745    23509729.637 6  94663949.70806     -1082.129 6        40.908
R06        21.000    22102475.273 5 117943033.14105      3314.635 5        30.672
S36        23.000    38216954.636 5 200831354.99505      -853.073 5        35.252
S23        24.000    38170860.176 6 200589144.87106      -851.064 6        41.840
R12        25.000                                                                                                                                    23307661.711 4  96837592.52204      -880.355 4        28.720
R20        26.000    19476729.979 4                     -1527.280 4        26.515                                                                    19476734.499 6                     -1188.035 6        38.508
R05        27.000    19325923.264 7 103308181.29007      -833.612 7        46.400                                                                    19325923.058 7  80350766.39207      -648.373 7        42.701
E33        28.000    24445927.287 6 128464245.94306       761.316 6        40.367                                                                    24445923.997 6  95931102.05606       568.512 6        40.563    24445924.771 7  98433614.09107       583.363 7        44.451
R21        30.000    20752585.047 7 111051516.22707      2002.756 7        47.619                                                                    20752583.112 7  86373233.76507      1557.677 7        44.632
R04        31.000                                                                                                                                    21700317.748 4                     -3434.158 4        29.185
C32        36.000                                                                                                                                    24764432.914 5 128954904.95505      2382.540 5        34.214                                                                    24764427.185 6 104786382.36706      1936.225 6        36.000
C33        37.000                                                                                                                                    23716388.275 6 123497538.19306     -3124.769 6        38.492                                                                    23716395.185 7 100351814.34107     -2539.043 7        43.949
C30        38.000                                                                                                                                    23687057.758 7 123344709.54107      1699.090 7        46.620                                                                    23687055.545 6 100227705.02006      1380.640 6        40.779
C28        40.000                                                                                                                                                                                                                                                                    23062558.480 5  97585241.18005     -2627.010 5        32.515
R11        41.000    23905285.078 5 127742601.40205     -4134.444 5        33.737                                                                    23905256.082 4                     -3216.465 4        25.278
I01        44.000   371543378.011 7 154875255.12307     -2520.068 7        42.216
C14        47.000                                                                                                                                    25803350.443 5                     -3975.177 5        30.815    25803341.904 5                     -3073.887 5        31.917
C41        49.000                                                                                                                                                                                                                                                                    22037372.891 7  93247374.98507      -139.004 7        46.063
C27        52.000                                                                                                                                    21389940.893 8 111383020.23008      -840.659 8        49.469                                                                    21389939.275 8  90507840.93008      -683.111 8        48.857
I06        58.000    38417308.319 5 150757944.31005      -530.945 5        35.048
I09        60.000    37333455.551 6 146504490.83806      -360.014 6        39.405
> 2025 01 01 22 45  5.0000000  0 35
G03         1.000    23381605.043 5                      2565.349 5        32.467                                                                                                    23381601.415 5  95743761.57505      1998.738 5        32.371
G10         2.000    22661462.673 7 119086847.39307     -3565.148 7        42.440                                    22661459.927 6  92794946.56206     -2778.030 6        37.558    22661459.381 6  92794918.57806     -2778.111 6        40.894
G32         3.000    21857400.377 7 114861350.59807      -589.417 7        46.643                                    21857397.990 4  89502365.93204      -459.284 4        29.592
G14         4.000    23874914.907 5 125463484.82105      -597.412 5        35.976                                    23874908.332 2  97763734.48202      -465.508 2        16.604    23874909.115 6  97763754.51606      -465.448 6        38.610
E07         5.000    24696597.034 6 129781459.64506       276.957 6        39.574                                                                    24696605.184 5  96914806.87915       206.594 5        31.494
G08         6.000    21106275.442 8 110914759.07708     -3074.980 8        51.745                                    21106273.523 8  86426650.67608     -2396.087 8        48.239    21106273.573 7  86426678.66507     -2396.004 7        43.464
G27         7.000    23298273.478 5 122433250.87105     -4515.543 5        32.461                                    23298273.829 4  95402549.36004     -3518.621 4        26.072    23298275.016 6  95402549.39806     -3518.552 6        38.901
G21         8.000    20634881.264 6 108437012.50906      -564.270 6        39.393                                    20634873.061 4  84496348.14704      -439.692 4        24.752
G02         9.000    21514981.066 7 113062040.93807       814.122 7        44.618                                    21514970.643 4  88100263.23904       634.386 4        26.347
G17        11.000    25657617.454 3                      2511.813 3        23.962
E08        12.000    26486882.929 5 139189566.19105     -2459.648 5        32.281                                                                    26486889.568 5 103940182.03805     -1836.505 5        32.832    26486886.860 5 106651731.91105     -1884.763 5        34.329
E29        14.000    26583793.280 6 139698835.06506      2232.692 6        39.925                                                                    26583792.353 7 104320509.16207      1667.280 7        43.003    26583792.523 6 107041928.39406      1710.805 6        38.862
E24        15.000    28029194.979 4 147294457.76804       285.502 4        29.280                                                                    28029191.218 5 109992571.31905       212.980 5        34.210    28029189.732 6 112862008.21706       218.936 6        36.147
E13        16.000                                                                                                                                    26713695.798 4 104830269.54004     -2332.270 4        28.531
E31        17.000    26277888.018 6 138091226.13706     -2130.888 6        38.940                                                                    26277895.703 6 103120092.95606     -1591.263 6        37.229    26277882.437 3                     -1632.496 3        23.752
E26        19.000    23511076.302 7 123551528.32507     -1413.531 7        47.761                                                                    23511077.028 6  92262579.01406     -1055.469 6        36.510    23511074.245 6  94669361.73506     -1083.110 6        41.425
R06        21.000    22099370.813 5 117926461.35905      3313.018 5        33.305
S36        23.000    38217763.883 5 200835619.28805      -852.880 5        35.462
S23        24.000    38171664.174 6 200593399.44206      -851.139 6        41.380
R20        26.000    19478162.575 4                     -1530.381 4        29.261                                                                    19478163.860 6  81012353.09716     -1190.234 6        38.183
R05        27.000    19326705.347 7 103312359.91407      -838.297 7        46.004                                                                    19326705.302 7  80354016.45407      -651.995 7        42.745
E33        28.000    24445203.296 6 128460440.60606       760.370 6        39.087                                                                    24445199.631 6  95928260.42106       567.889 6        40.045    24445200.425 7  98430698.31707       582.656 7        43.782
R21        30.000    20750715.016 8 111041505.72008      2001.050 8        48.719                                                                    20750712.911 7  86365447.82607      1556.354 7        45.512
R04        31.000                                                                                                                                    21704443.880 5                     -3436.125 5        33.623
C32        36.000                                                                                                                                    24762148.832 5 128942993.25905      2381.491 5        34.048                                                                    24762139.959 5 104776703.26905      1935.268 5        35.152
C33        37.000                                                                                                                                    23719390.515 6 123513165.12706     -3126.529 6        40.455                                                                    23719396.362 7 100364512.51307     -2540.534 7        43.983
C30        38.000                                                                                                                                    23685426.316 7 123336216.17307      1697.776 7        46.391                                                                    23685424.236 6 100220803.46706      1379.645 6        40.689
C28        40.000                                                                                                                                    23065684.171 5 120108984.48715     -3234.904 5        35.329                                                                    23065661.778 5  97598379.01805     -2628.317 5        32.323
R11        41.000    23909159.365 5 127763277.42215     -4136.492 5        33.251                                                                    23909123.195 3                     -3216.916 3        21.119
I01        44.000   371546588.457 7 154887855.70907     -2520.536 7        42.119
C14        47.000                                                                                                                                    25807171.136 4                     -3975.952 4        28.218    25807161.747 5                     -3074.706 5        35.238
C41        49.000                                                                                                                                    22037530.673 4 114755283.92514      -174.159 4        26.371                                                                    22037538.312 7  93248074.94207      -141.207 7        46.366
C27        52.000                                                                                                                                    21390749.095 8 111387228.86608      -843.213 8        48.932                                                                    21390747.571 8  90511260.77408      -685.046 8        48.931
I06        58.000    38417984.279 5 150760597.65505      -530.675 5        33.461
I09        60.000    37333913.892 6 146506290.55406      -360.373 6        38.982
> 2025 01 01 22 45 10.0000000  0 36
G03         1.000    23379162.174 5 122858334.51115      2563.993 5        35.533                                                                                                    23379165.901 5  95733769.21205      1998.110 5        30.792
G10         2.000    22664854.370 7 119104675.02307     -3566.174 7        43.998                                    22664852.140 6  92808838.21906     -2778.831 6        37.826    22664851.686 6  92808810.20806     -2778.688 6        40.937
G32         3.000    21857962.818 7 114864304.82707      -592.518 7        46.724                                    21857959.393 4  89504667.93704      -461.696 4        29.735    21858006.078 4  89504717.97814      -461.738 4        29.327
G14         4.000    23875483.791 6 125466477.54206      -600.280 6        36.166                                    23875478.124 2  97766066.47602      -467.747 2        17.849    23875478.647 6  97766086.49006      -467.713 6        37.887
E07         5.000    24696334.212 6 129780079.86706       274.675 6        40.415                                                                    24696339.292 5  96913776.63405       205.026 5        32.311
G08         6.000    21109202.015 8 110930139.42808     -3077.463 8        51.305                                    21109200.213 7  86438635.35907     -2398.021 7        47.547    21109199.745 7  86438663.36807     -2398.144 7        42.609
G27         7.000    23302572.140 5 122455828.96105     -4515.902 5        32.018                                    23302570.566 4  95420142.68804     -3518.885 4        27.090    23302571.250 6  95420142.70906     -3519.075 6        39.246
G21         8.000    20635418.990 6 108439837.99806      -566.050 6        39.751                                    20635410.563 4  84498549.83604      -441.076 4        24.737
G02         9.000    21514206.693 7 113057972.71907       812.972 7        45.625                                    21514196.820 4  88097093.19304       633.483 4        27.557
G17        11.000    25655227.474 4                      2511.296 4        28.294
E08        12.000    26489219.277 4 139201867.55004     -2461.527 4        29.194                                                                    26489229.562 5 103949368.14605     -1837.926 5        32.737    26489226.154 5 106661157.66805     -1886.166 5        30.830
E29        14.000    26581668.648 6 139687671.59706      2232.444 6        39.477                                                                    26581667.874 7 104312172.82407      1667.039 7        43.181    26581668.373 6 107033374.57506      1710.533 6        38.808
E24        15.000    28028924.702 4 147293035.23304       283.362 4        29.554                                                                    28028921.215 5 109991509.01105       211.410 5        34.519    28028918.967 5 112860918.20605       216.867 5        34.619
E13        16.000                                                                                                                                    26716668.771 4 104841929.88204     -2332.453 4        25.218
E31        17.000    26279916.550 6 138101884.89206     -2132.974 6        39.282                                                                    26279924.332 6 103128052.42106     -1592.713 6        39.225
E26        19.000    23512421.401 7 123558597.68007     -1414.536 7        47.319                                                                    23512420.241 6  92267858.14906     -1056.046 6        36.503    23512418.887 6  94674778.50506     -1083.813 6        40.403
R06        21.000    22096265.382 5 117909898.59205      3311.715 5        33.198
S36        23.000    38218571.995 6 200839884.10906      -852.879 6        36.049
S23        24.000    38172472.106 6 200597654.80106      -851.256 6        40.093
R12        25.000    23309778.609 5 124516746.22515     -1140.259 5        35.867                                                                    23309811.374 5  96846428.02305      -886.990 5        33.198
R20        26.000    19479595.882 4                     -1533.240 4        29.554                                                                    19479595.286 6  81018309.73006     -1192.277 6        37.161
R05        27.000    19327491.691 7 103316561.64507      -842.741 7        46.679                                                                    19327490.183 6  80357284.44606      -655.463 6        40.870
E33        28.000    24444480.765 6 128456639.47006       759.753 6        39.961                                                                    24444476.176 6  95925421.89206       567.381 6        39.823    24444477.051 7  98427785.74907       582.151 7        43.945
R21        30.000    20748844.863 8 111031503.34908      1999.630 8        49.226                                                                    20748843.885 7  86357668.21407      1555.171 7        45.521
R04        31.000    21708570.471 5                     -4420.185 5        34.010                                                                    21708569.369 5  90415426.05415     -3438.047 5        35.529
C32        36.000                                                                                                                                    24759861.737 5 128931087.65805      2380.510 5        35.138                                                                    24759854.033 5 104767028.98705      1934.538 5        34.076
C33        37.000                                                                                                                                    23722393.415 7 123528801.53207     -3128.181 7        42.097                                                                    23722398.606 7 100377218.43107     -2541.995 7        43.606
C30        38.000                                                                                                                                    23683796.075 7 123327728.94007      1696.765 7        45.735                                                                    23683794.221 6 100213906.89606      1378.767 6        40.532
C28        40.000                                                                                                                                    23068794.482 5 120125160.99505     -3236.248 5        30.709                                                                    23068770.380 5  97611523.63805     -2629.371 5        32.988
R11        41.000    23913031.173 5 127783963.30305     -4138.218 5        32.156
I01        44.000   371549799.714 7 154900458.15307     -2520.642 7        42.023
C14        47.000                                                                                                                                    25810985.912 4                     -3976.516 4        26.311    25810978.888 5 103930117.25015     -3075.224 5        33.042
C41        49.000                                                                                                                                    22037696.999 3 114756159.32603      -176.994 3        22.933                                                                    22037706.181 7  93248786.21207      -143.489 7        46.562
C27        52.000                                                                                                                                    21391559.839 8 111391449.27208      -845.250 8        48.494                                                                    21391558.138 8  90514690.20808      -686.861 8        48.985
I06        58.000    38418659.712 5 150763251.52105      -530.566 5        33.485
I09        60.000    37334371.820 6 146508092.02906      -360.389 6        38.435
> 2025 01 01 22 45 15.0000000  0 35
G03         1.000                                                                                                                                                                    23376729.886 5  95723780.54305      1997.691 5        30.332
G10         2.000    22668247.204 7 119122507.42207     -3566.876 7        45.076                                    22668245.351 6  92822733.59606     -2779.380 6        38.024    22668244.881 6  92822705.57506     -2779.322 6        40.255
G32         3.000    21858528.000 7 114867274.66907      -595.541 7        47.206                                    21858523.618 4  89506982.09404      -464.050 4        29.943    21858570.891 4  89507032.06104      -463.935 4        28.190
G14         4.000    23876056.466 6 125469485.44206      -603.169 6        38.084                                    23876050.752 3  97768410.29403      -469.996 3        18.627    23876051.225 6  97768430.31706      -469.976 6        38.766
E07         5.000    24696072.962 6 129778711.24306       272.566 6        41.473                                                                    24696076.283 5  96912754.59905       203.730 5        33.114    24696106.948 5  99440850.56405       208.431 5        30.166
G08         6.000    21112131.036 8 110945531.94908     -3079.730 8        50.791                                    21112129.135 7  86450629.52707     -2399.786 7        47.040    21112129.313 7  86450657.53107     -2399.810 7        42.711
G27         7.000    23306870.273 5 122478411.58405     -4516.744 5        33.772                                    23306868.113 4  95437739.54004     -3519.535 4        28.000    23306868.537 6  95437739.53506     -3519.629 6        39.369
G21         8.000    20635958.373 6 108442671.69906      -567.566 6        41.189                                    20635949.676 4  84500757.91604      -442.264 4        25.188
G02         9.000    21513433.138 7 113053910.61607       811.783 7        47.524                                    21513423.886 4  88093927.91404       632.557 4        27.940
G17        11.000    25652839.552 4                      2510.177 4        24.226
E08        12.000    26491563.418 4                     -2463.346 4        26.323                                                                    26491569.833 5 103958561.60705     -1839.397 5        31.555    26491566.760 4 106670590.88104     -1887.100 4        28.379
E29        14.000    26579544.542 6 139676510.55606      2232.117 6        39.111                                                                    26579544.034 7 104303838.29907      1666.739 7        43.374    26579544.328 6 107024822.63406      1710.213 6        39.517
E24        15.000    28028653.094 4 147291623.49804       281.490 4        27.353                                                                    28028652.442 5 109990454.78805       210.064 5        34.967    28028650.805 5 112859836.47405       215.661 5        35.514
E13        16.000                                                                                                                                    26719643.257 4 104853591.88904     -2332.884 4        26.958
E31        17.000    26281946.666 6 138112553.93006     -2134.835 6        38.535                                                                    26281954.890 6 103136019.59506     -1594.209 6        38.513    26281984.176 4                     -1635.799 4        25.353
E26        19.000    23513767.941 7 123565672.19207     -1415.416 7        47.451                                                                    23513763.879 6  92273141.10806     -1056.980 6        36.427    23513764.724 6  94680199.22506     -1084.498 6        39.904
R06        21.000    22093161.346 5 117893343.83805      3310.064 5        33.108
S36        23.000    38219389.703 6 200844148.50606      -853.246 6        36.314
S23        24.000    38173278.246 6 200601909.80006      -850.870 6        39.075
R12        25.000    23310854.956 6 124522457.47406     -1144.372 6        39.970
R20        26.000    19481034.269 5                     -1535.808 5        31.728                                                                    19481028.090 5  81024277.15615     -1194.552 5        34.300
R05        27.000    19328282.876 7 103320785.49707      -847.006 7        46.736                                                                    19328280.895 6  80360569.66106      -658.738 6        39.138
E33        28.000    24443757.313 6 128452841.49106       759.163 6        39.378                                                                    24443753.978 6  95922585.73206       567.117 6        38.751    24443754.462 7  98424875.58807       581.762 7        44.161
R21        30.000    20746976.091 8 111021508.06208      1998.357 8        49.697                                                                    20746976.309 7  86349894.11807      1554.211 7        46.061
R04        31.000    21712704.589 6 116270508.83716     -4422.477 6        39.315                                                                    21712698.209 5  90432619.91305     -3439.268 5        35.305
C32        36.000                                                                                                                                    24757574.390 5 128919186.99005      2379.590 5        34.638                                                                    24757567.321 5 104757358.72505      1933.677 5        33.054
C33        37.000                                                                                                                                    23725398.591 6 123544446.44806     -3129.861 6        41.328                                                                    23725403.098 7 100389931.24407     -2543.241 7        43.024
C30        38.000                                                                                                                                    23682167.617 7 123319246.83207      1695.913 7        44.691                                                                    23682164.864 6 100207014.50506      1378.166 6        39.697
C28        40.000                                                                                                                                    23071908.111 5 120141344.55405     -3237.531 5        33.683                                                                    23071877.374 5  97624674.22605     -2630.936 5        31.917
I01        44.000   371553012.444 7 154913061.76307     -2520.855 7        42.138
C14        47.000                                                                                                                                    25814798.463 3                     -3976.674 3        23.410    25814799.716 5 103945494.69405     -3075.859 5        34.410
C41        49.000                                                                                                                                    22037863.513 4                      -179.061 4        27.245                                                                    22037877.044 7  93249507.91507      -145.314 7        46.441
C27        52.000                                                                                                                                    21392372.141 8 111395680.42508      -847.303 8        49.269                                                                    21392370.640 8  90518128.36908      -688.490 8        49.002
I06        58.000    38419335.112 5 150765905.16105      -530.729 5        32.078
I09        60.000    37334831.592 6 146509894.50506      -360.655 6        38.529
> 2025 01 01 22 45 20.0000000  0 35
G03         1.000                                                                                                                                                                    23374284.588 5  95713795.97905      1996.624 5        31.215
G10         2.000    22671641.573 7 119140344.86807     -3568.206 7        44.709                                    22671639.433 6  92836632.89606     -2780.421 6        37.743    22671639.195 6  92836604.88106     -2780.391 6        40.179
G32         3.000    21859096.087 7 114870260.40607      -598.835 7        45.437                                    21859090.906 4  89509308.66504      -466.625 4        29.820
G14         4.000    23876632.349 6 125472508.77606      -606.506 6        37.716                                    23876626.437 3  97770766.14303      -472.587 3        18.239    23876626.733 6  97770786.19106      -472.441 6        38.709
E07         5.000    24695815.084 7 129777354.02707       270.146 7        42.201                                                                    24695818.182 5  96911741.13305       201.664 5        32.766    24695850.101 4  99439810.65004       207.086 4        29.251
G08         6.000    21115062.683 8 110960936.92008     -3082.374 8        50.610                                    21115060.498 7  86462633.39307     -2401.846 7        46.617    21115060.777 7  86462661.39707     -2401.820 7        42.681
G27         7.000    23311168.282 5 122500998.91705     -4518.216 5        33.898                                    23311166.559 4  95455340.06304     -3520.709 4        28.000    23311166.994 6  95455340.09606     -3520.636 6        39.372
G21         8.000    20636499.497 7 108445513.89707      -569.298 7        42.343                                    20636490.308 4  84502972.62104      -443.604 4        25.278
G02         9.000    21512661.778 8 113049854.90708       810.342 8        48.338                                    21512652.370 4  88090767.62204       631.438 4        28.521
G17        11.000    25650442.181 4                      2510.491 4        27.437
E08        12.000    26493911.602 4                     -2465.369 4        28.692                                                                    26493915.494 5 103967762.53405     -1841.201 5        32.748    26493905.742 4 106680031.92304     -1888.880 4        29.336
E29        14.000    26577421.513 6 139665352.23606      2231.353 6        39.348                                                                    26577420.707 7 104295505.79607      1666.253 7        43.365    26577420.279 6 107016272.76406      1709.743 6        38.964
E24        15.000    28028384.279 4 147290222.75504       279.883 4        26.623                                                                    28028384.573 5 109989408.83305       208.228 5        34.438    28028384.267 6 112858763.26706       213.672 6        36.280
E13        16.000    26722605.443 3                     -3123.146 3        21.452                                                                    26722610.673 4 104865255.55904     -2333.059 4        26.719
E31        17.000    26283979.086 6 138123233.60906     -2137.212 6        38.510                                                                    26283985.828 6 103143994.64206     -1595.884 6        38.081
E26        19.000    23515115.212 7 123572752.12607     -1416.673 7        47.415                                                                    23515111.374 6  92278428.05806     -1057.799 6        36.454    23515112.055 6  94685624.11506     -1085.469 6        39.886
R06        21.000    22090062.045 5 117876797.49605      3308.226 5        34.319
S36        23.000    38220208.833 6 200848413.15406      -852.938 6        37.826
S23        24.000    38174085.200 6 200606164.66506      -851.015 6        39.165
R12        25.000    23311927.516 6 124528189.47006     -1148.699 6        39.748                                                                    23311926.123 4  96855328.47404      -893.750 4        26.910
R20        26.000    19482473.157 5                     -1538.845 5        33.078                                                                    19482465.112 5                     -1197.031 5        32.138
R05        27.000    19329076.821 7 103325031.82607      -851.634 7        47.904                                                                    19329075.707 6  80363872.36706      -662.394 6        39.189
E33        28.000    24443034.190 6 128449046.91806       758.434 6        38.183                                                                    24443031.778 6  95919752.14006       566.334 6        38.658    24443032.478 7  98421968.05407       581.092 7        43.862
R21        30.000    20745109.470 8 111011520.19508      1996.832 8        49.310                                                                    20745109.710 7  86342125.76607      1552.984 7        46.109
R04        31.000    21716841.193 6 116292626.49906     -4424.916 6        36.809                                                                    21716828.102 5  90449822.49005     -3441.196 5        34.914
C32        36.000                                                                                                                                    24755288.829 5 128907291.48305      2378.381 5        33.623                                                                    24755281.036 5 104747692.63005      1932.916 5        31.389
C33        37.000                                                                                                                                    23728400.524 7 123560100.15307     -3131.704 7        42.011                                                                    23728408.515 7 100402651.09107     -2544.757 7        43.064
C30        38.000                                                                                                                                    23680540.195 7 123310770.13507      1694.668 7        44.795                                                                    23680536.886 6 100200126.46506      1377.070 6        39.754
C28        40.000                                                                                                                                    23075021.879 4                     -3239.200 4        27.952                                                                    23074987.063 5  97637830.93605     -2631.957 5        32.557
I01        44.000   371556224.158 7 154925666.65107     -2521.158 7        42.588
C14        47.000                                                                                                                                    25818617.962 4                     -3978.388 4        26.659    25818622.291 5 103960874.88205     -3076.619 5        34.514
C41        49.000                                                                                                                                    22038043.192 5                      -181.647 5        31.351                                                                    22038050.264 7  93250240.26307      -147.575 7        46.745
C27        52.000                                                                                                                                    21393187.160 8 111399922.59808      -849.668 8        50.397                                                                    21393185.388 8  90521575.46208      -690.370 8        48.821
I06        58.000    38420010.702 5 150768558.61905      -530.958 5        32.216
I09        60.000    37335289.864 6 146511698.17506      -360.933 6        38.309
> 2025 01 01 22 45 25.0000000  0 35
G03         1.000    23371810.920 6 122819894.11706      2561.083 6        36.427                                    23371821.512 2  95703707.54612      1995.661 2        12.121
G10         2.000    22675037.095 7 119158187.43607     -3569.061 7        44.086                                    22675034.454 6  92850536.18906     -2781.089 6        37.569    22675034.232 6  92850508.18006     -2781.028 6        39.985
G32         3.000    21859667.282 7 114873262.15107      -601.964 7        45.485                                    21859661.753 5  89511647.69805      -469.067 5        30.294
G14         4.000    23877208.700 6 125475547.63706      -609.314 6        36.624                                    23877204.824 2  97773134.10202      -474.793 2        17.132    23877204.337 6  97773154.14206      -474.738 6        37.750
E07         5.000    24695558.842 7 129776008.32807       268.041 7        42.269                                                                    24695561.279 5  96910736.26505       200.039 5        34.257    24695591.228 5  99438779.57105       204.974 5        30.928
G08         6.000    21117996.624 8 110976354.40808     -3084.745 8        50.267                                    21117994.267 7  86474647.01607     -2403.698 7        45.949    21117994.969 7  86474675.02007     -2403.728 7        42.366
G27         7.000    23315468.031 5 122523591.13605     -4519.019 5        33.413                                    23315465.756 4  95472944.40604     -3521.324 4        27.545    23315465.910 6  95472944.40906     -3521.310 6        38.724
G21         8.000    20637041.592 7 108448364.68507      -571.013 7        42.171                                    20637032.801 4  84505194.03204      -444.947 4        25.113
G02         9.000    21511890.777 8 113045805.68808       809.147 8        48.691                                    21511881.928 4  88087612.38804       630.508 4        28.758
E08        12.000    26496260.142 5                     -2467.588 5        31.389                                                                    26496264.139 5 103976971.05105     -1842.521 5        34.386    26496249.317 4 106689480.79204     -1891.223 4        27.006
E29        14.000    26575298.751 6 139654196.72106      2230.819 6        38.769                                                                    26575298.037 7 104287175.38907      1665.827 7        43.498    26575297.068 6 107007725.04106      1709.445 6        39.150
E24        15.000    28028123.039 4 147288833.28704       277.163 4        25.744                                                                    28028120.184 5 109988371.21005       206.915 5        33.731    28028119.731 6 112857698.58606       212.059 6        36.261
E13        16.000    26725580.530 4                     -3125.284 4        27.617
E31        17.000    26286014.580 6 138133923.91306     -2139.146 6        39.216                                                                    26286019.992 6 103151977.67706     -1597.457 6        38.348
E26        19.000    23516463.559 7 123579837.56807     -1417.643 7        47.089                                                                    23516460.309 6  92283719.14406     -1058.551 6        36.907    23516460.442 6  94691053.19606     -1086.266 6        38.964
R06        21.000    22086962.001 5 117860259.55605      3306.664 5        33.485
S36        23.000    38221015.446 6 200852678.46706      -853.208 6        36.938
S23        24.000    38174902.102 6 200610419.47106      -850.959 6        40.429
R12        25.000    23313001.632 6 124533942.20506     -1152.738 6        39.189
R20        26.000    19483912.711 5                     -1541.840 5        30.015                                                                    19483907.554 5  81036245.15515     -1198.841 5        33.868
R05        27.000    19329875.059 7 103329300.40807      -855.960 7        47.956                                                                    19329874.323 6  80367192.35506      -665.737 6        38.159
E33        28.000    24442312.965 6 128445255.83606       757.798 6        40.274                                                                    24442310.171 6  95916921.12506       566.112 6        38.925    24442310.805 7  98419063.20607       580.690 7        43.949
R21        30.000    20743244.160 8 111001539.81808      1995.271 8        48.886                                                                    20743244.585 7  86334363.26607      1551.880 7        45.986
R04        31.000    21720975.385 6 116314755.43606     -4427.168 6        37.474                                                                    21720960.823 5  90467033.85805     -3443.197 5        32.090
C32        36.000                                                                                                                                    24753004.504 4 128895401.32504      2377.048 4        26.084                                                                    24752999.018 5 104738030.93905      1931.525 5        31.547
C33        37.000                                                                                                                                    23731406.648 6 123575762.70706     -3133.400 6        41.528                                                                    23731416.150 7 100415378.18207     -2546.306 7        42.518
C30        38.000                                                                                                                                    23678913.503 7 123302298.94307      1693.642 7        44.387                                                                    23678910.063 6 100193242.93306      1376.102 6        39.841
C28        40.000                                                                                                                                                                                                                                                                    23078099.403 5  97650993.93505     -2633.332 5        34.500
R11        41.000    23924613.403 4                     -4143.371 4        28.294                                                                    23924643.548 3                     -3221.869 3        20.548
I01        44.000   371559436.122 7 154938272.91907     -2521.364 7        42.512
C14        47.000                                                                                                                                    25822442.786 4                     -3979.049 4        29.355    25822441.282 5 103976258.05705     -3077.275 5        33.132
C41        49.000                                                                                                                                    22038237.448 5                      -184.242 5        34.157                                                                    22038225.748 7  93250983.40907      -149.779 7        46.392
C27        52.000                                                                                                                                    21394004.030 8 111404175.89108      -851.748 8        50.329                                                                    21394002.211 8  90525031.63208      -692.257 8        48.734
I06        58.000    38420688.405 5 150771212.12205      -531.097 5        33.000
I09        60.000    37335749.274 5 146513503.10805      -361.021 5        34.910
> 2025 01 01 22 45 30.0000000  0 36
G03         1.000    23369373.255 5 122807090.79905      2560.108 5        34.005                                    23369382.742 2  95693730.90002      1994.950 2        12.061
G10         2.000    22678433.142 7 119176034.74307     -3570.066 7        43.238                                    22678430.508 6  92864443.17906     -2781.871 6        37.660    22678431.099 6  92864415.20006     -2781.992 6        39.850
G32         3.000    21860241.155 7 114876279.47307      -605.182 7        44.600                                    21860235.404 5  89513998.87105      -471.574 5        30.181    21860225.106 5  89514048.92005      -471.750 5        32.880
G14         4.000    23877790.363 6 125478601.71206      -612.237 6        37.142                                    23877785.996 2  97775513.88502      -477.065 2        15.810    23877784.748 5  97775533.93805      -477.180 5        35.010
E07         5.000    24695305.219 7 129774673.84307       265.698 7        42.279                                                                    24695306.096 5  96909739.72605       198.635 5        33.114
G08         6.000    21120932.705 8 110991784.05708     -3087.255 8        50.022                                    21120930.312 7  86486670.12107     -2405.658 7        45.694    21120931.058 7  86486698.12007     -2405.558 7        42.643
G27         7.000    23319767.789 5 122546187.84805     -4520.153 5        34.295                                    23319765.950 4  95490552.22604     -3522.198 4        26.814    23319765.366 6  95490552.21606     -3521.987 6        38.568
G21         8.000    20637585.027 7 108451223.70807      -572.697 7        42.245                                    20637576.823 4  84507421.83204      -446.250 4        25.759
G02         9.000    21511121.443 8 113041762.59808       807.884 8        48.844                                    21511112.661 4  88084461.92304       629.521 4        29.450
G17        11.000    25645634.207 4                      2509.977 4        25.609
E08        12.000    26498605.093 5                     -2469.538 5        33.269                                                                    26498614.489 5 103986186.99705     -1843.893 5        35.100    26498599.590 5 106698937.19005     -1892.100 5        30.023
E29        14.000    26573176.065 6 139643043.66406      2230.131 6        37.558                                                                    26573175.819 7 104278846.80807      1665.453 7        43.687    26573174.690 6 106999179.20206      1708.790 6        39.327
E24        15.000    28027860.729 3 147287454.62103       274.304 3        23.105                                                                    28027857.827 5 109987341.67105       205.052 5        34.033    28027856.954 6 112856642.18906       210.267 6        36.794
E13        16.000                                                                                                                                    26728539.097 4 104888587.94404     -2333.254 4        29.109
E31        17.000    26288050.116 6 138144624.51506     -2141.222 6        37.796                                                                    26288055.175 6 103159968.37006     -1599.012 6        37.357    26288046.436 4                     -1640.836 4        27.928
E26        19.000    23517813.329 7 123586928.16607     -1418.627 7        47.946                                                                    23517810.497 6  92289014.03506     -1059.424 6        37.860    23517810.055 6  94696486.26406     -1087.080 6        39.877
R06        21.000    22083863.267 5 117843729.68705      3305.042 5        33.413
S36        23.000    38221823.178 6 200856943.34506      -853.034 6        36.491
S23        24.000    38175715.880 6 200614673.69806      -850.946 6        40.894
R12        25.000    23314083.452 6 124539715.41816     -1156.882 6        40.644                                                                    23314102.210 4                      -900.238 4        24.602
R20        26.000    19485348.526 5                     -1544.542 5        31.525                                                                    19485349.412 5  81042245.48005     -1201.347 5        33.874
R05        27.000    19330678.506 8 103333591.30908      -860.524 8        48.393                                                                    19330676.800 6  80370529.71806      -669.273 6        38.760
E33        28.000    24441593.140 6 128441467.89506       757.153 6        41.642                                                                    24441589.946 6  95914092.51006       565.493 6        38.964    24441589.657 7  98416160.79007       580.146 7        43.380
R21        30.000    20741381.161 8 110991566.59508      1993.805 8        50.298                                                                    20741380.953 7  86326606.30907      1550.715 7        46.360
R04        31.000    21725111.787 6 116336895.53406     -4429.235 6        36.733                                                                    21725093.315 4  90484253.89804     -3444.717 4        29.526
C32        36.000                                                                                                                                                                                                                                                                    24750715.245 4 104728373.19104      1931.521 4        27.222
C33        37.000                                                                                                                                    23734415.638 7 123591433.66707     -3135.179 7        42.372                                                                    23734425.726 7 100428112.12207     -2547.482 7        43.064
C30        38.000                                                                                                                                    23677287.029 7 123293832.86407      1692.569 7        43.911                                                                    23677284.059 6 100186363.57306      1375.435 6        38.967
C28        40.000                                                                                                                                                                                                                                                                    23081212.075 5  97664162.85805     -2634.471 5        35.371
R11        41.000    23928494.083 4                     -4145.100 4        28.095                                                                    23928507.240 4                     -3223.681 4        28.095
I01        44.000   371562648.742 7 154950880.24607     -2521.735 7        42.083
C14        47.000                                                                                                                                    25826262.947 5                     -3979.846 5        30.694    25826260.423 5 103991643.75305     -3077.752 5        33.784
C41        49.000                                                                                                                                    22038415.634 6                      -186.806 6        38.216                                                                    22038403.714 7  93251736.99407      -151.789 7        46.504
C27        52.000                                                                                                                                    21394822.650 8 111408439.95408      -854.021 8        50.279                                                                    21394821.060 8  90528496.53808      -693.931 8        48.975
I06        58.000    38421364.404 5 150773865.30105      -530.627 5        32.551
I09        60.000    37336210.061 6 146515309.05506      -361.413 6        36.669
> 2025 01 01 22 45 35.0000000  0 36
G03         1.000    23366938.318 5 122794292.94005      2559.020 5        34.881                                    23366945.534 2  95683758.49302      1994.060 2        13.151    23366926.088 5  95683866.46505      1993.990 5        32.102
G10         2.000    22681830.474 7 119193887.45107     -3571.107 7        43.221                                    22681827.564 6  92878354.37706     -2782.680 6        37.497    22681828.261 6  92878326.40606     -2782.741 6        39.402
G32         3.000    21860817.844 7 114879313.05707      -608.360 7        44.041                                    21860812.382 4  89516362.73004      -474.051 4        29.943    21860817.093 5  89516412.74105      -474.171 5        32.539
G14         4.000    23878379.682 6 125481671.57506      -615.602 6        38.955                                    23878370.088 2  97777906.00302      -479.635 2        13.758    23878368.983 5  97777926.04405      -479.810 5        34.457
E07         5.000    24695053.430 7 129773351.15807       263.240 7        42.053                                                                    24695054.081 5  96908752.02805       196.687 5        34.300    24695052.431 6  99436743.65706       201.697 6        39.898
G08         6.000    21123871.146 8 111007226.47808     -3089.750 8        49.690                                    21123868.745 7  86498703.17207     -2407.600 7        45.437    21123869.090 7  86498731.19207     -2407.717 7        42.354
G27         7.000    23324069.009 5 122568789.66705     -4521.040 5        34.443                                    23324066.989 4  95508164.03404     -3522.882 4        26.838    23324066.493 6  95508163.99606     -3522.819 6        37.694
G21         8.000    20638130.360 7 108454091.46407      -574.534 7        43.304                                    20638122.884 4  84509656.45204      -447.686 4        26.251
G02         9.000    21510353.649 8 113037726.20308       806.600 8        49.103                                    21510344.561 5  88081316.68405       628.520 5        30.151
G17        11.000    25643250.984 4                      2509.572 4        26.982
E08        12.000    26500956.433 5 139263456.84415     -2471.374 5        35.848                                                                    26500964.550 5 103995410.82205     -1845.526 5        34.386    26500950.962 5 106708401.61905     -1893.726 5        30.189
E29        14.000    26571054.126 6 139631893.68206      2229.743 6        36.106                                                                    26571054.211 7 104270520.53407      1664.985 7        43.776    26571052.711 6 106990635.71506      1708.388 6        39.357
E24        15.000    28027601.199 3 147286087.40203       273.896 3        23.505                                                                    28027597.275 5 109986320.72705       203.062 5        33.707    28027596.469 5 112855594.58505       208.716 5        35.776
E13        16.000    26731519.453 4                     -3124.789 4        27.389                                                                    26731518.143 5 104900256.79505     -2333.889 5        30.838
E31        17.000    26290088.652 6 138155335.99906     -2143.537 6        39.123                                                                    26290091.637 5 103167967.24005     -1600.541 5        35.952    26290095.494 4                     -1642.308 4        29.934
E26        19.000    23519163.681 8 123594024.54408     -1419.789 8        48.506                                                                    23519160.481 6  92294313.28906     -1060.402 6        39.213    23519160.702 6  94701923.75206     -1087.983 6        39.721
R06        21.000    22080768.744 5 117827208.60305      3303.723 5        32.653
S36        23.000    38222629.331 6 200861208.23506      -852.901 6        37.217
S23        24.000    38176526.281 6 200618928.17406      -850.910 6        41.113
R12        25.000    23315167.730 6 124545509.67106     -1160.987 6        40.207
R20        26.000    19486797.820 5                     -1546.936 5        31.992                                                                    19486793.642 5  81048257.11505     -1203.376 5        34.471
R05        27.000    19331486.062 7 103337904.82307      -865.047 7        47.010                                                                    19331483.467 6  80373884.70006      -672.956 6        38.601
E33        28.000    24440872.948 7 128437683.77307       756.499 7        42.451                                                                    24440870.177 6  95911266.73006       564.863 6        38.913    24440869.762 7  98413261.27107       579.624 7        43.230
R21        30.000    20739518.733 8 110981601.16708      1992.308 8        49.724                                                                    20739518.525 7  86318855.42307      1549.595 7        46.857
R04        31.000    21729250.862 6 116359047.16706     -4431.528 6        36.650                                                                    21729231.163 5  90501482.96605     -3446.627 5        31.449
C32        36.000                                                                                                                                                                                                                                                                    24748426.645 3                      1931.038 3        21.500
C33        37.000                                                                                                                                    23737427.575 7 123607113.69307     -3136.935 7        42.246                                                                    23737436.940 7 100440853.44607     -2549.064 7        42.669
C30        38.000                                                                                                                                    23675661.277 7 123285372.56107      1691.519 7        44.886                                                                    23675659.204 6 100179488.90906      1374.458 6        38.643
C28        40.000                                                                                                                                    23084402.127 4                     -3243.578 4        26.647                                                                    23084326.069 6  97677338.19906     -2635.766 6        36.284
R11        41.000                                                                                                                                    23932387.151 4                     -3225.026 4        27.437
I01        44.000   371565861.699 7 154963489.16607     -2522.030 7        42.068
C14        47.000                                                                                                                                    25830080.040 4                     -3980.681 4        29.517    25830083.166 5 104007032.58205     -3077.864 5        33.862
C41        49.000                                                                                                                                    22038593.041 6 114760746.43716      -189.588 6        38.568                                                                    22038584.337 7  93252501.53507      -154.007 7        46.287
C27        52.000                                                                                                                                    21395643.755 8 111412715.40408      -856.201 8        50.342                                                                    21395642.113 8  90531970.70508      -695.800 8        49.084
I06        58.000    38422039.681 5 150776518.64205      -530.430 5        31.042
I09        60.000    37336670.205 6 146517116.41706      -361.702 6        36.692
> 2025 01 01 22 45 40.0000000  0 36
G03         1.000    23364506.632 5 122781500.40005      2558.289 5        35.890                                    23364509.496 2  95673790.28002      1993.488 2        15.905    23364499.247 5  95673898.23505      1993.199 5        31.864
G10         2.000    22685229.875 7 119211745.27507     -3571.773 7        44.424                                    22685225.622 6  92892269.56906     -2783.199 6        37.380    22685226.251 6  92892241.57906     -2783.425 6        39.399
G32         3.000    21861398.495 7 114882362.66407      -611.277 7        43.010                                    21861392.924 5  89518739.05705      -476.327 5        30.053    21861398.780 5  89518789.04705      -476.319 5        35.248
G14         4.000    23878975.843 6 125484757.05506      -618.389 6        39.189                                    23878957.051 2  97780310.28202      -481.909 2        13.030    23878956.407 5  97780330.28305      -482.107 5        34.748
E07         5.000    24694803.040 6 129772040.01006       261.292 6        40.710                                                                    24694802.904 5  96907772.93705       195.468 5        33.120    24694807.734 6  99435739.02606       200.181 6        41.518
G08         6.000    21126812.571 8 111022681.44508     -3092.040 8        49.133                                    21126809.476 7  86510746.00907     -2409.381 7        45.297    21126810.240 7  86510774.00307     -2409.438 7        42.571
G27         7.000    23328370.300 5 122591396.25105     -4521.585 5        34.352                                    23328368.716 4  95525779.55604     -3523.305 4        26.754    23328368.824 6  95525779.55306     -3523.337 6        37.584
G21         8.000    20638677.872 7 108456967.84807      -575.901 7        43.670                                    20638670.470 4  84511897.78004      -448.754 4        26.862
G02         9.000    21509586.907 8 113033696.32008       805.545 8        49.520                                    21509577.727 5  88078176.51105       627.692 5        30.717
G17        11.000    25640864.327 3                      2509.022 3        22.686
E08        12.000    26503309.597 6 139275819.04406     -2473.461 6        36.507                                                                    26503317.788 5 104004642.26805     -1846.714 5        33.473    26503308.118 5 106717873.87905     -1895.094 5        30.853
E29        14.000    26568933.547 5 139620746.59605      2229.355 5        34.157                                                                    26568932.832 7 104262196.38907      1664.846 7        43.947    26568931.199 6 106982094.42606      1708.166 6        39.294
E24        15.000    28027343.953 4 147284731.46904       270.279 4        29.100                                                                    28027339.411 5 109985308.16705       201.916 5        33.204    28027338.645 6 112854555.60806       207.167 6        36.344
E13        16.000    26734496.561 4                     -3125.955 4        29.137                                                                    26734493.991 5 104911927.43805     -2333.925 5        31.321
E31        17.000    26292129.511 6 138166058.15706     -2145.270 6        38.691                                                                    26292130.277 5 103175974.06905     -1602.076 5        34.995    26292136.267 5                     -1643.884 5        31.306
E26        19.000    23520514.977 7 123601126.47307     -1420.715 7        47.878                                                                    23520512.255 6  92299616.65706     -1060.862 6        40.181    23520511.554 6  94707365.48606     -1088.591 6        39.991
R06        21.000    22077672.821 5 117810695.99605      3301.767 5        32.569
S36        23.000    38223444.588 6 200865473.34406      -852.702 6        36.858
S23        24.000    38177332.398 6 200623182.72706      -850.730 6        40.887
R12        25.000    23316257.819 6 124551324.82706     -1164.923 6        40.977
R20        26.000    19488246.285 5                     -1550.194 5        31.713                                                                    19488242.218 5  81054279.90515     -1205.645 5        35.514
R05        27.000    19332296.111 7 103342240.92907      -869.271 7        46.494                                                                    19332293.961 6  80377257.22906      -676.154 6        38.562
E33        28.000    24440153.601 7 128433903.20707       755.976 7        42.309                                                                    24440150.486 6  95908443.57306       564.589 6        39.294    24440150.115 7  98410364.46907       579.247 7        42.646
R21        30.000    20737657.737 8 110971643.29408      1991.015 8        49.631                                                                    20737657.577 7  86311110.41407      1548.592 7        47.292
R04        31.000    21733387.338 5 116381210.09405     -4433.360 5        35.267                                                                    21733371.783 5  90518720.80605     -3448.167 5        33.269
C32        36.000                                                                                                                                                                                                                                                                    24746146.856 3                      1928.476 3        23.067
C33        37.000                                                                                                                                    23740439.619 6 123622802.60106     -3138.568 6        38.622                                                                    23740449.572 7 100453601.90907     -2550.200 7        42.345
C30        38.000                                                                                                                                    23674037.915 7 123276917.81007      1690.568 7        45.798                                                                    23674035.777 6 100172618.72106      1373.743 6        38.195
C28        40.000                                                                                                                                                                                                                                                                    23087442.110 6  97690519.78506     -2636.881 6        37.304
I01        44.000   371569075.664 7 154976099.48107     -2522.077 7        42.076
C13        45.000                                                                                                                                    40225824.640 4                     -1739.773 4        25.113
C14        47.000                                                                                                                                    25833906.292 5                     -3981.312 5        30.785    25833908.331 5 104022424.33805     -3078.402 5        34.652
C41        49.000                                                                                                                                                                                                                                                                    22038767.253 7  93253276.82807      -155.891 7        45.904
C27        52.000                                                                                                                                    21396467.087 8 111417002.02108      -858.200 8        50.283                                                                    21396465.136 8  90535453.91008      -697.344 8        49.028
I06        58.000    38422715.972 5 150779172.06605      -530.601 5        32.533
I09        60.000    37337132.500 6 146518925.06006      -361.609 6        36.813
> 2025 01 01 22 45 45.0000000  0 37
G03         1.000    23362073.208 5 122768713.67205      2556.735 5        34.571                                    23362074.497 2  95663826.57602      1992.240 2        17.132    23362067.738 5  95663934.52405      1992.648 5        32.024
G10         2.000    22688629.697 7 119229608.77307     -3573.316 7        45.607                                    22688624.905 6  92906189.18306     -2784.400 6        37.225    22688626.040 6  92906161.18606     -2784.494 6        38.934
G32         3.000    21861982.576 7 114885428.84707      -614.932 7        42.914                                    21861976.815 5  89521128.29305      -479.167 5        30.008    21861982.054 6  89521178.27606      -479.089 6        36.355
G14         4.000    23879573.028 6 125487858.59906      -622.016 6        37.766                                    23879547.073 1  97782727.03801      -484.738 1        10.148    23879546.666 5  97782747.05505      -484.702 5        32.928
E07         5.000    24694555.949 6 129770740.96906       258.511 6        38.907                                                                    24694555.446 5  96906802.90305       192.973 5        32.772    24694559.605 6  99434743.66606       198.163 6        41.192
G08         6.000    21129755.850 8 111038149.47508     -3095.029 8        49.497                                    21129752.815 7  86522799.02207     -2411.712 7        45.415    21129754.344 7  86522827.01807     -2411.719 7        42.800
G27         7.000    23332673.654 5 122614008.29305     -4523.235 5        35.124                                    23332671.468 4  95543399.32804     -3524.595 4        26.491    23332671.288 6  95543399.29306     -3524.451 6        36.839
G21         8.000    20639226.689 7 108459853.42707      -578.065 7        43.405                                    20639219.939 4  84514146.29704      -450.444 4        26.778
G02         9.000    21508820.953 8 113029673.49008       803.783 8        49.090                                    21508812.212 5  88075041.85105       626.324 5        30.543
G17        11.000    25638480.827 4                      2509.082 4        25.383
E08        12.000    26505666.907 6 139288191.89706     -2475.591 6        36.749                                                                    26505674.769 5 104013881.72905     -1848.422 5        34.052    26505669.344 5 106727354.38405     -1896.923 5        32.204
E29        14.000    26566812.736 5 139609602.93105      2228.164 5        33.605                                                                    26566812.417 7 104253874.80707      1664.017 7        43.896    26566810.286 6 106973555.76006      1707.418 6        39.396
E24        15.000    28027088.335 5 147283387.30105       267.069 5        30.083                                                                    28027082.559 5 109984304.37905       199.800 5        32.784    28027083.268 6 112853525.64906       205.003 6        36.280
E13        16.000    26737470.668 4                     -3126.099 4        28.370                                                                    26737467.534 5 104923600.31605     -2334.641 5        31.540
E31        17.000    26294172.261 6 138176791.55506     -2147.812 6        38.204                                                                    26294171.799 5 103183989.27805     -1604.136 5        34.976    26294178.890 5                     -1645.721 5        32.802
E26        19.000    23521867.619 7 123608234.50607     -1422.262 7        47.776                                                                    23521864.881 6  92304924.60106     -1062.091 6        40.284    23521864.242 6  94712811.89706     -1089.787 6        39.592
R06        21.000    22074579.684 5 117794192.53805      3299.176 5        30.755
S36        23.000    38224261.102 6 200869738.92206      -853.271 6        37.312
S23        24.000    38178143.944 6 200627437.79406      -851.063 6        40.884
R12        25.000    23317354.179 7 124557161.42607     -1169.555 7        43.917                                                                    23317340.372 3                      -910.667 3        22.095
R20        26.000    19489695.467 5                     -1553.056 5        30.664                                                                    19489693.011 5  81060314.23505     -1208.208 5        34.276
R05        27.000    19333110.652 7 103346600.03807      -874.198 7        47.004                                                                    19333108.528 6  80380647.67206      -680.056 6        39.958
E33        28.000    24439433.913 6 128430126.73406       754.813 6        40.701                                                                    24439431.661 6  95905623.50106       563.772 6        39.928    24439431.275 7  98407470.81107       578.459 7        42.201
R21        30.000    20735799.002 8 110961693.48508      1989.126 8        50.233                                                                    20735798.136 7  86303371.66607      1547.056 7        47.522
R04        31.000                                                                                                                                    21737514.112 6  90535968.00506     -3450.477 6        36.136
C32        36.000                                                                                                                                    24743912.992 4                      2373.724 4        27.713                                                                    24743865.018 4                      1928.669 4        25.083
C33        37.000                                                                                                                                    23743454.661 5 123638500.81705     -3140.514 5        35.633                                                                    23743464.184 7 100466357.99107     -2552.001 7        42.182
C30        38.000                                                                                                                                    23672415.149 7 123268469.14507      1689.110 7        46.565                                                                    23672413.353 6 100165753.49406      1372.605 6        39.225
C28        40.000                                                                                                                                                                                                                                                                    23090559.423 6  97703708.04806     -2638.367 6        38.697
R11        41.000    23940148.875 4                     -4151.146 4        24.782
I01        44.000   371572289.231 6 154988711.58406     -2522.547 6        41.714
C13        45.000                                                                                                                                    40227500.783 4                     -1739.113 4        25.564
C14        47.000                                                                                                                                    25837733.907 5                     -3982.132 5        30.921    25837733.621 5 104037819.34905     -3079.218 5        33.042
C41        49.000                                                                                                                                    22038949.595 6 114762668.55906      -194.920 6        39.039                                                                    22038953.103 7  93254063.34907      -158.417 7        45.598
C27        52.000                                                                                                                                    21397292.461 8 111421300.33208      -860.845 8        50.506                                                                    21397290.635 8  90538946.63808      -699.430 8        49.107
I06        58.000    38423392.493 5 150781825.83205      -530.555 5        32.742
I09        60.000    37337593.927 6 146520735.43506      -362.222 6        36.446
> 2025 01 01 22 45 50.0000000  0 36
G03         1.000    23359639.469 6 122755932.20106      2555.855 6        36.106                                    23359640.673 3  95653867.00503      1991.581 3        18.418    23359635.694 5  95653974.96305      1991.786 5        31.449
G10         2.000    22692029.620 7 119247477.30707     -3574.181 7        45.251                                    22692025.247 6  92920112.71706     -2785.070 6        37.138    22692026.280 6  92920084.71006     -2785.130 6        38.916
G32         3.000    21862569.109 7 114888510.95607      -617.956 7        42.533                                    21862563.939 5  89523529.93205      -481.526 5        30.974    21862568.386 6  89523579.94106      -481.615 6        37.047
G14         4.000    23880163.575 5 125490975.63805      -624.858 5        33.299                                    23880140.194 1  97785155.93501      -486.890 1         9.048    23880138.989 5  97785175.92805      -487.021 5        31.374
E07         5.000    24694310.976 6 129769453.40206       256.453 6        39.006                                                                    24694310.531 5  96905841.42405       191.430 5        33.527    24694312.683 6  99433757.10406       196.508 6        40.734
G08         6.000    21132701.843 8 111053629.93308     -3097.298 8        50.204                                    21132698.617 7  86534861.71507     -2413.477 7        45.771    21132700.183 7  86534889.71207     -2413.474 7        42.571
G27         7.000    23336977.509 5 122636625.03405     -4523.661 5        34.833                                    23336974.940 4  95561022.74704     -3524.925 4        26.503    23336974.683 6  95561022.73706     -3524.885 6        37.289
G21         8.000    20639776.879 7 108462747.57507      -579.559 7        43.299                                    20639771.089 4  84516401.49504      -451.606 4        26.982
G02         9.000    21508056.644 8 113025657.06808       802.688 8        49.137                                    21508048.052 5  88071912.18105       625.473 5        30.740
E08        12.000    26508026.972 6 139300574.95106     -2477.635 6        37.372                                                                    26508030.842 5 104023128.82105     -1850.202 5        32.982
E29        14.000    26564694.287 5 139598461.99405      2227.949 5        35.243                                                                    26564692.310 7 104245555.29807      1663.730 7        43.926    26564689.958 6 106965019.21206      1707.347 6        39.120
E24        15.000    28026837.971 5 147282054.24105       265.488 5        32.575                                                                    28026828.789 5 109983308.89605       198.346 5        32.551    28026829.519 5 112852504.18105       203.529 5        35.910
E13        16.000    26740446.819 4                     -3126.986 4        29.261                                                                    26740441.788 5 104935274.92705     -2334.785 5        30.581
E31        17.000    26296216.061 6 138187535.50606     -2149.792 6        37.648                                                                    26296216.468 5 103192012.41005     -1605.723 5        34.543    26296222.641 5                     -1647.340 5        32.665
E26        19.000    23523221.167 7 123615347.98907     -1423.214 7        47.896                                                                    23523218.847 6  92310236.61306     -1062.812 6        40.482    23523217.081 6  94718262.46706     -1090.561 6        39.360
R06        21.000    22071486.505 5 117777697.37305      3298.519 5        30.083
S36        23.000    38225071.051 6 200874004.61306      -853.030 6        38.138
S23        24.000    38178952.784 6 200631692.68306      -850.979 6        40.434
R12        25.000    23318456.600 7 124563018.73207     -1173.559 7        43.465                                                                    23318442.779 4                      -912.837 4        29.716
R20        26.000    19491146.763 4                     -1555.980 4        29.554                                                                    19491147.622 5  81066359.53705     -1210.000 5        35.038
R05        27.000    19333930.510 7 103350981.49607      -878.505 7        47.191                                                                    19333929.012 6  80384055.49006      -683.330 6        40.551
E33        28.000    24438715.442 6 128426353.74006       754.320 6        40.541                                                                    24438713.974 6  95902806.00306       563.399 6        40.832    24438713.492 6  98404579.82106       578.103 6        41.878
R21        30.000    20733941.250 8 110951751.18508      1987.777 8        50.223                                                                    20733940.063 7  86295638.76507      1546.054 7        47.068
R04        31.000    21741654.404 5 116425571.05905     -4438.168 5        32.515                                                                    21741659.276 6  90553223.84606     -3451.986 6        38.727
C32        36.000                                                                                                                                                                                                                                                                    24741591.739 4                      1926.883 4        26.120
C33        37.000                                                                                                                                    23746471.296 5 123654207.79505     -3142.134 5        33.353                                                                    23746480.796 7 100479121.16607     -2553.482 7        42.006
C30        38.000                                                                                                                                    23670793.380 7 123260025.99907      1688.129 7        46.387                                                                    23670792.627 6 100158892.76506      1371.531 6        39.760
C28        40.000                                                                                                                                    23093692.562 6 120255016.41216     -3248.363 6        36.730                                                                    23093678.364 6  97716902.50306     -2639.530 6        39.886
R11        41.000    23944035.310 3                     -4150.993 3        23.200
I01        44.000   371575503.511 6 155001325.03406     -2522.758 6        41.111
C13        45.000                                                                                                                                    40229176.867 4                     -1739.334 4        26.491
C14        47.000                                                                                                                                    25841559.639 5                     -3982.859 5        30.906    25841559.622 5 104053217.25205     -3080.072 5        30.672
C41        49.000                                                                                                                                    22039140.528 6 114763649.64806      -197.514 6        38.886                                                                    22039141.426 7  93254860.57807      -160.644 7        45.074
C27        52.000                                                                                                                                    21398119.883 8 111425609.73708      -862.941 8        50.514                                                                    21398118.294 8  90542448.39108      -701.384 8        48.897
I06        58.000    38424068.558 5 150784479.61305      -530.600 5        32.790
I09        60.000    37338054.352 5 146522547.01405      -362.474 5        35.943
> 2025 01 01 22 45 55.0000000  0 37
G03         1.000    23357207.616 6 122743155.81806      2554.819 6        36.930                                    23357207.699 2  95643911.39802      1990.755 2        17.887    23357204.502 5  95644019.38205      1990.850 5        31.042
G10         2.000    22695430.469 7 119265350.75307     -3575.013 7        45.691                                    22695426.600 6  92934040.08106     -2785.726 6        36.688    22695427.552 6  92934012.07606     -2785.759 6        38.078
G32         3.000    21863158.941 7 114891608.93907      -621.065 7        43.175                                    21863154.274 5  89525943.94005      -483.951 5        32.982    21863157.564 6  89525993.95006      -483.919 6        36.991
G14         4.000    23880750.869 5 125494108.03605      -627.774 5        30.340                                    23880736.109 1  97787596.74101      -489.189 1         6.875    23880737.877 5  97787616.75505      -489.167 5        30.792
E07         5.000    24694068.452 6 129768177.28406       254.087 6        38.991                                                                    24694068.597 5  96904888.50605       189.633 5        34.571    24694069.139 6  99432779.27006       194.792 6        40.513
G08         6.000    21135649.722 8 111069122.74008     -3099.650 8        50.311                                    21135646.843 7  86546934.03407     -2415.309 7        46.074    21135647.934 7  86546962.02607     -2415.400 7        42.307
G27         7.000    23341280.268 6 122659246.46106     -4524.414 6        36.541                                    23341279.221 4  95578649.82404     -3525.517 4        26.431    23341280.025 6  95578649.80506     -3525.580 6        37.282
G21         8.000    20640329.651 7 108465650.23507      -581.223 7        43.149                                    20640323.741 4  84518663.31304      -452.890 4        27.198
G02         9.000    21507293.831 8 113021646.99508       801.517 8        49.199                                    21507285.095 5  88068787.45905       624.555 5        30.415
G17        11.000    25633721.715 4                      2508.383 4        24.767
E08        12.000    26510388.158 6 139312968.04706     -2479.416 6        38.682                                                                    26510389.801 5 104032383.41305     -1851.216 5        31.404    26510404.097 5 106746338.58005     -1899.980 5        33.719
E29        14.000    26562575.487 5 139587323.80905      2227.519 5        35.957                                                                    26562572.825 7 104237237.82807      1663.382 7        44.054    26562570.434 6 106956484.78306      1706.837 6        39.060
E24        15.000    28026587.032 5 147280732.25805       263.571 5        33.695                                                                    28026577.229 5 109982321.71705       196.593 5        32.407    28026577.941 5 112851491.23405       201.874 5        35.348
E13        16.000    26743421.910 5                     -3127.410 5        31.374                                                                    26743416.518 4 104946951.21004     -2335.534 4        29.697
E31        17.000    26298262.358 6 138198289.96806     -2151.804 6        38.901                                                                    26298263.399 5 103200043.31905     -1606.718 5        35.314    26298266.074 5                     -1648.825 5        31.713
E26        19.000    23524575.550 7 123622466.86007     -1424.216 7        47.426                                                                    23524573.391 6  92315552.65206     -1063.483 6        40.760    23524571.458 6  94723717.19006     -1091.165 6        38.553
R06        21.000    22068397.573 4 117761210.82604      3297.047 4        28.389
S36        23.000    38225879.516 6 200878269.52506      -852.777 6        38.366
S23        24.000    38179760.113 6 200635947.45606      -850.822 6        39.703
R12        25.000    23319558.337 6 124568896.77706     -1177.576 6        41.385                                                                    23319544.595 5                      -915.925 5        32.838
R20        26.000    19492603.940 4                     -1558.971 4        27.784                                                                    19492606.033 6  81072415.83716     -1212.365 6        37.656
R05        27.000    19334755.217 8 103355385.27808      -882.813 8        48.491                                                                    19334752.860 6  80387480.67906      -686.669 6        40.620
E33        28.000    24437998.166 6 128422584.14506       753.639 6        39.754                                                                    24437996.752 6  95899991.06606       562.834 6        41.220    24437995.855 6  98401691.44606       577.430 6        41.352
R21        30.000    20732083.712 8 110941816.36208      1986.401 8        49.114                                                                    20732083.371 7  86287911.67107      1544.909 7        46.953
R04        31.000    21745798.486 5 116447768.33605     -4440.248 5        34.019                                                                    21745804.300 6  90570488.42306     -3453.729 6        38.255
C32        36.000                                                                                                                                    24739345.306 4                      2371.331 4        28.663                                                                    24739318.379 4                      1926.817 4        29.166
C33        37.000                                                                                                                                    23749485.567 5 123669923.35405     -3143.977 5        32.569                                                                    23749499.102 7 100491891.35207     -2554.659 7        42.178
C30        38.000                                                                                                                                    23669172.312 7 123251588.24207      1687.225 7        46.924                                                                    23669172.215 6 100152036.39906      1370.959 6        40.389
C28        40.000                                                                                                                                    23096807.127 6 120271261.61706     -3249.637 6        37.384                                                                    23096798.211 6  97730103.06906     -2640.569 6        40.899
R11        41.000                                                                                                                                    23947923.607 4                     -3230.432 4        24.135
I01        44.000   371578717.963 6 155013939.78406     -2522.906 6        41.199
C13        45.000                                                                                                                                    40230844.479 4                     -1739.052 4        25.173
C14        47.000                                                                                                                                    25845384.920 4                     -3983.346 4        28.265    25845386.392 4 104068617.93004     -3081.205 4        29.507
C41        49.000                                                                                                                                    22039332.180 6 114764643.85406      -199.803 6        38.559                                                                    22039332.290 7  93255668.43407      -162.420 7        44.850
C27        52.000                                                                                                                                    21398949.658 8 111429930.14308      -865.039 8        50.598                                                                    21398947.996 8  90545959.07608      -702.925 8        49.106
I06        58.000    38424745.361 5 150787133.23805      -530.975 5        32.443
I09        60.000    37338513.887 5 146524359.76105      -362.640 5        35.609
> 2025 01 01 22 46  0.0000000  0 36
G03         1.000    23354779.780 6 122730384.32706      2553.874 6        36.102                                    23354775.673 2  95633959.62402      1990.023 2        15.857    23354773.626 5  95634067.56705      1990.452 5        30.317
G10         2.000    22698831.857 7 119283228.91607     -3576.162 7        45.345                                    22698828.915 5  92947971.13205     -2786.618 5        35.962    22698829.856 6  92947943.11406     -2786.601 6        37.444
G32         3.000    21863751.702 7 114894722.53507      -624.270 7        44.172                                    21863747.524 5  89528370.11905      -486.453 5        34.090    21863749.768 6  89528420.10506      -486.506 6        36.624
G14         4.000                                                                                                                                                                    23881336.777 5  97790069.41905      -491.887 5        32.072
E07         5.000    24693828.523 6 129766912.31306       251.973 6        39.736                                                                    24693827.647 5  96903943.87705       188.094 5        35.929    24693828.550 6  99431810.01306       192.929 6        40.162
G08         6.000    21138599.913 8 111084627.65108     -3102.145 8        49.918                                    21138597.398 7  86559015.78207     -2417.255 7        46.237    21138598.701 7  86559043.78207     -2417.212 7        42.064
G27         7.000    23345586.490 5 122681872.30405     -4525.508 5        35.438                                    23345584.262 4  95596280.33904     -3526.359 4        25.233    23345584.937 6  95596280.33406     -3526.407 6        36.764
G21         8.000    20640883.446 7 108468561.21307      -583.005 7        43.458                                    20640877.739 4  84520931.62704      -454.295 4        26.371
G02         9.000    21506531.764 7 113017643.02507       800.227 7        47.747                                    21506523.211 4  88065667.50704       623.555 4        29.289
E08        12.000    26512749.412 6 139325370.96906     -2481.561 6        37.883                                                                    26512749.884 5 104041645.39305     -1853.240 5        31.381    26512756.556 5 106755842.10805     -1901.169 5        34.590
E29        14.000    26560455.076 6 139576188.14806      2226.873 6        36.106                                                                    26560453.771 7 104228922.23207      1662.910 7        44.158    26560451.361 6 106947952.27006      1706.282 6        39.261
E24        15.000    28026335.104 5 147279421.07405       260.918 5        33.748                                                                    28026328.021 5 109981342.52305       195.561 5        33.623    28026327.943 5 112850486.57605       199.778 5        34.724
E13        16.000    26746399.032 5                     -3127.823 5        33.479                                                                    26746393.850 4 104958629.00004     -2335.394 4        27.701
E31        17.000    26300311.736 6 138209054.67306     -2153.989 6        39.165                                                                    26300312.867 5 103208081.93105     -1608.543 5        35.938    26300312.105 5                     -1650.316 5        32.144
E26        19.000    23525930.849 7 123629590.89407     -1425.299 7        47.448                                                                    23525928.498 6  92320872.56306     -1064.324 6        40.536    23525927.262 6  94729175.87106     -1092.149 6        39.324
R06        21.000    22065309.420 4 117744732.33104      3294.923 4        29.052
S36        23.000    38226691.728 6 200882534.09706      -852.860 6        38.276
S23        24.000    38180561.057 6 200640201.83206      -850.913 6        39.790
R12        25.000    23320656.678 6 124574795.15616     -1181.713 6        39.474                                                                    23320649.533 5                      -920.889 5        33.886
R20        26.000    19494060.718 4                     -1561.253 4        28.028                                                                    19494064.481 6                     -1214.593 6        38.171
R05        27.000    19335584.845 8 103359811.12608      -887.376 8        48.846                                                                    19335580.258 6  80390922.98806      -690.220 6        39.574
E33        28.000    24437281.347 6 128418817.71706       752.850 6        39.865                                                                    24437279.657 6  95897178.48606       562.273 6        41.766    24437278.174 6  98398805.48006       576.912 6        40.644
R21        30.000    20730228.131 8 110931888.67008      1984.865 8        48.988                                                                    20730227.348 7  86280190.13007      1543.712 7        46.742
R04        31.000    21749948.864 5 116469976.61205     -4442.305 5        34.995                                                                    21749950.791 6  90587761.53406     -3455.383 6        38.429
C32        36.000                                                                                                                                    24737073.212 4                      2370.320 4        28.739                                                                    24737045.418 5                      1925.834 5        31.208
C33        37.000                                                                                                                                    23752503.209 4 123685647.36804     -3145.750 4        29.621                                                                    23752519.026 7 100504668.38507     -2556.094 7        42.275
C30        38.000                                                                                                                                    23667552.639 7 123243155.68507      1685.975 7        47.363                                                                    23667552.653 6 100145184.25806      1370.073 6        40.360
C28        40.000                                                                                                                                                                                                                                                                    23099919.568 6  97743309.58206     -2641.926 6        41.893
R11        41.000                                                                                                                                    23951812.630 4                     -3232.299 4        26.311
I01        44.000   371581932.548 6 155026555.64606     -2523.304 6        40.899
C13        45.000                                                                                                                                    40232506.017 4                     -1737.994 4        27.689
C14        47.000                                                                                                                                    25849209.579 3                     -3984.233 3        23.600    25849213.676 5 104084021.04405     -3081.302 5        32.012
C41        49.000                                                                                                                                    22039524.979 6 114765650.93006      -202.736 6        39.219                                                                    22039525.904 7  93256486.75807      -164.668 7        44.808
C27        52.000                                                                                                                                    21399781.633 8 111434261.31308      -867.291 8        50.686                                                                    21399779.804 8  90549478.52608      -704.688 8        49.061
I06        58.000    38425420.921 5 150789786.56305      -530.717 5        32.557
I09        60.000    37338977.732 5 146526173.47205      -362.880 5        34.752
> 2025 01 01 22 46  5.0000000  0 37
G03         1.000    23352355.463 5 122717618.43505      2552.629 5        32.934                                    23352345.377 2  95624012.27302      1989.024 2        13.758    23352345.002 4  95624120.16604      1989.281 4        28.246
G10         2.000    22702234.406 7 119301112.43407     -3577.292 7        44.163                                    22702232.231 5  92961906.34705     -2787.498 5        35.219    22702233.955 6  92961878.32406     -2787.527 6        37.713
G32         3.000    21864347.860 7 114897852.43207      -627.659 7        43.221                                    21864344.052 5  89530808.99205      -489.082 5        34.948    21864346.691 6  89530858.97606      -489.007 6        38.694
G14         4.000    23881935.073 5 125500418.91105      -634.088 5        32.323                                    23881936.959 1  97792514.35501      -494.013 1         5.143    23881938.806 5  97792534.40105      -494.365 5        33.168
E07         5.000    24693589.934 6 129765659.23006       249.451 6        39.991                                                                    24693589.024 6  96903008.15406       186.072 6        36.885    24693590.241 6  99430849.83206       191.059 6        39.087
G08         6.000    21141552.681 8 111100145.32708     -3104.886 8        50.399                                    21141550.431 7  86571107.47307     -2419.391 7        46.343    21141551.715 7  86571135.47807     -2419.311 7        42.097
G27         7.000    23349894.443 5 122704503.18505     -4526.911 5        34.352                                    23349890.376 4  95613914.81104     -3527.452 4        24.526    23349892.071 6  95613914.78406     -3527.148 6        37.225
G21         8.000    20641439.110 7 108471481.05507      -584.860 7        43.268                                    20641433.303 4  84523206.83304      -455.734 4        26.551
G02         9.000    21505770.214 7 113013645.84707       798.747 7        45.932                                    21505762.687 4  88062552.82404       622.394 4        28.256
G17        11.000    25628936.274 5                      2507.346 5        31.472
E08        12.000    26515112.535 6 139337784.37006     -2483.691 6        36.866                                                                    26515113.412 5 104050915.17405     -1855.115 5        30.091    26515112.049 5 106765353.73505     -1902.964 5        34.657
E29        14.000    26558336.677 6 139565055.66406      2226.119 6        36.930                                                                    26558335.227 7 104220609.00407      1662.417 7        44.209    26558333.150 6 106939422.16606      1705.840 6        39.162
E24        15.000    28026088.160 5 147278121.44905       258.798 5        33.198                                                                    28026080.838 5 109980372.06505       193.335 5        33.545    28026080.976 5 112849490.74505       198.174 5        34.767
E13        16.000    26749377.092 5 140568922.22215     -3128.303 5        34.438                                                                    26749371.735 4 104970308.75904     -2336.435 4        24.571
E31        17.000    26302361.815 6 138219830.32806     -2156.194 6        39.520                                                                    26302363.320 6 103216128.68806     -1610.211 6        36.310    26302363.109 5                     -1652.155 5        32.503
E26        19.000    23527287.279 7 123636720.76507     -1426.568 7        46.887                                                                    23527285.375 6  92326196.81506     -1065.198 6        40.799    23527283.683 6  94734639.00006     -1093.014 6        38.495
R06        21.000    22062225.955 5 117728262.75705      3292.833 5        32.245
S36        23.000    38227503.551 6 200886799.27806      -853.249 6        37.456
S23        24.000    38181376.936 6 200644456.54606      -851.084 6        39.895
R12        25.000    23321758.471 6 124580714.69406     -1185.982 6        39.126                                                                    23321758.236 5  96896055.56015      -922.353 5        35.043
R20        26.000    19495523.744 4                     -1564.868 4        25.609                                                                    19495525.919 6                     -1216.747 6        40.341
R05        27.000    19336417.332 8 103364259.83208      -891.988 8        49.014                                                                    19336413.122 6  80394383.09406      -693.847 6        40.377
E33        28.000    24436565.149 6 128415055.11506       752.117 6        39.526                                                                    24436563.532 7  95894368.78207       561.565 7        42.271    24436561.957 6  98395922.47206       576.299 6        39.868
R21        30.000    20728375.606 8 110921968.89908      1983.176 8        49.463                                                                    20728374.283 7  86272474.75107      1542.447 7        46.915
R04        31.000    21754097.565 6 116492196.52406     -4445.178 6        37.690                                                                    21754099.451 6  90605043.60106     -3457.256 6        38.871
C32        36.000                                                                                                                                    24734801.104 5                      2369.016 5        31.155                                                                    24734769.384 5                      1924.923 5        32.347
C33        37.000                                                                                                                                    23755520.776 5 123701380.39405     -3147.883 5        32.784                                                                    23755540.536 7 100517452.72507     -2557.523 7        42.741
C30        38.000                                                                                                                                    23665934.056 7 123234728.98107      1684.716 7        47.089                                                                    23665934.083 6 100138336.85906      1369.039 6        40.303
C28        40.000                                                                                                                                                                                                                                                                    23103042.208 7  97756522.49507     -2643.149 7        42.298
R11        41.000                                                                                                                                    23955709.582 3                     -3233.399 3        21.929
I01        44.000   371585148.196 6 155039173.13206     -2523.703 6        41.118
C13        45.000                                                                                                                                    40234167.256 4                     -1737.991 4        27.281
C14        47.000                                                                                                                                    25853033.268 4                     -3984.843 4        24.286    25853039.804 5 104099427.24005     -3081.460 5        30.996
C41        49.000                                                                                                                                    22039718.811 6 114766671.51906      -205.456 6        40.381                                                                    22039721.732 7  93257316.03307      -166.806 7        44.555
C27        52.000                                                                                                                                    21400615.721 8 111438603.93808      -869.625 8        50.262                                                                    21400613.766 8  90553007.23808      -706.602 8        48.916
I06        58.000    38426097.050 5 150792440.10205      -530.851 5        32.078
I09        60.000    37339441.949 5 146527988.70505      -363.191 5        35.162
> 2025 01 01 22 46 10.0000000  0 37
G03         1.000    23349933.470 4 122704858.09704      2551.666 4        28.976                                    23349916.495 1  95614069.10301      1988.307 1         9.905    23349914.672 4  95614177.07304      1988.344 4        27.832
G10         2.000    22705638.143 7 119319001.22307     -3578.062 7        43.539                                    22705636.531 5  92975845.67505     -2788.099 5        34.457    22705637.821 6  92975817.66106     -2788.142 6        37.974
G32         3.000    21864947.870 7 114900998.57207      -630.647 7        43.634                                    21864943.652 5  89533260.51905      -491.395 5        35.171    21864945.421 6  89533310.48506      -491.488 6        39.192
G14         4.000    23882542.565 5 125503598.07005      -637.401 5        31.841                                    23882541.862 1  97794991.74701      -496.676 1         5.857    23882540.185 5  97795011.67905      -496.491 5        33.593
E07         5.000    24693353.664 6 129764417.93906       247.292 6        39.195                                                                    24693353.434 6  96902081.20206       184.696 6        37.989    24693352.810 6  99429898.68106       189.373 6        38.363
G08         6.000    21144508.281 8 111115675.68008     -3107.151 8        50.573                                    21144505.941 7  86583209.04307     -2421.154 7        46.461    21144507.405 7  86583237.05607     -2421.218 7        42.085
G27         7.000    23354203.540 5 122727139.03605     -4527.558 5        33.910                                    23354197.577 3  95631553.14603     -3527.949 3        23.410    23354198.929 6  95631553.13506     -3527.983 6        37.992
G21         8.000    20641996.549 7 108474409.69807      -586.480 7        43.111                                    20641990.494 4  84525488.89404      -457.008 4        26.479
G02         9.000    21505010.675 7 113009655.34407       797.555 7        45.172                                    21505003.244 4  88059443.35804       621.465 4        26.982
G17        11.000    25626550.771 5                      2506.779 5        30.702
E08        12.000    26517475.425 5 139350208.19605     -2485.559 5        34.490                                                                    26517479.437 5 104060192.65405     -1855.712 5        32.054    26517474.587 5 106774873.26705     -1904.356 5        32.126
E29        14.000    26556218.308 6 139553926.23806      2225.897 6        36.836                                                                    26556217.278 7 104212298.08907      1662.133 7        44.169    26556215.449 6 106930894.46106      1705.281 6        39.345
E24        15.000    28025844.852 5 147276833.26305       256.568 5        33.754                                                                    28025835.941 5 109979410.10305       191.578 5        33.647    28025835.570 5 112848503.66505       196.929 5        34.624
E13        16.000    26752352.988 5 140584565.59305     -3128.764 5        34.190                                                                    26752357.690 3                     -2335.574 3        19.343
E31        17.000    26304413.883 6 138230616.78706     -2158.268 6        39.661                                                                    26304416.194 6 103224183.50706     -1611.632 6        37.036    26304415.615 5                     -1653.662 5        32.928
E26        19.000    23528645.171 7 123643856.38307     -1427.542 7        46.646                                                                    23528642.547 6  92331525.36106     -1065.953 6        40.179    23528642.019 6  94740106.55206     -1093.797 6        39.015
R06        21.000    22059140.778 5 117711802.00505      3291.541 5        31.872
S36        23.000    38228313.631 6 200891063.92106      -852.727 6        36.439
S23        24.000    38182185.383 6 200648711.55106      -850.936 6        40.312
R12        25.000    23322871.597 6 124586655.24706     -1189.941 6        36.420                                                                    23322870.423 5  96900676.00605      -925.553 5        35.390
R20        26.000    19496989.877 4                     -1566.629 4        24.511                                                                    19496989.163 6  81090651.03016     -1219.029 6        39.907
R05        27.000    19337252.828 8 103368731.07408      -896.368 8        48.314                                                                    19337249.567 6  80397860.73106      -697.198 6        41.251
E33        28.000    24435850.705 6 128411296.29706       751.504 6        40.810                                                                    24435848.278 6  95891561.86706       561.274 6        41.878    24435846.259 6  98393042.34406       575.934 6        39.330
R21        30.000    20726523.149 8 110912056.99608      1981.807 8        49.188                                                                    20726521.920 7  86264765.50107      1541.335 7        46.671
R04        31.000    21758251.366 6 116514427.77506     -4447.344 6        39.411                                                                    21758251.672 6  90622334.53206     -3458.998 6        38.093
C32        36.000                                                                                                                                    24732532.467 5                      2367.903 5        30.196                                                                    24732492.913 5                      1924.110 5        32.437
C33        37.000                                                                                                                                                                                                                                                                    23758564.029 7 100530244.39307     -2558.811 7        43.156
C30        38.000                                                                                                                                    23664317.063 7 123226308.06707      1683.739 7        47.246                                                                    23664317.226 6 100131494.19406      1368.245 6        40.698
C28        40.000                                                                                                                                                                                                                                                                    23106166.432 7  97769741.85907     -2644.422 7        42.499
R11        41.000    23959644.930 5                     -4159.076 5        32.820
I01        44.000   371588364.422 6 155051792.15006     -2523.797 6        41.497
C13        45.000                                                                                                                                    40235833.745 4                     -1737.432 4        24.075
C14        47.000                                                                                                                                                                                                    25856866.019 5 104114836.50405     -3081.931 5        32.934
C41        49.000                                                                                                                                    22039916.224 7 114767705.51107      -207.817 7        42.419                                                                    22039920.135 7  93258156.29007      -169.000 7        44.373
C27        52.000                                                                                                                                    21401452.068 8 111442957.94908      -871.763 8        49.898                                                                    21401449.796 8  90556545.24308      -708.389 8        48.455
I06        58.000    38426772.895 5 150795093.75305      -530.601 5        32.078
I09        60.000    37339901.952 5 146529805.33605      -363.370 5        35.319
> 2025 01 01 22 46 15.0000000  0 36
G10         2.000    22709042.214 6 119336895.29506     -3579.577 6        41.476                                    22709041.944 5  92989789.11705     -2789.278 5        33.760    22709043.034 6  92989761.08506     -2789.127 6        37.902
G32         3.000    21865551.003 7 114904160.90307      -634.332 7        44.466                                    21865546.418 5  89535724.65705      -494.281 5        35.195    21865548.018 6  89535774.63206      -494.174 6        39.742
G14         4.000    23883153.563 5 125506793.05105      -640.622 5        35.448                                    23883149.819 1  97797481.30101      -499.188 1         4.857    23883146.901 5  97797501.23305      -499.213 5        31.668
E07         5.000    24693119.392 6 129763188.41106       244.489 6        38.919                                                                    24693119.400 6  96901163.06906       182.672 6        38.757    24693118.889 6  99428956.55606       187.518 6        38.339
G08         6.000    21147466.137 8 111131218.71808     -3110.076 8        51.163                                    21147463.847 7  86595320.50307     -2423.436 7        46.268    21147464.587 7  86595348.50107     -2423.382 7        42.626
G27         7.000    23358509.498 5 122749779.89505     -4528.879 5        34.390                                    23358505.995 3  95649195.34503     -3528.993 3        23.905    23358507.365 6  95649195.33606     -3528.891 6        37.705
G21         8.000    20642555.791 7 108477347.18107      -588.581 7        42.754                                    20642549.348 4  84527777.84504      -458.638 4        26.671
G02         9.000    21504252.837 7 113005671.57707       795.896 7        43.560                                    21504245.027 4  88056339.13104       620.166 4        25.519
G17        11.000    25624173.835 5                      2506.256 5        30.906
E08        12.000    26519836.498 5 139362642.39505     -2487.679 5        33.317                                                                    26519847.208 4 104069478.01204     -1858.358 4        28.009    26519840.186 5 106784400.80605     -1906.931 5        30.853
E29        14.000    26554100.996 6 139542799.98406      2224.764 6        37.433                                                                    26554099.804 7 104203989.51807      1661.315 7        44.001    26554098.516 6 106922369.13806      1704.720 6        39.724
E24        15.000    28025600.565 5 147275556.55905       253.922 5        34.105                                                                    28025592.084 5 109978456.70205       189.566 5        33.204    28025592.933 5 112847525.40605       194.689 5        34.986
E13        16.000    26755331.215 5 140600211.64605     -3129.771 5        34.624                                                                    26755336.099 3                     -2337.488 3        22.838
E31        17.000    26306466.797 6 138241414.10106     -2161.014 6        36.465                                                                    26306470.455 6 103232246.44206     -1613.627 6        37.350    26306469.306 5 105925253.87615     -1655.682 5        33.006
E26        19.000    23530004.327 7 123650997.75607     -1429.052 7        45.770                                                                    23530001.407 6  92336858.20906     -1067.117 6        39.811    23530000.702 6  94745578.50806     -1095.077 6        38.835
R06        21.000    22056057.258 5 117695350.06205      3290.040 5        30.551
S36        23.000    38229118.366 5 200895328.86205      -853.296 5        35.410
S23        24.000    38182995.958 6 200652966.85206      -851.133 6        40.052
R12        25.000    23323990.336 5 124592616.83905     -1194.990 5        32.030                                                                    23323984.243 5  96905312.89905      -929.134 5        35.633
R20        26.000                                                                                                                                    19498456.463 6  81096752.05316     -1221.532 6        38.477
R05        27.000    19338093.871 8 103373225.06708      -901.216 8        48.359                                                                    19338090.306 7  80401356.06607      -700.904 7        42.028
E33        28.000    24435138.236 6 128407541.24406       750.296 6        41.421                                                                    24435133.904 7  95888757.78907       560.374 7        42.610    24435131.415 6  98390165.10106       575.092 6        39.532
R21        30.000    20724672.559 8 110902152.91708      1979.777 8        49.311                                                                    20724671.012 7  86257062.31707      1539.841 7        46.625
R04        31.000                                                                                                                                    21762404.567 6  90639634.35506     -3461.264 6        37.021
C32        36.000                                                                                                                                    24730255.570 5                      2366.627 5        31.638                                                                    24730218.811 5                      1923.023 5        33.521
C33        37.000                                                                                                                                    23761595.385 5 123732873.41005     -3151.414 5        35.914                                                                    23761588.482 7 100543043.33907     -2560.715 7        43.304
C30        38.000                                                                                                                                    23662701.245 7 123217892.97807      1682.219 7        47.005                                                                    23662701.441 6 100124656.24106      1366.906 6        41.318
C28        40.000                                                                                                                                    23109348.146 5 120336319.46205     -3256.359 5        32.048                                                                    23109292.292 7  97782967.57707     -2645.984 7        43.359
R11        41.000                                                                                                                                    23963490.720 4                     -3236.518 4        27.389
I01        44.000   371591579.757 6 155064412.75606     -2524.427 6        41.836
C13        45.000                                                                                                                                    40237502.850 3                     -1738.684 3        22.267
C14        47.000                                                                                                                                                                                                    25860692.686 5 104130248.75105     -3082.785 5        31.313
C41        49.000                                                                                                                                    22040118.446 7 114768753.01207      -211.145 7        43.604                                                                    22040121.509 7  93259007.44907      -171.499 7        44.783
C27        52.000                                                                                                                                    21402290.770 8 111447323.34308      -874.471 8        49.945                                                                    21402287.989 8  90560092.47608      -710.596 8        48.476
I06        58.000    38427449.285 5 150797747.66405      -531.038 5        31.532
I09        60.000    37340364.335 5 146531623.40205      -363.732 5        34.767
> 2025 01 01 22 46 20.0000000  0 37
G03         1.000                                                                                                                                                                    23345071.293 4  95594303.37204      1986.318 4        24.451
G10         2.000    22712447.793 6 119354794.04706     -3579.995 6        40.644                                    22712448.399 5  93003736.20105     -2789.615 5        32.617    22712449.476 6  93003708.19506     -2789.754 6        37.822
G32         3.000    21866155.806 7 114907338.85307      -637.132 7        44.924                                    21866152.037 5  89538200.96305      -496.467 5        35.224    21866152.173 6  89538250.95706      -496.371 6        39.171
G14         4.000    23883765.652 5 125510003.11405      -643.513 5        34.986                                    23883760.553 1  97799982.65001      -501.385 1         9.143    23883761.473 5  97800002.61805      -501.501 5        33.311
E07         5.000    24692887.463 6 129761970.07506       242.632 6        38.730                                                                    24692887.741 6  96900253.29806       181.084 6        38.691    24692886.998 6  99428023.03806       185.853 6        38.282
G08         6.000    21150426.315 8 111146773.81408     -3112.124 8        51.283                                    21150423.927 7  86607441.35807     -2425.031 7        46.104    21150424.666 7  86607469.35407     -2425.045 7        42.580
G27         7.000    23362817.260 5 122772425.15405     -4529.652 5        32.539                                    23362815.132 3  95666840.99403     -3529.604 3        23.981    23362816.753 6  95666840.97906     -3529.506 6        38.619
G21         8.000    20643116.237 7 108480292.83807      -589.902 7        42.715                                    20643109.513 4  84530073.17204      -459.665 4        26.671
G02         9.000    21503494.792 6 113001693.94006       795.073 6        40.169                                    21503488.218 3  88053239.68703       619.533 3        22.838
G17        11.000    25621789.714 4                      2506.095 4        29.403
E08        12.000    26522200.118 4 139375086.39104     -2489.440 4        28.341                                                                    26522213.172 4 104078770.62704     -1859.313 4        29.554    26522205.394 4 106793935.80304     -1906.990 4        29.536
E29        14.000    26551984.242 6 139531676.22606      2224.514 6        36.904                                                                    26551983.102 7 104195682.82907      1661.161 7        43.754    26551981.830 6 106913845.74406      1704.371 6        39.823
E24        15.000    28025361.685 5 147274290.66305       252.092 5        34.419                                                                    28025350.756 5 109977511.41805       188.205 5        33.814    28025352.577 5 112846555.46705       193.191 5        35.443
E13        16.000    26758308.489 5 140615859.68105     -3129.746 5        34.024
E31        17.000    26308524.007 5 138252221.63305     -2162.524 5        35.705                                                                    26308526.843 6 103240316.98406     -1614.962 6        37.784    26308526.943 5 105933534.93805     -1656.857 5        33.629
E26        19.000    23531364.316 7 123658144.27107     -1429.696 7        45.150                                                                    23531361.407 6  92342194.89906     -1067.799 6        40.205    23531360.455 6  94751054.38806     -1095.386 6        39.348
R06        21.000    22052976.152 5 117678906.33905      3288.097 5        32.000
S36        23.000    38229930.721 5 200899593.24605      -852.728 5        35.567
S23        24.000    38183809.557 6 200657221.79106      -850.973 6        40.393
R12        25.000    23325099.282 5 124598598.81805     -1198.462 5        35.181                                                                    23325106.446 5  96909965.51105      -932.132 5        35.486
R20        26.000    19499924.594 4                     -1573.835 4        24.361                                                                    19499924.927 6  81102863.90506     -1223.328 6        37.505
R05        27.000    19338938.159 7 103377740.99107      -905.379 7        46.345                                                                    19338935.244 7  80404868.42807      -704.102 7        42.681
E33        28.000    24434423.785 6 128403789.34306       750.242 6        41.549                                                                    24434419.912 7  95885956.05507       560.137 7        42.614    24434417.403 6  98387290.30406       574.729 6        38.841
R21        30.000    20722823.350 8 110892256.11008      1978.668 8        49.540                                                                    20722821.256 7  86249364.80807      1538.870 7        46.112
R04        31.000                                                                                                                                    21766560.207 6  90656942.59106     -3462.460 6        36.140
C32        36.000                                                                                                                                    24727974.860 5                      2365.181 5        34.062                                                                    24727950.088 5                      1922.189 5        34.367
C33        37.000                                                                                                                                    23764620.097 6 123748632.68606     -3152.857 6        36.057                                                                    23764614.953 7 100555849.07207     -2561.814 7        43.562
C30        38.000                                                                                                                                    23661086.411 7 123209483.09107      1681.404 7        46.744                                                                    23661086.711 7 100117822.52907      1366.298 7        42.161
C28        40.000                                                                                                                                                                                                                                                                    23112419.446 7  97796199.21107     -2646.961 7        43.245
R11        41.000                                                                                                                                    23967383.075 5                     -3237.485 5        30.234
I01        44.000   371594796.275 6 155077034.39206     -2524.367 6        41.042
C13        45.000                                                                                                                                    40239176.864 4                     -1736.788 4        25.639
C14        47.000                                                                                                                                                                                                    25864520.877 5 104145663.50305     -3083.470 5        32.311
C41        49.000                                                                                                                                    22040322.521 7 114769813.31807      -213.294 7        42.870                                                                    22040325.086 7  93259869.08507      -173.379 7        44.728
C27        52.000                                                                                                                                    21403131.205 8 111451699.50608      -876.265 8        50.277                                                                    21403128.307 8  90563648.48208      -712.070 8        48.360
I06        58.000    38428125.361 5 150800401.23905      -530.627 5        31.585
I09        60.000    37340827.946 5 146533442.47005      -363.798 5        35.162
> 2025 01 01 22 46 25.0000000  0 37
G03         1.000    23342697.160 5 122666707.47115      2548.716 5        34.471                                                                                                    23342646.643 4                      1985.909 4        27.497
G10         2.000    22715855.538 6 119372698.17006     -3581.361 6        39.766                                    22715855.713 5  93017687.47105     -2790.677 5        31.555    22715856.532 6  93017659.42406     -2790.572 6        37.490
G32         3.000    21866763.118 7 114910533.14307      -640.335 7        44.608                                    21866760.767 5  89540689.98605      -498.967 5        35.386    21866759.886 6  89540739.99206      -499.003 6        38.919
G14         4.000    23884379.711 5 125513229.07405      -646.487 5        33.737                                    23884374.480 1  97802496.38901      -503.752 1         9.143    23884374.035 5  97802516.34305      -503.791 5        32.766
E07         5.000    24692658.368 6 129760763.63406       240.285 6        38.658                                                                    24692658.378 6  96899352.39706       179.446 6        38.976    24692658.009 6  99427098.60806       184.326 6        38.649
G08         6.000    21153388.693 8 111162341.67408     -3114.732 8        50.956                                    21153386.310 7  86619572.16207     -2427.063 7        45.711    21153386.727 6  86619600.15906     -2427.039 6        41.928
G27         7.000    23367131.666 4 122795075.27904     -4529.891 4        29.270                                    23367125.450 3  95684490.48903     -3529.798 3        20.929    23367127.257 6  95684490.51506     -3530.240 6        38.204
G21         8.000    20643678.979 7 108483247.44807      -591.604 7        43.062                                    20643671.453 4  84532375.46104      -461.000 4        26.766
G02         9.000    21502739.790 6 112997723.10006       793.718 6        37.278                                    21502732.304 3  88050145.52603       618.479 3        19.701
G17        11.000    25619401.997 4                      2505.951 4        29.772
E08        12.000    26524564.172 3                     -2490.037 3        20.024                                                                    26524583.252 4 104088071.00204     -1860.349 4        26.000    26524577.620 5 106803478.88105     -1909.617 5        30.498
E29        14.000    26549868.869 6 139520555.68406      2223.925 6        38.267                                                                    26549866.932 7 104187378.54707      1660.732 7        43.365    26549866.088 6 106905324.83906      1704.094 6        40.138
E24        15.000    28025125.735 5 147273036.36205       249.595 5        34.319                                                                    28025112.459 5 109976574.77105       186.556 5        33.479    28025114.025 5 112845594.35405       191.428 5        35.686
E13        16.000    26761286.980 5 140631510.40905     -3130.336 5        33.096                                                                    26761272.616 4                     -2337.590 4        25.293
E31        17.000    26310583.915 5 138263040.07305     -2164.899 5        34.638                                                                    26310585.763 6 103248395.68006     -1616.492 6        38.556    26310584.631 5 105941824.41305     -1658.515 5        33.695
E26        19.000    23532725.257 7 123665296.63607     -1430.922 7        44.828                                                                    23532722.959 6  92347535.94906     -1068.472 6        40.701    23532722.249 6  94756534.80406     -1096.530 6        39.931
R06        21.000    22049897.492 5 117662471.60405      3286.162 5        33.042
S36        23.000    38230751.698 5 200903858.31205      -853.003 5        35.924
S23        24.000    38184617.999 6 200661477.18606      -851.119 6        41.311
R12        25.000    23326226.687 6 124604601.95806     -1202.656 6        40.412                                                                    23326236.528 5  96914634.59005      -935.080 5        33.383
R20        26.000    19501401.969 4                     -1576.006 4        26.359                                                                    19501397.337 6  81108987.18716     -1225.588 6        38.727
R05        27.000    19339785.393 7 103382279.72007      -909.879 7        43.740                                                                    19339783.987 7  80408398.59607      -707.754 7        43.022
E33        28.000    24433709.761 6 128400041.30806       749.384 6        41.006                                                                    24433706.387 7  95883157.21107       559.629 7        42.220    24433704.434 6  98384418.45006       574.229 6        38.123
R21        30.000    20720975.580 8 110882367.24508      1977.195 8        50.585                                                                    20720973.697 7  86241673.46407      1537.770 7        46.099
R04        31.000                                                                                                                                    21770719.309 5  90674259.75605     -3463.837 5        35.229
C32        36.000                                                                                                                                    24725698.710 5 128753228.44215      2364.659 5        34.833                                                                    24725679.721 5 104622435.03115      1921.715 5        33.844
C33        37.000                                                                                                                                    23767644.382 5 123764400.97705     -3154.406 5        34.790                                                                    23767643.377 7 100568662.16607     -2563.388 7        43.913
C30        38.000                                                                                                                                    23659472.321 7 123201079.11507      1680.372 7        46.816                                                                    23659473.070 7 100110993.62507      1365.291 7        42.688
C28        40.000                                                                                                                                                                                                                                                                    23115547.970 7  97809437.29607     -2648.311 7        43.338
R11        41.000    23971287.904 5 128095315.21815     -4163.906 5        31.072                                                                    23971271.974 4                     -3239.029 4        29.981
I01        44.000   371598013.167 6 155089657.67406     -2524.683 6        40.830
C13        45.000                                                                                                                                    40240856.974 4                     -1738.614 4        26.036
C14        47.000                                                                                                                                    25868387.362 3                     -3987.241 3        23.295    25868349.236 5 104161081.32505     -3083.730 5        35.157
C41        49.000                                                                                                                                    22040526.414 7 114770887.20907      -215.981 7        42.402                                                                    22040531.354 7  93260741.73107      -175.636 7        45.037
C27        52.000                                                                                                                                    21403973.793 8 111456087.14508      -878.500 8        50.291                                                                    21403970.912 8  90567213.81308      -713.993 8        48.304
I06        58.000    38428803.265 5 150803055.00505      -530.631 5        31.404
I09        60.000    37341292.046 5 146535263.06005      -364.352 5        34.886
> 2025 01 01 22 46 30.0000000  0 36
G03         1.000    23340263.642 6 122653968.19306      2547.706 6        36.287                                                                                                    23340227.643 4                      1985.222 4        24.842
G10         2.000    22719263.293 6 119390607.01506     -3582.203 6        40.315                                    22719263.742 4  93031642.41204     -2791.327 4        29.953    22719264.242 6  93031614.35706     -2791.170 6        36.435
G32         3.000    21867373.378 7 114913743.14607      -643.375 7        44.041                                    21867372.226 5  89543191.26205      -501.325 5        34.471    21867371.261 6  89543241.24906      -501.366 6        38.480
G14         4.000    23884995.202 6 125516470.27106      -649.675 6        36.117                                    23884991.323 1  97805021.94601      -506.201 1        10.518    23884990.001 5  97805041.95105      -506.451 5        32.731
E07         5.000    24692430.985 6 129759568.45306       238.177 6        38.697                                                                    24692431.062 6  96898459.92106       177.803 6        39.670    24692430.197 6  99426182.84606       182.441 6        38.838
G08         6.000    21156352.916 8 111177921.65708     -3117.094 8        50.661                                    21156350.795 7  86631712.40507     -2428.907 7        45.347    21156351.155 7  86631740.41107     -2428.953 7        42.019
G27         7.000    23371437.886 4 122817729.96904     -4531.208 4        24.932                                    23371436.765 3  95702143.47503     -3530.820 3        18.537    23371438.710 6  95702143.51506     -3530.830 6        38.168
G21         8.000    20644242.812 7 108486210.37007      -593.276 7        43.230                                    20644235.163 4  84534684.24104      -462.290 4        26.802
G02         9.000    21501983.555 5 112993758.55105       792.355 5        33.569                                    21501977.507 2  88047056.26702       617.437 2        16.641
G17        11.000    25617021.801 4                      2505.353 4        27.629
E08        12.000                                                                                                                                    26526953.554 4 104097378.75404     -1861.671 4        26.383
E29        14.000    26547753.075 6 139509437.78506      2223.593 6        38.889                                                                    26547751.221 7 104179076.23007      1660.371 7        43.355    26547750.496 6 106896805.94406      1703.790 6        39.985
E24        15.000    28024888.824 5 147271792.94005       247.626 5        32.467                                                                    28024875.771 5 109975646.27405       184.766 5        33.683    28024877.412 5 112844641.63005       189.799 5        35.910
E13        16.000    26764265.955 5 140647163.21505     -3130.483 5        30.740                                                                    26764256.539 4                     -2337.522 4        28.521    26764274.444 5 107768639.66715     -2398.785 5        31.872
E31        17.000    26312643.876 5 138273868.75405     -2166.400 5        34.767                                                                    26312647.001 6 103256482.07106     -1617.890 6        39.315    26312643.797 5 105950121.75905     -1660.038 5        32.192
E26        19.000    23534087.560 7 123672454.25007     -1431.953 7        44.292                                                                    23534085.143 6  92352880.92506     -1069.414 6        40.930    23534084.212 6  94762019.19306     -1097.214 6        40.930
R06        21.000    22046821.815 5 117646045.12905      3284.670 5        33.329
S36        23.000    38231560.377 6 200908123.62906      -852.821 6        36.076
S23        24.000    38185427.586 6 200665732.46906      -850.920 6        40.443
R12        25.000                                                                                                                                    23327358.426 4  96919319.71304      -938.875 4        29.905
R20        26.000    19502872.180 4                     -1578.591 4        29.640                                                                    19502871.946 6  81115121.27516     -1227.792 6        39.727
R05        27.000    19340638.089 6 103386840.66706      -914.302 6        39.532                                                                    19340637.289 7  80411946.00407      -711.116 7        42.614
E33        28.000    24432996.408 6 128396296.54506       748.767 6        41.063                                                                    24432993.888 6  95880360.80006       559.209 6        41.902    24432992.606 6  98381549.09406       573.612 6        37.138
R21        30.000    20719129.481 8 110872485.76008      1975.737 8        51.227                                                                    20719127.166 7  86233987.85707      1536.702 7        45.955
R04        31.000    21774923.656 4 116603464.60604     -4456.548 4        27.581                                                                    21774878.780 5  90691585.35405     -3466.042 5        31.577
C32        36.000                                                                                                                                    24723423.792 5 128741408.25605      2363.614 5        34.948                                                                    24723408.255 5 104612830.12405      1920.655 5        34.105
C33        37.000                                                                                                                                    23770676.452 5 123780177.69005     -3156.054 5        32.922                                                                    23770672.956 7 100581482.06707     -2564.690 7        44.516
C30        38.000                                                                                                                                    23657859.153 7 123192680.43107      1679.428 7        47.646                                                                    23657860.404 7 100104169.01407      1364.511 7        43.141
C28        40.000                                                                                                                                    23118677.141 6 120385193.21106     -3260.301 6        37.176                                                                    23118677.790 7  97822681.32707     -2649.422 7        43.232
R11        41.000    23975174.981 5 128116141.46305     -4165.531 5        34.133
I01        44.000   371601230.117 6 155102282.08306     -2524.928 6        40.923
C14        47.000                                                                                                                                    25872187.812 3                     -3988.825 3        21.429    25872179.880 6 104176501.71406     -3084.210 6        36.374
C41        49.000                                                                                                                                    22040735.003 7 114771974.03107      -218.501 7        44.214                                                                    22040740.141 7  93261624.84907      -177.625 7        44.993
C27        52.000                                                                                                                                    21404818.278 8 111460485.65508      -880.714 8        50.155                                                                    21404815.443 8  90570787.96008      -715.748 8        48.205
I06        58.000    38429477.912 5 150805708.57605      -530.419 5        32.030
I09        60.000    37341755.558 5 146537084.64205      -364.301 5        34.571
> 2025 01 01 22 46 35.0000000  0 35
G03         1.000                                                                                                                                                                    23337803.858 4                      1983.867 4        27.509
G10         2.000    22722673.014 6 119408520.38606     -3583.257 6        39.922                                    22722672.599 4  93045600.89004     -2792.152 4        28.739    22722672.623 5  93045572.85305     -2792.071 5        34.462
G32         3.000    21867988.733 7 114916968.68907      -646.605 7        44.543                                    21867986.296 5  89545704.63105      -503.842 5        32.766    21867984.962 6  89545754.62606      -503.927 6        37.777
G14         4.000    23885617.874 6 125519726.53106      -652.826 6        37.342                                    23885611.000 1  97807559.29301      -508.651 1        10.296    23885610.820 5  97807579.27105      -508.533 5        32.778
E07         5.000    24692206.612 6 129758384.41206       235.676 6        38.781                                                                    24692205.594 6  96897575.73006       176.067 6        40.501    24692205.595 6  99425275.60006       180.668 6        39.174
G08         6.000    21159320.339 8 111193513.61408     -3119.678 8        50.487                                    21159317.506 7  86643861.98607     -2430.921 7        44.963    21159318.295 7  86643889.98707     -2430.887 7        42.231
G27         7.000    23375744.616 4                     -4531.128 4        24.195                                                                                                    23375749.919 6  95719799.82806     -3531.691 6        38.192
G21         8.000    20644807.874 7 108489181.44907      -595.100 7        43.968                                    20644800.412 4  84536999.36304      -463.719 4        26.850
G02         9.000    21501228.530 4 112989799.99704       790.562 4        28.787                                    21501224.271 2  88043971.69802       616.076 2        14.714
E08        12.000                                                                                                                                    26529329.573 4 104106693.83104     -1863.762 4        29.071    26529345.236 5 106822587.67905     -1912.091 5        31.019
E29        14.000    26545637.028 6 139498322.37506      2222.772 6        38.273                                                                    26545635.868 7 104170775.76207      1659.881 7        43.191    26545635.369 6 106888288.93606      1703.130 6        40.093
E24        15.000    28024655.801 5 147270560.40505       245.233 5        30.445                                                                    28024640.887 5 109974725.86805       183.036 5        33.826    28024642.680 6 112843697.17906       188.183 6        36.144
E13        16.000    26767244.540 4 140662818.07904     -3131.543 4        27.832                                                                    26767234.483 4                     -2337.984 4        28.038    26767254.246 5 107780634.88705     -2399.414 5        31.132
E31        17.000    26314708.247 5 138284707.63105     -2168.729 5        34.819                                                                    26314708.699 6 103264576.03606     -1619.575 6        38.859    26314705.439 5 105958426.89205     -1661.829 5        30.453
E26        19.000    23535450.977 7 123679616.94007     -1433.127 7        44.778                                                                    23535448.475 6  92358229.68206     -1070.088 6        40.675    23535447.303 6  94767507.48006     -1098.118 6        41.197
R06        21.000    22043743.547 5 117629626.89205      3282.785 5        32.922
S36        23.000    38232372.075 5 200912388.91805      -852.926 5        35.062
S23        24.000    38186239.101 6 200669987.44206      -850.999 6        40.508
R12        25.000    23328504.586 5 124616669.65305     -1210.891 5        35.524                                                                    23328484.861 4  96924020.63304      -942.035 4        29.251
R20        26.000    19504350.553 5                     -1581.371 5        30.332                                                                    19504349.240 6  81121266.14616     -1229.955 6        40.853
R05        27.000    19341492.829 5 103391423.45305      -918.732 5        32.473                                                                    19341494.526 7  80415510.48807      -714.630 7        42.396
E33        28.000    24432284.615 6 128392554.87806       747.949 6        40.389                                                                    24432282.083 7  95877566.70507       558.547 7        42.078    24432280.248 6  98378682.12506       573.153 6        36.019
R21        30.000    20717284.442 8 110862611.44808      1974.096 8        51.805                                                                    20717281.762 7  86226307.84207      1535.310 7        46.194
R04        31.000                                                                                                                                    21779037.332 4  90708919.21804     -3467.612 4        27.509
C32        36.000                                                                                                                                    24721151.838 5 128729593.02905      2362.433 5        34.467                                                                    24721138.443 5 104603229.30605      1919.725 5        34.329
C33        37.000                                                                                                                                    23773712.676 5 123795962.77905     -3157.741 5        32.976                                                                    23773704.197 7 100594308.68607     -2565.984 7        44.451
C30        38.000                                                                                                                                    23656246.821 7 123184286.93207      1678.087 7        47.161                                                                    23656248.485 7 100097348.60707      1363.582 7        43.619
C28        40.000                                                                                                                                    23121814.632 6 120401499.11506     -3261.889 6        38.168                                                                    23121809.241 7  97835931.19007     -2650.628 7        43.264
R11        41.000    23979065.025 5 128136975.82005     -4167.695 5        34.767                                                                    23979054.435 4                     -3242.266 4        24.917
I01        44.000   371604447.313 6 155114907.54706     -2525.234 6        41.621
C14        47.000                                                                                                                                    25876016.017 3                     -3988.549 3        23.867    25876008.180 6 104191924.50206     -3084.918 6        36.745
C41        49.000                                                                                                                                    22040948.016 7 114773073.62107      -221.253 7        46.049                                                                    22040951.342 7  93262518.37007      -179.804 7        44.796
C27        52.000                                                                                                                                    21405665.054 8 111464894.87508      -882.901 8        50.687                                                                    21405662.250 7  90574370.80207      -717.434 7        47.652
I06        58.000    38430153.169 5 150808361.76005      -530.932 5        31.064
I09        60.000    37342218.615 5 146538907.15805      -364.626 5        32.617
> 2025 01 01 22 46 40.0000000  0 34
G03         1.000                                                                                                                                                                    23335378.740 4                      1982.820 4        26.731
G10         2.000    22726082.941 6 119426438.74506     -3584.112 6        38.847                                    22726081.768 4  93059563.25404     -2792.821 4        27.425    22726083.151 5  93059535.14105     -2792.752 5        31.019
G32         3.000    21868607.335 7 114920210.27507      -649.936 7        42.212                                    21868603.326 5  89548230.48205      -506.437 5        30.732    21868601.267 6  89548280.48806      -506.548 6        38.135
G14         4.000    23886240.973 6 125522998.33006      -655.985 6        39.108                                    23886233.620 1  97810108.78001      -511.162 1        10.741    23886235.042 5  97810128.74205      -510.918 5        35.757
E07         5.000    24691983.261 6 129757211.93606       233.288 6        40.069                                                                    24691982.750 6  96896700.20206       174.283 6        40.863    24691984.377 6  99424377.25106       178.742 6        40.164
G08         6.000    21162289.701 8 111209117.95308     -3122.088 8        49.722                                    21162286.673 7  86656021.21207     -2432.796 7        44.445    21162287.347 6  86656049.19606     -2432.734 6        41.626
G27         7.000    23380061.963 5                     -4532.910 5        30.075                                                                                                    23380063.561 6  95737459.76306     -3532.293 6        38.243
G21         8.000    20645375.410 7 108492161.13307      -596.755 7        44.418                                    20645367.248 4  84539321.18504      -465.009 4        26.599
E08        12.000                                                                                                                                    26531708.360 5 104116016.37605     -1865.216 5        31.464
E29        14.000    26543522.057 6 139487209.90006      2222.222 6        37.244                                                                    26543521.309 7 104162477.47007      1659.407 7        42.565    26543520.954 6 106879774.16506      1702.767 6        40.386
E24        15.000    28024422.022 4 147269339.08704       243.720 4        26.826                                                                    28024408.816 5 109973813.79005       181.623 5        34.062    28024410.683 6 112842761.32706       186.226 6        37.047
E13        16.000    26770218.588 4 140678475.22004     -3131.935 4        27.748                                                                    26770215.213 4                     -2338.636 4        28.569    26770234.985 5 107792631.90505     -2399.978 5        30.083
E31        17.000    26316772.976 5 138295557.05205     -2170.686 5        32.844                                                                    26316772.415 6 103272677.87706     -1621.174 6        38.880    26316770.919 5 105966740.07105     -1663.364 5        32.204
E26        19.000    23536814.604 7 123686785.14207     -1434.319 7        44.497                                                                    23536812.462 6  92363582.56706     -1070.985 6        40.923    23536811.292 6  94772999.99206     -1098.908 6        40.956
R06        21.000    22040668.534 5 117613217.31705      3281.182 5        32.263
S36        23.000    38233185.495 5 200916654.34905      -853.068 5        34.995
S23        24.000    38187042.835 6 200674242.33206      -851.036 6        40.670
R12        25.000    23329640.060 6 124622734.44306     -1214.992 6        36.450
R20        26.000    19505832.533 5                     -1584.422 5        30.785                                                                    19505829.923 7  81127422.20317     -1232.359 7        43.062
R05        27.000    19342354.784 5 103396028.70005      -923.301 5        35.305                                                                    19342356.245 7  80419092.32307      -718.176 7        42.692
E33        28.000    24431573.313 6 128388816.77206       747.152 6        40.095                                                                    24431571.107 7  95874775.24307       558.090 7        42.089    24431569.331 6  98375817.85206       572.560 6        36.367
R21        30.000    20715440.800 8 110852744.86408      1972.566 8        52.309                                                                    20715438.030 7  86218633.82807      1534.172 7        46.807
R04        31.000    21783244.323 3                     -4460.931 3        23.810                                                                    21783192.945 3                     -3469.957 3        23.638
C32        36.000                                                                                                                                    24718882.986 5 128717783.12905      2361.417 5        34.352                                                                    24718872.574 5 104593632.84405      1918.788 5        32.970
C33        37.000                                                                                                                                    23776751.218 5 123811756.46705     -3159.507 5        35.262                                                                    23776737.059 7 100607142.33507     -2567.229 7        44.191
C30        38.000                                                                                                                                    23654636.518 7 123175899.03007      1676.965 7        47.834                                                                    23654637.843 7 100090532.71707      1362.875 7        43.532
C28        40.000                                                                                                                                    23124949.401 6 120417812.58606     -3263.285 6        37.429                                                                    23124941.925 7  97849187.21207     -2651.596 7        42.538
R11        41.000    23982961.803 5 128157818.68715     -4169.535 5        32.425                                                                    23982956.033 3                     -3241.975 3        23.067
I01        44.000   371607665.532 6 155127534.33906     -2525.429 6        41.826
C14        47.000                                                                                                                                    25879847.393 4                     -3989.345 4        25.398    25879836.595 6 104207350.08806     -3085.433 6        36.601
C41        49.000                                                                                                                                    22041162.827 7 114774186.44607      -223.853 7        46.178                                                                    22041165.165 7  93263422.61707      -181.768 7        45.071
C27        52.000                                                                                                                                    21406514.123 8 111469315.27308      -885.216 8        51.559                                                                    21406510.900 7  90577962.71207      -719.081 7        47.178
I06        58.000    38430829.918 5 150811014.94505      -530.654 5        32.479
I09        60.000    37342683.347 5 146540730.96805      -365.146 5        33.251
> 2025 01 01 22 46 45.0000000  0 35
G10         2.000    22729493.771 6 119444362.48406     -3585.450 6        39.835                                    22729491.130 4  93073529.78504     -2793.855 4        25.684    22729492.454 4  93073501.71204     -2793.967 4        29.602
G32         3.000    21869225.897 6 114923468.15806      -653.277 6        39.303                                    21869223.500 4  89550769.03804      -509.016 4        28.730    21869219.974 6  89550819.02306      -508.948 6        36.405
G14         4.000    23886867.407 6 125526285.91406      -659.214 6        39.048                                    23886859.245 2  97812670.52302      -513.630 2        12.424    23886861.163 6  97812690.50706      -513.597 6        36.979
E07         5.000    24691762.361 6 129756051.35806       230.813 6        40.410                                                                    24691761.765 6  96895833.55506       172.333 6        40.832    24691765.079 6  99423487.97806       176.822 6        39.691
G08         6.000    21165261.471 8 111224735.00608     -3124.864 8        49.518                                    21165258.298 7  86668190.33807     -2434.958 7        43.926    21165259.302 6  86668218.32706     -2434.943 6        41.578
G27         7.000    23384377.378 5                     -4534.440 5        31.902                                                                                                    23384377.139 6  95755123.62406     -3533.314 6        37.437
G21         8.000    20645943.473 7 108495149.76507      -598.769 7        44.555                                    20645935.873 4  84541649.99304      -466.570 4        26.527
G02         9.000    21499742.342 5 112981902.73205       788.317 5        35.952                                    21499721.529 2  88037817.92402       614.292 2        15.476
E08        12.000                                                                                                                                    26534087.552 5 104125346.85505     -1867.314 5        31.185    26534082.946 5 106841727.17905     -1916.030 5        30.098
E29        14.000    26541408.186 6 139476100.63506      2221.323 6        36.431                                                                    26541406.953 7 104154181.61907      1658.811 7        42.059    26541406.642 6 106871261.89006      1702.088 6        40.257
E24        15.000    28024193.526 4 147268129.23104       240.937 4        25.293                                                                    28024178.373 5 109972910.39605       179.671 5        33.802    28024180.661 6 112841834.37006       184.320 6        37.108
E13        16.000    26773194.054 3                     -3132.697 3        23.067                                                                    26773193.188 4                     -2339.048 4        27.593    26773214.341 4 107804631.04304     -2400.105 4        29.488
E31        17.000    26318837.029 5 138306417.33305     -2173.353 5        35.257                                                                    26318838.783 6 103280787.82406     -1623.005 6        38.655    26318838.058 5 105975061.63705     -1665.371 5        32.898
E26        19.000    23538179.801 7 123693959.19407     -1435.561 7        45.795                                                                    23538177.778 6  92368939.82006     -1072.003 6        41.352    23538176.290 6  94778496.99506     -1099.886 6        41.316
R06        21.000    22037593.802 5 117596816.89605      3278.919 5        31.894
S36        23.000    38233998.820 6 200920920.00606      -853.329 6        36.805
S23        24.000    38187855.664 6 200678497.52406      -851.310 6        41.161
R12        25.000    23330778.406 5 124628820.31205     -1219.318 5        35.195                                                                    23330762.715 4  96933471.12604      -948.828 4        29.564
R20        26.000    19507315.350 5                     -1587.385 5        30.589                                                                    19507313.441 7  81133589.61107     -1234.698 7        43.405
R05        27.000    19343224.994 6 103400656.78406      -928.082 6        40.856                                                                    19343221.926 7  80422691.89707      -721.789 7        42.301
E33        28.000    24430863.932 6 128385082.48806       746.392 6        40.656                                                                    24430860.784 6  95871986.67406       557.300 6        41.707    24430860.543 6  98372956.54706       571.581 6        37.905
R21        30.000    20713598.338 8 110842886.24308      1970.755 8        51.755                                                                    20713595.130 7  86210966.01707      1532.796 7        46.966
R04        31.000    21787397.419 4                     -4462.089 4        25.549                                                                    21787365.868 4                     -3470.737 4        29.137
C32        36.000                                                                                                                                    24716616.781 5 128705979.11805      2359.795 5        32.790                                                                    24716609.977 5 104584041.11205      1917.775 5        33.539
C33        37.000                                                                                                                                    23779789.129 5 123827559.05605     -3161.336 5        35.014                                                                    23779772.129 7 100619983.33507     -2569.102 7        44.871
C30        38.000                                                                                                                                    23653026.872 8 123167517.05908      1675.691 8        48.240                                                                    23653027.804 7 100083721.71307      1361.590 7        43.166
C28        40.000                                                                                                                                    23128082.803 6 120434134.04406     -3265.230 6        37.342                                                                    23128075.521 6  97862449.73406     -2653.390 6        41.716
R11        41.000    23986865.823 5 128178670.63705     -4171.605 5        30.113                                                                    23986861.302 3                     -3244.669 3        22.552
I01        44.000   371610883.287 6 155140162.77506     -2526.073 6        41.676
C13        45.000                                                                                                                                    40247477.399 4                     -1736.817 4        26.395
C14        47.000                                                                                                                                    25883685.293 4                     -3991.078 4        25.459    25883671.156 6 104222778.65206     -3086.176 6        37.664
C41        49.000                                                                                                                                    22041377.705 7 114775312.80707      -226.715 7        46.506                                                                    22041381.614 7  93264337.90207      -184.250 7        45.201
C27        52.000                                                                                                                                    21407365.407 8 111473747.13508      -887.632 8        52.593                                                                    21407362.063 7  90581563.99407      -721.261 7        47.200
I06        58.000    38431506.510 5 150813668.35405      -530.763 5        30.566
I09        60.000    37343149.731 5 146542556.23405      -365.231 5        33.335
> 2025 01 01 22 46 50.0000000  0 36
G03         1.000    23330519.975 5 122603063.38605      2543.093 5        34.943                                    23330515.748 1  95534552.09811      1981.629 1         8.571    23330518.377 4                      1981.436 4        27.916
G10         2.000    22732906.102 7 119462291.39207     -3586.445 7        42.188                                    22732900.823 4  93087500.34104     -2794.626 4        24.165
G32         3.000    21869846.246 6 114926742.14706      -656.465 6        38.432                                    21869845.999 4  89553320.22204      -511.523 4        27.617    21869841.176 5  89553370.25405      -511.716 5        35.381
G14         4.000    23887495.473 6 125529589.25406      -662.324 6        40.017                                    23887487.879 2  97815244.54202      -516.145 2        12.727    23887488.909 6  97815264.51906      -515.897 6        36.068
E07         5.000    24691543.760 6 129754902.59406       228.372 6        40.613                                                                    24691543.415 6  96894975.71306       170.589 6        40.756    24691545.159 6  99422607.75106       175.071 6        40.644
G08         6.000    21168235.573 8 111240364.62908     -3127.285 8        48.714                                    21168232.375 7  86680369.26407     -2436.849 7        43.446    21168233.309 6  86680397.26806     -2436.862 6        41.831
G27         7.000    23388693.241 5                     -4535.199 5        35.429                                    23388689.823 4                     -3534.060 4        27.257    23388691.305 6  95772791.27406     -3534.010 6        37.592
G21         8.000    20646513.677 7 108498147.20507      -600.476 7        44.560                                    20646506.197 4  84543985.66604      -467.904 4        26.431
G02         9.000    21498990.179 6 112977964.20406       786.866 6        37.599                                    21498972.148 3  88034748.93503       613.117 3        18.597
E08        12.000                                                                                                                                    26536466.259 5 104134684.90205     -1868.547 5        31.208
E29        14.000    26539295.018 5 139464994.54205      2220.929 5        35.924                                                                    26539293.439 6 104145888.12606      1658.283 6        41.881    26539293.098 6 106862752.01906      1701.528 6        40.358
E24        15.000    28023969.351 4 147266930.87004       238.569 4        29.242                                                                    28023949.943 5 109972015.55905       178.036 5        33.814    28023952.431 6 112840916.18606       182.515 6        37.289
E13        16.000    26776175.526 3                     -3129.827 3        19.373                                                                    26776174.061 4                     -2339.818 4        27.006    26776200.560 4 107816632.09304     -2400.413 4        24.932
E31        17.000    26320906.056 5 138317288.41805     -2175.504 5        34.786                                                                    26320907.443 6 103288905.84306     -1624.493 6        38.150    26320906.998 5 105983391.43805     -1667.010 5        32.042
E26        19.000    23539546.214 7 123701138.99307     -1436.718 7        46.363                                                                    23539544.070 7  92374301.33407     -1072.812 7        42.091    23539542.526 7  94783998.39507     -1100.737 7        42.538
R06        21.000    22034518.292 5 117580425.20005      3277.357 5        31.494
S36        23.000    38234809.056 5 200925185.38605      -853.294 5        35.429
S23        24.000    38188661.513 6 200682752.91406      -851.213 6        40.970
R12        25.000    23331914.639 5 124634927.24305     -1223.559 5        33.425
R20        26.000    19508798.489 5                     -1590.085 5        31.894                                                                    19508799.098 7  81139768.25707     -1236.997 7        43.579
R05        27.000    19344096.976 6 103405307.26606      -932.467 6        41.828                                                                    19344092.117 7  80426308.96207      -725.293 7        42.284
E33        28.000    24430154.556 7 128381351.99107       745.698 7        42.027                                                                    24430150.650 6  95869200.92306       556.681 6        41.714    24430151.421 6  98370098.14706       571.221 6        39.171
R21        30.000    20711756.586 8 110833035.41608      1969.214 8        51.713                                                                    20711753.999 7  86203304.26907      1531.627 7        46.508
R04        31.000    21791564.077 3                     -4465.708 3        22.952                                                                    21791537.583 5                     -3473.101 5        34.938
C32        36.000                                                                                                                                    24714353.358 5 128694180.63405      2359.206 5        32.078                                                                    24714354.936 5 104574453.94105      1917.202 5        34.771
C33        37.000                                                                                                                                    23782825.378 5 123843370.64305     -3163.155 5        31.283                                                                    23782809.066 7 100632831.49307     -2570.263 7        45.017
C30        38.000                                                                                                                                    23651418.310 7 123159140.91207      1674.546 7        47.566                                                                    23651419.108 7 100076915.38007      1360.924 7        43.617
C28        40.000                                                                                                                                    23131218.831 6 120450463.23606     -3266.521 6        37.777                                                                    23131211.451 6  97875718.53406     -2654.283 6        41.390
R11        41.000    23990771.770 4 128199531.27004     -4173.474 4        28.104                                                                    23990759.077 3                     -3246.948 3        20.167
I01        44.000   371614101.393 6 155152792.70506     -2526.376 6        41.108
C13        45.000                                                                                                                                    40249145.153 4                     -1735.668 4        25.774
C14        47.000                                                                                                                                    25887515.340 3                     -3992.464 3        23.714    25887503.785 5 104238210.20605     -3086.777 5        35.443
C41        49.000                                                                                                                                    22041596.426 7 114776452.59407      -229.384 7        46.056                                                                    22041600.405 7  93265264.05407      -186.241 7        45.356
C27        52.000                                                                                                                                    21408218.744 8 111478190.37508      -889.909 8        52.827                                                                    21408215.420 7  90585174.47307      -722.885 7        47.372
I06        58.000    38432182.317 5 150816321.89005      -530.824 5        30.921
I09        60.000    37343615.359 5 146544382.90905      -365.650 5        33.102
> 2025 01 01 22 46 55.0000000  0 36
G03         1.000    23328106.269 5 122590350.58105      2542.267 5        33.952                                    23328099.703 1  95524646.06401      1980.996 1        10.370    23328104.962 4                      1980.603 4        25.639
G10         2.000    22736318.976 7 119480225.03307     -3587.177 7        43.653                                    22736311.137 4  93101474.56904     -2795.198 4        24.737
G32         3.000    21870474.050 6 114930031.95006      -659.282 6        40.141                                    21870470.922 4  89555883.68004      -513.736 4        28.066    21870467.551 5  89555933.71905      -514.013 5        33.060
G14         4.000    23888127.797 6 125532907.87906      -665.261 6        40.265                                    23888119.455 2  97817830.46802      -518.382 2        13.576    23888117.941 5  97817850.45205      -518.161 5        35.362
E07         5.000    24691326.791 6 129753765.15506       226.416 6        39.703                                                                    24691326.812 6  96894126.32706       169.185 6        40.429    24691327.517 6  99421736.22406       173.431 6        40.837
G08         6.000    21171211.910 8 111256006.39908     -3129.487 8        49.670                                    21171208.758 7  86692557.65007     -2438.562 7        43.526    21171210.521 7  86692585.64407     -2438.590 7        42.089
G27         7.000    23393007.513 6 122931088.57316     -4536.017 6        38.646                                    23393005.403 4  95790445.36614     -3534.548 4        27.940    23393006.728 6  95790462.35006     -3534.493 6        37.372
G21         8.000    20647085.985 7 108501152.98407      -601.944 7        44.111                                    20647078.100 4  84546327.83504      -469.057 4        26.563
G02         9.000    21498233.693 6 112974031.95306       786.057 6        39.336                                    21498224.081 3  88031684.85903       612.497 3        20.095
E08        12.000                                                                                                                                    26538849.866 5 104144030.33005     -1869.330 5        30.702
E29        14.000    26537181.861 5 139453891.17405      2220.428 5        34.586                                                                    26537180.704 6 104137596.64106      1658.149 6        41.790    26537180.128 6 106854244.24306      1701.348 6        40.091
E24        15.000    28023744.232 4 147265743.56304       236.233 4        25.564                                                                    28023724.120 5 109971128.92605       176.634 5        33.808    28023726.601 6 112840006.41506       181.176 6        38.117
E13        16.000    26779159.122 4                     -3133.041 4        24.120                                                                    26779154.425 4                     -2339.957 4        25.489
E31        17.000    26322979.527 5 138328169.79905     -2177.039 5        34.948                                                                    26322977.431 6 103297031.53406     -1625.882 6        38.192    26322978.284 5 105991729.11205     -1668.347 5        33.072
E26        19.000    23540913.589 7 123708324.05007     -1437.411 7        46.218                                                                    23540911.464 7  92379666.80107     -1073.531 7        42.487    23540909.821 7  94789503.84007     -1101.482 7        42.957
R06        21.000    22031449.722 5 117564042.06305      3275.729 5        32.030
S36        23.000    38235621.290 6 200929450.44706      -852.871 6        37.837
S23        24.000    38189472.996 6 200687008.03306      -850.893 6        40.684
R12        25.000                                                                                                                                    23333052.026 4  96942986.58514      -955.040 4        28.673
R20        26.000    19510286.077 5                     -1593.016 5        32.419                                                                    19510287.193 7  81145957.78417     -1238.990 7        43.071
R05        27.000    19344969.978 7 103409979.93507      -936.660 7        42.529                                                                    19344967.194 7  80429943.28907      -728.564 7        42.762
E33        28.000    24429445.699 7 128377624.79707       745.324 7        42.404                                                                    24429441.013 7  95866417.64007       556.444 7        42.004    24429443.294 6  98367242.25506       571.027 6        40.293
R21        30.000    20709917.412 8 110823192.14308      1967.988 8        51.828                                                                    20709914.093 7  86195648.39107      1530.666 7        45.916
R04        31.000    21795724.291 6 116715121.56316     -4467.514 6        36.783                                                                    21795703.562 6  90778347.10916     -3474.776 6        37.338
C32        36.000                                                                                                                                    24712092.094 4 128682387.46904      2358.428 4        27.605                                                                    24712092.088 5 104564870.95205      1916.352 5        33.018
C33        37.000                                                                                                                                    23785841.196 4                     -3165.690 4        26.443                                                                    23785846.986 7 100645686.57307     -2571.866 7        45.105
C30        38.000                                                                                                                                    23649811.324 7 123150770.16307      1673.671 7        47.322                                                                    23649811.856 7 100070113.49907      1359.867 7        43.683
C28        40.000                                                                                                                                    23134355.786 5 120466799.86505     -3267.799 5        34.590                                                                    23134348.883 6  97888993.40406     -2655.539 6        41.240
R11        41.000    23994685.658 4 128220400.23704     -4174.231 4        27.784                                                                    23994663.818 3                     -3247.068 3        22.571
I01        44.000   371617320.055 6 155165423.80106     -2526.262 6        41.187
C13        45.000                                                                                                                                    40250815.505 3                     -1734.737 3        22.819
C14        47.000                                                                                                                                    25891342.991 3                     -3991.257 3        20.476    25891335.429 5 104253644.37005     -3087.259 5        34.905
C41        49.000                                                                                                                                    22041818.169 7 114777605.37007      -231.771 7        45.565                                                                    22041821.741 7  93266200.81907      -188.435 7        45.124
C27        52.000                                                                                                                                    21409073.765 8 111482644.54408      -891.808 8        52.815                                                                    21409071.008 7  90588793.89307      -724.820 7        47.344
I06        58.000    38432858.636 5 150818975.23705      -530.846 5        30.460
I09        60.000    37344080.424 5 146546210.68105      -365.499 5        34.581
> 2025 01 01 22 47  0.0000000  0 36
G03         1.000    23325692.380 5 122577643.00205      2540.710 5        33.635                                    23325683.337 1  95514744.06801      1979.741 1        11.926    23325692.124 4                      1980.133 4        25.759
G10         2.000    22739732.357 7 119498163.50707     -3588.259 7        44.107                                    22739723.218 4  93115452.57804     -2796.038 4        26.383    22739813.571 4                     -2795.750 4        28.474
G32         3.000    21871104.222 7 114933337.59507      -662.865 7        43.253                                    21871098.461 4  89558459.50304      -516.529 4        27.832    21871097.927 5  89558509.53405      -516.465 5        32.647
G14         4.000    23888767.610 6 125536241.85906      -668.451 6        40.067                                    23888754.095 2  97820428.40402      -520.883 2        12.485    23888752.780 5  97820448.38305      -521.133 5        35.714
E07         5.000    24691110.851 6 129752639.20806       223.913 6        38.015                                                                    24691112.023 6  96893285.49506       167.235 6        40.982    24691113.197 6  99420873.47806       171.605 6        41.015
G08         6.000    21174190.832 8 111271660.39608     -3132.097 8        49.305                                    21174187.561 7  86704755.56607     -2440.594 7        43.630    21174189.645 7  86704783.55607     -2440.601 7        42.299
G27         7.000    23397325.000 6 122953770.97406     -4536.914 6        37.501                                    23397321.709 4  95808119.96804     -3535.243 4        28.645    23397323.679 6  95808136.95106     -3535.424 6        37.709
G21         8.000    20647659.135 7 108504167.22407      -603.718 7        43.281                                    20647651.286 4  84548676.58604      -470.428 4        26.467
G02         9.000    21497484.278 6 112970106.18106       784.360 6        40.682                                    21497477.275 3  88028625.81603       611.189 3        20.810
E08        12.000                                                                                                                                    26541233.601 5 104153383.29405     -1871.353 5        32.725    26541204.941 5 106870494.91205     -1920.209 5        32.509
E29        14.000    26535069.309 5 139442790.61505      2219.868 5        35.390                                                                    26535068.250 6 104129307.25906      1657.627 6        41.201    26535067.931 6 106845738.61506      1700.776 6        40.174
E24        15.000                                                                                                                                    28023500.849 5 109970250.56005       174.745 5        33.856    28023502.868 6 112839105.13406       179.329 6        37.595
E13        16.000    26782141.140 4                     -3134.021 4        24.135                                                                    26782134.479 4                     -2340.626 4        24.226
E31        17.000    26325057.681 5 138339061.58605     -2179.518 5        34.305                                                                    26325050.034 6 103305164.99106     -1627.463 6        38.372    26325051.340 5 106000074.77005     -1670.054 5        34.619
E26        19.000    23542281.492 7 123715514.50907     -1438.692 7        46.133                                                                    23542279.759 7  92385036.28407     -1074.338 7        43.056    23542278.111 7  94795013.40707     -1102.319 7        43.409
R06        21.000    22028383.961 5 117547667.46405      3274.303 5        30.672
S36        23.000    38236434.061 6 200933714.97406      -853.234 6        38.805
S23        24.000    38190283.491 6 200691262.95306      -850.994 6        40.482
R12        25.000                                                                                                                                    23334205.165 5                      -957.987 5        31.970
R20        26.000    19511777.488 5                     -1596.108 5        32.880                                                                    19511777.813 7  81152158.35307     -1241.358 7        42.620
R05        27.000    19345850.708 7 103414674.91607      -941.287 7        44.304                                                                    19345846.230 7  80433594.97507      -732.078 7        43.418
E33        28.000    24428736.402 7 128373901.02807       744.331 7        43.549                                                                    24428732.178 7  95863636.89607       555.773 7        42.032    24428734.920 6  98364388.99006       570.176 6        40.942
R21        30.000    20708079.422 8 110813356.43308      1966.277 8        52.266                                                                    20708076.275 7  86187998.39707      1529.311 7        45.538
R04        31.000    21799895.513 6 116737463.66006     -4469.474 6        39.988                                                                    21799876.122 6  90795724.24606     -3476.500 6        37.599
C32        36.000                                                                                                                                    24709827.569 3 128670599.32303      2356.839 3        22.895                                                                    24709821.323 4 104555292.18104      1915.210 4        29.934
C33        37.000                                                                                                                                    23788881.595 5                     -3166.500 5        30.860                                                                    23788886.886 7 100658548.48607     -2573.162 7        45.022
C30        38.000                                                                                                                                    23648205.057 7 123142404.91607      1672.417 7        47.201                                                                    23648205.436 7 100063316.03407      1358.950 7        43.101
C28        40.000                                                                                                                                    23137494.414 5 120483143.97405     -3269.658 5        32.353                                                                    23137487.583 6  97902274.28206     -2656.837 6        41.132
R11        41.000    23998600.763 4 128241277.51704     -4177.024 4        27.257
I01        44.000   371620539.350 6 155178056.18306     -2526.754 6        40.992
C13        45.000                                                                                                                                    40252477.106 3                     -1735.567 3        23.295
C14        47.000                                                                                                                                                                                                    25895168.977 5 104269081.12105     -3087.748 5        35.924
C41        49.000                                                                                                                                    22042042.589 7 114778771.22807      -234.590 7        44.950                                                                    22042045.402 7  93267148.15307      -190.623 7        44.715
C27        52.000                                                                                                                                    21409930.930 8 111487109.75908      -894.241 8        52.847                                                                    21409928.606 7  90592422.23007      -726.666 7        47.449
I06        58.000    38433535.144 5 150821628.48605      -530.900 5        30.891
I09        60.000    37344546.740 5 146548039.64705      -366.062 5        34.795
> 2025 01 01 22 47  5.0000000  0 35
G03         1.000    23323274.343 5 122564941.63605      2539.960 5        34.562                                    23323267.605 2  95504846.88502      1979.130 2        12.242    23323282.259 4                      1978.648 4        26.228
G10         2.000    22743146.830 7 119516107.90007     -3589.301 7        44.623                                    22743137.489 4  93129435.19704     -2796.852 4        28.066
G32         3.000    21871739.563 6 114936660.16806      -665.915 6        41.781                                    21871729.080 4  89561048.53904      -518.909 4        25.684    21871728.400 5  89561098.53105      -518.922 5        31.389
G14         4.000    23889409.012 6 125539592.29806      -671.456 6        38.426                                    23889391.798 1  97823039.14201      -523.186 1        11.926    23889390.059 5  97823059.11305      -523.106 5        31.781
E07         5.000    24690898.176 5 129751525.75605       221.649 5        34.710                                                                    24690900.704 6  96892454.03306       165.485 6        41.793    24690901.198 6  99420020.32906       169.864 6        40.439
G08         6.000    21177172.058 8 111287327.70008     -3134.590 8        49.085                                    21177168.984 7  86716963.85007     -2442.538 7        43.983    21177171.171 7  86716991.84107     -2442.438 7        42.527
G27         7.000    23401642.701 6 122976458.93706     -4537.809 6        37.981                                    23401639.042 4  95825798.89404     -3535.940 4        28.351    23401640.818 6  95825815.88006     -3536.114 6        37.788
G21         8.000    20648234.555 7 108507191.02007      -605.396 7        43.500                                    20648226.431 4  84551032.79504      -471.731 4        26.491
G02         9.000    21496740.976 7 112966187.83407       783.011 7        42.068                                    21496732.057 3  88025572.55903       610.132 3        22.362
G17        11.000    25600376.540 3                      2502.747 3        23.733
E08        12.000                                                                                                                                    26543613.947 5 104162744.46805     -1872.953 5        32.982    26543593.993 5 106880100.25505     -1921.806 5        34.071
E29        14.000    26532957.799 6 139431693.94306      2219.249 6        36.223                                                                    26532956.368 6 104121020.81906      1657.162 6        41.275    26532956.139 6 106837235.98306      1700.361 6        40.112
E24        15.000    28023326.280 4 147263403.04104       230.843 4        26.611                                                                    28023279.681 5 109969381.27605       172.997 5        34.324    28023281.309 6 112838213.17606       177.683 6        38.628
E13        16.000                                                                                                                                                                                                    26785121.187 5 107852646.23605     -2401.453 5        32.820
E31        17.000    26327143.094 5 138349964.87305     -2181.586 5        35.310                                                                    26327125.097 6 103313307.06006     -1629.076 6        37.611    26327126.442 5 106008429.24005     -1671.549 5        35.148
E26        19.000    23543651.202 7 123722711.43807     -1439.812 7        46.000                                                                    23543649.642 7  92390410.61107     -1075.208 7        43.845    23543647.536 7  94800527.93807     -1103.141 7        43.788
R06        21.000    22025314.715 4 117531302.50004      3272.320 4        29.431
S36        23.000    38237244.552 6 200937981.15006      -853.135 6        37.418
S23        24.000    38191095.019 6 200695518.80206      -851.037 6        40.000
R12        25.000    23335389.810 5 124653467.62515     -1235.622 5        34.919                                                                    23335367.247 5  96952566.92915      -961.606 5        32.695
R20        26.000    19513271.654 5                     -1598.771 5        32.551                                                                    19513271.454 7                     -1243.422 7        42.366
R05        27.000    19346735.634 7 103419393.17507      -945.806 7        45.386                                                                    19346728.623 7  80437264.73207      -735.622 7        43.118
E33        28.000    24428028.646 7 128370181.73307       743.659 7        44.796                                                                    24428024.335 7  95860859.51107       555.339 7        42.180    24428027.134 6  98361539.15006       569.717 6        41.642
R21        30.000    20706243.362 8 110803529.38308      1964.806 8        52.273                                                                    20706240.374 7  86180355.14607      1528.160 7        45.473
R04        31.000    21804069.385 6 116759817.59106     -4471.738 6        37.365                                                                    21804053.020 6  90813110.62106     -3478.130 6        37.448
C33        37.000                                                                                                                                    23791921.561 5                     -3168.277 5        33.910                                                                    23791928.644 7 100671418.18107     -2574.472 7        45.261
C30        38.000                                                                                                                                    23646600.273 7 123134046.26107      1671.358 7        46.249                                                                    23646600.191 7 100056523.93707      1358.160 7        43.132
C28        40.000                                                                                                                                    23140634.204 5 120499496.53805     -3271.048 5        32.659                                                                    23140627.538 6  97915562.08406     -2657.913 6        40.746
I01        44.000   371623758.920 6 155190690.63306     -2526.866 6        40.636
C13        45.000                                                                                                                                    40254146.417 4                     -1735.629 4        26.048
C14        47.000                                                                                                                                                                                                    25899007.188 6 104284521.40906     -3088.382 6        36.265
C41        49.000                                                                                                                                    22042269.516 7 114779951.24307      -237.209 7        44.176                                                                    22042272.058 7  93268106.99407      -192.670 7        44.697
C27        52.000                                                                                                                                    21410790.841 8 111491587.07408      -896.461 8        53.292                                                                    21410788.377 7  90596060.41007      -728.335 7        47.583
I06        58.000    38434210.328 5 150824282.32705      -530.548 5        30.581
I09        60.000    37345014.693 5 146549870.51705      -366.069 5        34.710
> 2025 01 01 22 47 10.0000000  0 36
G03         1.000    23320857.743 5 122552245.67105      2538.488 5        32.862                                    23320852.768 1  95494953.90801      1978.018 1        11.259    23320870.302 4                      1978.397 4        28.161
G10         2.000    22746562.683 7 119534057.20507     -3590.290 7        43.985                                    22746553.608 4  93143421.64104     -2797.614 4        29.251
G32         3.000    21872374.136 6 114939998.75006      -669.214 6        38.769                                    21872362.781 3  89563650.03503      -521.454 3        22.933    21872364.654 5  89563700.03505      -521.852 5        32.012
G14         4.000    23890048.995 5 125542958.22105      -674.547 5        34.857                                    23890032.317 1  97825661.79901      -525.549 1         6.375    23890029.793 5  97825681.91905      -525.612 5        31.072
E07         5.000    24690689.346 5 129750423.78905       219.589 5        34.371                                                                    24690690.633 6  96891631.15906       163.864 6        41.785    24690690.171 6  99419176.01506       168.009 6        40.267
G08         6.000    21180155.657 8 111303007.28908     -3137.033 8        48.350                                    21180152.826 7  86729181.70107     -2444.438 7        43.625    21180154.867 7  86729209.68807     -2444.568 7        42.591
G27         7.000    23405960.980 5 122999151.48305     -4538.809 5        35.962                                    23405957.136 4  95843481.39904     -3536.728 4        27.748    23405959.067 6  95843498.39106     -3536.891 6        38.027
G21         8.000    20648811.903 7 108510223.35407      -607.284 7        42.946                                    20648803.122 4  84553395.64504      -473.205 4        25.865
G02         9.000    21495997.549 7 112962275.94707       781.833 7        42.772                                    21495987.961 3  88022524.32503       609.215 3        23.086
E08        12.000    26545985.145 5                     -2510.088 5        32.198                                                                    26545999.242 5 104172113.11705     -1874.067 5        34.267    26545981.534 5 106889713.30405     -1923.470 5        33.796
E29        14.000    26530846.646 6 139420600.23406      2218.447 6        36.560                                                                    26530845.282 6 104112736.54706      1656.796 6        41.032    26530844.921 6 106828735.61106      1699.813 6        39.925
E24        15.000                                                                                                                                    28023060.486 5 109968520.37905       171.294 5        34.695    28023061.856 6 112837329.81006       175.848 6        38.754
E13        16.000                                                                                                                                    26788122.474 4                     -2340.987 4        27.126    26788109.573 5 107864654.94605     -2401.980 5        34.414
E31        17.000    26329228.637 5 138360878.61505     -2183.686 5        35.438                                                                    26329201.987 6 103321456.90806     -1630.521 6        37.497    26329203.657 5 106016791.73105     -1673.300 5        35.776
E26        19.000    23545022.175 7 123729913.85407     -1440.965 7        46.337                                                                    23545020.430 7  92395789.04507     -1076.023 7        44.283    23545017.981 7  94806046.68307     -1104.178 7        43.837
R06        21.000    22022246.856 4 117514946.28904      3270.564 4        29.621
S36        23.000    38238058.611 6 200942247.22106      -853.001 6        36.416
S23        24.000    38191907.213 6 200699774.47406      -851.082 6        40.231
R12        25.000    23336545.096 5 124659657.98605     -1239.975 5        30.762                                                                    23336531.132 5  96957381.60905      -964.480 5        33.407
R20        26.000    19514767.269 5                     -1601.851 5        30.234                                                                    19514767.573 6  81164594.14516     -1245.728 6        40.362
R05        27.000    19347620.427 7 103424133.85807      -950.207 7        45.464                                                                    19347615.791 7  80440951.95407      -739.049 7        43.915
E33        28.000    24427321.993 7 128366465.96807       742.871 7        44.315                                                                    24427316.837 6  95858084.75906       554.823 6        41.759    24427320.107 6  98358692.01206       569.354 6        41.931
R21        30.000    20704407.423 8 110793710.07708      1963.139 8        51.747                                                                    20704405.333 7  86172717.90407      1526.893 7        45.091
R04        31.000    21808243.268 6 116782182.47406     -4473.881 6        38.634                                                                    21808231.692 6  90830505.48406     -3479.649 6        36.367
C32        36.000                                                                                                                                    24705282.745 4 128647041.53704      2354.752 4        29.640                                                                    24705280.336 4 104536149.49604      1913.643 4        27.725
C33        37.000                                                                                                                                    23794965.543 5 123906633.42015     -3170.233 5        34.919                                                                    23794972.072 7 100684294.83807     -2575.989 7        45.440
C30        38.000                                                                                                                                    23644996.192 7 123125693.20507      1670.121 7        46.628                                                                    23644995.969 7 100049736.37007      1357.106 7        42.872
C28        40.000                                                                                                                                    23143782.075 5 120515856.79305     -3272.999 5        30.204                                                                    23143768.950 6  97928855.98806     -2659.294 6        40.431
R11        41.000                                                                                                                                    24006428.693 5                     -3251.018 5        31.917
I01        44.000   371626978.949 6 155203326.43406     -2527.097 6        40.453
C13        45.000                                                                                                                                    40255818.495 4                     -1735.576 4        27.257
C14        47.000                                                                                                                                                                                                    25902843.396 5 104299964.38705     -3088.834 5        35.310
C41        49.000                                                                                                                                    22042498.966 7 114781144.41607      -239.859 7        44.382                                                                    22042501.021 7  93269076.52707      -195.007 7        44.330
C27        52.000                                                                                                                                    21411652.883 8 111496075.51808      -898.650 8        53.297                                                                    21411650.300 7  90599707.62607      -730.253 7        47.430
I06        58.000    38434886.606 5 150826936.14605      -530.948 5        30.249
I09        60.000    37345481.912 5 146551702.59105      -366.279 5        34.138
> 2025 01 01 22 47 15.0000000  0 36
G03         1.000    23318441.431 5 122539555.19405      2537.306 5        31.826                                    23318438.960 1  95485065.27601      1977.100 1        11.630    23318453.260 4                      1977.546 4        24.556
G10         2.000    22749979.243 7 119552011.62707     -3591.200 7        44.254                                    22749971.367 4  93157412.08204     -2798.332 4        29.924
G32         3.000    21873004.729 5 114943353.42305      -672.285 5        34.900                                    21873000.175 3  89566264.11603      -523.867 3        20.833    21873005.473 5  89566314.12305      -524.077 5        35.262
G14         4.000    23890691.926 5 125546339.84605      -677.633 5        35.814                                    23890675.900 1  97828296.75401      -528.071 1         2.400    23890674.142 4  97828316.90104      -527.335 4        25.083
E07         5.000    24690481.912 5 129749333.68805       217.104 5        33.701                                                                    24690482.534 7  96890817.10007       162.176 7        42.296    24690481.527 6  99418340.74006       166.137 6        38.955
G08         6.000    21183141.669 7 111318699.39607     -3139.524 7        47.626                                    21183139.043 7  86741409.31107     -2446.380 7        42.859    21183140.553 7  86741437.29507     -2446.392 7        43.198
G27         7.000    23410280.051 5 123021848.80205     -4539.408 5        32.982                                    23410276.196 4  95861167.63804     -3537.203 4        26.251    23410277.635 6  95861184.62006     -3537.405 6        38.078
G21         8.000    20649390.575 7 108513264.51607      -608.865 7        43.716                                    20649381.567 4  84555765.36904      -474.447 4        25.474
G02         9.000    21495253.305 7 112958370.73107       780.531 7        43.209                                    21495245.153 3  88019481.28303       608.206 3        23.867
E08        12.000                                                                                                                                    26548388.485 5 104181489.47205     -1875.885 5        34.138    26548370.975 5 106899334.21905     -1924.813 5        34.986
E29        14.000    26528736.700 6 139409509.66706      2218.096 6        36.805                                                                    26528734.717 6 104104454.64806      1656.376 6        40.913    26528734.215 6 106820237.65006      1699.436 6        40.055
E24        15.000                                                                                                                                    28022843.986 5 109967668.07605       169.743 5        34.819    28022844.814 6 112836455.28306       174.008 6        39.060
E13        16.000    26791109.784 4                     -3135.927 4        26.156                                                                    26791103.298 4                     -2341.424 4        27.593    26791095.146 5 107876665.58105     -2402.180 5        34.033
E31        17.000    26331309.849 5 138371803.03205     -2185.956 5        33.587                                                                    26331280.810 6 103329614.79106     -1632.184 6        37.698    26331282.136 6 106025162.43106     -1674.819 6        36.571
E26        19.000    23546393.624 7 123737121.96607     -1441.991 7        46.345                                                                    23546391.909 7  92401171.71707     -1076.762 7        43.968    23546389.678 7  94811569.78507     -1104.895 7        44.026
R06        21.000    22019184.158 5 117498598.99205      3268.139 5        30.030
S36        23.000    38238873.381 6 200946513.89806      -853.151 6        37.096
S23        24.000    38192719.193 6 200704030.33606      -851.015 6        41.347
R12        25.000    23337704.921 4 124665869.27204     -1244.278 4        28.218                                                                    23337694.635 5  96962212.61905      -967.486 5        35.471
R20        26.000    19516266.935 5                     -1604.432 5        31.223                                                                    19516265.963 6  81170828.93016     -1247.957 6        39.787
R05        27.000    19348510.282 7 103428897.10307      -954.668 7        44.295                                                                    19348506.336 7  80444656.72807      -742.585 7        44.090
E33        28.000    24426615.310 7 128362753.93407       742.212 7        43.725                                                                    24426610.502 7  95855312.79707       554.279 7        42.320    24426613.588 7  98355847.73407       568.717 7        42.845
R21        30.000    20702573.558 8 110783898.66608      1961.663 8        52.078                                                                    20702572.048 7  86165086.81207      1525.805 7        44.736
R04        31.000    21812415.072 6 116804558.55506     -4476.125 6        37.017                                                                    21812407.669 5  90847909.08705     -3481.399 5        34.805
C32        36.000                                                                                                                                    24703019.843 3 128635271.18203      2353.919 3        22.609                                                                    24703022.164 4 104526585.07804      1912.535 4        27.904
C33        37.000                                                                                                                                    23798002.404 4 123922489.03704     -3172.042 4        24.331                                                                    23798016.895 7 100697178.68707     -2577.373 7        45.452
C30        38.000                                                                                                                                    23643393.108 7 123117345.98307      1669.058 7        46.871                                                                    23643393.083 7 100042953.61807      1356.183 7        42.565
C28        40.000                                                                                                                                    23146928.739 5 120532224.67905     -3274.253 5        31.374                                                                    23146912.238 6  97942156.23806     -2660.661 6        40.656
R11        41.000    24010320.429 3                     -4180.164 3        21.238
I01        44.000   371630198.853 6 155215963.73406     -2527.529 6        40.167
C13        45.000                                                                                                                                    40257489.688 4                     -1735.069 4        24.180
C14        47.000                                                                                                                                                                                                    25906679.519 5 104315410.21805     -3089.315 5        35.252
C41        49.000                                                                                                                                    22042730.457 7 114782350.98007      -242.456 7        45.127                                                                    22042732.927 7  93270056.98707      -197.131 7        44.783
C27        52.000                                                                                                                                    21412516.684 8 111500575.32408      -900.916 8        53.070                                                                    21412514.508 7  90603364.11807      -732.149 7        47.442
I06        58.000    38435563.557 5 150829590.16305      -530.649 5        30.785
I09        60.000    37345948.090 5 146553536.09105      -366.752 5        35.314
> 2025 01 01 22 47 20.0000000  0 35
G03         1.000    23316028.326 5 122526869.42605      2537.115 5        32.988                                    23316025.902 1  95475180.24001      1976.964 1        11.259    23316036.504 4                      1976.076 4        26.431
G10         2.000    22753396.165 7 119569970.33307     -3591.933 7        44.858                                    22753390.075 5  93171405.85905     -2798.905 5        31.125
G32         3.000    21873645.825 5 114946723.42105      -675.355 5        34.324                                    21873640.936 3  89568890.11003      -526.269 3        19.701    21873646.140 6  89568940.12506      -526.403 6        36.960
G14         4.000    23891344.396 5 125549736.28105      -680.694 5        34.129                                    23891322.215 1  97830943.45701      -530.455 1         1.556    23891316.142 3                      -531.134 3        22.210
E07         5.000    24690275.429 4 129748254.54204       214.796 4        29.754                                                                    24690276.771 6  96890011.22406       160.538 6        41.733    24690276.800 6  99417513.83906       164.687 6        38.126
G08         6.000    21186130.202 7 111334403.16207     -3141.732 7        47.039                                    21186127.513 7  86753646.00707     -2448.104 7        42.974    21186128.593 7  86753674.00507     -2447.993 7        43.486
G27         7.000    23414600.146 5 123044550.04005     -4540.501 5        30.008                                    23414595.931 4  95878856.95104     -3538.048 4        25.173    23414597.769 6  95878873.93006     -3538.015 6        38.513
G21         8.000    20649970.923 7 108516313.63007      -610.458 7        43.608                                    20649961.537 4  84558141.29904      -475.681 4        25.414
G02         9.000    21494510.403 7 112954471.41707       779.445 7        42.754                                    21494503.418 4  88016442.85304       607.356 4        24.361
E08        12.000    26550781.617 4 139525219.16114     -2513.707 4        28.986                                                                    26550779.182 5 104190872.85605     -1877.269 5        34.067    26550763.050 5 106908962.34505     -1926.276 5        35.133
E29        14.000    26526627.079 6 139398421.46206      2217.543 6        37.641                                                                    26526624.718 6 104096174.49806      1656.009 6        40.844    26526623.971 6 106811741.48406      1699.165 6        39.535
E24        15.000    28022635.160 5 147259978.07905       225.288 5        30.106                                                                    28022628.949 5 109966823.70705       168.058 5        35.481    28022629.749 6 112835588.88206       172.516 6        39.300
E13        16.000    26794094.109 3                     -3136.239 3        18.179                                                                    26794078.988 4                     -2341.486 4        26.287    26794078.431 5 107888677.54805     -2402.438 5        33.880
E31        17.000    26333387.768 5 138382737.32905     -2187.675 5        32.976                                                                    26333362.245 6 103337780.02506     -1633.673 6        37.225    26333362.459 6 106033540.67006     -1676.286 6        36.552
E26        19.000    23547765.809 7 123744334.96007     -1442.847 7        46.001                                                                    23547764.310 7  92406558.03907     -1077.373 7        44.515    23547762.194 7  94817096.62507     -1105.550 7        44.194
R06        21.000    22016122.709 5 117482259.85205      3267.246 5        30.091
S36        23.000    38239681.296 6 200950779.91306      -852.865 6        37.369
S23        24.000    38193528.154 6 200708285.61506      -850.850 6        41.616
R12        25.000    23338873.071 5 124672100.60905     -1247.861 5        32.108                                                                    23338862.564 6  96967059.26206      -970.782 6        36.926
R20        26.000    19517767.907 5                     -1607.171 5        31.713                                                                    19517767.703 6  81177074.42506     -1250.052 6        40.591
R05        27.000    19349405.938 7 103433682.03307      -958.888 7        43.786                                                                    19349401.255 7  80448378.36207      -745.876 7        44.528
E33        28.000    24425908.696 7 128359044.81307       741.675 7        43.551                                                                    24425904.891 7  95852543.00607       553.848 7        42.518    24425907.321 7  98353005.67507       568.310 7        42.908
R21        30.000    20700742.155 8 110774094.35708      1960.382 8        52.185                                                                    20700740.412 7  86157461.24207      1524.762 7        44.993
R04        31.000    21816587.641 5 116826944.85605     -4478.237 5        35.367                                                                    21816585.346 5  90865320.62405     -3482.844 5        30.309
C32        36.000                                                                                                                                    24700754.018 4                      2352.460 4        25.850                                                                    24700761.266 4 104517024.44004      1912.089 4        26.742
C33        37.000                                                                                                                                                                                                                                                                    23801063.469 7 100710068.96007     -2578.804 7        45.052
C30        38.000                                                                                                                                    23641791.433 7 123109003.79607      1668.056 7        46.935                                                                    23641791.040 7 100036174.88207      1355.240 7        42.518
C28        40.000                                                                                                                                    23150072.464 5 120548599.53405     -3275.494 5        31.343                                                                    23150056.616 6  97955462.09706     -2661.789 6        40.482
I01        44.000   371633419.703 6 155228601.91506     -2527.492 6        40.193
C13        45.000                                                                                                                                    40259160.483 4                     -1735.044 4        24.135
C14        47.000                                                                                                                                                                                                    25910516.394 5 104330858.29105     -3089.686 5        34.762
C41        49.000                                                                                                                                    22042963.383 7 114783570.10307      -244.925 7        45.464                                                                    22042967.234 7  93271047.61607      -199.226 7        44.963
C27        52.000                                                                                                                                    21413382.608 8 111505085.66308      -902.945 8        52.819                                                                    21413380.771 7  90607029.11707      -733.954 7        47.476
I06        58.000    38436240.376 5 150832243.64805      -530.602 5        30.626
I09        60.000    37346415.309 5 146555370.32905      -366.707 5        35.148
> 2025 01 01 22 47 25.0000000  0 37
G03         1.000    23313617.822 5 122514188.88905      2535.381 5        32.844                                    23313612.916 1  95465299.31201      1975.627 1        10.222    23313623.778 4                      1975.600 4        27.245
G10         2.000    22756814.991 7 119587933.71707     -3593.138 7        44.576                                    22756809.788 5  93185403.29105     -2799.854 5        32.240    22756813.469 6  93185484.34616     -2799.810 6        37.924
G32         3.000    21874294.716 4 114950109.18004      -678.865 4        29.374                                    21874285.145 3  89571528.43803      -529.006 3        18.955    21874290.145 6  89571578.43306      -529.031 6        37.508
G14         4.000    23891996.703 5 125553147.95905      -684.256 5        31.487                                    23891971.414 1  97833602.05801      -532.969 1         2.400
E07         5.000    24690072.073 4 129747186.72104       212.441 4        27.976                                                                    24690073.410 6  96889213.81606       158.592 6        41.254    24690073.864 6  99416695.63706       162.756 6        38.462
G08         6.000    21189120.849 7 111350119.00407     -3144.414 7        46.461                                    21189118.268 7  86765892.11007     -2450.198 7        42.990    21189119.474 7  86765920.12207     -2450.265 7        43.462
G27         7.000    23418918.359 4 123067255.64704     -4542.011 4        27.126                                    23418916.565 4  95896549.59204     -3539.252 4        24.346    23418918.758 6  95896566.61006     -3538.790 6        38.892
G21         8.000    20650552.438 7 108519371.11607      -612.339 7        42.718                                    20650543.335 4  84560523.75504      -477.142 4        25.519
G02         9.000    21493770.132 7 112950578.39307       777.934 7        43.348                                    21493762.860 4  88013409.32404       606.188 4        24.451
G17        11.000    25590802.367 4                      2501.164 4        28.853
E08        12.000    26553180.149 5 139537794.57305     -2516.002 5        30.023                                                                    26553171.352 5 104200263.55005     -1878.966 5        32.359    26553155.951 5 106918597.98305     -1927.864 5        35.633
E29        14.000    26524517.201 6 139387335.98806      2216.758 6        38.090                                                                    26524515.250 6 104087896.39106      1655.429 6        40.508    26524514.239 6 106803247.40706      1698.704 6        39.510
E24        15.000    28022424.646 4 147258858.29604       223.097 4        29.441                                                                    28022415.512 5 109965987.54105       166.330 5        35.824    28022416.663 6 112834730.91006       170.822 6        39.991
E13        16.000                                                                                                                                    26797061.136 4                     -2342.132 4        25.173    26797061.230 5 107900691.13705     -2402.778 5        34.238
E31        17.000    26335470.852 5 138393681.81905     -2190.302 5        30.128                                                                    26335445.089 6 103345952.91306     -1635.351 6        37.308    26335444.459 6 106041926.74106     -1677.894 6        36.284
E26        19.000    23549139.169 7 123751553.23707     -1444.184 7        45.691                                                                    23549137.776 7  92411948.30607     -1078.427 7        44.563    23549135.914 7  94822627.50207     -1106.543 7        44.674
R06        21.000    22013063.039 5 117465929.29005      3264.865 5        30.672
S36        23.000    38240494.353 6 200955045.80606      -852.924 6        36.752
S23        24.000    38194338.135 6 200712540.71806      -851.006 6        41.812
R12        25.000                                                                                                                                    23340034.604 6  96971921.75306      -973.997 6        37.686
R20        26.000    19519271.919 5                     -1610.085 5        30.996                                                                    19519272.217 6  81183330.84706     -1252.479 6        41.700
R05        27.000    19350307.252 7 103438489.01607      -963.654 7        42.811                                                                    19350301.085 7  80452117.14607      -749.449 7        45.512
E33        28.000    24425202.417 7 128355338.99007       740.874 7        42.320                                                                    24425199.483 7  95849775.68707       553.203 7        42.286    24425201.968 7  98350166.16807       567.663 7        43.189
R21        30.000    20698912.028 8 110764297.61908      1958.590 8        52.186                                                                    20698909.525 7  86149841.55707      1523.354 7        45.020
R04        31.000    21820770.130 6 116849341.89906     -4480.430 6        39.796                                                                    21820767.809 5  90882740.55305     -3485.105 5        30.370
C32        36.000                                                                                                                                    24698501.291 5                      2351.693 5        30.498                                                                    24698502.857 4 104507468.10704      1911.185 4        26.754
C33        37.000                                                                                                                                    23804153.269 4                     -3174.881 4        29.697                                                                    23804111.382 7 100722966.02207     -2580.055 7        44.525
C30        38.000                                                                                                                                    23640190.311 7 123100667.01107      1666.817 7        47.412                                                                    23640189.870 7 100029400.58707      1354.477 7        42.525
C28        40.000                                                                                                                                    23153220.089 5 120564981.70205     -3277.074 5        31.011                                                                    23153202.570 6  97968773.94806     -2663.038 6        39.306
R11        41.000    24018162.452 5                     -4184.649 5        32.605                                                                    24018142.896 3                     -3257.195 3        22.095
I01        44.000   371636640.172 6 155241241.31306     -2528.055 6        40.222
C13        45.000                                                                                                                                    40260828.868 4                     -1734.885 4        24.586
C14        47.000                                                                                                                                    25914360.874 3                     -3996.472 3        23.238    25914353.708 5 104346308.91105     -3090.610 5        35.652
C41        49.000                                                                                                                                    22043198.856 7 114784802.18307      -247.745 7        45.281                                                                    22043203.911 7  93272048.79607      -201.324 7        44.697
C27        52.000                                                                                                                                    21414250.805 8 111509606.93908      -905.333 8        52.478                                                                    21414249.076 7  90610703.01907      -735.638 7        47.374
I06        58.000    38436914.572 5 150834896.83005      -530.324 5        30.498
I09        60.000    37346884.156 5 146557205.66705      -367.205 5        35.505
> 2025 01 01 22 47 30.0000000  0 36
G03         1.000    23311205.268 5 122501513.43805      2534.773 5        30.453                                    23311200.878 1  95455422.29901      1975.218 1         8.095    23311216.569 4                      1975.282 4        26.491
G10         2.000    22760234.211 7 119605901.76307     -3594.103 7        44.755                                    22760230.387 5  93199404.35605     -2800.604 5        33.449    22760232.032 6  93199485.39406     -2800.479 6        38.438
G32         3.000    21874936.586 4 114953510.56904      -682.011 4        28.825                                    21874932.153 2  89574178.90502      -531.470 2        17.585    21874937.321 6  89574228.96106      -531.336 6        39.117
G14         4.000    23892648.548 5 125556574.87005      -686.636 5        34.386                                    23892623.453 1  97836272.37601      -535.028 1         2.800    23892675.529 3                      -533.154 3        21.095
E07         5.000    24689870.421 4 129746130.17204       210.109 4        27.473                                                                    24689872.410 6  96888424.86606       156.914 6        40.758    24689872.989 6  99415886.12206       161.110 6        38.706
G08         6.000    21192113.703 7 111365846.89607     -3146.809 7        46.494                                    21192111.291 7  86778147.60407     -2452.056 7        43.329    21192112.571 7  86778175.60807     -2452.094 7        43.689
G27         7.000    23423240.836 5 123089965.53105     -4542.431 5        31.238                                    23423238.164 4  95914245.61804     -3539.563 4        24.135    23423239.581 6  95914262.64206     -3539.518 6        39.126
G21         8.000    20651135.661 6 108522436.97206      -614.054 6        41.335                                    20651127.029 4  84562912.72904      -478.480 4        25.579
G02         9.000    21493031.312 7 112946691.60807       776.683 7        43.122                                    21493023.343 4  88010380.67404       605.212 4        24.632
E08        12.000    26555574.940 4 139550379.75504     -2518.067 4        28.047                                                                    26555566.020 5 104209661.52105     -1880.080 5        31.721    26555550.979 6 106928241.15406     -1929.458 6        37.104
E29        14.000    26522408.238 6 139376253.23106      2216.324 6        38.000                                                                    26522406.096 6 104079620.31806      1655.088 6        40.000    26522405.175 6 106794755.44206      1698.200 6        39.330
E24        15.000    28022213.823 5 147257749.57705       220.662 5        30.468                                                                    28022204.512 5 109965159.56305       165.112 5        35.371    28022205.709 6 112833881.35606       169.110 6        40.024
E13        16.000                                                                                                                                    26800044.504 4                     -2341.989 4        24.316    26800045.054 5 107912706.35105     -2403.098 5        34.143
E31        17.000                                                                                                                                    26337529.939 6 103354133.43106     -1636.781 6        37.743    26337529.135 6 106050320.69506     -1679.510 6        36.008
E26        19.000    23550513.724 7 123758776.75907     -1445.200 7        45.698                                                                    23550512.386 7  92417342.49907     -1079.266 7        44.935    23550510.611 7  94828162.40607     -1107.375 7        44.814
R06        21.000    22010006.936 5 117449607.22305      3263.846 5        32.030
S36        23.000    38241306.811 6 200959311.58406      -853.014 6        36.507
S23        24.000    38195145.267 6 200716795.55706      -850.926 6        41.723
R12        25.000                                                                                                                                    23341206.667 5  96976800.14605      -977.321 5        34.962
R20        26.000    19520779.330 5                     -1612.863 5        31.230                                                                    19520779.146 6                     -1254.468 6        41.700
R05        27.000    19351211.173 6 103443318.16806      -968.028 6        41.995                                                                    19351204.553 7  80455873.20307      -752.916 7        45.651
E33        28.000    24424497.426 6 128351636.45006       740.288 6        41.721                                                                    24424494.888 7  95847010.82207       552.788 7        42.864    24424496.735 7  98347329.17107       567.162 7        43.924
R21        30.000    20697082.807 8 110754508.37008      1957.112 8        52.580                                                                    20697080.469 7  86142227.70607      1522.178 7        45.144
R04        31.000    21824960.345 6 116871749.63306     -4482.574 6        41.578                                                                    21824953.893 5  90900168.66705     -3486.540 5        31.389
C32        36.000                                                                                                                                    24696246.614 5                      2350.639 5        32.796                                                                    24696245.059 4 104497915.97304      1910.364 4        26.431
C33        37.000                                                                                                                                                                                                                                                                    23807160.676 7 100735869.82307     -2581.330 7        44.281
C30        38.000                                                                                                                                    23638590.226 7 123092335.64807      1665.649 7        47.655                                                                    23638589.567 6 100022630.66106      1353.658 6        41.719
C28        40.000                                                                                                                                                                                                                                                                    23156350.072 6  97982091.70406     -2664.225 6        38.228
R11        41.000    24022074.688 5 128366700.20015     -4186.025 5        35.605
I01        44.000   371639861.593 6 155253881.79106     -2528.212 6        39.892
C13        45.000                                                                                                                                    40262487.455 4                     -1734.198 4        25.398
C14        47.000                                                                                                                                    25918208.459 3                     -3998.843 3        19.313    25918193.043 6 104361761.98106     -3090.582 6        36.257
C41        49.000                                                                                                                                    22043438.158 7 114786047.22207      -250.274 7        46.295                                                                    22043443.145 7  93273060.48907      -203.356 7        44.727
C27        52.000                                                                                                                                    21415121.038 8 111514139.12808      -907.501 8        52.146                                                                    21415119.475 7  90614385.77707      -737.295 7        47.218
I06        58.000    38437591.364 5 150837549.86305      -530.604 5        30.785
I09        60.000    37347352.564 5 146559042.02605      -367.342 5        35.562
> 2025 01 01 22 47 35.0000000  0 37
G03         1.000                                                                                                                                                                    23308809.557 3                      1973.661 3        23.067
G10         2.000    22763654.950 7 119623874.53007     -3594.927 7        44.907                                    22763651.836 5  93213409.11105     -2801.235 5        34.090    22763652.975 6  93213490.14906     -2801.166 6        38.444
G32         3.000    21875588.785 5 114956927.86505      -684.953 5        34.786                                    21875583.234 3  89576841.85703      -533.727 3        22.171    21875587.774 6  89576891.81106      -533.705 6        39.318
G14         4.000    23893305.166 5 125560017.07505      -690.038 5        34.643
E07         5.000    24689673.061 3 129745085.14003       206.999 3        23.943                                                                    24689673.974 6  96887644.43806       155.420 6        41.130    24689674.011 6  99415085.32406       159.372 6        38.003
G08         6.000    21195109.441 7 111381586.86507     -3149.222 7        47.109                                    21195106.630 7  86790412.51607     -2453.940 7        43.494    21195108.017 7  86790440.52307     -2453.962 7        43.956
G27         7.000    23427565.710 5 123112679.85805     -4543.430 5        33.192                                    23427560.694 3  95931945.09403     -3540.338 3        23.390    23427562.146 6  95931962.08506     -3540.215 6        38.766
G21         8.000    20651720.747 6 108525511.23506      -615.685 6        41.085                                    20651712.543 4  84565308.24904      -479.757 4        25.173
G02         9.000    21492292.524 6 112942811.18806       775.455 6        41.285                                    21492284.809 3  88007356.97203       604.247 3        23.448
G17        11.000    25586057.107 4                      2500.328 4        26.503
E08        12.000    26557974.034 4                     -2519.966 4        29.071                                                                    26557963.339 5 104219066.85505     -1881.702 5        30.400    26557947.938 6 106937891.85206     -1930.926 6        37.474
E29        14.000    26520300.399 6 139365173.30106      2215.847 6        38.604                                                                    26520297.553 6 104071346.37306      1654.664 6        40.031    26520296.521 6 106786265.64006      1697.687 6        39.309
E24        15.000    28022004.836 5 147256651.82005       218.884 5        30.045                                                                    28021995.674 5 109964339.89005       163.221 5        35.933    28021996.890 6 112833040.31706       167.395 6        40.293
E13        16.000                                                                                                                                    26803029.956 4                     -2342.746 4        24.075    26803029.178 5 107924723.17005     -2403.287 5        34.262
E31        17.000    26339612.124 4 138415601.74004     -2194.008 4        28.597                                                                    26339616.902 6 103362321.65706     -1638.274 6        38.129    26339615.651 5 106058722.51305     -1681.077 5        35.552
E26        19.000    23551889.766 7 123766005.61307     -1446.311 7        46.000                                                                    23551888.003 7  92422740.66607     -1080.079 7        44.974    23551886.238 7  94833701.40807     -1108.196 7        44.888
R06        21.000    22006951.852 5 117433293.92705      3262.297 5        32.120
S36        23.000    38242115.124 6 200963577.58506      -853.031 6        36.488
S23        24.000    38195958.776 6 200721050.29406      -850.990 6        41.523
R12        25.000    23342397.089 5 124690905.05615     -1260.404 5        34.495
R20        26.000    19522290.054 5                     -1615.959 5        30.340                                                                    19522287.908 6  81195876.19716     -1256.678 6        40.508
R05        27.000    19352121.866 7 103448169.38007      -972.512 7        43.685                                                                    19352111.736 7  80459646.38607      -756.355 7        45.415
E33        28.000    24423793.161 6 128347937.28506       739.559 6        40.346                                                                    24423790.857 7  95844248.47507       552.342 7        43.530    24423792.434 7  98344494.74607       566.581 7        43.884
R21        30.000    20695254.429 8 110744726.70608      1955.630 8        52.132                                                                    20695252.940 7  86134619.76307      1521.062 7        46.386
R04        31.000    21829151.312 7 116894168.09507     -4484.674 7        43.475                                                                    21829139.594 5  90917605.22805     -3488.143 5        30.989
C32        36.000                                                                                                                                    24693990.779 5                      2349.539 5        33.192                                                                    24693987.065 4 104488368.14904      1909.733 4        25.579
C33        37.000                                                                                                                                    23810229.036 6                     -3178.414 6        36.503                                                                    23810211.580 7 100748780.43707     -2582.621 7        43.162
C30        38.000                                                                                                                                    23636990.794 7 123084009.77807      1664.679 7        47.430                                                                    23636990.167 6 100015865.20806      1352.761 6        41.287
C28        40.000                                                                                                                                                                                                                                                                    23159498.717 6  97995415.43006     -2664.963 6        37.153
R11        41.000    24025991.987 5 128387636.03515     -4187.828 5        34.510
I01        44.000   371643082.820 6 155266523.47706     -2528.472 6        39.459
C13        45.000                                                                                                                                    40264143.386 4                     -1734.435 4        25.383
C14        47.000                                                                                                                                    25922046.583 3                     -3998.383 3        21.262    25922031.606 5 104377217.64205     -3091.478 5        34.948
C41        49.000                                                                                                                                    22043680.253 7 114787305.28107      -252.958 7        47.242                                                                    22043684.634 7  93274082.74307      -205.325 7        44.712
C27        52.000                                                                                                                                    21415993.497 8 111518682.30008      -909.671 8        51.925                                                                    21415991.962 7  90618077.47907      -739.167 7        46.990
I06        58.000    38438267.461 5 150840202.73505      -530.495 5        31.109
I09        60.000    37347819.397 5 146560879.50305      -367.592 5        35.467
> 2025 01 01 22 47 40.0000000  0 36
G03         1.000    23306399.143 4 122476177.84004      2531.966 4        27.665                                    23306379.964 1  95435680.65001      1973.052 1         4.000
G10         2.000    22767076.012 7 119641851.92207     -3595.969 7        44.625                                    22767073.973 5  93227417.48005     -2802.052 5        34.481    22767073.779 6  93227498.52306     -2802.114 6        38.012
G32         3.000    21876246.735 6 114960360.90206      -688.112 6        38.423                                    21876237.097 4  89579516.98004      -536.188 4        26.671    21876240.685 6  89579566.94106      -536.193 6        39.793
G14         4.000    23893964.919 5 125563474.57005      -692.839 5        34.081                                                                                                    23893969.277 5                      -540.008 5        32.467
E07         5.000    24689475.518 4 129744051.42104       205.525 4        29.014                                                                    24689477.704 6  96886872.50106       153.493 6        41.356    24689477.732 6  99414293.24806       157.650 6        37.592
G08         6.000    21198107.062 7 111397338.86407     -3151.534 7        47.149                                    21198104.276 7  86802686.80307     -2455.742 7        43.721    21198105.685 7  86802714.80807     -2455.714 7        44.470
G27         7.000    23431888.423 5 123135398.44105     -4544.155 5        35.524                                    23431884.096 4  95949647.86304     -3540.892 4        24.376    23431885.613 6  95949664.86406     -3540.959 6        39.090
G21         8.000    20652308.370 6 108528593.83806      -617.262 6        41.816                                    20652299.623 4  84567710.26504      -480.988 4        24.722
G02         9.000    21491553.445 6 112938937.05206       774.283 6        38.775                                    21491547.332 3  88004338.16703       603.334 3        22.514
E08        12.000    26560372.474 4                     -2521.714 4        29.393                                                                    26560364.551 5 104228479.44405     -1882.892 5        30.008    26560346.016 6 106947550.06206     -1932.351 6        37.350
E29        14.000    26518193.159 6 139354096.12706      2215.301 6        39.550                                                                    26518189.852 6 104063074.46306      1654.244 6        40.117    26518188.647 6 106777777.94206      1697.246 6        39.339
E24        15.000    28021793.600 5 147255565.27905       216.534 5        30.702                                                                    28021789.082 6 109963528.50506       161.440 6        36.049    28021790.334 6 112832207.72806       165.719 6        40.331
E13        16.000                                                                                                                                    26806015.046 3                     -2342.157 3        23.695    26806013.865 5 107936741.63505     -2403.598 5        33.928
E31        17.000    26341708.096 4 138426577.00904     -2196.048 4        29.820                                                                    26341706.095 6 103370517.53106     -1640.049 6        38.784    26341704.612 5 106067132.15205     -1682.660 5        35.405
E26        19.000    23553266.291 7 123773239.74407     -1447.319 7        45.964                                                                    23553264.657 7  92428142.76707     -1080.845 7        45.091    23553263.073 7  94839244.43107     -1108.966 7        45.242
R06        21.000    22003895.516 5 117416989.07005      3259.653 5        32.066
S36        23.000    38242924.702 6 200967842.73406      -852.983 6        37.248
S23        24.000    38196760.959 6 200725304.88206      -850.794 6        41.640
R12        25.000    23343573.434 6 124697218.43506     -1264.769 6        36.189                                                                    23343550.180 5  96986604.74305      -983.268 5        31.404
R20        26.000    19523797.921 4                     -1618.487 4        29.204                                                                    19523799.266 6  81202165.31906     -1258.918 6        40.791
R05        27.000    19353037.496 6 103453042.62906      -976.828 6        40.176                                                                    19353022.313 7  80463436.70507      -759.705 7        44.102
E33        28.000    24423090.749 6 128344241.45806       738.869 6        40.119                                                                    24423087.503 7  95841488.59407       551.818 7        44.063    24423088.753 7  98341662.85707       566.128 7        44.026
R21        30.000    20693426.407 8 110734952.52008      1954.059 8        51.183                                                                    20693426.276 7  86127017.64207      1519.826 7        47.044
R04        31.000    21833341.571 7 116916597.17007     -4486.876 7        44.295                                                                    21833328.165 5  90935050.00705     -3489.623 5        31.404
C32        36.000                                                                                                                                    24691734.738 5 128576344.86215      2348.459 5        33.090                                                                    24691733.105 4 104478824.60704      1908.486 4        27.796
C33        37.000                                                                                                                                    23813270.045 6 124002029.87416     -3180.081 6        38.447                                                                    23813263.625 7 100761697.82107     -2584.097 7        42.250
C30        38.000                                                                                                                                    23635392.394 7 123075689.34907      1663.546 7        47.462                                                                    23635391.973 6 100009104.20906      1351.671 6        40.880
C28        40.000                                                                                                                                                                                                                                                                    23162649.440 6  98008745.13506     -2666.486 6        37.051
R11        41.000    24029909.235 5 128408579.86105     -4189.348 5        32.922
I01        44.000   371646304.684 6 155279166.35706     -2528.719 6        39.670
C13        45.000                                                                                                                                    40265807.375 4                     -1734.021 4        25.865
C14        47.000                                                                                                                                    25925883.324 3                     -3998.821 3        21.357    25925870.615 6 104392675.74306     -3091.805 6        37.009
C41        49.000                                                                                                                                    22043924.503 7 114788576.27807      -255.463 7        47.641                                                                    22043928.727 7  93275115.56507      -207.559 7        44.590
C27        52.000                                                                                                                                    21416868.192 8 111523236.40408      -911.816 8        51.688                                                                    21416866.442 7  90621778.08907      -740.942 7        46.744
I06        58.000    38438943.736 5 150842855.34605      -530.184 5        31.109
I09        60.000    37348288.063 5 146562718.01105      -367.801 5        35.195
> 2025 01 01 22 47 45.0000000  0 37
G03         1.000    23303986.310 4 122463518.29504      2530.612 4        26.970                                    23303970.864 1  95425816.04101      1971.924 1         3.200
G10         2.000    22770497.192 7 119659834.57807     -3596.937 7        44.525                                    22770496.991 5  93241429.95105     -2802.813 5        34.824    22770495.798 6  93241511.01406     -2802.924 6        37.943
G32         3.000    21876902.331 6 114963810.31106      -691.476 6        39.171                                    21876894.292 4  89582204.84304      -538.806 4        28.142    21876896.796 6  89582254.82406      -538.869 6        40.112
G14         4.000    23894630.578 5 125566948.07505      -696.245 5        33.180                                                                                                    23894634.413 5  97844515.34815      -542.457 5        34.490
E07         5.000    24689280.880 5 129743029.66805       202.983 5        30.362                                                                    24689283.390 6  96886109.51006       151.666 6        41.609    24689283.121 6  99413510.34006       155.759 6        37.403
G08         6.000    21201106.625 7 111413103.54307     -3154.234 7        47.457                                    21201104.359 7  86814970.97107     -2457.846 7        44.331    21201105.623 7  86814998.97907     -2457.900 7        44.777
G27         7.000    23436210.875 6 123158121.93006     -4545.214 6        36.155                                    23436208.571 4  95967354.49004     -3541.713 4        25.865    23436209.369 6  95967371.49006     -3541.785 6        39.589
G21         8.000    20652896.885 6 108531685.43706      -619.244 6        41.783                                    20652888.513 4  84570119.29204      -482.528 4        24.466
G02         9.000    21490816.803 6 112935069.85606       772.806 6        39.459                                    21490810.936 3  88001324.77703       602.167 3        21.190
G17        11.000    25581287.639 3                      2498.510 3        19.194
E08        12.000    26562775.622 4                     -2524.840 4        25.459                                                                    26562773.950 4 104237900.04204     -1884.779 4        28.616    26562746.423 6 106957216.23806     -1933.975 6        37.565
E29        14.000    26516086.369 6 139343022.38406      2214.441 6        39.856                                                                    26516082.751 6 104054805.12706      1653.568 6        40.062    26516081.219 6 106769292.85906      1696.703 6        39.402
E24        15.000    28021590.313 5 147254490.33205       213.772 5        31.464                                                                    28021584.462 6 109962725.76606       159.443 6        36.253    28021585.992 6 112831384.04506       163.879 6        40.415
E13        16.000    26808991.324 3                     -3137.804 3        23.200                                                                    26808999.393 4                     -2342.849 4        26.371    26808999.805 5 107948762.19305     -2404.274 5        33.311
E31        17.000    26343802.273 4 138437563.20704     -2198.663 4        29.242                                                                    26343796.871 6 103378721.50306     -1641.585 6        39.315    26343795.604 5 106075550.14905     -1684.347 5        34.781
E26        19.000    23554643.518 7 123780479.79607     -1448.613 7        45.755                                                                    23554642.321 7  92433549.30007     -1081.680 7        44.871    23554640.775 7  94844792.00507     -1109.927 7        45.469
R06        21.000    22000842.493 5 117400693.47105      3258.346 5        31.208
S36        23.000    38243738.931 6 200972108.23106      -853.114 6        37.410
S23        24.000    38197573.050 6 200729559.96706      -851.025 6        41.507
R12        25.000    23344755.784 6 124703552.76806     -1268.967 6        38.697                                                                    23344736.341 5  96991531.40505      -986.951 5        31.615
R20        26.000    19525311.185 4                     -1621.490 4        28.313                                                                    19525315.710 6  81208465.84606     -1261.309 6        41.538
R05        27.000    19353951.321 6 103457938.72906      -981.530 6        36.095                                                                    19353938.073 7  80467244.90507      -763.420 7        43.234
E33        28.000    24422388.730 6 128340549.56406       738.050 6        40.369                                                                    24422385.356 7  95838731.68007       551.070 7        44.489    24422385.773 7  98338834.01207       565.484 7        44.218
R21        30.000    20691601.381 8 110725186.54508      1952.358 8        51.086                                                                    20691601.319 7  86119421.88807      1518.533 7        47.552
R04        31.000    21837528.638 7 116939037.43807     -4489.182 7        44.108                                                                    21837518.275 5  90952503.55105     -3491.584 5        33.072
C32        36.000                                                                                                                                    24689479.378 5 128564605.91805      2347.333 5        33.293
C33        37.000                                                                                                                                                                                                                                                                    23816317.444 6 100774622.43806     -2585.680 6        40.987
C30        38.000                                                                                                                                    23633795.405 7 123067374.99607      1662.275 7        47.316                                                                    23633795.212 6 100002348.12306      1350.668 6        40.980
C28        40.000                                                                                                                                    23165826.935 5                     -3283.123 5        32.383                                                                    23165802.019 6  98022081.28206     -2667.912 6        36.873
R11        41.000    24033824.673 5 128429532.44305     -4191.338 5        33.275
I01        44.000   371649527.141 6 155291810.87506     -2529.243 6        39.724
C13        45.000                                                                                                                                    40267473.936 4                     -1734.615 4        25.173
C14        47.000                                                                                                                                                                                                    25929708.014 6 104408136.86906     -3092.620 6        38.192
C41        49.000                                                                                                                                    22044170.580 7 114789860.88007      -258.233 7        47.632                                                                    22044175.172 7  93276159.41307      -209.926 7        44.172
C27        52.000                                                                                                                                    21417745.380 8 111527802.09308      -914.224 8        51.614                                                                    21417743.205 7  90625488.08107      -742.905 7        46.648
I06        58.000    38439620.313 5 150845508.25105      -530.467 5        30.928
I09        60.000    37348756.772 5 146564558.08805      -368.331 5        35.252
> 2025 01 01 22 47 50.0000000  0 36
G03         1.000    23301571.192 4 122450864.99604      2530.473 4        25.233                                    23301563.047 1  95415956.31401      1971.827 1         4.000
G10         2.000    22773919.926 7 119677822.75107     -3597.924 7        43.390                                    22773920.823 5  93255446.72405     -2803.577 5        34.924    22773918.851 6  93255527.77006     -2803.677 6        37.792
G32         3.000    21877558.252 6 114967276.38606      -694.643 6        39.000                                    21877554.808 4  89584905.66504      -541.276 4        28.720    21877557.656 6  89584955.64806      -541.229 6        40.453
G14         4.000    23895290.777 5 125570437.60805      -699.195 5        30.589                                                                                                    23895297.483 5  97847234.46205      -544.951 5        33.629
E07         5.000    24689086.708 5 129742020.16205       200.978 5        31.977                                                                    24689091.525 6  96885355.65706       150.048 6        41.838    24689090.789 6  99412736.82006       154.009 6        36.786
G08         6.000    21204108.879 7 111428881.09407     -3156.571 7        47.462                                    21204106.924 7  86827265.16707     -2459.667 7        44.813    21204108.076 7  86827293.17607     -2459.643 7        44.828
G27         7.000    23440534.304 6 123180850.60906     -4546.083 6        37.338                                    23440534.128 4  95985065.14204     -3542.399 4        27.138    23440534.907 6  95985082.12506     -3542.200 6        40.019
G21         8.000    20653485.780 6 108534786.22106      -620.861 6        40.017                                    20653479.116 4  84572535.49104      -483.789 4        24.256
G02         9.000    21490083.685 6 112931209.85006       771.708 6        39.369                                    21490076.199 3  87998316.99403       601.321 3        19.522
E08        12.000    26565181.990 4                     -2526.301 4        27.257                                                                                                                                    26565149.798 6 106966890.59706     -1935.539 6        37.879
E29        14.000    26513980.287 6 139331952.26106      2214.035 6        40.467                                                                    26513976.112 6 104046538.50206      1653.154 6        40.210    26513974.541 6 106760810.58706      1696.307 6        38.934
E24        15.000    28021388.493 5 147253427.25105       211.731 5        31.419                                                                    28021382.755 6 109961931.90506       158.383 6        36.136    28021383.477 6 112830569.50606       162.150 6        40.403
E13        16.000    26811980.908 4                     -3138.002 4        26.216                                                                    26811986.491 4                     -2343.644 4        28.692    26811985.596 5 107960785.00705     -2404.549 5        33.251
E31        17.000    26345897.391 5 138448560.43505     -2199.934 5        31.185                                                                    26345889.462 6 103386933.77206     -1643.061 6        39.405    26345888.214 5 106083976.63105     -1685.696 5        34.900
E26        19.000    23556022.607 7 123787725.96207     -1449.609 7        46.201                                                                    23556021.191 7  92438960.40707     -1082.386 7        44.951    23556019.708 7  94850344.27307     -1110.657 7        45.735
R06        21.000    21997786.772 4 117384407.35104      3256.627 4        29.706
S36        23.000    38244552.601 6 200976373.63606      -852.838 6        37.524
S23        24.000    38198383.196 6 200733815.76806      -851.020 6        41.344
R12        25.000    23345943.802 6 124709908.35106     -1272.818 6        36.960                                                                    23345926.564 5  96996474.64605      -989.984 5        30.815
R20        26.000    19526829.905 5                     -1624.540 5        30.045                                                                    19526835.053 7  81214777.93707     -1263.456 7        42.940
R05        27.000    19354865.657 5 103462857.61905      -985.872 5        34.243                                                                    19354858.258 7  80471070.85307      -766.695 7        42.591
E33        28.000    24421686.858 6 128336861.86806       737.332 6        40.110                                                                    24421683.770 7  95835977.86807       550.673 7        45.123    24421683.862 7  98336008.37507       564.921 7        44.311
R21        30.000    20689778.878 8 110715428.93408      1950.915 8        50.991                                                                    20689777.788 8  86111832.64008      1517.389 8        48.114
R04        31.000    21841719.313 7 116961489.08107     -4491.199 7        43.164                                                                    21841712.120 5  90969965.96105     -3493.402 5        32.754
C32        36.000                                                                                                                                    24687228.407 5 128552873.18005      2346.306 5        32.449                                                                    24687246.211 5 104459752.20605      1906.657 5        33.269
C33        37.000                                                                                                                                    23819366.644 6 124033850.38706     -3183.585 6        41.576                                                                    23819373.259 6 100787554.48406     -2586.998 6        40.434
C30        38.000                                                                                                                                    23632199.822 7 123059066.95307      1661.181 7        47.014                                                                    23632200.104 6  99995597.16106      1349.719 6        41.294
C28        40.000                                                                                                                                    23168984.276 5                     -3284.934 5        31.992                                                                    23168956.199 6  98035424.02306     -2669.135 6        37.195
R11        41.000    24037743.009 5 128450493.91205     -4192.939 5        33.180
I01        44.000   371652749.880 6 155304457.19206     -2529.366 6        39.715
C13        45.000                                                                                                                                    40269141.757 4                     -1733.926 4        26.383
C14        47.000                                                                                                                                    25933550.462 4                     -3999.837 4        25.323    25933548.168 6 104423601.08306     -3093.161 6        37.448
C41        49.000                                                                                                                                    22044420.033 7 114791159.31207      -260.767 7        47.345                                                                    22044424.316 7  93277214.48407      -212.060 7        44.247
C27        52.000                                                                                                                                    21418624.365 8 111532379.57608      -916.447 8        51.022                                                                    21418622.330 7  90629207.64507      -744.755 7        46.730
I06        58.000    38440294.894 5 150848161.58305      -530.598 5        30.370
I09        60.000    37349226.230 5 146566399.84205      -368.221 5        35.514
> 2025 01 01 22 47 55.0000000  0 36
G10         2.000    22777343.985 7 119695816.08707     -3599.361 7        42.100                                    22777345.366 5  93269467.51205     -2804.706 5        35.200    22777343.199 6  93269548.55906     -2804.760 6        37.766
G32         3.000    21878220.312 6 114970758.74706      -698.263 6        38.517                                    21878218.451 4  89587619.17004      -544.103 4        28.578    21878220.687 6  89587669.18006      -544.149 6        41.054
G14         4.000    23895951.075 5 125573942.79305      -703.088 5        30.785                                                                                                    23895958.941 5  97849965.89905      -547.762 5        32.790
E07         5.000    24688899.864 5 129741022.56905       198.445 5        33.138                                                                    24688901.424 6  96884610.70206       148.000 6        41.998    24688900.321 6  99411972.42606       151.622 6        37.331
G08         6.000    21207113.516 7 111444671.20407     -3159.503 7        47.840                                    21207111.912 7  86839569.15307     -2461.951 7        45.645    21207112.738 7  86839597.16307     -2461.961 7        45.117
G27         7.000    23444861.028 6 123203584.04706     -4547.412 6        38.009                                    23444860.659 4  96002779.50604     -3543.433 4        28.379    23444861.552 6  96002796.50906     -3543.319 6        40.145
G21         8.000    20654076.387 6 108537895.88606      -622.892 6        37.879                                    20654071.338 3  84574958.59503      -485.371 3        23.695
G02         9.000    21489349.791 5 112927356.66205       769.722 5        35.995                                    21489342.477 2  87995314.54402       599.799 2        17.170
G17        11.000    25576597.998 4                      2498.251 4        26.647
E08        12.000                                                                                                                                    26567598.765 4 104256764.66004     -1887.897 4        27.880    26567554.653 6 106976572.84506     -1937.258 6        37.856
E29        14.000    26511874.351 6 139320885.50606      2212.906 6        40.818                                                                    26511870.516 6 104038274.36406      1652.454 6        39.865    26511868.458 6 106752330.85506      1695.588 6        38.931
E24        15.000    28021185.462 5 147252375.83605       208.939 5        32.060                                                                    28021182.444 6 109961146.71606       155.934 6        36.026    28021183.361 6 112829763.81306       160.225 6        40.374
E13        16.000    26814975.075 4                     -3138.778 4        27.377                                                                    26814973.619 5                     -2344.196 5        30.725    26814971.872 5 107972809.86405     -2405.411 5        32.461
E31        17.000    26347993.361 5 138459568.49105     -2202.740 5        31.841                                                                    26347984.222 6 103395154.07206     -1645.014 6        40.102    26347983.193 5 106092411.36905     -1687.743 5        35.348
E26        19.000    23557403.024 7 123794977.97007     -1451.129 7        46.912                                                                    23557401.236 7  92444375.87407     -1083.654 7        44.770    23557399.696 7  94855901.00707     -1111.922 7        45.872
R06        21.000    21994739.109 4 117368130.52304      3254.157 4        28.408
S36        23.000    38245359.840 6 200980639.10006      -853.257 6        37.830
S23        24.000    38199188.974 6 200738071.92406      -851.461 6        40.634
R12        25.000    23347128.204 5 124716285.00605     -1277.595 5        33.569                                                                    23347121.230 5  97001434.32605      -993.727 5        34.095
R20        26.000    19528354.151 5                     -1627.644 5        30.898                                                                    19528355.937 7  81221101.45807     -1265.926 7        43.397
R05        27.000    19355782.262 6 103467799.21206      -990.847 6        36.499                                                                    19355782.306 7  80474914.42707      -770.609 7        42.893
E33        28.000    24420984.710 6 128333178.04806       736.203 6        38.294                                                                    24420982.724 7  95833226.94807       549.810 7        45.169    24420982.826 7  98333185.68507       564.137 7        44.391
R21        30.000    20687957.458 8 110705679.58508      1948.843 8        51.173                                                                    20687955.925 8  86104249.80508      1515.776 8        48.124
R04        31.000    21845913.764 7 116983951.93607     -4493.796 7        42.343                                                                    21845906.914 5  90987437.08005     -3495.191 5        34.105
C32        36.000                                                                                                                                    24684976.309 5 128541146.24305      2345.004 5        32.898                                                                    24684989.508 5 104450223.05705      1905.287 5        34.238
C33        37.000                                                                                                                                    23822426.071 7 124049773.98807     -3185.770 7        43.325                                                                    23822430.921 6 100800493.72706     -2588.632 6        40.262
C30        38.000                                                                                                                                    23630606.200 7 123050764.92807      1659.585 7        46.722                                                                    23630606.269 6  99988851.09206      1348.583 6        41.726
C28        40.000                                                                                                                                    23172138.009 5                     -3286.533 5        30.211                                                                    23172111.650 6  98048773.15006     -2670.530 6        37.157
R11        41.000    24041665.151 5 128471463.87505     -4194.642 5        33.066
I01        44.000   371655972.960 6 155317105.19206     -2529.821 6        39.348
C13        45.000                                                                                                                                    40270807.356 4                     -1733.492 4        25.444
C14        47.000                                                                                                                                    25937382.710 4                     -4002.334 4        24.481    25937389.686 6 104439068.20006     -3093.815 6        36.163
C41        49.000                                                                                                                                    22044672.288 7 114792471.24507      -263.857 7        47.210                                                                    22044676.171 7  93278280.55007      -214.461 7        44.041
C27        52.000                                                                                                                                    21419505.582 8 111536968.54408      -919.077 8        50.407                                                                    21419503.520 7  90632936.57307      -746.855 7        46.842
I06        58.000    38440970.866 4 150850815.14804      -530.794 4        29.422
I09        60.000    37349696.149 5 146568243.08905      -368.830 5        35.576
