     3.04           OBSERVATION DATA    M                   RINEX VERSION / TYPE
ssrcrin-15.6.1x                         20250101 220000 UTC PGM / RUN BY / DATE 
(00000000023479385599111004) Septentrio proprietary         COMMENT             
ract                                                        MARKER NAME         
01                                                          MARKER NUMBER       
geodetic                                                    MARKER TYPE         
NFB                 CLIMERS@TUW                             OBSERVER / AGENCY   
3296359             SEPT ASTERX SB3 PROB4.14.4              REC # / TYPE / VERS 
Unknown             Unknown                                 ANT # / TYPE        
  4127447.4657  1206915.1454  4695543.9747                  APPROX POSITION XYZ 
        0.0000        0.0000        0.0000                  ANTENNA: DELTA H/E/N
G   23 X1  C1C L1C D1C S1C C1W S1W C2W L2W D2W S2W C2L L2L  SYS / # / OBS TYPES 
       D2L S2L C5Q L5Q D5Q S5Q C1L L1L D1L S1L              SYS / # / OBS TYPES 
E   21 X1  C1C L1C D1C S1C C6C L6C D6C S6C C5Q L5Q D5Q S5Q  SYS / # / OBS TYPES 
       C7Q L7Q D7Q S7Q C8Q L8Q D8Q S8Q                      SYS / # / OBS TYPES 
S    9 X1  C1C L1C D1C S1C C5I L5I D5I S5I                  SYS / # / OBS TYPES 
R   17 X1  C1C L1C D1C S1C C2P L2P D2P S2P C2C L2C D2C S2C  SYS / # / OBS TYPES 
       C3Q L3Q D3Q S3Q                                      SYS / # / OBS TYPES 
C   25 X1  C1P L1P D1P S1P C5P L5P D5P S5P C2I L2I D2I S2I  SYS / # / OBS TYPES 
       C7I L7I D7I S7I C6I L6I D6I S6I C7D L7D D7D S7D      SYS / # / OBS TYPES 
J   17 X1  C1C L1C D1C S1C C2L L2L D2L S2L C5Q L5Q D5Q S5Q  SYS / # / OBS TYPES 
       C1L L1L D1L S1L                                      SYS / # / OBS TYPES 
I    5 X1  C5A L5A D5A S5A                                  SYS / # / OBS TYPES 
SEPTENTRIO RECEIVERS OUTPUT ALIGNED CARRIER PHASES.         COMMENT             
NO FURTHER PHASE SHIFT APPLIED IN THE RINEX ENCODER.        COMMENT             
G L1C                                                       SYS / PHASE SHIFT   
G L2W                                                       SYS / PHASE SHIFT   
G L2L  0.00000                                              SYS / PHASE SHIFT   
G L5Q  0.00000                                              SYS / PHASE SHIFT   
G L1L  0.00000                                              SYS / PHASE SHIFT   
E L1C  0.00000                                              SYS / PHASE SHIFT   
E L6C  0.00000                                              SYS / PHASE SHIFT   
E L5Q  0.00000                                              SYS / PHASE SHIFT   
E L7Q  0.00000                                              SYS / PHASE SHIFT   
E L8Q  0.00000                                              SYS / PHASE SHIFT   
S L1C                                                       SYS / PHASE SHIFT   
S L5I                                                       SYS / PHASE SHIFT   
R L1C                                                       SYS / PHASE SHIFT   
R L2P  0.00000                                              SYS / PHASE SHIFT   
R L2C                                                       SYS / PHASE SHIFT   
R L3Q  0.00000                                              SYS / PHASE SHIFT   
C L1P  0.00000                                              SYS / PHASE SHIFT   
C L5P  0.00000                                              SYS / PHASE SHIFT   
C L2I                                                       SYS / PHASE SHIFT   
C L7I                                                       SYS / PHASE SHIFT   
C L6I                                                       SYS / PHASE SHIFT   
C L7D                                                       SYS / PHASE SHIFT   
J L1C                                                       SYS / PHASE SHIFT   
J L2L  0.00000                                              SYS / PHASE SHIFT   
J L5Q  0.00000                                              SYS / PHASE SHIFT   
J L1L  0.00000                                              SYS / PHASE SHIFT   
I L5A                                                       SYS / PHASE SHIFT   
  2025     1     1    22     0    0.0000000     GPS         TIME OF FIRST OBS   
 C1C    0.000 C2C    0.000 C2P    0.000                     GLONASS COD/PHS/BIS 
DBHZ                                                        SIGNAL STRENGTH UNIT
    18                                                      LEAP SECONDS        
 24 R01  1 R02 -4 R03  5 R04  6 R05  1 R06 -4 R07  5 R08  6 GLONASS SLOT / FRQ #
    R09 -2 R10 -7 R11  0 R12 -1 R13 -2 R14 -7 R15  0 R16 -1 GLONASS SLOT / FRQ #
    R17  4 R18 -3 R19  3 R20  2 R21  4 R22 -3 R23  3 R24  2 GLONASS SLOT / FRQ #
                                                            END OF HEADER       
> 2025 01 01 22 00  0.0000000  0 35
G14         1.000    24589956.891 6 129221110.45306      1004.540 6        40.605                                    24589956.169 1 100691785.55801       782.716 1        11.185    24589951.700 4 100691800.54804       783.076 4        29.924
G10         2.000    21610474.562 8 113563785.86408     -2764.329 8        49.148                                    21610470.259 6  88491262.36306     -2154.025 6        38.997    21610474.361 6  88491273.35006     -2154.152 6        36.681
G32         3.000    22580177.106 5 118659767.17105      1010.900 5        35.133                                    22580176.430 3  92462054.24403       787.708 3        20.571    22580173.481 5  92462087.24305       787.966 5        32.269
G23         4.000                                                                                                                                                                    24496758.030 4                     -3340.988 4        27.054
E07         5.000    25733443.009 6 135230169.08306      1361.339 6        39.408                                                                    25733444.347 4 100983604.46204      1016.295 4        27.353    25733451.365 6 103617955.11106      1043.191 6        39.303
G08         6.000    20505724.839 8 107758845.11108     -1540.314 8        51.336                                    20505720.940 7  83967498.10907     -1200.240 7        45.421    20505721.599 6  83967526.09606     -1200.115 6        41.945
G27         7.000    21761088.897 5 114355199.03705     -3690.781 5        32.760                                    21761072.709 4  89107887.92604     -2875.912 4        24.466    21761071.438 5  89107955.87505     -2875.932 5        34.876
G21         8.000    21175239.189 7 111276724.76707       319.410 7        44.537                                    21175229.051 3  86709046.90703       248.895 3        22.133
G02         9.000    22692261.108 6 119248866.90606      1394.614 6        37.123                                    22692248.181 2  92920933.09602      1086.708 2        15.619
E08        12.000    26131548.606 7 137322209.74307     -1211.598 7        42.449                                                                    26131547.377 7 102545846.07907      -904.797 7        45.485    26131545.474 7 105220929.60207      -928.344 7        43.509
E13        16.000    25774114.061 6 135443860.61006     -2852.943 6        39.492                                                                    25774117.513 4 101143207.46704     -2129.886 4        25.398    25774120.844 5 103781680.32305     -2186.038 5        34.033
E31        17.000    26100455.302 5 137158812.22605      -857.557 5        34.662                                                                    26100465.162 5 102423789.58205      -640.388 5        32.539    26100454.330 5 105095720.40105      -657.007 5        35.005
E26        19.000    23532748.490 7 123665415.26407      -837.639 7        43.767                                                                    23532745.940 7  92347624.41307      -625.563 7        43.342    23532744.980 7  94756625.61007      -641.951 7        44.688
S36        23.000    38378436.012 6 201679924.40806      -852.112 6        36.374
S23        24.000    38333214.014 6 201442359.74906      -850.760 6        40.405
R12        25.000    23900338.586 5 127671344.58105      1059.283 5        32.856                                                                    23900344.951 4  99300019.67804       823.988 4        29.602
R20        26.000    19671562.320 6 105192707.21206      -127.119 6        40.007                                                                    19671563.231 7  81816725.89507       -98.960 7        42.148
R05        27.000    20111791.056 7 107509304.52507      1519.749 7        47.735                                                                    20111790.097 7  83618162.47507      1182.096 7        44.474
E33        28.000    25524543.736 6 134132370.16106      1088.956 6        41.359                                                                    25524536.783 6 100163775.50906       813.139 6        37.062    25524537.488 6 102776823.08106       834.114 6        40.107
R21        30.000    22511900.549 7 120465968.74107      2499.834 7        43.539                                                                    22511902.140 6  93695584.50406      1944.422 6        37.750
R04        31.000    20474264.486 7 109638732.25907     -2659.587 7        44.033
R03        32.000                                                                                                                                    24130688.195 3                     -3919.343 3        21.310
C05        33.000                                                                                                                                                                                                    39337496.700 5                      -618.811 5        31.509
C33        37.000                                                                                                                                    22987894.564 6 119703978.16306     -1918.956 6        40.083                                                                    22987903.758 6  97269318.51606     -1559.710 6        39.625
C30        38.000                                                                                                                                    25283925.340 5                      2081.916 5        34.971                                                                    25283891.462 5 106984490.04405      1691.575 5        34.981
C28        40.000                                                                                                                                    22215431.757 6 115681866.22706     -2325.819 6        39.270                                                                    22215434.491 6  94000772.27806     -1890.103 6        41.018
R11        41.000    22757347.916 6 121608607.66206     -2604.019 6        41.001                                                                    22757356.158 4                     -2026.073 4        26.539
I01        44.000   370462489.959 6 150633612.73906     -2361.612 6        40.095
C13        45.000                                                                                                                                    39882477.425 3                     -1841.604 3        21.810    39882495.609 5 160590263.11905     -1422.238 5        31.192    39882497.352 4                     -1494.718 4        29.393
C14        47.000                                                                                                                                    24494626.983 4 127550105.08004     -3291.080 4        29.223    24494651.024 6  98629831.17306     -2544.726 6        36.079    24494638.064 6 103644833.49306     -2674.074 6        37.573
C41        49.000                                                                                                                                    22909840.042 7 119297609.10807      1192.216 7        47.364                                                                    22909844.314 5  96939084.87705       968.490 5        34.895
C27        52.000                                                                                                                                    21844956.083 6 113752452.92006       239.731 6        38.489                                                                    21844959.427 6  92433175.18906       194.790 6        37.648
C42        54.000                                                                                                                                    26757714.188 3                     -4030.959 3        21.071
C36        56.000                                                                                                                                    26482958.407 5 137903693.48005     -1922.681 5        33.503                                                                    26482948.701 5 112058102.33905     -1562.788 5        33.742
I06        58.000    38650317.828 5 151672318.14905      -535.604 5        30.921
> 2025 01 01 22 00  5.0000000  0 36
G14         1.000    24589001.855 6 129216095.12906      1001.769 6        39.562                                    24589001.518 1 100687877.50201       780.592 1        11.481    24588999.032 4 100687892.45904       780.876 4        28.199
G10         2.000    21613106.346 8 113577614.15608     -2766.606 8        49.245                                    21613102.028 6  88502037.65806     -2155.795 6        39.009    21613104.796 6  88502048.63006     -2155.794 6        37.939
G32         3.000    22579215.775 5 118654720.71605      1008.038 5        34.595                                    22579214.799 3  92458121.91203       785.475 3        22.438    22579215.363 5  92458154.97905       785.291 5        35.381
G23         4.000                                                                                                                                                                    24500839.888 4                     -3341.571 4        24.842
E07         5.000    25732148.831 6 135223367.45406      1359.583 6        39.853                                                                    25732149.611 4 100978525.24904      1015.188 4        29.005    25732157.514 6 103612743.48806      1041.625 6        37.875
G08         6.000    20507192.370 8 107766555.84508     -1543.682 8        51.621                                    20507188.455 7  83973506.46207     -1202.865 7        45.485    20507189.640 6  83973534.46406     -1202.961 6        41.788
G27         7.000    21764601.585 5 114373658.23705     -3692.785 5        33.695                                    21764585.276 4  89122271.62404     -2877.499 4        24.211    21764584.342 5  89122339.55705     -2877.532 5        33.772
G21         8.000    21174936.516 7 111275132.80107       317.658 7        44.566                                    21174925.419 3  86707806.41003       247.527 3        22.019
G02         9.000    22690932.278 6 119241897.35006      1393.559 6        37.618                                    22690923.088 2  92915502.25002      1085.878 2        16.340
E08        12.000    26132703.358 7 137328275.41007     -1214.349 7        42.400                                                                    26132701.473 7 102550375.64007      -906.828 7        45.618    26132699.614 7 105225577.32407      -930.503 7        43.230
R10        15.000    24282294.959 3                     -4722.121 3        18.687
E13        16.000    25776829.740 6 135458127.69706     -2853.969 6        39.550                                                                    25776835.791 4 101153861.42204     -2130.774 4        25.865    25776833.032 5 103792612.25105     -2186.535 5        33.760
E31        17.000    26101273.220 5 137163107.14805      -860.391 5        35.286                                                                    26101277.902 5 102426996.85805      -642.461 5        30.091    26101275.522 6 105099011.32206      -659.238 6        36.832
E26        19.000    23533546.687 7 123669607.74907      -839.028 7        44.105                                                                    23533543.471 7  92350755.16907      -626.607 7        42.573    23533542.830 7  94759838.02207      -642.863 7        44.888
S36        23.000    38379245.894 6 201684187.09306      -852.669 6        36.359
S23        24.000    38334025.104 6 201446615.11406      -851.148 6        40.358
R12        25.000    23899354.434 5 127666058.92905      1055.241 5        34.500                                                                    23899362.296 4  99295908.61904       821.148 4        27.449
R20        26.000    19671682.732 6 105193349.74006      -129.616 6        40.346                                                                    19671683.271 7  81817225.61707      -100.913 7        42.009
R05        27.000    20110372.798 8 107501717.40508      1515.469 8        48.861                                                                    20110370.439 7  83612261.38907      1178.641 7        44.691
E33        28.000    25523508.789 6 134126928.85006      1087.877 6        41.790                                                                    25523501.900 6 100159712.19306       812.304 6        37.633    25523502.010 6 102772653.75006       833.738 6        39.724
R21        30.000    22509564.030 7 120453471.60807      2499.240 7        42.279                                                                    22509567.537 6  93685864.53406      1943.774 6        39.237
R04        31.000    20476755.098 7 109652042.25307     -2664.074 7        44.388                                                                    20476750.659 5                     -2072.304 5        34.281
R03        32.000    24135323.220 4                     -5039.983 4        24.932
C05        33.000                                                                                                                                                                                                    39338265.077 5                      -619.512 5        31.502
C33        37.000                                                                                                                                    22989737.285 6 119713581.61606     -1921.996 6        39.733                                                                    22989752.572 6  97277121.99506     -1561.847 6        40.324
C30        38.000                                                                                                                                    25281921.094 5 131649633.80215      2081.408 5        35.881                                                                    25281892.875 5 106976032.35105      1691.362 5        35.224
C28        40.000                                                                                                                                    22217666.509 6 115693500.94506     -2327.927 6        38.664                                                                    22217668.215 6  94010226.43106     -1891.674 6        39.393
R11        41.000    22759785.144 6 121621638.97316     -2608.095 6        40.849                                                                    22759799.667 4                     -2028.448 4        26.910
I01        44.000   370465499.455 6 150645422.42106     -2362.073 6        39.907
C13        45.000                                                                                                                                    39884235.117 3                     -1839.436 3        22.629    39884263.607 4 160597375.20604     -1422.663 4        29.867    39884264.117 4                     -1494.794 4        28.929
C14        47.000                                                                                                                                                                                                    24497806.208 5  98642558.71705     -2546.436 5        34.876    24497799.547 6 103658208.19206     -2675.805 6        37.962
C41        49.000                                                                                                                                    22908696.639 7 119291655.19007      1189.659 7        47.352                                                                    22908699.078 5  96934246.84205       966.930 5        32.383
C27        52.000                                                                                                                                    21844732.675 6 113751259.93606       237.641 6        39.967                                                                    21844730.724 6  92432205.82406       193.300 6        37.372
C42        54.000                                                                                                                                    26761586.000 3                     -4031.845 3        20.810
C36        56.000                                                                                                                                    26484810.209 5 137913315.24405     -1925.443 5        33.713                                                                    26484797.194 5 112065920.79305     -1564.611 5        34.376
I06        58.000    38651000.120 5 151674996.01505      -535.410 5        30.762
> 2025 01 01 22 00 10.0000000  0 36
G14         1.000    24588049.511 6 129211093.75706       998.731 6        39.090                                    24588049.474 1 100683980.33901       778.239 1        10.074    24588048.070 4 100683995.33104       778.730 4        29.147
G10         2.000    21615739.537 8 113591452.82908     -2768.865 8        48.561                                    21615736.144 6  88512821.04206     -2157.556 6        39.108    21615738.915 6  88512832.01506     -2157.522 6        38.559
G32         3.000    22578259.000 5 118649687.75005      1005.237 5        34.629                                    22578256.490 3  92454200.13003       783.293 3        23.981    22578259.814 6  92454233.16706       783.311 6        37.992
G23         4.000                                                                                                                                                                    24504920.320 4                     -3341.621 4        25.669
E07         5.000    25730856.356 6 135216574.66606      1357.577 6        40.384                                                                    25730857.765 5 100973452.63705      1014.357 5        30.340    25730865.204 5 103607538.62005      1040.436 5        35.895
G08         6.000    20508662.797 8 107774282.39208     -1546.896 8        51.679                                    20508658.894 7  83979527.13607     -1205.374 7        45.710    20508659.180 6  83979555.13006     -1205.338 6        40.853
G27         7.000    21768113.835 5 114392128.28705     -3694.876 5        34.371                                    21768099.815 4  89136663.79404     -2879.113 4        24.165    21768098.593 5  89136731.72005     -2879.423 5        32.018
G21         8.000    21174635.330 7 111273549.28507       315.778 7        44.215                                    21174623.683 3  86706572.49503       246.063 3        22.095
G02         9.000    22689605.403 6 119234932.87006      1392.267 6        38.685                                    22689598.508 2  92910075.36502      1084.893 2        17.434
E08        12.000    26133860.442 7 137334354.11807     -1217.051 7        43.039                                                                    26133857.894 7 102554914.94507      -908.828 7        45.330    26133856.363 7 105230235.03807      -932.548 7        43.069
R10        15.000    24286724.892 3                     -4717.438 3        20.762
E13        16.000    25779545.844 6 135472398.04606     -2854.496 6        40.029                                                                    25779557.055 4 101164517.72604     -2130.470 4        24.707    25779547.220 5 103803546.68605     -2187.182 5        33.551
E31        17.000    26102092.974 6 137167415.11006      -863.095 6        36.193                                                                    26102093.325 5 102430213.86505      -644.727 5        30.121    26102097.107 6 105102312.20806      -661.344 6        37.255
E26        19.000    23534345.402 7 123673806.06807      -840.363 7        44.292                                                                    23534341.894 7  92353890.27407      -627.443 7        42.017    23534341.883 7  94763054.92207      -643.931 7        45.010
S36        23.000    38380061.491 6 201688450.64706      -852.829 6        36.208
S23        24.000    38334833.037 6 201450871.27906      -851.335 6        40.429
R12        25.000    23898370.869 5 127660792.27505      1051.354 5        33.737                                                                    23898376.593 4  99291812.25404       817.398 4        24.917
R20        26.000    19671804.836 6 105194004.34806      -132.184 6        40.703                                                                    19671805.952 6  81817734.75106      -102.927 6        41.156
R05        27.000    20108957.041 8 107494150.34808      1511.317 8        49.605                                                                    20108954.504 7  83606375.91007      1175.468 7        44.191
E33        28.000    25522474.057 6 134121490.86306      1087.181 6        41.661                                                                    25522467.344 6 100155651.35006       811.950 6        37.834    25522467.035 6 102768486.99606       833.069 6        39.255
R19        29.000                                                                                                                                    22132291.477 5                     -2944.088 5        31.517
R21        30.000    22507230.863 7 120440977.39507      2498.490 7        42.021                                                                    22507232.556 6  93676146.82406      1943.376 6        39.565
R04        31.000    20479247.374 7 109665373.34707     -2668.318 7        42.789                                                                    20479235.859 6  85295318.41916     -2075.324 6        36.026
R03        32.000    24140034.160 4                     -5041.414 4        27.940
C05        33.000                                                                                                                                                                                                    39339033.007 5                      -619.417 5        31.200
C33        37.000                                                                                                                                    22991582.275 6 119723198.92306     -1925.026 6        39.456                                                                    22991596.737 6  97284936.75906     -1563.960 6        41.042
C30        38.000                                                                                                                                    25279920.694 6 131639227.84006      2080.876 6        36.567                                                                    25279894.726 5 106967576.66505      1690.924 5        34.967
C28        40.000                                                                                                                                    22219903.730 6 115705145.14006     -2329.838 6        38.928                                                                    22219903.715 6  94019688.26706     -1892.879 6        37.406
R11        41.000    22762228.965 6                     -2612.037 6        38.880                                                                    22762255.241 4                     -2031.464 4        28.645
I01        44.000   370468509.608 6 150657234.15906     -2362.570 6        39.679
C13        45.000                                                                                                                                    39886000.723 3                     -1840.819 3        20.976    39886028.227 4 160604487.19304     -1422.564 4        29.687    39886029.267 4                     -1495.003 4        28.815
C14        47.000                                                                                                                                    24500977.354 5 127583033.78305     -3294.659 5        34.938    24500968.938 5  98655293.74205     -2547.901 5        33.689    24500962.650 6 103671590.67406     -2677.313 6        38.252
C41        49.000                                                                                                                                    22907555.436 7 119285713.38707      1187.113 7        47.126                                                                    22907556.024 5  96929418.64305       964.588 5        30.287
C27        52.000                                                                                                                                    21844509.188 6 113750076.34406       235.741 6        40.224                                                                    21844503.821 6  92431244.04106       191.726 6        37.463
C36        56.000                                                                                                                                    26486663.428 5 137922949.00405     -1927.943 5        30.370                                                                    26486647.436 5 112073748.98205     -1566.449 5        35.086
I06        58.000    38651682.685 5 151677674.35405      -535.610 5        30.317
> 2025 01 01 22 00 15.0000000  0 36
G14         1.000    24587100.320 6 129206105.52206       996.623 6        36.771                                    24587099.983 1 100680093.39401       776.535 1        10.296    24587098.078 5 100680108.42105       776.553 5        30.219
G10         2.000    21618374.051 8 113605301.02308     -2770.421 8        48.440                                    21618372.233 6  88523611.84406     -2158.768 6        39.174    21618374.514 6  88523622.81706     -2158.855 6        38.928
G32         3.000    22577305.869 6 118644667.44606      1002.961 6        38.300                                    22577301.289 4  92450288.20204       781.537 4        25.654    22577304.653 6  92450321.23206       781.388 6        39.156
G23         4.000                                                                                                                                                                    24508999.124 4                     -3341.083 4        24.331
E07         5.000    25729565.132 6 135209789.85206      1356.363 6        40.462                                                                    25729567.557 5 100968386.10505      1012.433 5        32.150    25729576.064 5 103602339.85205      1039.235 5        34.162
G08         6.000    20510135.891 8 107782023.91008     -1549.629 8        52.024                                    20510132.035 7  83985559.47607     -1207.501 7        45.884    20510132.916 6  83985587.48206     -1207.541 6        40.498
G27         7.000    21771625.121 6 114410608.36006     -3697.040 6        36.204                                    21771616.245 3  89151063.75103     -2880.813 3        23.543    21771615.045 5  89151131.71005     -2880.390 5        30.943
G21         8.000    21174335.291 7 111271973.35007       314.571 7        43.378                                    21174323.700 3  86705344.48803       245.121 3        21.833
G02         9.000    22688281.217 6 119227972.56306      1391.746 6        39.144                                    22688274.644 3  92904651.75403      1084.472 3        18.478
E08        12.000    26135019.481 7 137340445.03007     -1219.295 7        43.390                                                                    26135016.633 7 102559463.35707      -910.466 7        45.115    26135015.440 7 105234902.10207      -934.184 7        42.840
E13        16.000    25782261.989 6 135486670.84906     -2854.776 6        40.462                                                                    25782275.469 4 101175176.07604     -2131.485 4        24.286    25782261.497 5 103814482.95205     -2187.097 5        32.874
E31        17.000    26102915.610 6 137171735.20206      -864.992 6        36.628                                                                    26102914.599 5 102433439.93905      -645.954 5        30.498    26102920.146 6 105105622.41006      -663.014 6        37.837
E26        19.000    23535144.852 7 123678009.36707      -840.965 7        44.360                                                                    23535141.502 6  92357029.11906      -627.941 6        41.330    23535141.978 7  94766275.64007      -644.505 7        45.196
S36        23.000    38380869.375 5 201692714.35005      -852.553 5        35.824
S23        24.000    38335643.997 6 201455127.26606      -851.177 6        40.057
R12        25.000    23897387.149 5 127655543.86005      1048.083 5        33.737
R20        26.000    19671928.674 6 105194670.29006      -134.162 6        40.691                                                                    19671931.567 7  81818252.69807      -104.353 7        42.326
R05        27.000    20107544.247 8 107486602.83208      1507.767 8        49.205                                                                    20107542.695 7  83600505.63107      1172.751 7        43.968
E33        28.000    25521438.192 6 134116055.37106      1086.984 6        41.316                                                                    25521433.410 6 100151592.36406       811.837 6        38.168    25521432.893 6 102764322.12406       832.879 6        38.934
R19        29.000    22135836.006 4                     -3786.778 4        26.635
R21        30.000    22504897.116 6 120428485.22406      2498.322 6        41.504                                                                    22504897.320 6  93666430.69106      1943.129 6        39.643
R04        31.000    20481735.354 6 109678724.81806     -2672.195 6        40.927                                                                    20481728.309 5  85305702.97105     -2078.388 5        35.362
R03        32.000    24144746.637 5                     -5042.308 5        30.053
C05        33.000                                                                                                                                                                                                    39339801.433 5                      -619.463 5        31.351
C33        37.000                                                                                                                                    22993430.842 6 119732829.12206     -1927.072 6        40.787                                                                    22993442.521 6  97292762.15006     -1566.146 6        41.173
C30        38.000                                                                                                                                    25277919.499 6 131628823.54506      2080.958 6        37.709                                                                    25277896.841 5 106959122.36805      1690.526 5        34.614
C28        40.000                                                                                                                                    22222141.664 6 115716798.00406     -2331.336 6        39.423                                                                    22222140.555 5  94029157.25605     -1894.640 5        35.805
R11        41.000    22764672.792 6 121647759.08516     -2615.485 6        38.480                                                                    22764711.329 4                     -2034.589 4        24.692
I01        44.000   370471519.885 6 150669047.31006     -2362.678 6        39.817
C13        45.000                                                                                                                                    39887766.777 3                     -1840.816 3        21.190    39887792.725 4 160611598.52304     -1422.076 4        29.147    39887793.179 4                     -1494.635 4        29.431
C14        47.000                                                                                                                                    24504146.323 5 127599511.69505     -3296.114 5        35.743    24504131.497 5  98668035.50605     -2549.134 5        31.034    24504127.719 6 103684980.36306     -2678.592 6        39.009
C41        49.000                                                                                                                                    22906416.499 7 119279782.86607      1185.173 7        46.871                                                                    22906414.150 4  96924599.66804       962.885 4        29.109
C27        52.000                                                                                                                                    21844278.236 6 113748901.25906       234.438 6        40.343                                                                    21844278.883 6  92430289.24006       190.373 6        37.955
C42        54.000                                                                                                                                    26769333.118 3                     -4039.009 3        19.612
C36        56.000                                                                                                                                                                                                                                                                    26488499.371 5 112081586.31605     -1568.174 5        35.471
I06        58.000    38652365.393 5 151680352.47705      -535.314 5        30.725
> 2025 01 01 22 00 20.0000000  0 35
G14         1.000    24586151.263 5 129201130.39005       993.722 5        32.066                                    24586153.054 1 100676216.65601       774.282 1         8.857    24586151.112 5 100676231.68205       774.301 5        30.581
G10         2.000    21621011.109 8 113619158.77708     -2772.599 8        48.051                                    21621010.213 6  88534410.10006     -2160.465 6        39.147    21621011.950 6  88534421.04006     -2160.173 6        39.066
G32         3.000    22576352.268 6 118639659.82306      1000.225 6        40.992                                    22576348.726 4  92446386.15704       779.400 4        28.142    22576351.295 6  92446419.17806       779.421 6        39.778
G23         4.000                                                                                                                                                                    24513078.831 3                     -3341.480 3        23.676
E07         5.000    25728275.075 6 135203013.07306      1354.400 6        40.574                                                                    25728278.401 5 100963325.47505      1011.561 5        33.970    25728293.535 5 103597147.18505      1037.802 5        34.357
G08         6.000    20511611.943 8 107789780.43208     -1552.884 8        51.789                                    20511607.912 7  83991603.51407     -1210.037 7        46.068    20511609.062 6  83991631.50806     -1209.965 6        40.112
G27         7.000    21775139.672 6 114429098.39706     -3699.185 6        38.841                                    21775134.514 4  89165471.52304     -2882.476 4        24.361    21775134.506 5  89165539.44605     -2882.211 5        31.728
G21         8.000    21174035.929 6 111270405.03106       312.869 6        41.774                                    21174025.389 3  86704122.43303       243.791 3        21.357
G02         9.000    22686957.396 6 119221016.53106      1390.809 6        40.558                                    22686951.111 3  92899231.48203      1083.751 3        19.164
E08        12.000    26136180.639 7 137346548.14507     -1221.926 7        43.513                                                                    26136177.958 7 102564020.87807      -912.452 7        44.838    26136176.780 7 105239578.51707      -936.155 7        43.012
E13        16.000    25784978.675 6 135500946.12606     -2855.375 6        41.001                                                                    25784995.480 3 101185836.18103     -2132.234 3        23.619    25784976.824 5 103825421.16605     -2187.707 5        32.485
E31        17.000    26103740.204 6 137176067.52506      -867.861 6        36.979                                                                    26103739.135 5 102436675.10805      -647.833 5        31.698    26103746.187 6 105108941.95106      -664.845 6        38.444
E26        19.000    23535945.303 7 123682217.72107      -842.174 7        45.077                                                                    23535941.724 6  92360171.71706      -628.837 6        40.555    23535943.073 7  94769500.21807      -645.337 7        45.434
S36        23.000    38381677.786 6 201696978.04006      -852.809 6        36.189
S23        24.000    38336453.289 6 201459383.14806      -851.249 6        40.400
R12        25.000    23896406.534 5 127650313.72105      1044.139 5        34.524
R20        26.000    19672056.016 6 105195347.52606      -136.609 6        40.717                                                                    19672057.836 7  81818779.44207      -106.292 7        43.206
R05        27.000    20106135.046 8 107479074.83308      1503.636 8        48.491                                                                    20106133.882 7  83594650.53907      1169.480 7        43.869
E33        28.000    25520401.962 6 134110622.38906      1086.227 6        40.603                                                                    25520399.853 6 100147535.26906       811.194 6        38.495    25520399.034 6 102760159.19806       832.266 6        38.652
R19        29.000    22139381.122 4                     -3787.947 4        29.564                                                                    22139394.811 4                     -2946.146 4        29.896
R21        30.000    22502563.164 6 120415994.99306      2497.788 6        41.940                                                                    22502562.822 6  93656716.07806      1942.648 6        40.610
R04        31.000    20484229.550 7 109692096.82907     -2676.427 7        43.481                                                                    20484224.853 6  85316103.38106     -2081.672 6        36.125
R03        32.000    24149460.617 5                     -5043.323 5        30.060                                                                    24149425.836 3                     -3923.253 3        21.262
C05        33.000                                                                                                                                                                                                    39340573.105 5 158408174.71715      -619.032 5        31.260
C33        37.000                                                                                                                                    22995283.229 6 119742472.33806     -1929.964 6        41.623                                                                    22995293.455 6  97300598.05206     -1568.379 6        41.282
C30        38.000                                                                                                                                    25275920.485 6 131618420.93206      2080.228 6        38.243                                                                    25275898.594 5 106950669.37705      1690.277 5        34.505
C28        40.000                                                                                                                                    22224382.108 6 115728459.57106     -2333.068 6        39.219                                                                    22224379.324 5  94038633.22205     -1896.115 5        34.829
R11        41.000    22767122.539 5 121660846.92405     -2619.615 5        34.967                                                                    22767157.333 3                     -2033.746 3        20.167
I01        44.000   370474530.576 6 150680861.89906     -2362.949 6        39.709
C13        45.000                                                                                                                                                                                                    39889558.296 4 160618709.08404     -1421.804 4        29.886    39889558.433 4                     -1494.454 4        28.730
C14        47.000                                                                                                                                    24507312.538 5 127615998.41605     -3298.271 5        35.448    24507297.746 5  98680784.07505     -2550.576 5        30.174    24507294.258 6 103698377.14906     -2680.096 6        39.637
C41        49.000                                                                                                                                    22905279.673 7 119273863.67707      1182.678 7        46.843                                                                    22905274.907 4  96919789.82904       961.068 4        26.587
C27        52.000                                                                                                                                    21844050.414 6 113747734.78006       232.328 6        40.508                                                                    21844055.503 6  92429341.34406       188.728 6        38.021
C36        56.000                                                                                                                                                                                                                                                                    26490353.494 5 112089432.67805     -1570.253 5        35.181
I06        58.000    38653047.384 5 151683030.44205      -535.568 5        30.740
> 2025 01 01 22 00 25.0000000  0 35
G14         1.000    24585202.152 4 129196168.82604       990.769 4        24.526                                    24585208.741 1 100672350.53301       772.055 1         6.750    24585206.927 5 100672365.51905       772.456 5        31.208
G10         2.000    21623650.216 7 113633026.52807     -2774.386 7        47.250                                    21623650.089 6  88545216.13106     -2161.858 6        38.721    21623651.792 6  88545227.10306     -2161.776 6        38.883
G32         3.000    22575401.481 7 118634665.33907       997.808 7        42.197                                    22575398.900 5  92442494.35005       777.510 5        30.098    22575400.711 6  92442527.36806       777.535 6        39.958
G23         4.000                                                                                                                                                                    24517155.990 3                     -3342.638 3        22.781
E07         5.000    25726987.073 6 135196244.75606      1353.103 6        39.928                                                                    25726990.333 5 100958271.24705      1010.265 5        35.371    25727010.555 5 103591961.03105      1036.907 5        35.067
G08         6.000    20513090.742 8 107797552.37908     -1555.747 8        51.784                                    20513086.691 7  83997659.56507     -1212.272 7        45.902    20513088.512 6  83997687.56906     -1212.225 6        40.369
G27         7.000    21778659.661 6 114447598.80606     -3700.936 6        40.958                                    21778654.986 4  89179887.41004     -2883.835 4        25.835    21778654.817 5  89179955.35605     -2883.812 5        33.353
G21         8.000    21173739.575 6 111268844.77106       311.457 6        38.913                                    21173728.639 3  86702906.64603       242.697 3        20.690
G02         9.000    22685634.591 6 119214065.23906      1390.046 6        40.694                                    22685628.271 3  92893814.88703      1083.148 3        19.582
E08        12.000    26137343.985 7 137352663.93507     -1224.144 7        43.084                                                                    26137341.600 7 102568587.87107      -914.135 7        44.551    26137340.535 7 105244264.65007      -937.988 7        43.154
E13        16.000    25787695.344 6 135515224.29906     -2855.726 6        41.497                                                                    25787716.153 3 101196498.44403     -2132.791 3        23.238    25787693.373 5 103836361.56105     -2187.863 5        31.841
E31        17.000    26104567.232 6 137180412.44906      -869.997 6        36.336                                                                    26104567.051 5 102439919.70205      -649.282 5        33.323    26104575.253 6 105112271.18706      -666.766 6        39.018
E26        19.000    23536747.216 7 123686431.52107      -843.019 7        44.944                                                                    23536743.218 6  92363318.40606      -629.655 6        39.793    23536745.056 7  94772728.98007      -646.052 7        45.442
S36        23.000    38382492.619 5 201701242.13705      -852.643 5        35.995
S23        24.000    38337265.877 6 201463639.37106      -850.927 6        40.367
R12        25.000    23895434.808 5 127645102.26405      1040.625 5        35.229                                                                    23895478.972 4                       809.307 4        28.284
R20        26.000    19672185.627 6 105196036.39706      -138.719 6        40.715                                                                    19672186.519 7  81819315.24407      -107.942 7        44.302
R05        27.000    20104730.067 7 107471566.60107      1499.788 7        47.430                                                                    20104729.237 7  83588810.82607      1166.541 7        43.767
E33        28.000    25519368.423 6 134105192.37306      1085.966 6        39.586                                                                    25519366.945 6 100143480.37206       811.042 6        38.838    25519366.082 6 102755998.52906       832.097 6        38.517
R19        29.000    22142930.057 5                     -3789.362 5        31.940
R21        30.000    22500230.040 7 120403507.31807      2497.490 7        42.645                                                                    22500230.180 6  93647003.43506      1942.519 6        41.414
R04        31.000    20486732.699 7 109705489.52907     -2680.397 7        44.769                                                                    20486726.592 6  85326519.88706     -2084.679 6        37.664
R03        32.000    24154175.313 5                     -5044.700 5        30.211                                                                    24154140.004 3                     -3924.626 3        21.167
C05        33.000                                                                                                                                                                                                    39341343.038 5 158411272.29305      -619.861 5        30.921
C33        37.000                                                                                                                                    22997137.934 7 119752128.98307     -1932.446 7        42.322                                                                    22997147.649 6  97308444.87606     -1570.457 6        40.794
C30        38.000                                                                                                                                    25273922.401 6 131608020.42706      2080.016 6        38.021                                                                    25273900.766 5 106942218.15105      1690.008 5        33.874
C28        40.000                                                                                                                                    22226623.772 6 115740130.29506     -2334.989 6        39.012                                                                    22226619.938 5  94048116.61905     -1897.531 5        34.038
R11        41.000    22769575.083 5 121673953.67805     -2623.174 5        33.742                                                                    22769610.989 4                     -2039.817 4        26.024
I01        44.000   370477541.840 6 150692678.24606     -2363.186 6        39.718
C13        45.000                                                                                                                                                                                                    39891324.614 4 160625819.33204     -1422.128 4        29.621    39891326.168 4                     -1494.290 4        29.678
C14        47.000                                                                                                                                    24510479.571 5 127632494.30705     -3299.954 5        34.381                                                                    24510462.575 6 103711781.39206     -2681.414 6        40.126
C41        49.000                                                                                                                                    22904145.183 7 119267956.24807      1180.473 7        46.772                                                                    22904141.906 4  96914989.63204       958.819 4        27.281
C27        52.000                                                                                                                                    21843830.110 6 113746577.24606       230.919 6        40.810                                                                    21843833.466 6  92428400.76206       187.324 6        38.039
C36        56.000                                                                                                                                                                                                                                                                    26492209.706 5 112097288.50105     -1572.214 5        34.814
I06        58.000    38653729.526 5 151685708.47405      -535.566 5        30.558
> 2025 01 01 22 00 30.0000000  0 35
G14         1.000                                                                                                                                                                    24584265.280 4 100668509.58204       770.247 4        29.820
G10         2.000    21626290.763 7 113646903.65807     -2776.179 7        46.881                                    21626291.472 6  88556029.47206     -2163.257 6        38.147    21626294.131 6  88556040.46806     -2163.485 6        37.913
G32         3.000    22574453.698 7 118629683.41507       995.292 7        42.751                                    22574451.412 5  92438612.33305       775.557 5        31.487    22574452.298 6  92438645.34306       775.580 6        40.405
G23         4.000                                                                                                                                                                    24521238.004 3                     -3341.744 3        22.990
E07         5.000    25725701.014 6 135189484.31906      1351.622 6        39.174                                                                    25725703.664 6 100953222.86106      1009.323 6        36.798    25725722.773 6 103586780.92306      1035.580 6        36.091
G08         6.000    20514572.469 8 107805339.17408     -1558.634 8        51.507                                    20514568.296 7  84003727.18707     -1214.517 7        45.753    20514569.876 6  84003755.19206     -1214.490 6        41.266
G27         7.000    21782182.114 7 114466109.02807     -3702.679 7        42.421                                    21782177.485 4  89194310.94604     -2885.193 4        27.533    21782177.544 5  89194378.91805     -2885.605 5        34.614
G21         8.000    21173444.661 6 111267291.94106       310.120 6        37.486                                    21173433.404 3  86701696.65403       241.653 3        20.238
G02         9.000    22684312.072 6 119207118.07406      1389.307 6        40.625                                    22684305.806 3  92888401.51403      1082.590 3        19.254
E08        12.000    26138509.838 7 137358791.80607     -1226.401 7        42.991                                                                    26138507.592 7 102573163.87607      -915.806 7        44.280    26138506.574 7 105248960.01307      -939.767 7        43.276
R10        15.000    24304512.627 4                     -4720.051 4        27.784
E13        16.000    25790412.668 7 135529504.76407     -2856.052 7        42.354                                                                                                                                    25790411.511 5 103847303.73205     -2188.220 5        31.592
E31        17.000    26105397.119 5 137184769.40405      -872.185 5        34.767                                                                    26105397.312 5 102443173.35405      -651.871 5        34.038    26105406.522 6 105115609.63606      -668.391 6        38.883
E26        19.000    23537550.165 7 123690650.19907      -843.908 7        44.575                                                                    23537545.788 6  92366468.72306      -630.363 6        38.958    23537547.923 7  94775961.46907      -646.644 7        45.466
S36        23.000    38383307.067 6 201705505.30106      -852.424 6        36.250
S23        24.000    38338075.326 6 201467895.33106      -851.029 6        40.348
R20        26.000    19672316.349 6 105196736.41006      -140.953 6        40.112                                                                    19672317.971 7  81819859.70907      -109.600 7        45.484
R05        27.000    20103327.631 7 107464078.02407      1496.051 7        46.148                                                                    20103328.472 7  83582986.40107      1163.553 7        43.934
E33        28.000    25518336.650 6 134099764.68706      1085.549 6        38.592                                                                    25518334.098 6 100139427.23106       810.518 6        39.084    25518333.389 6 102751839.67106       831.727 6        38.640
R19        29.000    22146477.444 5                     -3790.567 5        31.185                                                                    22146495.421 3                     -2948.841 3        22.152
R21        30.000    22497896.102 7 120391021.57807      2497.279 7        42.451                                                                    22497898.483 7  93637292.32107      1942.218 7        42.580
R04        31.000    20489238.788 7 109718902.33507     -2684.175 7        44.464                                                                    20489232.581 6  85336952.09906     -2087.906 6        38.529
R03        32.000    24158883.636 4                     -5045.941 4        29.374
C05        33.000                                                                                                                                                                                                    39342111.562 5 158414369.64405      -619.502 5        31.532
C33        37.000                                                                                                                                    22998995.572 7 119761798.47607     -1934.979 7        43.422                                                                    22999003.729 6  97316302.14606     -1572.473 6        40.462
C30        38.000                                                                                                                                    25271926.213 6 131597621.47006      2079.697 6        36.049                                                                    25271902.939 5 106933768.17405      1689.578 5        33.024
C28        40.000                                                                                                                                    22228868.045 6 115751809.53406     -2336.469 6        39.649                                                                    22228863.279 5  94057606.94605     -1898.397 5        34.205
R11        41.000    22772032.528 6 121687078.98506     -2626.746 6        37.195                                                                    22772074.352 4                     -2042.997 4        28.455
I01        44.000   370480553.335 6 150704495.86506     -2363.387 6        39.658
C13        45.000                                                                                                                                    39893068.995 3                     -1835.418 3        18.806    39893091.088 4 160632928.74304     -1421.509 4        29.981    39893093.894 4                     -1493.886 4        29.137
C14        47.000                                                                                                                                    24513651.947 5 127648998.86805     -3301.690 5        31.042                                                                    24513632.651 6 103725192.66706     -2682.889 6        40.827
C41        49.000                                                                                                                                    22903013.039 7 119262060.00707      1178.382 7        46.650
C27        52.000                                                                                                                                    21843611.044 6 113745428.14906       229.187 6        40.953                                                                    21843613.017 6  92427467.02206       186.190 6        38.057
C36        56.000                                                                                                                                    26494109.304 4                     -1936.639 4        28.929                                                                    26494067.974 5 112105153.24905     -1573.629 5        34.414
I06        58.000    38654412.409 5 151688386.26605      -535.676 5        30.709
> 2025 01 01 22 00 35.0000000  0 35
G14         1.000    24583330.179 4 129186284.87904       985.502 4        29.962                                    24583327.431 1 100664648.71801       767.931 1         4.714    24583328.657 4 100664663.84104       768.422 4        27.964
G10         2.000    21628934.026 7 113660790.28907     -2778.478 7        46.837                                    21628934.299 6  88566850.21806     -2165.046 6        37.127    21628935.766 5  88566861.17605     -2165.060 5        35.629
G32         3.000    22573508.092 7 118624714.18307       992.383 7        43.151                                    22573506.241 5  92434740.21205       773.286 5        32.557    22573506.746 6  92434773.21306       773.296 6        40.451
G23         4.000                                                                                                                                                                    24525323.131 3                     -3342.696 3        21.071
E07         5.000    25724415.855 6 135182731.91006      1349.461 6        37.947                                                                    25724418.313 6 100948180.48406      1007.619 6        37.924    25724436.896 6 103581606.99106      1033.692 6        36.556
G08         6.000    20516056.892 8 107813140.94108     -1562.088 8        50.826                                    20516052.839 7  84009806.47907     -1217.208 7        45.604    20516054.507 6  84009834.48106     -1217.227 6        41.633
G27         7.000    21785705.727 7 114484629.20307     -3705.285 7        42.347                                    21785701.856 4  89208742.23704     -2887.222 4        28.474    21785701.220 5  89208810.19905     -2887.140 5        35.971
G21         8.000    21173150.983 6 111265746.68606       307.948 6        36.964                                    21173140.079 3  86700492.56503       239.952 3        19.851
G02         9.000    22682991.349 6 119200175.19106      1387.913 6        39.829                                    22682984.401 3  92882991.48003      1081.494 3        18.507
E08        12.000    26139678.246 7 137364931.84607     -1229.481 7        42.622                                                                    26139676.129 7 102577748.98207      -918.123 7        44.066    26139675.137 7 105253664.73807      -942.059 7        43.329
R10        15.000    24308938.343 4                     -4721.105 4        27.269
E13        16.000    25793130.651 7 135543787.67107     -2856.994 7        42.627                                                                    25793167.470 4 101217828.24904     -2133.210 4        25.805    25793130.275 5 103858247.80505     -2189.384 5        31.924
E31        17.000    26106229.292 5 137189138.52705      -875.204 5        33.629                                                                    26106229.644 5 102446436.00105      -653.482 5        35.324    26106238.892 6 105118957.42906      -670.803 6        37.750
E26        19.000    23538353.726 7 123694873.88907      -845.464 7        44.012                                                                    23538349.424 6  92369622.77606      -631.394 6        38.694    23538351.743 7  94779197.80607      -647.805 7        45.329
S36        23.000    38384116.529 6 201709767.88606      -852.771 6        36.129
S23        24.000    38338882.959 6 201472151.14606      -851.307 6        40.262
R12        25.000    23893512.407 5 127634733.48615      1033.026 5        34.729
R20        26.000    19672448.662 6 105197447.65906      -143.628 6        39.805                                                                    19672450.459 7  81820412.90107      -111.720 7        46.075
R05        27.000    20101930.040 7 107456608.74507      1491.678 7        45.458                                                                    20101930.102 7  83577176.98407      1160.174 7        43.329
E33        28.000    25517304.192 6 134094339.51306      1084.541 6        38.327                                                                    25517301.630 6 100135375.94906       809.910 6        39.330    25517301.354 6 102747682.73306       831.127 6        38.652
R19        29.000    22150020.297 4                     -3792.838 4        28.095
R21        30.000    22495564.207 7 120378537.86607      2496.355 7        42.646                                                                    22495568.760 7  93627582.75207      1941.595 7        42.900
R04        31.000    20491747.654 7 109732335.50907     -2688.844 7        44.316                                                                    20491740.011 6  85347400.12606     -2091.323 6        38.832
C05        33.000                                                                                                                                                                                                    39342879.850 5 158417466.89505      -618.857 5        31.426
C33        37.000                                                                                                                                    23000855.929 7 119771480.92907     -1938.074 7        44.664                                                                    23000862.376 6  97324169.92406     -1574.753 6        40.098
C30        38.000                                                                                                                                    25269930.916 5 131587224.20905      2078.857 5        34.890                                                                    25269905.717 5 106925319.49305      1689.404 5        31.804
C28        40.000                                                                                                                                    22231114.178 6 115763497.44506     -2338.802 6        40.341                                                                    22231108.978 5  94067104.34205     -1900.433 5        34.286
R11        41.000    22774490.185 6 121700222.65016     -2630.830 6        36.325                                                                    22774530.900 4                     -2046.221 4        24.947
I01        44.000   370483564.738 6 150716314.90406     -2364.198 6        39.051
C13        45.000                                                                                                                                                                                                    39894857.724 5 160640037.44705     -1421.879 5        30.279    39894860.512 4                     -1494.149 4        29.545
C14        47.000                                                                                                                                    24516830.778 4 127665512.24404     -3304.210 4        27.677                                                                    24516804.260 6 103738611.02806     -2684.541 6        41.490
C41        49.000                                                                                                                                    22901883.461 7 119256175.09407      1175.658 7        46.803                                                                    22901912.216 6  96905416.76306       955.368 6        36.113
C27        52.000                                                                                                                                    21843392.618 6 113744287.57906       227.033 6        41.054                                                                    21843393.962 6  92426540.19906       184.692 6        37.595
C36        56.000                                                                                                                                    26495967.286 4                     -1939.244 4        29.953                                                                    26495928.558 5 112113027.06705     -1575.913 5        33.934
I06        58.000    38655094.403 5 151691063.79005      -535.443 5        30.589
> 2025 01 01 22 00 40.0000000  0 36
G14         1.000    24582391.241 5 129181363.53505       983.120 5        30.226                                    24582390.778 1 100660813.91601       765.999 1         4.571
G10         2.000    21631578.662 7 113674687.26707     -2780.099 7        46.693                                    21631578.607 6  88577679.02506     -2166.308 6        36.083    21631575.588 5  88577689.95905     -2166.180 5        32.000
G32         3.000    22572565.309 7 118619758.52207       990.054 7        43.393                                    22572563.506 5  92430878.66805       771.471 5        33.060    22572563.157 6  92430911.67606       771.498 6        39.685
G23         4.000                                                                                                                                                                    24529405.485 3                     -3343.293 3        20.595
E07         5.000    25723131.709 6 135175988.39406      1348.262 6        36.824                                                                    25723135.166 6 100943144.74406      1006.731 6        38.988    25723153.529 6 103576439.85006      1032.871 6        36.733
G08         6.000    20517544.398 8 107820958.52808     -1564.828 8        50.178                                    20517540.463 7  84015898.09907     -1219.343 7        45.654    20517541.943 6  84015926.11506     -1219.353 6        41.650
G27         7.000    21789231.041 6 114503160.18506     -3706.984 6        41.595                                    21789228.080 4  89223181.93704     -2888.558 4        28.938    21789227.273 6  89223249.93206     -2888.669 6        36.053
G21         8.000    21172858.348 6 111264209.84606       306.884 6        38.216                                    21172848.391 3  86699295.04303       239.132 3        19.582
G02         9.000    22681671.151 6 119193237.47606      1387.346 6        36.147                                    22681664.159 3  92877585.45103      1081.047 3        18.119
E08        12.000    26140849.488 7 137371084.93907     -1231.622 7        42.504                                                                    26140847.185 7 102582343.82407      -919.726 7        43.881    26140846.275 7 105258379.45207      -943.714 7        43.318
E13        16.000    25795849.314 7 135558073.88707     -2857.330 7        42.990                                                                    25795886.257 4 101228496.44604     -2133.032 4        25.444    25795849.354 5 103869194.40005     -2189.580 5        32.485
E31        17.000    26107060.862 5 137193520.68105      -877.596 5        32.126                                                                    26107064.306 6 102449708.41706      -655.260 6        36.102    26107072.234 6 105122315.17306      -672.398 6        36.038
E26        19.000    23539158.519 7 123699103.42207      -846.170 7        43.621                                                                    23539154.243 6  92372781.19906      -631.874 6        38.306    23539156.562 7  94782438.62107      -648.370 7        45.079
S36        23.000    38384926.724 6 201714031.01406      -852.468 6        36.325
S23        24.000    38339693.794 6 201476407.66006      -851.074 6        40.269
R12        25.000    23892555.726 5 127629577.33705      1029.382 5        34.319
R20        26.000    19672584.571 6 105198171.02706      -145.634 6        40.129                                                                    19672585.148 7  81820975.52607      -113.225 7        45.842
R05        27.000    20100536.824 7 107449160.12007      1487.960 7        44.859                                                                    20100536.838 7  83571383.58707      1157.330 7        43.346
E33        28.000    25516272.661 6 134088917.70206      1084.250 6        38.435                                                                    25516270.153 6 100131327.17706       809.704 6        39.483    25516269.746 6 102743528.35906       830.709 6        39.054
R19        29.000    22153559.873 4                     -3792.985 4        24.902
R21        30.000    22493233.739 7 120366057.07407      2496.135 7        44.190                                                                    22493236.845 7  93617875.44507      1941.384 7        42.118
R04        31.000    20494260.553 7 109745789.86107     -2692.640 7        43.875                                                                    20494254.237 6  85357864.63806     -2094.312 6        39.351
R03        32.000    24168285.120 4                     -5048.419 4        26.048
C05        33.000                                                                                                                                                                                                    39343650.283 5 158420564.79905      -619.309 5        31.094
C33        37.000                                                                                                                                    23002718.484 7 119781177.19407     -1940.384 7        44.864                                                                    23002724.407 6  97332048.95606     -1576.735 6        39.643
C30        38.000                                                                                                                                    25267937.100 5 131576829.41705      2079.108 5        32.539                                                                    25267908.382 5 106916872.89205      1689.278 5        31.517
C28        40.000                                                                                                                                    22233360.327 6 115775194.88706     -2340.106 6        40.713                                                                    22233356.508 5  94076609.46405     -1901.552 5        35.086
R11        41.000    22776950.442 6 121713385.78216     -2634.372 6        36.276
I01        44.000   370486576.896 6 150728135.98106     -2364.248 6        39.189
C13        45.000                                                                                                                                                                                                    39896624.818 4 160647146.10604     -1421.369 4        29.270    39896625.788 4                     -1494.094 4        29.412
C14        47.000                                                                                                                                    24520007.269 4 127682035.14904     -3304.907 4        26.910                                                                    24519977.846 7 103752037.16007     -2685.741 7        42.034
C41        49.000                                                                                                                                    22900756.118 7 119250302.36307      1173.579 7        46.275                                                                    22900773.490 6  96900644.64706       953.556 6        38.814
C27        52.000                                                                                                                                    21843175.455 6 113743156.40406       225.707 6        41.607                                                                    21843176.419 6  92425621.06306       183.236 6        37.059
C42        54.000                                                                                                                                    26788699.867 3                     -4036.055 3        20.262
C36        56.000                                                                                                                                    26497823.255 4                     -1941.242 4        28.863                                                                    26497792.279 5 112120910.61605     -1577.516 5        32.431
I06        58.000    38655777.507 5 151693741.78905      -535.604 5        30.528
> 2025 01 01 22 00 45.0000000  0 35
G14         1.000    24581457.928 5 129176455.00105       980.425 5        30.657                                    24581456.585 1 100656989.06801       763.940 1         4.143
G10         2.000    21634224.814 7 113688593.39907     -2782.292 7        47.077                                    21634223.983 5  88588514.95805     -2168.016 5        34.510    21634220.688 4  88588525.87604     -2167.653 4        28.133
G32         3.000    22571625.277 7 118614815.24207       987.265 7        43.378                                    22571622.842 5  92427026.77005       769.296 5        32.826    22571621.513 6  92427059.79906       769.397 6        38.526
G23         4.000    24533468.649 3                     -4289.381 3        22.019                                                                                                    24533487.759 3                     -3344.585 3        21.262
E07         5.000    25721849.763 5 135169252.61105      1346.185 5        35.733                                                                    25721853.365 6 100938114.75606      1005.433 6        40.274    25721870.664 6 103571278.62906      1031.569 6        36.355
G08         6.000    20519034.880 8 107828790.76208     -1567.986 8        50.257                                    20519030.944 7  84022001.13307     -1221.807 7        45.622    20519032.614 6  84022029.15306     -1221.817 6        41.990
G27         7.000    21792757.596 6 114521700.80506     -3709.194 6        39.892                                    21792755.908 4  89237629.13804     -2890.279 4        28.938    21792755.617 5  89237697.13505     -2890.314 5        35.729
G21         8.000    21172566.540 6 111262680.26306       304.974 6        38.087                                    21172558.053 3  86698103.15103       237.638 3        19.612
G02         9.000    22680349.186 5 119186303.67505      1386.089 5        33.006                                    22680344.923 2  92872182.49902      1080.089 2        17.094
E08        12.000    26142022.821 7 137377249.89207     -1234.302 7        42.482                                                                    26142020.282 7 102586947.52007      -921.666 7        43.579    26142019.550 7 105263103.23907      -945.798 7        43.291
E13        16.000    25798568.121 7 135572362.21307     -2858.009 7        43.367                                                                    25798605.238 4 101239166.40704     -2134.314 4        27.341    25798568.781 5 103880142.56805     -2189.933 5        33.485
E31        17.000    26107893.350 4 137197914.68004      -879.844 4        29.564                                                                    26107901.109 6 102452989.67006      -657.246 6        36.488
E26        19.000    23539964.401 7 123703337.64107      -847.429 7        43.640                                                                    23539960.054 6  92375943.12806      -632.900 6        37.992    23539962.302 7  94785683.02407      -649.262 7        44.959
S36        23.000    38385737.156 6 201718293.86106      -852.696 6        36.926
S23        24.000    38340499.258 6 201480663.68106      -851.181 6        40.410
R12        25.000    23891586.591 5 127624439.02515      1025.734 5        35.667                                                                    23891545.510 4                       797.975 4        27.593
R20        26.000    19672721.695 6 105198905.46806      -148.221 6        40.141                                                                    19672721.916 7  81821546.75507      -115.218 7        45.372
R05        27.000    20099147.210 7 107441730.59807      1483.889 7        44.715                                                                    20099148.388 7  83565605.09507      1154.082 7        44.615
E33        28.000    25515240.998 6 134083498.01806      1083.575 6        39.252                                                                    25515239.157 6 100127280.02106       809.135 6        39.994    25515238.708 6 102739375.63306       830.320 6        39.631
R19        29.000    22157098.366 4                     -3794.119 4        24.030                                                                    22157078.227 4                     -2951.154 4        24.827
R21        30.000    22490901.758 7 120353578.02107      2495.614 7        45.065                                                                    22490902.267 6  93608169.51306      1940.898 6        41.328
R04        31.000    20496777.803 6 109759264.15506     -2697.127 6        41.950                                                                    20496770.769 6  85368344.65206     -2097.614 6        38.393
R03        32.000    24173003.102 4                     -5049.174 4        25.053
C05        33.000                                                                                                                                                                                                    39344418.875 5 158423662.33505      -619.879 5        31.268
C33        37.000                                                                                                                                    23004582.115 7 119790886.09007     -1943.128 7        44.609                                                                    23004588.909 6  97339938.22406     -1578.881 6        40.102
C30        38.000                                                                                                                                    25265948.728 5 131566435.93605      2078.392 5        32.174                                                                    25265911.840 5 106908427.37905      1689.011 5        30.053
C28        40.000                                                                                                                                    22235608.094 6 115786900.66206     -2341.966 6        41.144                                                                    22235605.555 6  94086121.35306     -1902.933 6        36.405
R11        41.000    22779417.863 5 121726566.94715     -2638.304 5        33.629
I01        44.000   370489589.282 6 150739958.20806     -2364.679 6        39.186
C13        45.000                                                                                                                                                                                                    39898390.023 4 160654253.68804     -1420.979 4        29.450    39898389.418 4                     -1493.656 4        27.964
C14        47.000                                                                                                                                    24523176.387 4 127698566.47804     -3306.937 4        28.720    24523295.106 3                     -2557.639 3        21.976    24523152.932 7 103765470.10707     -2687.304 7        42.404
C41        49.000                                                                                                                                    22899629.809 7 119244440.65507      1171.146 7        45.186                                                                    22899643.223 6  96895881.45706       951.727 6        39.492
C27        52.000                                                                                                                                    21842961.376 7 113742033.48407       223.720 7        43.202                                                                    21842960.184 5  92424708.56805       181.717 5        35.776
C36        56.000                                                                                                                                                                                                                                                                    26499656.957 5 112128802.98305     -1579.320 5        32.096
I06        58.000    38656459.129 5 151696419.36405      -535.261 5        30.649
> 2025 01 01 22 00 50.0000000  0 34
G14         1.000    24580528.024 5 129171559.83205       977.301 5        30.091                                    24580524.860 1 100653174.56501       761.613 1         4.714
G10         2.000    21636873.042 7 113702509.14107     -2783.970 7        47.867                                    21636870.683 5  88599358.37805     -2169.320 5        33.078    21636869.060 4  88599369.34904     -2169.258 4        25.158
G32         3.000    22570689.031 7 118609884.82107       984.941 7        42.965                                    22570684.432 5  92423184.89905       767.490 5        32.108    22570682.996 6  92423217.91906       767.344 6        38.036
G23         4.000                                                                                                                                                                    24537573.280 3                     -3345.196 3        18.955
E07         5.000    25720569.512 5 135162524.99005      1344.850 5        34.576                                                                    25720572.902 6 100933090.88806      1004.350 6        41.023    25720588.188 5 103566123.65405      1030.324 5        35.857
G08         6.000    20520528.330 8 107836638.08908     -1570.780 8        50.422                                    20520524.332 7  84028115.93407     -1223.983 7        45.567    20520525.605 7  84028143.95707     -1223.942 7        42.275
G27         7.000    21796287.521 6 114540251.44106     -3710.932 6        38.595                                    21796285.373 4  89252084.16004     -2891.640 4        28.360    21796283.755 5  89252152.17105     -2891.569 5        34.795
G21         8.000    21172276.068 6 111261158.39306       303.728 6        39.384                                    21172269.007 3  86696917.28403       236.652 3        19.433
G02         9.000    22679033.492 5 119179374.33405      1385.505 5        34.252                                    22679026.233 2  92866782.99602      1079.629 2        16.226
E08        12.000    26143198.414 7 137383427.17207     -1236.574 7        43.092                                                                    26143195.767 7 102591560.42007      -923.366 7        43.640    26143195.243 7 105267836.47707      -947.480 7        43.723
E13        16.000    25801287.210 7 135586653.09707     -2858.204 7        43.668                                                                    25801322.958 4 101249838.24504     -2134.756 4        27.425    25801288.885 5 103891092.71205     -2189.986 5        34.395
E31        17.000    26108730.742 4 137202320.97604      -882.098 4        29.270                                                                    26108740.044 6 102456280.09806      -658.817 6        36.798    26108730.525 5 105129058.23805      -676.231 5        33.754
E26        19.000    23540771.053 7 123707576.98907      -848.171 7        43.951                                                                    23540766.787 6  92379108.88006      -633.499 6        38.060    23540769.154 7  94788931.37207      -650.020 7        45.062
S36        23.000    38386546.413 6 201722556.95806      -852.559 6        36.522
S23        24.000    38341312.812 6 201484919.60706      -850.978 6        40.532
R12        25.000    23890616.039 5 127619319.09205      1022.341 5        35.524
R20        26.000    19672860.234 6 105199651.35706      -150.059 6        39.799                                                                    19672861.138 7  81822126.91207      -116.892 7        45.391
R05        27.000    20097761.559 7 107434320.84407      1480.206 7        44.971                                                                    20097762.997 7  83559841.96307      1151.252 7        45.278
E33        28.000    25514210.278 6 134078080.96806      1083.355 6        39.778                                                                    25514208.705 6 100123234.81406       809.000 6        40.484    25514207.724 6 102735224.91906       830.096 6        39.889
R21        30.000    22488569.682 7 120341101.12707      2495.298 7        46.405                                                                    22488565.808 6  93598465.22006      1940.775 6        40.026
R04        31.000    20499294.340 6 109772758.72706     -2700.862 6        39.901                                                                    20499290.659 6  85378840.45706     -2100.528 6        37.720
R03        32.000    24177715.284 4                     -5050.701 4        24.481
C05        33.000                                                                                                                                                                                                    39345187.569 5                      -619.230 5        31.449
C33        37.000                                                                                                                                    23006449.221 7 119800608.06907     -1945.546 7        43.573                                                                    23006456.125 6  97347838.13906     -1580.915 6        40.536
C30        38.000                                                                                                                                    25263960.278 5 131556044.19805      2078.614 5        30.121                                                                    25263915.722 4 106899983.44004      1688.495 4        29.185
C28        40.000                                                                                                                                    22237856.726 6 115798615.26506     -2343.661 6        40.687                                                                    22237855.463 6  94095640.42206     -1904.298 6        37.422
R11        41.000    22781886.458 6 121739766.75906     -2641.563 6        36.836
I01        44.000   370492602.546 6 150751781.92406     -2364.816 6        38.745
C13        45.000                                                                                                                                                                                                    39900156.247 4 160661360.78804     -1421.750 4        29.327    39900151.814 4                     -1493.454 4        27.856
C14        47.000                                                                                                                                                                                                    24526473.159 3                     -2558.815 3        21.119    24526329.524 7 103778910.22107     -2688.507 7        42.356
C41        49.000                                                                                                                                    22898506.493 7 119238590.41107      1168.993 7        44.658                                                                    22898519.858 6  96891127.64606       949.954 6        39.456
C27        52.000                                                                                                                                    21842748.785 7 113740919.26007       222.123 7        43.746                                                                    21842745.120 5  92423803.18405       180.589 5        34.681
C36        56.000                                                                                                                                    26501513.537 5                     -1945.856 5        33.808                                                                    26501525.907 5 112136704.44605     -1580.822 5        31.389
I06        58.000    38657142.048 5 151699096.80905      -535.270 5        30.830
> 2025 01 01 22 00 55.0000000  0 36
G14         1.000    24579598.831 5 129166677.42905       975.022 5        31.404                                    24579595.737 1 100649370.02201       759.807 1         4.571    24579589.204 4                       759.127 4        24.421
G10         2.000    21639522.772 8 113716434.09408     -2785.851 8        48.423                                    21639518.836 5  88610208.98205     -2170.793 5        31.841    21639519.645 4  88610219.93604     -2170.928 4        29.450
G32         3.000    22569753.581 7 118604966.86707       982.409 7        42.057                                    22569748.164 5  92419352.73905       765.508 5        30.943    22569748.015 6  92419385.75106       765.492 6        37.297
G23         4.000    24541648.351 3                     -4291.445 3        22.400                                                                                                    24541654.892 3                     -3345.682 3        20.452
E07         5.000    25719290.923 5 135155805.20205      1343.117 5        32.515                                                                    25719293.848 6 100928072.82506      1003.098 6        41.616    25719302.836 6 103560974.58506      1029.327 6        36.064
G08         6.000    20522024.593 8 107844500.12308     -1573.850 8        50.722                                    20522020.532 7  84034242.19407     -1226.378 7        45.690    20522022.006 7  84034270.22107     -1226.348 7        42.597
G27         7.000    21799820.254 6 114558811.73606     -3712.770 6        36.938                                    21799816.681 4  89266546.72504     -2893.068 4        28.284    21799815.859 5  89266614.73905     -2893.222 5        34.495
G21         8.000    21171989.209 6 111259643.83806       302.240 6        40.019                                    21171981.365 3  86695737.11503       235.508 3        19.373
G02         9.000    22677715.803 5 119172448.96105      1384.982 5        34.248                                    22677708.365 2  92861386.57002      1079.187 2        15.524
E08        12.000    26144376.058 7 137389616.38107     -1239.161 7        43.945                                                                    26144373.554 7 102596182.22207      -925.185 7        43.372    26144373.149 7 105272578.85007      -949.365 7        43.617
R10        15.000    24326557.681 3                     -4721.888 3        22.076
E13        16.000    25804006.570 7 135600946.17507     -2858.765 7        43.581                                                                    25804042.946 4 101260511.57404     -2134.730 4        26.180    25804008.894 5 103902044.55505     -2190.670 5        35.462
E31        17.000    26109574.072 5 137206739.22205      -884.422 5        30.800                                                                    26109580.857 6 102459579.41306      -660.614 6        36.824    26109573.004 5 105132443.65505      -677.962 5        32.317
E26        19.000    23541578.442 7 123711821.09807      -849.169 7        44.134                                                                    23541574.582 6  92382278.19006      -634.390 6        37.849    23541576.850 7  94792183.35007      -650.763 7        44.883
S36        23.000    38387355.329 6 201726819.56006      -852.284 6        36.510
S23        24.000    38342122.640 6 201489175.10406      -851.015 6        40.605
R12        25.000    23889651.447 6 127614217.37016      1018.567 6        36.601
R20        26.000    19673001.518 6 105200408.23106      -152.603 6        39.270                                                                    19673002.546 7  81822715.57607      -118.446 7        45.111
R05        27.000    20096379.512 7 107426930.32507      1476.243 7        44.150                                                                    20096379.534 7  83554093.78107      1148.171 7        44.838
E33        28.000    25513180.166 6 134072666.18606      1082.747 6        39.940                                                                    25513178.390 6 100119191.29306       808.709 6        40.660    25513177.326 6 102731075.92206       829.663 6        40.157
R19        29.000    22164208.653 3                     -3802.540 3        20.619
R21        30.000    22486237.237 7 120328626.00207      2494.844 7        46.170                                                                    22486233.799 6  93588762.35006      1940.354 6        38.306
R04        31.000    20501818.094 7 109786273.41507     -2704.919 7        42.688                                                                    20501814.784 6  85389351.84306     -2103.924 6        37.130
R03        32.000    24182437.211 4                     -5051.368 4        25.338                                                                    24182449.431 3                     -3934.730 3        19.164
C05        33.000                                                                                                                                                                                                    39345956.997 5                      -619.398 5        31.253
C33        37.000                                                                                                                                    23008318.571 7 119810342.72007     -1948.156 7        43.018                                                                    23008325.856 6  97355748.33606     -1583.097 6        41.604
C30        38.000                                                                                                                                    25261960.918 5 131545653.94405      2077.673 5        31.019                                                                    25261919.468 4 106891540.57204      1688.261 4        27.629
C28        40.000                                                                                                                                    22240106.617 6 115810338.29806     -2345.523 6        39.679                                                                    22240106.301 6  94105166.33306     -1905.848 6        38.754
R11        41.000    22784361.204 6 121752984.81306     -2645.350 6        39.880                                                                    22784359.420 5  94696540.94815     -2057.274 5        33.856
I01        44.000   370495616.352 6 150763606.90306     -2365.175 6        38.577
C13        45.000                                                                                                                                                                                                    39901922.723 4 160668466.85004     -1421.105 4        28.663    39901915.122 4                     -1493.578 4        27.006
C14        47.000                                                                                                                                    24529512.694 5 127731655.24005     -3310.686 5        33.000    24529656.972 3                     -2557.772 3        22.952    24529507.596 7 103792357.19307     -2690.089 7        42.250
C41        49.000                                                                                                                                    22897385.699 7 119232751.23607      1166.700 7        45.096                                                                    22897396.888 6  96886382.79106       948.088 6        39.219
C27        52.000                                                                                                                                    21842535.133 7 113739813.34307       220.385 7        44.188                                                                    21842532.608 5  92422904.54205       178.979 5        33.509
C36        56.000                                                                                                                                                                                                                                                                    26503398.520 5 112144614.78005     -1582.651 5        30.551
I06        58.000    38657823.356 5 151701773.86405      -535.354 5        30.445
> 2025 01 01 22 01  0.0000000  0 36
G14         1.000    24578671.784 5 129161809.06805       972.271 5        33.982                                    24578669.387 1 100645576.57201       757.537 1         4.143    24578667.303 4                       757.799 4        26.611
G10         2.000    21642174.130 8 113730369.32008     -2788.082 8        48.331                                    21642169.336 5  88621067.59205     -2172.525 5        31.177    21642171.697 5  88621078.57405     -2172.765 5        33.180
G32         3.000    22568816.138 6 118600062.48706       979.469 6        39.342                                    22568814.315 4  92415531.15604       763.223 4        29.554    22568814.573 6  92415564.16906       763.282 6        36.480
G23         4.000    24545731.032 3                     -4290.710 3        22.686                                                                                                    24545742.697 3                     -3343.802 3        19.463
E07         5.000    25718013.270 5 135149094.27405      1341.033 5        31.562                                                                    25718016.352 6 100923061.40406      1001.598 6        41.888    25718016.516 6 103555832.39206      1027.875 6        36.628
G08         6.000    20523523.289 8 107852377.91408     -1577.083 8        50.478                                    20523519.805 7  84040380.73707     -1228.899 7        45.851    20523521.232 7  84040408.77107     -1228.858 7        43.020
G27         7.000    21803355.132 6 114577382.74606     -3715.200 6        37.467                                    21803350.170 4  89281017.65304     -2894.960 4        28.123    21803350.329 5  89281085.65105     -2894.836 5        34.095
G21         8.000    21171703.653 6 111258137.58406       300.341 6        39.808                                    21171695.302 3  86694563.42203       234.032 3        18.836
G02         9.000    22676399.545 5 119165528.70605      1383.598 5        34.519                                    22676391.437 2  92855994.13602      1078.133 2        14.333
E08        12.000    26145556.098 7 137395818.57307     -1241.756 7        44.128                                                                    26145553.746 7 102600813.73207      -927.276 7        43.418    26145553.456 7 105277331.18307      -951.473 7        43.528
R10        15.000    24330996.947 3                     -4726.973 3        20.095
E13        16.000    25806727.113 7 135615242.48407     -2859.561 7        43.327                                                                    25806765.608 4 101271187.35004     -2135.660 4        26.168    25806729.201 5 103912998.83505     -2190.851 5        35.724
E31        17.000    26110421.719 5 137211170.44305      -887.462 5        34.205                                                                    26110423.661 6 102462888.42906      -662.923 6        36.189    26110417.697 5 105135838.94605      -680.022 5        30.913
E26        19.000    23542386.942 7 123716071.02407      -850.637 7        43.687                                                                    23542383.489 6  92385451.81206      -635.234 6        38.168    23542385.705 7  94795439.76707      -651.786 7        44.790
S36        23.000    38388173.748 6 201731082.73106      -852.694 6        36.601
S23        24.000    38342931.414 6 201493431.21706      -851.223 6        40.722
R12        25.000    23888697.972 6 127609134.64316      1014.642 6        37.040                                                                    23888712.656 4                       788.897 4        28.521
R20        26.000    19673145.181 6 105201177.13306      -154.919 6        38.321                                                                    19673145.487 7  81823313.60407      -120.569 7        44.585
R05        27.000    20095001.413 7 107419560.21607      1472.100 7        44.512                                                                    20095000.221 7  83548361.49207      1144.844 7        44.826
E33        28.000    25512149.792 6 134067254.68206      1081.872 6        39.541                                                                    25512148.740 6 100115150.23206       807.934 6        40.839    25512147.464 6 102726929.46006       828.926 6        40.403
R19        29.000    22167764.487 4                     -3799.148 4        27.066                                                                    22167773.011 4                     -2955.114 4        29.886
R21        30.000    22483905.696 7 120316153.84607      2494.181 7        46.267                                                                    22483902.798 6  93579061.80906      1940.050 6        36.030
R04        31.000    20504349.132 7 109799809.11007     -2709.250 7        43.264                                                                    20504342.995 6  85399879.57306     -2107.248 6        38.399
R03        32.000    24187154.003 4                     -5052.226 4        26.527
C05        33.000                                                                                                                                                                                                    39346729.376 5                      -619.599 5        31.751
C33        37.000                                                                                                                                    23010189.241 6 119820091.11406     -1951.071 6        41.897                                                                    23010198.362 7  97363669.71707     -1585.548 7        42.616
C30        38.000                                                                                                                                    25259960.473 5 131535266.17105      2077.551 5        34.181                                                                    25259924.223 4 106883099.75104      1687.455 4        27.030
C28        40.000                                                                                                                                    22242359.296 6 115822070.80606     -2347.360 6        37.909                                                                    22242359.435 6  94114699.95406     -1907.635 6        39.523
R11        41.000    22786839.099 6 121766222.01406     -2649.380 6        41.723                                                                    22786836.482 5  94706836.62105     -2060.790 5        34.086
I01        44.000   370498629.373 6 150775433.87906     -2365.582 6        38.351
C13        45.000                                                                                                                                    39903713.943 3                     -1839.267 3        21.881    39903688.684 4 160675572.90604     -1421.631 4        27.856    39903677.286 4                     -1493.477 4        26.647
C14        47.000                                                                                                                                    24532693.490 5 127748213.17705     -3312.734 5        34.152                                                                    24532687.038 6 103805811.89306     -2691.755 6        41.838
C41        49.000                                                                                                                                    22896267.254 7 119226924.20807      1164.225 7        45.439                                                                    22896274.328 6  96881647.82706       945.815 6        39.661
C27        52.000                                                                                                                                    21842323.612 7 113738716.80807       218.357 7        44.238                                                                    21842321.662 5  92422013.50505       177.053 5        32.695
C36        56.000                                                                                                                                    26505270.114 6 138019822.59316     -1950.730 6        36.858                                                                    26505273.739 4 112152534.79104     -1585.220 4        29.403
I06        58.000    38658506.423 5 151704451.27005      -535.410 5        30.853
> 2025 01 01 22 01  5.0000000  0 35
G14         1.000    24577749.831 5 129156954.17305       969.635 5        34.500                                    24577745.407 1 100641793.56201       755.512 1         3.600    24577749.529 4                       755.057 4        26.922
G10         2.000    21644827.510 7 113744314.28107     -2790.108 7        47.659                                    21644822.153 5  88631933.78405     -2174.110 5        30.717
G32         3.000    22567881.875 5 118595171.11605       976.815 5        34.495                                    22567882.965 4  92411719.71004       761.152 4        27.904    22567884.555 6  92411752.74706       761.221 6        36.374
G23         4.000                                                                                                                                                                    24549829.666 3                     -3345.873 3        21.857
E07         5.000    25716737.353 5 135142391.66705      1339.420 5        31.426                                                                    25716740.817 7 100918056.21407      1000.328 7        42.368    25716739.312 6 103550696.64806      1026.233 6        37.319
G08         6.000    20525025.025 8 107860270.97608     -1580.281 8        50.579                                    20525022.064 7  84046531.18307     -1231.391 7        46.147    20525023.370 7  84046559.21307     -1231.470 7        43.793
G27         7.000    21806892.062 6 114595963.96306     -3717.306 6        38.643                                    21806885.954 4  89295496.53004     -2896.615 4        28.227    21806887.108 5  89295564.53905     -2896.772 5        34.324
G21         8.000    21171417.894 6 111256639.24006       298.837 6        38.616                                    21171410.487 3  86693395.86803       232.860 3        18.985
G02         9.000    22675083.363 5 119158612.97005      1382.707 5        34.333                                    22675075.639 2  92850605.27702      1077.430 2        13.030
E08        12.000    26146738.636 7 137402033.23907     -1244.214 7        44.223                                                                    26146736.279 7 102605454.55607      -929.271 7        43.359    26146735.967 7 105282093.06407      -953.459 7        43.266
E13        16.000    25809448.448 7 135629541.52807     -2860.249 7        43.316                                                                    25809486.986 4 101281865.12404     -2135.296 4        24.120    25809450.240 6 103923955.24206     -2191.625 6        36.616
E31        17.000    26111268.691 5 137215614.11505      -890.046 5        35.638                                                                    26111268.632 5 102466206.75205      -664.697 5        35.448    26111263.735 5 105139243.83905      -682.152 5        30.211
E26        19.000    23543196.662 7 123720326.22307      -851.692 7        43.374                                                                    23543193.215 6  92388629.41806      -635.900 6        38.042    23543195.655 7  94798700.25007      -652.655 7        44.515
S36        23.000    38388979.856 6 201735345.21906      -852.729 6        36.790
S23        24.000    38343745.222 6 201497687.44006      -851.336 6        40.772
R12        25.000    23887752.780 5 127604070.54705      1010.955 5        35.486                                                                    23887764.520 5                       786.129 5        31.170
R20        26.000    19673292.242 6 105201957.65006      -157.446 6        38.348                                                                    19673291.180 7  81823920.67907      -122.406 7        44.238
R05        27.000    20093628.332 7 107412210.05307      1467.943 7        45.246                                                                    20093625.836 7  83542644.69607      1141.753 7        44.251
E33        28.000    25511120.197 6 134061845.97206      1081.361 6        39.619                                                                    25511119.531 6 100111111.25406       807.521 6        40.927    25511118.538 6 102722785.13206       828.481 6        40.889
R19        29.000    22171307.577 4                     -3800.827 4        29.962                                                                    22171322.947 4                     -2956.615 4        26.766
R21        30.000    22481574.876 7 120303684.04207      2493.534 7        45.765                                                                    22481570.728 5  93569363.05005      1939.260 5        34.762
R04        31.000    20506883.781 7 109813365.37407     -2713.351 7        42.163                                                                    20506874.481 6  85410423.30806     -2110.444 6        39.399
R03        32.000    24191878.375 4                     -5053.306 4        28.427
C05        33.000                                                                                                                                                                                                    39347497.511 5                      -619.554 5        30.898
C33        37.000                                                                                                                                    23012061.993 6 119829852.71806     -1953.695 6        40.679                                                                    23012073.083 7  97371601.80207     -1587.746 7        43.547
C30        38.000                                                                                                                                    25257960.705 5 131524880.48205      2076.994 5        34.757                                                                    25257928.017 4 106874660.53604      1686.978 4        25.248
C28        40.000                                                                                                                                    22244611.873 6 115833812.27406     -2349.406 6        37.595                                                                    22244613.963 6  94124240.81906     -1909.172 6        40.079
R11        41.000    22789320.476 6 121779477.92206     -2653.109 6        41.030                                                                    22789319.107 6  94717146.72706     -2063.583 6        36.057
I01        44.000   370501643.935 6 150787262.48406     -2365.946 6        38.580
C13        45.000                                                                                                                                    39905481.155 3                     -1837.548 3        23.943    39905454.593 4 160682678.38904     -1421.035 4        28.066    39905443.926 4                     -1492.931 4        26.874
C14        47.000                                                                                                                                    24535874.199 5 127764780.07105     -3314.507 5        34.510    24536041.242 4                     -2562.954 4        27.425    24535867.719 6 103819273.84106     -2693.340 6        41.142
C41        49.000                                                                                                                                    22895150.805 7 119221108.83607      1161.775 7        45.949                                                                    22895155.927 6  96876922.31106       943.881 6        40.448
C27        52.000                                                                                                                                    21842114.471 7 113737629.15607       216.439 7        44.411                                                                    21842112.431 5  92421129.69605       175.846 5        33.234
C36        56.000                                                                                                                                    26507146.460 6 138029580.65406     -1952.894 6        37.698                                                                    26507153.084 4 112160464.04804     -1587.342 4        29.033
I06        58.000    38659188.242 5 151707128.76705      -535.592 5        30.551
> 2025 01 01 22 01 10.0000000  0 35
G14         1.000    24576830.617 5 129152112.82305       967.313 5        34.562                                    24576824.199 1 100638020.91201       753.744 1         4.000    24576830.732 4                       753.560 4        28.294
G10         2.000    21647483.077 7 113758268.98107     -2791.598 7        46.802                                    21647477.613 5  88642807.57105     -2175.269 5        31.102
G32         3.000    22566955.366 5 118590292.80105       974.519 5        31.660                                    22566954.156 4  92407918.43804       759.354 4        25.880    22566955.988 6  92407951.48206       759.481 6        36.302
G23         4.000    24553878.914 3                     -4295.580 3        18.657                                                                                                    24553924.425 3                     -3347.990 3        20.119
E07         5.000    25715466.490 5 135135697.42105      1338.452 5        30.943                                                                    25715466.894 7 100913057.28207       999.444 7        42.385    25715466.995 6 103545567.32006      1025.493 6        38.252
G08         6.000    20526529.883 8 107868179.29608     -1582.816 8        50.498                                    20526527.337 7  84052693.52207     -1233.364 7        46.588    20526528.405 7  84052721.54607     -1233.416 7        44.223
G27         7.000    21810430.007 6 114614555.36106     -3719.026 6        38.826                                    21810424.000 4  89309983.34704     -2897.942 4        28.284    21810424.397 5  89310051.34505     -2897.761 5        34.505
G21         8.000    21171132.926 6 111255148.83406       297.517 6        37.251                                    21171127.250 3  86692234.51703       231.809 3        18.657
G02         9.000    22673767.818 6 119151701.82706      1382.003 6        36.140                                    22673760.683 2  92845219.97002      1076.858 2        12.606
E08        12.000    26147923.694 7 137408260.38507     -1246.337 7        44.567                                                                    26147921.204 7 102610104.68807      -930.687 7        43.350    26147920.783 7 105286864.51307      -954.974 7        43.261
E13        16.000    25812170.259 7 135643843.28307     -2860.258 7        43.327                                                                    25812212.192 3                     -2138.528 3        21.214    25812171.642 6 103934913.74506     -2191.678 6        36.631
E31        17.000    26112113.121 5 137220070.24805      -892.197 5        35.805                                                                    26112115.454 5 102469534.35705      -666.069 5        34.462    26112111.696 4 105142658.26104      -683.667 4        29.346
E26        19.000    23544007.821 7 123724586.73707      -852.285 7        43.268                                                                    23544002.909 6  92391810.98806      -636.499 6        37.353    23544006.617 7  94801964.79907      -653.105 7        44.611
S36        23.000    38389794.971 6 201739608.15506      -852.343 6        36.858
S23        24.000    38344554.487 6 201501943.83006      -851.011 6        40.613
R12        25.000    23886805.963 5                      1007.417 5        34.433                                                                    23886816.076 5                       783.525 5        32.617
R20        26.000    19673440.325 6 105202749.84206      -159.353 6        37.951                                                                    19673440.005 7  81824536.85207      -123.884 7        43.973
R05        27.000    20092257.811 7 107404879.66107      1464.392 7        47.297                                                                    20092254.963 7  83536943.29407      1138.926 7        43.695
E33        28.000    25510092.422 6 134056440.07106      1081.221 6        39.156                                                                    25510090.645 6 100107074.36806       807.461 6        41.137    25510089.898 6 102718642.95006       828.393 6        41.230
R19        29.000    22174854.710 5                     -3802.347 5        30.189
R21        30.000    22479244.116 7 120291216.68007      2493.527 7        45.052                                                                    22479241.526 5  93559666.23005      1939.483 5        35.076
R04        31.000    20509416.461 6 109826942.14906     -2717.105 6        39.066                                                                    20509410.279 6  85420983.04906     -2113.017 6        39.934
R03        32.000    24196596.854 4                     -5054.823 4        27.353
C05        33.000                                                                                                                                                                                                    39348265.034 5                      -619.329 5        30.287
C33        37.000                                                                                                                                    23013937.423 6 119839627.54406     -1955.927 6        40.551                                                                    23013950.447 7  97379544.64707     -1589.508 7        44.488
C30        38.000                                                                                                                                    25255961.885 5 131514496.85305      2076.872 5        34.400                                                                    25255933.570 4                      1687.413 4        24.481
C28        40.000                                                                                                                                    22246868.813 6 115845562.69406     -2350.778 6        38.844                                                                    22246870.511 6  94133788.99406     -1910.307 6        40.534
R11        41.000    22791801.722 6 121792752.53006     -2656.591 6        38.832                                                                    22791810.263 6  94727471.38506     -2066.079 6        36.681
I01        44.000   370504658.412 6 150799092.71506     -2365.993 6        37.974
C13        45.000                                                                                                                                    39907238.637 4                     -1836.252 4        24.481    39907220.350 4 160689783.50504     -1420.946 4        26.587    39907208.124 4                     -1493.073 4        26.335
C14        47.000                                                                                                                                    24539055.342 5 127781355.93905     -3315.754 5        34.109                                                                    24539050.253 6 103832743.06006     -2694.427 6        40.222
C41        49.000                                                                                                                                    22894036.064 7 119215305.12007      1159.908 7        45.251                                                                    22894042.022 6  96872206.29706       942.289 6        41.318
C27        52.000                                                                                                                                    21841907.785 7 113736550.39407       215.133 7        44.521                                                                    21841905.030 5  92420253.08205       174.688 5        31.781
C36        56.000                                                                                                                                    26509024.302 6 138039350.13706     -1954.865 6        38.048                                                                    26509041.663 4 112168402.41404     -1588.066 4        28.796
I06        58.000    38659870.200 5 151709806.24405      -535.220 5        30.966
> 2025 01 01 22 01 15.0000000  0 36
G14         1.000    24575915.088 5 129147284.61605       964.630 5        35.005                                    24575905.544 1 100634258.67301       751.642 1         3.200    24575913.660 4                       751.567 4        28.123
G10         2.000    21650141.070 7 113772233.09507     -2793.650 7        46.247                                    21650135.452 5  88653688.68805     -2176.876 5        31.849    21650169.248 6  88653699.67406     -2176.855 6        36.015
G32         3.000    22566030.606 5 118585427.32805       971.931 5        30.015                                    22566028.176 3  92404127.17903       757.352 3        23.486    22566029.929 6  92404160.16806       757.243 6        36.045
G23         4.000                                                                                                                                                                    24558000.304 3                     -3343.499 3        20.048
E07         5.000    25714195.612 5 135129011.26805      1336.531 5        31.404                                                                    25714194.691 7 100908064.38007       998.075 7        42.772    25714194.676 6 103540444.19206      1024.074 6        38.826
G08         6.000    20528037.785 8 107876102.54108     -1585.983 8        50.560                                    20528035.499 7  84058867.48707     -1235.834 7        46.638    20528036.190 7  84058895.51807     -1235.866 7        43.928
G27         7.000    21813968.865 6 114633156.62806     -3721.094 6        39.760                                    21813964.085 4  89324477.83704     -2899.565 4        28.114    21813963.781 5  89324545.83705     -2899.498 5        34.071
G21         8.000    21170850.250 5 111253666.00405       296.367 5        34.267                                    21170845.471 3  86691079.03303       230.919 3        18.537
G02         9.000    22672453.243 5 119144794.94905      1380.992 5        35.538                                    22672446.518 2  92839837.95002      1076.091 2        13.212
E08        12.000    26149110.990 7 137414499.68507     -1248.915 7        44.910                                                                    26149108.480 7 102614763.90407      -932.601 7        43.541    26149108.048 7 105291645.27607      -956.959 7        43.020
R10        15.000    24344307.832 3                     -4724.486 3        22.000
E13        16.000    25814892.379 7 135658147.44407     -2860.938 7        43.498                                                                                                                                    25814893.484 6 103945874.07206     -2192.056 6        36.767
E31        17.000    26112961.460 5 137224538.52705      -894.680 5        35.676                                                                    26112963.552 5 102472871.05405      -667.833 5        33.234    26112962.379 4 105146081.98104      -685.507 4        28.863
E26        19.000    23544819.813 7 123728852.23107      -853.517 7        43.564                                                                    23544813.733 6  92394996.25406      -637.320 6        37.369    23544818.299 7  94805233.16907      -653.963 7        44.584
S36        23.000    38390600.158 6 201743872.15206      -852.811 6        37.115
S23        24.000    38345362.639 6 201506199.96206      -850.961 6        40.567
R12        25.000    23885863.711 6 127593998.00316      1003.729 6        36.730                                                                    23885871.445 5                       780.606 5        31.645
R20        26.000    19673589.932 6 105203553.28106      -161.618 6        37.535                                                                    19673590.222 7  81825161.74307      -125.675 7        44.337
R05        27.000    20090890.897 7 107397568.98807      1460.309 7        47.885                                                                    20090887.732 7  83531257.21607      1135.870 7        44.096
E33        28.000    25509064.367 6 134051036.65506      1080.591 6        38.249                                                                    25509062.307 6 100103039.32106       806.968 6        41.220    25509061.568 6 102714502.64106       827.969 6        41.928
R19        29.000    22178408.688 5                     -3803.879 5        30.626                                                                    22178410.120 3                     -2957.494 3        21.548
R21        30.000    22476914.115 7 120278751.34907      2492.989 7        44.155                                                                    22476912.781 5  93549970.97605      1938.962 5        35.067
R04        31.000    20511951.042 5 109840538.98705     -2721.074 5        35.767                                                                    20511949.616 6  85431558.49106     -2116.571 6        39.898
R03        32.000    24201317.210 4                     -5055.219 4        28.360                                                                    24201386.538 3                     -3932.438 3        20.881
C05        33.000                                                                                                                                                                                                    39349033.352 5                      -618.868 5        30.370
C33        37.000                                                                                                                                    23015815.026 6 119849415.25206     -1958.503 6        38.919                                                                    23015830.280 7  97387497.96507     -1591.740 7        45.433
C30        38.000                                                                                                                                    25253962.772 5 131504114.87505      2076.367 5        34.109                                                                    25253936.570 3                      1686.327 3        22.857
C28        40.000                                                                                                                                    22249130.296 6 115857321.73606     -2352.556 6        38.955                                                                    22249128.908 6  94143344.18906     -1911.802 6        40.946
R11        41.000    22794286.815 5 121806045.48805     -2660.323 5        35.705
I01        44.000   370507673.384 6 150810924.29406     -2366.467 6        37.875
C13        45.000                                                                                                                                    39908998.546 4                     -1838.008 4        25.639    39908982.909 4 160696887.71004     -1420.481 4        25.474    39908970.967 4                     -1492.909 4        25.564
C14        47.000                                                                                                                                    24542239.287 5 127797940.40305     -3317.489 5        34.124    24542382.146 4                     -2566.145 4        25.173    24542234.435 6 103846219.31106     -2696.059 6        39.294
C41        49.000                                                                                                                                    22892923.553 7 119209512.75307      1157.522 7        44.858                                                                    22892930.490 7  96867499.52307       940.418 7        42.654
C27        52.000                                                                                                                                    21841702.605 7 113735480.17007       213.429 7        45.285                                                                    21841699.199 5  92419383.45905       173.329 5        31.079
C36        56.000                                                                                                                                    26510903.995 6 138049130.66606     -1957.059 6        38.219                                                                    26510924.085 4 112176349.89004     -1590.124 4        27.976
I06        58.000    38660552.844 5 151712483.51805      -535.390 5        30.883
> 2025 01 01 22 01 20.0000000  0 35
G14         1.000    24575002.167 5 129142469.84505       961.497 5        35.300                                    24574989.385 1 100630506.83401       749.407 1         1.333    24574997.045 4                       749.445 4        28.408
G10         2.000    21652800.711 7 113786206.81507     -2795.736 7        46.466                                    21652795.459 5  88664577.28805     -2178.497 5        32.796
G32         3.000    22565106.246 4 118580574.72604       969.181 4        26.778                                    22565104.594 3  92400345.91403       755.217 3        22.705    22565106.046 6  92400378.95906       755.095 6        36.106
G23         4.000                                                                                                                                                                    24562077.825 3                     -3345.637 3        20.452
E07         5.000    25712925.591 5 135122333.42805      1334.254 5        30.755                                                                    25712924.008 7 100903077.65607       996.604 7        43.054    25712923.253 6 103535327.38606      1022.688 6        38.955
G08         6.000    20529548.202 8 107884040.93508     -1589.193 8        50.055                                    20529546.505 7  84065053.25907     -1238.334 7        46.690    20529546.494 7  84065081.28107     -1238.305 7        43.498
G27         7.000    21817510.513 6 114651767.93806     -3723.304 6        41.056                                    21817506.174 4  89338980.16704     -2901.278 4        27.760    21817505.760 5  89339048.16405     -2901.224 5        33.281
G21         8.000    21170571.244 5 111252191.06005       294.135 5        31.811                                    21170565.042 3  86689929.69303       229.218 3        18.060
G02         9.000    22671137.787 5 119137892.55905      1380.025 5        35.267                                    22671133.046 2  92834459.48902      1075.302 2        13.030
E08        12.000    26150301.395 7 137420751.33907     -1251.641 7        45.162                                                                    26150298.051 7 102619432.33707      -934.598 7        43.503    26150297.578 7 105296435.50607      -959.071 7        43.043
R10        15.000    24348743.498 3                     -4725.156 3        21.452
E13        16.000    25817614.951 7 135672454.23807     -2861.655 7        43.448                                                                                                                                    25817616.086 6 103956836.43406     -2192.766 6        36.783
E31        17.000    26113814.781 6 137229019.18206      -897.552 6        36.650                                                                    26113813.892 5 102476216.96705      -670.204 5        32.192    26113818.542 4 105149515.14404      -687.073 4        29.905
E26        19.000    23545632.570 7 123733122.90507      -854.764 7        43.225                                                                    23545626.789 6  92398185.40406      -638.211 6        37.255    23545631.001 7  94808505.50607      -654.884 7        44.745
S36        23.000    38391416.613 6 201748136.58106      -852.712 6        37.236
S23        24.000    38346173.684 6 201510456.12006      -851.294 6        40.543
R12        25.000    23884928.669 6 127588989.43416       999.856 6        38.676                                                                    23884931.287 4                       778.406 4        28.009
R20        26.000    19673742.778 6 105204368.17506      -164.132 6        37.607                                                                    19673742.886 7  81825795.56307      -127.638 7        44.700
R05        27.000    20089525.868 7 107390278.12107      1456.057 7        47.749                                                                    20089524.397 7  83525586.55507      1132.547 7        44.710
E33        28.000    25508035.667 6 134045635.92006      1079.737 6        36.102                                                                    25508034.571 6 100099006.28306       806.363 6        41.313    25508033.917 7 102710364.40707       827.474 7        42.385
R19        29.000    22181965.752 4                     -3805.173 4        28.578
R21        30.000    22474585.648 7 120266288.33307      2492.297 7        45.013                                                                    22474583.780 5  93540277.52105      1938.604 5        35.048
R04        31.000    20514489.516 5 109854156.22205     -2725.332 5        33.677                                                                    20514493.498 6  85442149.70606     -2119.933 6        39.411
C05        33.000                                                                                                                                                                                                    39349804.340 5                      -619.644 5        30.460
C33        37.000                                                                                                                                    23017694.982 6 119859216.07906     -1961.487 6        37.508                                                                    23017712.651 7  97395461.90107     -1593.786 7        46.136
C30        38.000                                                                                                                                                                                                                                                                    25251941.851 3                      1684.922 3        22.324
C28        40.000                                                                                                                                                                                                                                                                    22251388.502 6  94152906.55706     -1913.071 6        41.297
R11        41.000    22796779.646 5 121819357.01005     -2664.365 5        35.633                                                                    22796807.383 6  94748163.75806     -2072.318 6        36.442
I01        44.000   370510689.276 6 150822757.36606     -2366.761 6        37.705
C13        45.000                                                                                                                                    39910765.812 4                     -1837.357 4        24.361    39910744.587 4                     -1420.243 4        25.068    39910733.636 4                     -1493.148 4        26.192
C14        47.000                                                                                                                                    24545426.842 5 127814533.70805     -3319.279 5        34.324                                                                    24545420.586 6 103859702.70406     -2697.276 6        38.372
C41        49.000                                                                                                                                    22891813.686 7 119203731.94507      1154.971 7        44.612                                                                    22891821.090 7  96862802.12507       938.648 7        43.837
C27        52.000                                                                                                                                    21841498.530 7 113734418.74307       211.255 7        45.639                                                                    21841495.273 5  92418520.96505       171.723 5        31.147
C36        56.000                                                                                                                                    26512782.117 6 138058922.42706     -1959.510 6        38.069
I06        58.000    38661234.113 5 151715160.67605      -535.325 5        30.725
> 2025 01 01 22 01 25.0000000  0 35
G14         1.000    24574087.312 6 129137668.64906       958.348 6        36.284                                    24574075.667 1 100626765.66301       746.772 1         4.429    24574085.844 4                       747.110 4        28.322
G10         2.000    21655462.043 7 113800190.34107     -2797.939 7        46.911                                    21655457.474 5  88675473.53605     -2180.212 5        33.814
G32         3.000    22564186.464 4 118575735.40704       967.045 4        26.802                                    22564183.923 3  92396574.99103       753.545 3        22.571    22564185.352 5  92396607.99905       752.957 5        35.714
G23         4.000                                                                                                                                                                    24566165.532 3                     -3346.743 3        19.881
E07         5.000    25711654.673 4 135115664.02104      1332.683 4        28.142                                                                    25711654.983 7 100898097.25707       995.224 7        42.959    25711653.470 6 103530217.08106      1021.112 6        39.102
G08         6.000    20531061.531 8 107891994.66608     -1592.624 8        49.676                                    20531060.333 7  84071250.98207     -1241.009 7        46.553    20531059.987 7  84071279.01207     -1241.040 7        42.935
G27         7.000    21821053.992 6 114670389.48806     -3725.575 6        41.414                                    21821049.935 4  89353490.48304     -2903.065 4        26.587    21821048.274 5  89353558.44105     -2902.988 5        30.966
G21         8.000    21170290.119 5 111250724.00605       292.273 5        31.630                                    21170286.111 2  86688786.53302       227.760 2        17.736
G02         9.000    22669825.765 5 119130994.92505      1378.419 5        34.771                                    22669820.302 1  92829084.69601      1074.043 1        10.593
E08        12.000    26151493.563 7 137427015.55207     -1254.413 7        45.705                                                                    26151489.931 7 102624110.14807      -936.643 7        43.348    26151489.385 7 105301235.35507      -961.192 7        42.453
E13        16.000    25820337.674 7 135686763.83607     -2862.529 7        43.572                                                                                                                                    25820339.237 6 103967800.92806     -2193.464 6        36.628
E31        17.000    26114670.199 6 137233512.32806      -900.159 6        38.396                                                                    26114669.279 5 102479572.23405      -672.473 5        31.985    26114678.359 5 105152957.91105      -689.832 5        32.240
E26        19.000    23546446.345 7 123737398.96307      -856.093 7        43.536                                                                    23546440.755 6  92401378.56106      -639.161 6        37.130    23546444.741 7  94811781.96007      -655.887 7        44.561
S36        23.000    38392226.447 6 201752400.24606      -853.031 6        36.957
S23        24.000    38346984.394 6 201514712.40306      -851.464 6        40.510
R12        25.000    23883998.408 6 127583999.55316       995.739 6        40.477                                                                    23883994.871 4                       774.516 4        26.455
R20        26.000    19673897.930 6 105205194.83506      -166.878 6        38.321                                                                    19673897.867 7  81826438.49607      -129.805 7        44.230
R05        27.000    20088164.138 7 107383007.26507      1451.920 7        47.773                                                                    20088164.176 7  83519931.46107      1129.187 7        44.549
E33        28.000    25507009.129 6 134040238.02706      1079.005 6        36.276                                                                    25507007.709 6 100094975.40506       805.820 6        41.573    25507007.181 7 102706228.37807       826.726 7        42.756
R19        29.000    22185518.009 4                     -3806.393 4        25.970                                                                    22185527.629 4                     -2961.159 4        28.967
R21        30.000    22472257.411 7 120253827.80707      2491.543 7        44.479                                                                    22472254.826 5  93530585.98505      1937.827 5        34.181
R04        31.000    20517035.632 6 109867794.04606     -2729.881 6        37.690                                                                    20517040.454 6  85452756.89706     -2123.339 6        39.198
R03        32.000                                                                                                                                    24210805.617 3                     -3930.432 3        20.810
C05        33.000                                                                                                                                                                                                    39350573.455 5                      -619.580 5        30.649
C33        37.000                                                                                                                                    23019578.329 5 119869030.17905     -1964.359 5        35.429                                                                    23019597.438 7  97403436.64507     -1596.212 7        46.675
C30        38.000                                                                                                                                    25249962.562 5 131483356.87105      2075.138 5        35.438                                                                    25249947.029 3                      1686.637 3        19.672
C28        40.000                                                                                                                                    22253666.670 6 115880866.66506     -2356.567 6        41.216                                                                    22253650.429 6  94162476.29106     -1914.773 6        41.855
R11        41.000    22799276.678 6 121832687.33506     -2668.245 6        37.448                                                                    22799302.457 5  94758531.70505     -2075.400 5        32.018
I01        44.000   370513704.233 6 150834592.14206     -2367.306 6        37.629
C13        45.000                                                                                                                                    39912537.375 3                     -1837.222 3        23.981    39912507.788 3                     -1422.510 3        22.400    39912499.261 4                     -1492.034 4        25.429
C14        47.000                                                                                                                                    24548613.680 5 127831136.05305     -3321.540 5        34.329    24548612.623 7                     -2568.435 7        44.153    24548608.966 6 103873193.44306     -2699.027 6        37.338
C41        49.000                                                                                                                                    22890705.773 7 119197962.87907      1152.365 7        45.038                                                                    22890713.645 7  96858114.28807       936.382 7        44.221
C27        52.000                                                                                                                                    21841296.174 7 113733366.27507       209.249 7        46.408                                                                    21841292.829 5  92417665.71705       170.173 5        31.706
C36        56.000                                                                                                                                    26514660.167 5 138068725.64805     -1962.218 5        35.119
I06        58.000    38661917.155 5 151717837.95905      -535.442 5        30.483
> 2025 01 01 22 01 30.0000000  0 34
G14         1.000    24573174.131 6 129132881.25706       955.992 6        37.017                                                                                                    24573176.602 4                       745.178 4        28.957
G10         2.000    21658125.131 7 113814183.85407     -2799.564 7        47.861                                    21658121.161 5  88686377.55805     -2181.477 5        34.576    21658117.056 6  88686388.57406     -2181.372 6        36.147
G32         3.000    22563274.893 5 118570909.33705       963.886 5        32.539                                    22563265.836 3  92392814.45303       751.098 3        22.990    22563267.182 5  92392847.46705       751.090 5        35.609
G23         4.000                                                                                                                                                                    24570246.330 3                     -3344.648 3        21.190
E07         5.000    25710384.215 4 135109003.37704      1331.486 4        28.180                                                                    25710387.798 7 100893123.36207       994.240 7        43.065    25710386.049 6 103525113.43806      1020.123 6        39.291
G08         6.000    20532577.930 8 107899963.93508     -1595.305 8        49.173                                    20532576.955 7  84077460.81107     -1243.099 7        46.250    20532576.864 7  84077488.83707     -1243.065 7        42.129
G27         7.000    21824598.484 6 114689021.50206     -3727.362 6        40.043                                    21824594.979 4  89368008.95604     -2904.447 4        24.707    21824595.160 4  89368076.91504     -2904.111 4        27.222
G21         8.000    21170012.788 6 111249265.09806       291.139 6        36.197                                    21170008.754 2  86687649.74102       226.856 2        16.038
G02         9.000    22668513.928 5 119124102.11505      1378.028 5        35.676                                    22668508.543 2  92823713.68502      1073.837 2        12.000
E08        12.000    26152687.473 7 137433292.54507     -1256.636 7        45.684                                                                    26152684.475 7 102628797.51807      -938.400 7        43.354    26152683.398 7 105306044.98807      -962.805 7        42.072
E13        16.000    25823060.853 7 135701076.44807     -2862.736 7        43.376                                                                                                                                    25823062.541 6 103978767.74206     -2193.385 6        36.166
E31        17.000    26115527.437 6 137238018.25106      -902.573 6        39.273                                                                    26115528.525 5 102482937.01605      -673.872 5        31.713
E26        19.000    23547261.114 7 123741680.62207      -856.814 7        43.873                                                                    23547256.136 6  92404575.91106      -639.845 6        37.406    23547259.307 7  94815062.71907      -656.455 7        44.436
S36        23.000    38393037.098 6 201756663.96306      -852.581 6        37.187
S23        24.000    38347795.976 6 201518969.07606      -851.338 6        40.863
R12        25.000    23883070.591 6 127579028.59606       992.462 6        40.579                                                                    23883062.636 3                       772.109 3        23.638
R20        26.000    19674055.437 6 105206033.33506      -169.035 6        38.595                                                                    19674054.972 7  81827090.65707      -131.176 7        44.339
R05        27.000    20086807.450 7 107375756.61807      1448.212 7        47.011                                                                    20086807.243 7  83514292.06107      1126.445 7        45.220
E33        28.000    25505982.167 5 134034843.25505      1078.461 5        35.543                                                                    25505981.350 6 100090946.84206       805.545 6        41.805    25505980.665 7 102702094.72007       826.491 7        42.944
R19        29.000    22189075.069 3                     -3806.921 3        21.095                                                                    22189086.097 4                     -2961.989 4        28.635
R21        30.000    22469927.920 7 120241369.99307      2491.349 7        42.802                                                                    22469927.559 5  93520896.59705      1937.996 5        35.148
R04        31.000    20519589.191 6 109881452.69106     -2733.546 6        40.441                                                                    20519591.100 6  85463380.22606     -2126.255 6        39.270
C05        33.000                                                                                                                                                                                                    39351342.883 5                      -619.411 5        31.079
C33        37.000                                                                                                                                    23021464.476 5 119878857.72005     -1966.573 5        32.263                                                                    23021484.723 7  97411422.34807     -1597.989 7        46.875
C30        38.000                                                                                                                                    25247973.205 6 131472981.22906      2074.973 6        36.423                                                                    25247949.524 3                      1689.544 3        18.358
C28        40.000                                                                                                                                    22255927.672 6 115892652.84206     -2358.117 6        40.513                                                                    22255914.353 7  94172053.54507     -1915.971 7        42.375
R11        41.000    22801772.906 5 121846036.54905     -2671.796 5        34.786
I01        44.000   370516719.906 6 150846428.77906     -2367.365 6        37.248
C13        45.000                                                                                                                                    39914302.597 3                     -1841.914 3        22.171                                                                    39914265.033 4                     -1493.187 4        24.692
C14        47.000                                                                                                                                    24551803.916 5 127847747.57205     -3323.234 5        33.257    24551800.347 7  98859934.68017     -2569.602 7        44.623    24551798.993 6 103886691.66206     -2700.208 6        36.635
C41        49.000                                                                                                                                    22889600.435 7 119192205.77307      1150.315 7        45.612                                                                    22889607.983 7  96853436.18907       934.881 7        44.281
C27        52.000                                                                                                                                    21841095.856 7 113732322.99607       207.852 7        46.991                                                                    21841092.221 5  92416817.97005       169.272 5        32.826
C36        56.000                                                                                                                                                                                                                                                                    26516538.097 4 112200247.83704     -1595.722 4        28.872
I06        58.000    38662598.821 5 151720515.49205      -535.568 5        30.536
> 2025 01 01 22 01 35.0000000  0 35
G14         1.000    24572269.790 6 129128106.36106       953.371 6        37.834                                                                                                    24572268.331 5                       743.052 5        30.762
G10         2.000    21660789.145 8 113828186.02008     -2801.441 8        48.823                                    21660786.043 5  88697288.30805     -2182.935 5        35.171    21660783.843 6  88697299.34906     -2182.911 6        36.026
G32         3.000    22562363.050 6 118566095.41006       961.348 6        37.452                                    22562350.075 4  92389063.31304       749.103 4        25.008    22562350.894 5  92389096.34705       749.227 5        35.167
G23         4.000    24574368.457 3                     -4295.454 3        19.015                                                                                                    24574338.330 3                     -3347.838 3        22.819
E07         5.000    25709119.173 4 135102350.03204      1329.864 4        29.118                                                                    25709121.988 7 100888154.98007       992.954 7        43.109    25709120.099 6 103520015.45706      1018.869 6        39.664
G08         6.000    20534097.221 8 107907947.41808     -1598.297 8        48.701                                    20534096.162 7  84083681.71807     -1245.429 7        45.591    20534095.857 6  84083709.74206     -1245.447 6        41.950
G27         7.000    21828144.829 6 114707662.61706     -3729.214 6        39.162                                    21828140.864 3  89382534.53503     -2905.910 3        22.590
G21         8.000    21169736.909 6 111247813.01806       289.629 6        38.399                                    21169732.502 2  86686518.22502       225.686 2        15.857
G02         9.000    22667202.936 6 119117212.82906      1377.402 6        36.242                                    22667197.392 2  92818345.46302      1073.348 2        12.182
E08        12.000    26153884.289 7 137439580.96707     -1258.999 7        44.998                                                                    26153881.248 7 102633493.40107      -940.112 7        43.264    26153879.904 6 105310863.39106      -964.684 6        41.843
E13        16.000    25825784.886 7 135715390.76007     -2863.321 7        42.954                                                                                                                                    25825786.408 5 103989735.86605     -2193.840 5        35.962
E31        17.000    26116386.253 6 137242535.59806      -904.844 6        40.241                                                                    26116390.348 5 102486310.34905      -675.933 5        32.144
E26        19.000    23548076.648 7 123745966.52707      -857.725 7        43.708                                                                    23548072.314 6  92407776.43206      -640.525 6        37.561    23548074.749 7  94818346.73407      -657.294 7        44.119
S36        23.000    38393847.777 6 201760926.92506      -852.723 6        37.032
S23        24.000    38348603.399 6 201523224.83206      -851.175 6        40.515
R12        25.000    23882143.725 6                       988.913 6        38.441                                                                    23882133.983 4                       768.702 4        26.467
R20        26.000    19674215.161 6 105206882.30906      -170.957 6        38.186                                                                    19674215.220 7  81827750.99807      -133.016 7        45.157
R05        27.000    20085453.588 7 107368524.89707      1444.293 7        46.649                                                                    20085454.706 7  83508667.40407      1123.362 7        45.640
E33        28.000    25504955.461 5 134029450.21605      1078.504 5        35.629                                                                    25504955.157 6 100086919.59006       805.202 6        41.802    25504954.526 7 102697962.39907       826.289 7        43.048
R19        29.000                                                                                                                                    22192643.250 4                     -2963.064 4        28.995
R21        30.000    22467599.870 7 120228913.54707      2491.003 7        43.009                                                                    22467600.998 6  93511208.27006      1937.482 6        37.077
R04        31.000    20522148.486 7 109895130.70007     -2737.781 7        42.093                                                                    20522146.003 6  85474018.64406     -2129.372 6        38.655
R03        32.000    24220259.603 5                     -5060.168 5        31.132
C05        33.000                                                                                                                                                                                                    39352112.266 5                      -619.535 5        30.860
C33        37.000                                                                                                                                    23023355.840 4 119888697.43504     -1968.990 4        29.365                                                                    23023374.279 7  97419417.92507     -1600.320 7        46.772
C30        38.000                                                                                                                                    25245981.262 6 131462606.58906      2074.548 6        36.673                                                                    25245956.293 3                      1684.102 3        20.167
C28        40.000                                                                                                                                    22258191.454 6 115904446.94506     -2359.751 6        38.793                                                                    22258179.145 7  94181637.23907     -1917.615 7        42.764
R11        41.000    22804277.992 6 121859403.32606     -2675.197 6        36.526
I01        44.000   370519736.888 6 150858266.26306     -2367.834 6        37.255
C13        45.000                                                                                                                                    39916072.412 3                     -1834.210 3        20.786                                                                    39916024.120 4                     -1492.490 4        24.361
C14        47.000                                                                                                                                    24554995.615 5 127864366.98505     -3325.044 5        31.962    24554991.949 7  98872785.83607     -2570.995 7        44.965    24554990.684 6 103900196.26306     -2701.740 6        36.121
C41        49.000                                                                                                                                    22888496.977 7 119186459.32807      1148.119 7        45.562                                                                    22888503.631 7  96848766.72807       933.013 7        43.486
C27        52.000                                                                                                                                    21840896.932 8 113731287.61208       206.113 8        48.090                                                                    21840893.500 5  92415976.63705       167.637 5        32.359
C36        56.000                                                                                                                                    26518420.854 5 138088365.79305     -1966.463 5        30.189                                                                    26518427.378 5 112208231.62605     -1597.479 5        30.551
I06        58.000    38663281.813 5 151723192.25005      -535.606 5        30.906
> 2025 01 01 22 01 40.0000000  0 35
G14         1.000    24571367.538 6 129123345.69006       950.693 6        37.104                                                                                                    24571366.624 5                       740.795 5        31.381
G10         2.000    21663455.551 8 113842198.57508     -2803.476 8        49.841                                    21663452.458 6  88708207.16206     -2184.520 6        36.042    21663451.844 5  88708218.21005     -2184.562 5        35.143
G32         3.000    22561449.034 6 118561295.28906       958.877 6        39.586                                    22561437.135 4  92385322.94104       747.173 4        27.078    22561437.961 5  92385356.02205       747.157 5        34.824
G23         4.000                                                                                                                                                                    24578421.261 3                     -3346.369 3        23.048
E07         5.000                                                                                                                                    25707857.931 7 100883193.37807       991.796 7        43.397    25707856.114 6 103514924.45406      1017.637 6        39.889
G08         6.000    20535619.318 8 107915946.84608     -1601.300 8        48.303                                    20535618.343 7  84089915.04207     -1247.770 7        45.223    20535618.624 7  84089943.06207     -1247.725 7        42.008
G27         7.000    21831694.365 6 114726314.57906     -3731.408 6        38.694                                    21831688.779 3  89397068.53303     -2907.602 3        21.643    21831706.243 4  89397136.55904     -2907.625 4        27.832
G21         8.000    21169461.390 6 111246369.51306       288.100 6        38.201                                    21169457.908 2  86685393.40102       224.479 2        17.396
G02         9.000    22665893.718 6 119110328.83406      1376.293 6        36.140                                    22665887.179 2  92812981.26902      1072.417 2        12.303
E08        12.000    26155083.446 7 137445882.53307     -1261.507 7        44.531                                                                    26155080.646 7 102638199.11707      -941.995 7        43.251    26155078.962 6 105315691.85506      -966.659 6        41.852
E13        16.000    25828509.265 7 135729708.47107     -2863.767 7        42.965                                                                                                                                    25828510.822 5 104000706.58805     -2194.153 5        35.986
E31        17.000    26117249.546 6 137247066.11706      -907.372 6        41.483                                                                    26117254.489 5 102489693.49405      -677.625 5        32.671    26117287.652 5 105163343.45605      -694.971 5        33.461
E26        19.000    23548893.278 7 123750258.43007      -858.816 7        43.606                                                                    23548889.233 6  92410981.43806      -641.508 6        37.966    23548891.245 7  94821635.32807      -658.083 7        43.644
S36        23.000    38394659.783 6 201765190.84706      -852.671 6        36.726
S23        24.000    38349413.040 6 201527481.28106      -851.185 6        40.451
R12        25.000                                                                                                                                    23881217.765 4                       766.097 4        28.749
R20        26.000    19674375.100 6 105207743.68906      -173.367 6        36.582                                                                    19674376.538 7  81828420.95107      -134.811 7        45.955
R05        27.000    20084105.316 7 107361313.79807      1440.237 7        46.137                                                                    20084105.680 7  83503058.78207      1120.186 7        46.045
E33        28.000    25503930.337 6 134024060.71306      1077.703 6        36.174                                                                    25503929.788 6 100082894.93606       804.827 6        41.752    25503929.220 7 102693832.76207       825.841 7        43.219
R19        29.000                                                                                                                                    22196193.548 5                     -2964.044 5        31.072
R21        30.000    22465273.976 7 120216460.24807      2490.508 7        44.483                                                                    22465273.738 6  93501522.36106      1937.095 6        37.278
R04        31.000    20524711.363 7 109908829.70807     -2741.825 7        42.188                                                                    20524702.603 6  85484673.36606     -2132.502 6        36.246
R03        32.000    24224988.858 5                     -5061.427 5        31.849
C05        33.000                                                                                                                                                                                                    39352882.503 5                      -619.716 5        30.891
C33        37.000                                                                                                                                    23025250.782 4 119898551.03004     -1972.350 4        28.967                                                                    23025266.325 7  97427424.74007     -1602.353 7        46.451
C30        38.000                                                                                                                                    25243988.845 6 131452234.67006      2074.138 6        36.662
C28        40.000                                                                                                                                    22260456.919 6 115916250.63906     -2361.627 6        37.308                                                                    22260445.992 7  94191228.73507     -1918.812 7        43.048
R11        41.000    22806792.074 6 121872789.41406     -2679.104 6        39.577                                                                    22806772.161 5  94789722.33305     -2083.448 5        30.672
I01        44.000   370522754.023 6 150870105.82706     -2368.166 6        36.518
C13        45.000                                                                                                                                                                                                                                                                    39917783.936 3                     -1491.585 3        23.733
C14        47.000                                                                                                                                    24558188.310 4 127880995.96204     -3326.908 4        29.024    24558184.853 7  98885644.39207     -2572.335 7        44.918    24558184.845 5 103913708.63705     -2703.120 5        35.481
C41        49.000                                                                                                                                    22887395.304 7 119180725.25607      1145.709 7        45.028                                                                    22887401.322 7  96844107.31107       931.045 7        42.497
C27        52.000                                                                                                                                    21840700.159 8 113730261.81008       204.264 8        48.798                                                                    21840697.526 5  92415143.08105       166.110 5        32.754
C36        56.000                                                                                                                                    26520313.670 5 138098203.01105     -1967.974 5        30.981                                                                    26520318.653 5 112216225.20605     -1599.488 5        31.638
I06        58.000    38663964.545 5 151725869.52505      -535.444 5        31.547
> 2025 01 01 22 01 45.0000000  0 35
G14         1.000    24570464.538 5 129118598.50605       948.504 5        35.914                                                                                                    24570473.194 5                       739.099 5        31.887
G10         2.000    21666123.503 8 113856220.72108     -2805.048 8        50.361                                    21666120.416 6  88719133.50406     -2185.748 6        36.681    21666118.560 5  88719144.53505     -2185.967 5        34.557
G32         3.000    22560536.316 6 118556508.23306       956.529 6        41.945                                    22560526.489 4  92381592.77504       745.345 4        27.964    22560526.896 5  92381625.82205       745.310 5        33.838
G23         4.000                                                                                                                                                                    24582507.725 3                     -3345.046 3        22.476
E07         5.000    25706612.863 5 135089070.08005      1326.701 5        33.006                                                                    25706595.178 7 100878238.03807       990.669 7        43.469    25706593.954 6 103509839.84106      1016.606 6        40.577
G08         6.000    20537144.712 8 107923961.45008     -1604.081 8        48.393                                    20537143.345 7  84096160.19507     -1249.937 7        44.695    20537143.184 6  84096188.22306     -1250.045 6        41.588
G27         7.000    21835245.714 6 114744976.56906     -3732.910 6        38.544                                    21835239.332 3  89411610.34103     -2908.755 3        20.476
G21         8.000    21169186.717 6 111244933.82306       286.829 6        38.144                                    21169184.518 3  86684274.67403       223.501 3        18.000
G02         9.000    22664584.138 6 119103449.34106      1375.948 6        36.386                                    22664577.835 1  92807620.65101      1072.172 1        11.852
E08        12.000    26156284.480 7 137452196.48207     -1263.637 7        43.644                                                                    26156282.064 7 102642914.07707      -943.738 7        43.098    26156280.240 6 105320529.81606      -968.237 6        41.805
E13        16.000    25831234.201 7 135744028.82407     -2863.881 7        42.737                                                                                                                                    25831235.661 5 104011679.33405     -2194.576 5        35.600
E31        17.000    26118115.098 7 137251608.98807      -909.352 7        42.504                                                                    26118120.571 5 102493085.89705      -679.133 5        32.976    26118153.852 5 105166824.37305      -696.878 5        32.228
E26        19.000    23549711.274 7 123754555.54907      -859.641 7        43.814                                                                    23549707.446 6  92414190.32006      -641.863 6        38.093    23549708.713 7  94824927.93207      -658.770 7        43.386
S36        23.000    38395470.528 6 201769454.85706      -852.565 6        36.805
S23        24.000    38350221.563 6 201531737.73606      -850.891 6        40.558
R12        25.000    23880286.569 5 127564225.98315       981.422 5        34.557                                                                    23880295.435 4                       763.258 4        28.929
R20        26.000    19674537.697 6 105208616.56206      -175.348 6        36.265                                                                    19674539.995 7  81829099.88607      -136.428 7        46.915
R05        27.000    20082760.279 7 107354122.72407      1436.592 7        45.952                                                                    20082760.609 7  83497465.73207      1117.367 7        46.674
E33        28.000    25502906.120 6 134018673.88106      1077.620 6        37.384                                                                    25502904.522 6 100078872.32406       804.596 6        41.487    25502904.445 7 102689705.21307       825.526 7        43.475
R19        29.000                                                                                                                                    22199756.904 5                     -2965.317 5        32.317
R21        30.000    22462947.237 7 120204009.25307      2490.341 7        43.894                                                                    22462946.542 6  93491838.27606      1936.820 6        37.478
R04        31.000    20527270.260 6 109922549.13306     -2745.518 6        41.428                                                                    20527262.605 6  85495344.01206     -2135.209 6        36.582
R03        32.000    24229711.960 5                     -5062.324 5        32.473
C05        33.000                                                                                                                                                                                                    39353651.751 5                      -619.259 5        31.238
C33        37.000                                                                                                                                    23027149.522 5 119908417.61705     -1974.435 5        31.072                                                                    23027161.084 7  97435442.21107     -1604.334 7        46.317
C30        38.000                                                                                                                                    25241998.011 6 131441864.72606      2074.223 6        37.293                                                                    25242005.619 4                      1685.344 4        27.210
C28        40.000                                                                                                                                    22262723.989 6 115928063.17606     -2362.731 6        36.575                                                                    22262714.594 7  94200827.47607     -1920.260 7        43.191
R11        41.000    22809305.057 6 121886194.07506     -2682.369 6        40.851                                                                    22809289.310 5  94800148.17905     -2086.337 5        32.790
I01        44.000   370525771.712 6 150881946.95906     -2367.832 6        36.741
C13        45.000                                                                                                                                                                                                    39919565.051 3                     -1420.413 3        19.015    39919550.629 3                     -1493.270 3        21.190
C14        47.000                                                                                                                                    24561384.179 4 127897633.79204     -3328.673 4        24.752    24561379.529 7  98898509.76307     -2573.333 7        45.394    24561380.481 5 103927228.21005     -2704.419 5        34.233
C41        49.000                                                                                                                                    22886296.666 7 119175002.79307      1143.677 7        44.820                                                                    22886301.317 6  96839457.36306       929.117 6        41.297
C27        52.000                                                                                                                                    21840504.319 8 113729244.85908       202.867 8        49.136                                                                    21840502.534 5  92414316.75605       164.386 5        33.886
C36        56.000                                                                                                                                    26522208.936 5 138108051.50605     -1970.822 5        32.826                                                                    26522209.477 5 112224227.93505     -1601.302 5        32.305
I06        58.000    38664646.014 5 151728546.78705      -535.349 5        31.026
> 2025 01 01 22 01 50.0000000  0 35
G14         1.000    24569561.610 5 129113864.15805       945.184 5        35.381                                                                                                    24569578.149 5                       736.753 5        31.253
G10         2.000    21668793.315 8 113870251.72308     -2807.416 8        50.656                                    21668790.001 6  88730066.74606     -2187.595 6        37.059    21668790.266 5  88730077.79305     -2187.675 5        34.133
G32         3.000    22559628.202 6 118551733.48106       953.333 6        41.573                                    22559617.708 4  92377872.19904       742.844 4        27.461    22559616.593 5  92377905.23805       742.758 5        32.299
G23         4.000    24586596.762 3                     -4296.712 3        21.310                                                                                                    24586593.509 3                     -3348.302 3        22.171
E07         5.000    25705345.201 5 135082441.80805      1324.550 5        33.102                                                                    25705333.810 7 100873288.39207       989.063 7        43.359    25705333.881 6 103504761.09906      1014.865 6        41.056
G08         6.000    20538672.563 8 107931990.49808     -1607.584 8        48.715                                    20538671.012 7  84102416.61007     -1252.663 7        44.003    20538670.593 6  84102444.63506     -1252.621 6        41.375
G27         7.000    21838798.593 6 114763647.89506     -3735.691 6        39.817                                    21838791.513 3  89426159.39303     -2910.921 3        20.595    21838794.006 4  89426227.26404     -2910.817 4        27.425
G21         8.000    21168915.233 6 111243505.23506       284.499 6        39.616                                    21168912.384 3  86683161.50603       221.678 3        18.179
G02         9.000    22663276.206 5 119096573.70805      1374.533 5        35.105                                    22663269.304 1  92802263.01101      1071.132 1        10.815
E08        12.000    26157488.159 7 137458522.11007     -1266.702 7        42.800                                                                    26157485.702 7 102647637.75007      -945.938 7        42.834    26157484.089 6 105325376.71506      -970.465 6        41.990
E13        16.000    25833959.425 7 135758351.11007     -2864.999 7        42.222                                                                                                                                    25833961.212 5 104022653.57405     -2195.139 5        35.414
E31        17.000    26118981.877 7 137256163.55307      -912.460 7        42.635                                                                    26118987.725 5 102496486.99205      -681.437 5        32.365    26119022.329 4 105170314.20104      -699.223 4        29.185
E26        19.000    23550529.738 7 123758857.17607      -861.144 7        43.064                                                                    23550526.500 6  92417402.57706      -643.054 6        38.838    23550526.950 7  94828223.98507      -659.912 7        43.287
S36        23.000    38396286.515 6 201773717.95506      -852.809 6        36.994
S23        24.000    38351033.010 6 201535993.44106      -851.509 6        40.503
R12        25.000    23879374.176 5 127559328.60905       977.706 5        34.086                                                                    23879379.079 5                       760.354 5        31.117
R20        26.000    19674704.005 6 105209500.25506      -178.269 6        36.079                                                                    19674705.323 7  81829787.22507      -138.616 7        47.857
R05        27.000    20081418.764 7 107346950.90107      1432.044 7        46.143                                                                    20081419.274 7  83491887.65407      1113.823 7        46.793
E33        28.000    25501880.970 6 134013289.07906      1076.279 6        37.282                                                                    25501879.804 6 100074851.21606       803.800 6        41.259    25501879.834 7 102685579.18807       824.880 7        43.566
R19        29.000    22203349.749 3                     -3813.377 3        23.600                                                                    22203327.150 5                     -2966.322 5        32.407
R21        30.000    22460618.840 7 120191559.96307      2489.365 7        42.779                                                                    22460621.379 6  93482155.50106      1936.002 6        38.372
R04        31.000    20529830.965 6 109936288.11606     -2750.224 6        40.832                                                                    20529828.916 6  85506029.90306     -2138.906 6        37.845
R03        32.000    24234436.153 5                     -5063.279 5        31.909
C05        33.000                                                                                                                                                                                                    39354421.380 5                      -619.719 5        31.170
C33        37.000                                                                                                                                    23029047.191 5 119918296.55105     -1977.512 5        35.362                                                                    23029058.180 7  97443469.74407     -1606.704 7        46.042
C30        38.000                                                                                                                                    25240007.911 6 131431496.05106      2073.257 6        37.864                                                                    25240014.822 4                      1684.677 4        29.763
C28        40.000                                                                                                                                    22264989.652 6 115939883.90406     -2365.445 6        36.510                                                                    22264984.562 7  94210432.85007     -1921.929 7        43.390
R11        41.000    22811819.856 6 121899616.43106     -2686.604 6        41.719                                                                    22811803.274 5  94810587.88605     -2089.634 5        35.767
I01        44.000   370528789.160 6 150893789.15006     -2368.782 6        36.060
C13        45.000                                                                                                                                                                                                    39921318.267 3                     -1420.262 3        20.571    39921313.043 3                     -1492.331 3        23.010
C14        47.000                                                                                                                                                                                                    24564577.075 7  98911381.39407     -2575.109 7        45.889    24564577.571 5 103940754.33905     -2706.017 5        33.467
C41        49.000                                                                                                                                    22885201.066 7 119169291.25307      1140.851 7        44.489                                                                    22885204.312 6  96834816.27406       927.079 6        40.555
C27        52.000                                                                                                                                    21840309.727 8 113728236.04308       200.566 8        49.123                                                                    21840308.953 5  92413497.00205       162.809 5        34.109
C36        56.000                                                                                                                                    26524103.201 5 138117910.43205     -1973.093 5        35.100                                                                    26524103.636 5 112232239.25105     -1603.273 5        33.275
I06        58.000    38665327.232 5 151731223.42105      -535.759 5        30.936
> 2025 01 01 22 01 55.0000000  0 36
G14         1.000    24568666.593 5 129109143.13605       942.955 5        34.386                                                                                                    24568670.155 5                       734.434 5        30.770
G10         2.000    21671465.049 8 113884292.23808     -2809.047 8        50.819                                    21671461.389 6  88741007.41306     -2188.868 6        37.614    21671463.515 5  88741018.49905     -2189.241 5        33.760
G32         3.000    22558721.694 6 118546971.66906       951.081 6        40.079                                    22558710.872 4  92374161.76404       741.088 4        25.970    22558711.797 5  92374194.79905       740.928 5        31.132
G23         4.000    24590692.607 3                     -4294.443 3        23.276                                                                                                    24590680.576 3                     -3346.667 3        23.048
E07         5.000                                                                                                                                    25704074.027 7 100868344.93907       988.033 7        43.198    25704075.615 6 103499688.69806      1013.880 6        41.540
G08         6.000    20540203.090 8 107940034.62708     -1610.373 8        48.673                                    20540201.456 7  84108684.77007     -1254.835 7        43.490    20540201.478 6  84108712.78106     -1254.832 6        40.737
G27         7.000    21842354.508 6 114782329.13206     -3737.199 6        40.324                                    21842345.308 3  89440716.17703     -2912.096 3        20.167    21842347.647 4  89440784.14604     -2912.245 4        27.222
G21         8.000    21168646.243 6 111242084.34906       283.406 6        40.369                                    21168641.734 3  86682054.34103       220.834 3        18.627
G02         9.000    22661968.215 5 119089702.52505      1373.769 5        35.905                                    22661961.609 1  92796908.86801      1070.506 1         9.048
E08        12.000    26158694.172 7 137464860.02607     -1268.839 7        42.095                                                                    26158691.640 7 102652370.60807      -947.535 7        42.457    26158690.393 7 105330233.04607      -972.216 7        42.004
R10        15.000    24379782.846 3                     -4728.852 3        20.310
E13        16.000    25836685.294 6 135772675.96606     -2865.287 6        41.931                                                                                                                                    25836686.751 5 104033629.75605     -2195.527 5        34.919
E31        17.000    26119850.352 7 137260730.38107      -914.644 7        42.878                                                                    26119855.028 5 102499897.28505      -683.147 5        30.815
E26        19.000    23551349.020 7 123763163.94007      -861.896 7        42.419                                                                    23551345.927 6  92420618.67706      -643.584 6        39.126    23551346.213 7  94831523.95707      -660.388 7        42.580
S36        23.000    38397093.821 6 201777981.13206      -853.020 6        37.077
S23        24.000    38351845.034 6 201540248.98506      -851.122 6        40.987
R12        25.000                                                                                                                                    23878463.139 4                       757.448 4        29.014
R20        26.000    19674871.215 6 105210395.59306      -180.555 6        36.045                                                                    19674873.332 8  81830483.58708      -140.185 8        48.197
R05        27.000    20080080.998 7 107339798.90007      1428.397 7        46.579                                                                    20080081.461 7  83486324.99207      1110.973 7        46.888
E33        28.000    25500856.941 6 134007906.91106      1076.069 6        37.108                                                                    25500855.686 6 100070832.07506       803.414 6        40.591    25500855.816 7 102681455.20107       824.585 7        43.509
R19        29.000    22206918.953 4                     -3815.684 4        24.842                                                                    22206895.223 5                     -2967.597 5        32.162
R21        30.000    22458291.502 7 120179113.00007      2489.028 7        42.402                                                                    22458296.246 6  93472474.55306      1935.995 6        39.748
R04        31.000    20532401.154 6 109950047.37706     -2753.866 6        40.632                                                                    20532400.120 6  85516731.53806     -2141.905 6        38.883
R03        32.000    24239165.695 5                     -5064.364 5        31.525
C05        33.000                                                                                                                                                                                                    39355189.909 5                      -619.610 5        30.951
C33        37.000                                                                                                                                    23030950.379 6 119928188.50106     -1979.736 6        38.168                                                                    23030957.767 7  97451507.80307     -1608.582 7        45.764
C30        38.000                                                                                                                                    25238014.757 6 131421129.27006      2073.109 6        37.338                                                                    25238023.420 5                      1684.669 5        30.928
C28        40.000                                                                                                                                    22267248.346 6 115951713.59906     -2366.835 6        38.354                                                                    22267256.302 7  94220045.32707     -1923.018 7        43.733
R11        41.000    22814336.273 6 121913057.25606     -2690.131 6        41.340                                                                    22814319.066 6  94821041.84906     -2092.403 6        36.590
I01        44.000   370531806.495 5 150905632.84705     -2368.879 5        35.705
C13        45.000                                                                                                                                                                                                    39923083.301 3                     -1412.806 3        21.500    39923074.085 3                     -1490.901 3        22.152
C14        47.000                                                                                                                                                                                                    24567776.523 7  98924259.74007     -2576.372 7        45.925    24567776.839 5 103954287.52205     -2706.892 5        33.832
C41        49.000                                                                                                                                    22884107.501 7 119163591.26407      1138.852 7        44.536                                                                    22884109.841 6  96830184.54506       925.409 6        40.338
C27        52.000                                                                                                                                    21840118.243 8 113727235.99308       199.087 8        49.808                                                                    21840117.067 5  92412684.34305       161.718 5        34.962
C36        56.000                                                                                                                                    26526002.016 6 138127780.57006     -1975.209 6        36.344                                                                    26526002.701 5 112240259.57905     -1604.795 5        35.086
I06        58.000    38666010.252 5 151733900.02705      -535.590 5        30.966
> 2025 01 01 22 02  0.0000000  0 36
G14         1.000    24267983.016 5 127529014.65505       940.008 5        33.994
G10         2.000    21374346.615 8 112322925.07808     -2810.982 8        50.961                                    21374342.796 6  87524357.69406     -2190.380 6        38.513    21374343.998 5  87524368.73505     -2190.285 5        33.719
G32         3.000    22258024.940 6 116966801.92906       948.309 6        39.279                                    22258013.366 4  91142860.73504       738.930 4        24.602    22258014.345 4  91142893.81004       738.556 4        27.509
G23         4.000                                                                                                                                                                    24294981.826 3                     -3346.555 3        22.476
E07         5.000    25403015.600 5 133493788.90605      1321.405 5        33.485                                                                    25403023.123 7  99686956.72007       986.780 7        42.696    25403026.229 6 102287481.66406      1012.573 6        41.416
G08         6.000    20241944.513 8 106372675.48008     -1613.431 8        48.763                                    20241942.564 7  82887365.96407     -1257.219 7        43.084    20241942.967 6  82887393.98906     -1257.253 6        40.389
G27         7.000    21546119.163 6 113225604.11006     -3739.295 6        39.414                                    21546109.346 3  88227683.64203     -2913.729 3        19.791    21546115.075 4  88227751.58504     -2913.464 4        26.922
G21         8.000    20868584.946 6 109665250.92206       281.708 6        40.007                                    20868579.933 3  85453352.97503       219.527 3        19.254
G02         9.000    22360868.572 6 117507414.40506      1372.830 6        37.845                                    22360862.047 1  91563957.14301      1069.762 1         8.381
E08        12.000    25860110.263 6 135895791.54806     -1271.341 6        41.166                                                                    25860107.777 7 101480663.62607      -949.381 7        42.263    25860106.911 6 104127959.80006      -974.146 6        41.738
R10        15.000    24084431.532 3                     -4730.564 3        20.286
E13        16.000    25539620.007 6 134211586.26906     -2865.808 6        41.218                                                                                                                                    25539620.778 5 102837470.14805     -2195.926 5        33.982
E31        17.000    25820929.663 7 135689890.45707      -917.070 7        43.431                                                                    25820931.895 4 101326867.47604      -684.655 4        28.929
E26        19.000    23252376.952 6 122192056.73106      -862.917 6        41.595                                                                    23252374.417 6  91247389.27506      -644.401 6        39.904    23252373.663 6  93627688.57006      -661.151 6        41.921
S36        23.000    38098111.554 6 200206825.50206      -852.807 6        37.059
S23        24.000    38052860.527 6 199969085.22006      -851.202 6        41.070
R12        25.000                                                                                                                                    23577759.869 4                       754.597 4        29.242
R20        26.000    19375249.556 5 103608177.76005      -182.602 5        35.843                                                                    19375249.684 7  80584314.17307      -141.982 7        47.174
R05        27.000    19778955.047 7 105730102.92107      1424.341 7        47.280                                                                    19778954.609 7  82234339.22707      1107.847 7        46.707
E33        28.000    25200041.237 6 132427106.39606      1075.362 6        37.338                                                                    25200039.354 6  98890364.13006       803.216 6        40.250    25200039.537 7 101470192.44007       824.157 7        43.302
R19        29.000                                                                                                                                    21910666.733 5                     -2968.699 5        31.472
R21        30.000    22156173.354 6 118562415.89906      2488.651 6        41.747                                                                    22156177.910 6  92215043.45906      1935.587 6        40.167
R04        31.000    20235184.050 6 108358454.51306     -2758.035 6        39.219                                                                    20235179.549 6  84278826.01606     -2145.124 6        39.667
R03        32.000    23944107.876 5                     -5065.533 5        31.011
C05        33.000                                                                                                                                                                                                    39056165.649 5                      -619.861 5        31.170
C33        37.000                                                                                                                                    22733069.186 6 118376997.46206     -1982.304 6        38.459                                                                    22733067.595 7  96191038.07607     -1611.014 7        45.401
C30        38.000                                                                                                                                    24936230.859 6 129849664.34006      2072.828 6        36.824                                                                    24936240.768 5                      1684.234 5        31.977
C28        40.000                                                                                                                                    21969733.369 6 114402456.38306     -2368.711 6        40.336                                                                    21969737.686 7  92961146.93807     -1924.801 7        43.953
R11        41.000    22517061.617 6 120324519.23206     -2693.750 6        41.397                                                                    22517047.291 6  93585512.20606     -2094.918 6        36.004
I01        44.000   370235033.612 5 149741030.43705     -2369.353 5        35.481
C13        45.000                                                                                                                                                                                                    39625055.640 3                     -1421.574 3        23.124    39625044.761 3                     -1495.296 3        20.405
C14        47.000                                                                                                                                    24271244.863 5                     -3333.592 5        34.595    24271185.162 7  97730007.39607     -2577.762 7        45.645    24271187.207 5 102699310.52605     -2708.860 5        34.395
C41        49.000                                                                                                                                    22583222.896 7 117596803.72107      1136.513 7        44.682                                                                    22583225.082 6  95557041.32606       923.425 6        39.622
C27        52.000                                                                                                                                    21540136.223 8 112165146.53608       197.326 8        50.128                                                                    21540134.112 5  91143358.70905       160.074 5        35.462
C36        56.000                                                                                                                                                                                                                                                                    26228113.676 6 110979770.67006     -1607.106 6        36.446
I06        58.000    38366900.840 5 150560127.01705      -535.209 5        31.268
> 2025 01 01 22 02  5.0000000  0 36
G14         1.000    24267090.990 5 127524321.41005       937.072 5        31.494                                                                                                    24267073.558 5  99369607.91315       730.185 5        33.832
G10         2.000    21377022.253 8 112336985.37708     -2813.026 8        51.009                                    21377018.284 6  87535313.78506     -2191.973 6        39.673    21377019.795 6  87535324.81706     -2192.012 6        36.019
G32         3.000    22257125.204 6 116962066.93306       945.708 6        38.438                                    22257110.836 3  91139171.19703       736.903 3        23.752    22257109.951 3  91139204.11803       738.924 3        22.552
G23         4.000    24299099.455 3                     -4295.894 3        23.790
E07         5.000    25401761.987 5 133487186.34405      1319.645 5        34.738                                                                    25401766.476 7  99682026.26207       985.461 7        42.389    25401770.606 6 102282422.59006      1011.136 6        41.311
G08         6.000    20243481.225 8 106380750.57408     -1616.562 8        49.245                                    20243478.812 7  82893658.24807     -1259.665 7        42.764    20243479.971 6  82893686.25706     -1259.543 6        39.958
G27         7.000    21549676.033 6 113244306.03706     -3741.126 6        36.836                                    21549667.957 3  88242256.53003     -2915.153 3        19.642    21549675.717 4  88242324.57804     -2915.360 4        27.162
G21         8.000    20868317.380 6 109663846.27806       280.015 6        39.114                                    20868312.064 3  85452258.46003       218.178 3        19.552
G02         9.000    22359565.962 6 117500552.90006      1371.822 6        39.384                                    22359556.311 1  91558610.51201      1068.928 1         8.190
E08        12.000    25861321.137 6 135902154.88106     -1273.901 6        40.672                                                                    25861318.852 7 101485415.45707      -951.245 7        42.021    25861317.627 6 104132835.59206      -976.083 6        41.838
R10        15.000    24088866.299 3                     -4731.203 3        20.976
E13        16.000    25542347.019 6 134225917.07006     -2866.535 6        40.722                                                                                                                                    25542347.026 5 102848450.89005     -2196.600 5        33.150
E31        17.000    25821803.909 7 135694482.71307      -919.709 7        43.412
E26        19.000    23253198.106 6 122196374.58206      -863.933 6        41.142                                                                    23253196.346 6  91250613.64606      -645.242 6        40.522    23253194.321 6  93630997.06706      -662.075 6        41.249
S36        23.000    38098925.023 6 200211089.69406      -852.680 6        36.801
S23        24.000    38053669.287 6 199973341.12006      -851.205 6        41.092
R12        25.000    23576889.614 5 125943310.09215       966.149 5        34.252                                                                    23576853.087 5                       751.599 5        31.253
R20        26.000    19375420.055 5 103609097.03905      -184.910 5        35.852                                                                    19375419.693 7  80585029.19307      -143.932 7        45.428
R05        27.000    19777625.755 7 105722991.49407      1420.284 7        47.640                                                                    19777623.717 7  82228808.12607      1104.651 7        46.351
E33        28.000    25199018.986 6 132421730.33106      1074.905 6        38.441                                                                    25199016.359 6  98886349.54606       802.676 6        39.802    25199016.617 7 101466073.12707       823.579 7        43.318
R19        29.000                                                                                                                                    21914232.159 5                     -2969.917 5        30.181
R21        30.000    22153850.094 7 118549974.36807      2487.968 7        42.286                                                                    22153851.916 6  92205366.68406      1935.077 6        40.234
R04        31.000    20237759.522 6 108372254.87006     -2762.148 6        40.744                                                                    20237757.577 6  84289559.61106     -2148.279 6        39.300
R03        32.000    23948845.510 4                     -5066.554 4        29.782                                                                    23948838.489 3                     -3939.547 3        19.194
C05        33.000                                                                                                                                                                                                    39056936.342 5                      -619.784 5        30.800
C33        37.000                                                                                                                                    22734975.379 6 118386916.28106     -1984.990 6        36.586                                                                    22734971.934 7  96199097.90607     -1613.120 7        44.859
C30        38.000                                                                                                                                    24934240.789 6 129839302.12706      2072.462 6        36.669                                                                    24934249.099 5                      1683.796 5        32.701
C28        40.000                                                                                                                                    21972011.625 7 114414304.33207     -2370.565 7        42.318                                                                    21972012.994 7  92970774.36707     -1926.215 7        43.954
R11        41.000    22519581.853 7 120337997.63407     -2697.503 7        42.375                                                                    22519571.732 5  93595995.45705     -2097.986 5        34.871
I01        44.000   370238053.227 5 149752877.66305     -2369.548 5        34.562
C13        45.000                                                                                                                                                                                                    39626817.835 3                     -1419.770 3        22.609    39626806.812 3                     -1495.479 3        21.500
C14        47.000                                                                                                                                    24274439.323 6                     -3335.371 6        36.862    24274386.532 7  97742899.78407     -2579.121 7        44.826    24274392.451 5 102712858.51205     -2710.470 5        35.133
C41        49.000                                                                                                                                    22582132.797 7 117591127.65207      1134.083 7        45.132                                                                    22582134.934 6  95552429.05006       921.527 6        38.991
C27        52.000                                                                                                                                    21539947.728 8 112164164.83408       195.453 8        50.084                                                                    21539945.398 5  91142560.97005       158.799 5        35.462
C36        56.000                                                                                                                                                                                                                                                                    26230019.192 6 110987809.83006     -1608.911 6        37.633
I06        58.000    38367583.312 5 150562803.98305      -535.477 5        31.026
> 2025 01 01 22 02 10.0000000  0 36
G14         1.000                                                                                                                                                                    24266185.598 5  99365961.34605       728.089 5        34.948
G10         2.000    21379699.761 8 112351055.39608     -2814.982 8        51.430                                    21379695.891 6  87546277.45006     -2193.500 6        40.989    21379696.897 6  87546288.48206     -2193.189 6        37.807
G32         3.000    22256226.089 5 116957345.20705       942.808 5        35.762                                    22256210.775 3  91135491.99403       734.641 3        22.057
G23         4.000    24303188.481 3                     -4296.630 3        23.562                                                                                                    24303154.101 3                     -3349.274 3        21.381
E07         5.000    25400509.315 5 133480592.38105      1317.800 5        35.443                                                                    25400511.742 6  99677102.21806       984.157 6        41.838    25400515.975 6 102277370.08606      1009.711 6        41.001
G08         6.000    20245020.773 8 106388841.02608     -1619.530 8        49.477                                    20245018.083 7  82899962.50407     -1261.976 7        42.741    20245019.300 6  82899990.51706     -1262.021 6        39.862
G27         7.000    21553235.575 5 113263018.25205     -3743.652 5        34.114                                    21553229.010 3  88256837.41703     -2917.133 3        19.612    21553236.911 4  88256905.43504     -2917.153 4        29.327
G21         8.000    20868052.238 6 109662449.66006       278.399 6        39.042                                    20868045.677 3  85451170.18903       216.926 3        20.333
G02         9.000    22358265.989 6 117493696.12706      1370.658 6        39.763                                    22358251.428 1  91553267.58301      1068.053 1         9.524
E08        12.000    25862534.685 6 135908530.77106     -1276.485 6        39.517                                                                    25862532.410 6 101490176.68206      -953.177 6        41.888    25862530.597 6 104137721.00806      -977.996 6        41.785
R10        15.000    24093299.640 3                     -4731.675 3        19.373
E13        16.000    25545075.006 6 134240250.68306     -2867.024 6        40.372                                                                                                                                    25545073.881 5 102859433.79905     -2196.926 5        31.766
E31        17.000    25822679.161 7 135699087.52207      -922.137 7        43.264                                                                    25822676.267 3 101333735.36203      -688.352 3        23.371
E26        19.000    23254021.235 6 122200697.83506      -865.200 6        41.225                                                                    23254019.195 6  91253842.06206      -646.069 6        41.204    23254016.276 6  93634309.70306      -663.019 6        40.803
S36        23.000    38099733.304 6 200215354.06006      -852.917 6        37.130
S23        24.000    38054480.717 6 199977597.09006      -851.184 6        41.123
R12        25.000    23575985.081 5 125938488.03215       962.588 5        33.874                                                                    23575956.079 5  97952182.93515       748.613 5        34.795
R20        26.000    19375594.428 6 103610028.05606      -187.376 6        37.081                                                                    19375592.880 7  80585753.32207      -145.852 7        44.373
R05        27.000    19776298.395 7 105715900.31907      1416.242 7        47.402                                                                    19776297.215 7  82223292.78907      1101.530 7        46.130
E33        28.000    25197996.047 6 132416357.18106      1074.286 6        39.018                                                                    25197993.774 6  98882337.12706       802.237 6        39.285    25197993.911 7 101461956.02307       823.270 7        43.257
R19        29.000                                                                                                                                    21917800.675 4                     -2971.146 4        28.104
R21        30.000    22151526.577 6 118537535.41206      2487.513 6        41.952                                                                    22151525.967 6  92195691.90606      1934.920 6        38.616
R04        31.000    20240340.149 7 108386075.83007     -2766.242 7        44.382                                                                    20240338.084 6  84300309.21306     -2151.510 6        38.186
R03        32.000    23953583.999 4                     -5067.662 4        28.929
C05        33.000                                                                                                                                                                                                    39057707.156 5                      -619.977 5        30.808
C33        37.000                                                                                                                                    22736872.987 5 118396848.39205     -1987.796 5        35.495                                                                    22736878.972 7  96207168.49407     -1615.087 7        44.324
C30        38.000                                                                                                                                    24932252.542 6 129828942.10706      2071.804 6        37.047                                                                    24932257.702 5                      1683.549 5        32.587
C28        40.000                                                                                                                                    21974289.868 7 114426161.33207     -2372.279 7        44.628                                                                    21974289.842 7  92980409.15707     -1927.535 7        43.926
R11        41.000    22522108.560 6 120351494.71706     -2701.373 6        41.542                                                                    22522094.185 5  93606493.19405     -2100.959 5        35.762
I01        44.000   370241072.152 5 149764726.59805     -2369.910 5        34.614
C13        45.000                                                                                                                                                                                                    39628578.800 3                     -1419.709 3        23.371    39628567.120 3                     -1487.293 3        18.328
C14        47.000                                                                                                                                    24277634.867 6 126420112.60616     -3337.099 6        37.047    24277590.055 7  97755799.10607     -2580.613 7        44.390    24277598.383 6 102726413.75306     -2711.760 6        36.401
C41        49.000                                                                                                                                    22581044.112 7 117585463.41807      1131.664 7        44.932                                                                    22581046.918 6  95547826.41006       919.721 6        37.932
C27        52.000                                                                                                                                    21539760.539 8 112163192.20508       193.638 8        49.603                                                                    21539758.727 6  91141770.60306       157.506 6        36.287
C36        56.000                                                                                                                                    26231939.964 5 136596363.99105     -1982.550 5        30.015                                                                    26231920.435 6 110995858.21006     -1610.442 6        37.614
I06        58.000    38368265.711 5 150565481.00505      -534.883 5        31.079
> 2025 01 01 22 02 15.0000000  0 34
G14         1.000                                                                                                                                                                    24265297.701 5  99362325.24405       726.160 5        34.962
G10         2.000    21382379.024 8 112365134.81008     -2816.637 8        51.295                                    21382375.516 7  87557248.43807     -2194.787 7        42.453    21382377.273 6  87557259.47406     -2194.825 6        39.985
G32         3.000    22255324.706 5 116952636.39505       940.787 5        32.216                                    22255313.959 3  91131822.83803       733.044 3        19.821    22255320.287 3                       732.652 3        23.848
G23         4.000    24307278.039 4                     -4296.777 4        24.075                                                                                                    24307235.749 3                     -3349.381 3        22.971
E07         5.000    25399256.643 5 133474006.66705      1316.195 5        35.971                                                                    25399258.326 6  99672184.32606       983.128 6        41.063    25399262.297 6 102272323.86506      1008.926 6        40.226
G08         6.000    20246563.290 8 106396946.50308     -1622.473 8        49.012                                    20246560.288 7  82906278.46807     -1264.264 7        42.967    20246562.243 6  82906306.47206     -1264.270 6        40.274
G27         7.000    21556798.586 5 113281740.25505     -3745.349 5        31.502                                    21556792.679 3  88271425.95803     -2918.445 3        20.095    21556799.344 5  88271493.96005     -2918.443 5        32.305
G21         8.000    20867787.873 6 109661060.71106       277.170 6        40.074                                    20867781.149 3  85450087.89503       215.971 3        21.690
G02         9.000    22356962.700 6 117486843.69706      1370.212 6        39.766                                    22356947.400 1  91547928.03101      1067.738 1         9.905
E08        12.000    25863749.564 6 135914918.87406     -1278.629 6        39.000                                                                    25863748.381 6 101494947.01906      -954.658 6        41.757    25863746.296 6 104142615.78706      -979.729 6        41.743
E13        16.000    25547803.021 6 134254586.77006     -2867.237 6        39.661                                                                                                                                    25547801.490 5 102870418.62805     -2196.981 5        31.336
E31        17.000    25823556.903 7 135703704.55507      -924.394 7        42.942                                                                                                                                    25823610.859 4                      -708.325 4        28.227
E26        19.000    23254845.170 6 122205026.14606      -865.828 6        41.483                                                                    23254843.005 6  91257074.25406      -646.653 6        41.838    23254839.533 6  93637626.21206      -663.451 6        40.474
S36        23.000    38100545.096 6 200219617.65306      -852.130 6        37.278
S23        24.000    38055291.216 6 199981852.77606      -850.860 6        41.011
R12        25.000                                                                                                                                    23575057.754 6  97948446.87206       745.970 6        36.185
R20        26.000    19375769.554 6 103610970.39906      -189.441 6        36.809                                                                    19375769.120 7  80586486.26107      -147.319 7        43.736
R05        27.000    19774974.210 7 105708828.88407      1412.496 7        47.524                                                                    19774973.516 7  82217792.81507      1098.600 7        45.252
E33        28.000    25196973.722 6 132410986.58606      1073.979 6        39.492                                                                    25196971.944 6  98878326.61606       802.005 6        38.742    25196971.603 7 101457840.89107       823.026 7        42.952
R19        29.000                                                                                                                                    21921371.691 4                     -2972.324 4        27.784
R21        30.000    22149202.819 7 118525098.72307      2487.282 7        42.315                                                                    22149200.595 6  92186018.95506      1934.444 6        36.964
R04        31.000    20242926.670 7 108399916.87107     -2770.094 7        44.092                                                                    20242922.707 6  84311074.40506     -2154.505 6        37.580
R03        32.000    23958324.733 4                     -5069.084 4        27.593
C05        33.000                                                                                                                                                                                                    39058477.518 5                      -619.642 5        31.026
C33        37.000                                                                                                                                    22738777.190 6 118406793.31306     -1989.982 6        36.473                                                                    22738788.533 7  96215249.56507     -1617.084 7        44.122
C30        38.000                                                                                                                                    24930264.476 6 129818583.91806      2071.769 6        37.947                                                                    24930266.770 5                      1683.258 5        33.066
C28        40.000                                                                                                                                    21976569.376 7 114438027.04807     -2373.775 7        45.853                                                                    21976568.311 7  92990051.03207     -1928.982 7        43.958
R11        41.000    22524638.569 6 120365010.04806     -2704.682 6        38.823                                                                    22524621.087 6  93617005.08706     -2103.484 6        37.698
I01        44.000   370244091.358 5 149776577.00305     -2369.869 5        34.205
C14        47.000                                                                                                                                    24280834.615 6 126436802.88706     -3338.601 6        36.121    24280795.613 7  97768705.07207     -2581.709 7        43.951    24280805.451 6 102739975.97706     -2712.969 6        37.025
C41        49.000                                                                                                                                    22579957.402 7 117579810.69907      1129.665 7        43.575                                                                    22579960.761 6  95543233.07306       918.096 6        36.624
C27        52.000                                                                                                                                    21539575.503 8 112162228.28308       192.087 8        48.855                                                                    21539573.207 6  91140987.28206       156.222 6        36.828
C36        56.000                                                                                                                                                                                                                                                                    26233819.402 6 111003915.55606     -1612.117 6        37.539
I06        58.000    38368946.294 5 150568157.92305      -535.187 5        30.204
> 2025 01 01 22 02 20.0000000  0 36
G14         1.000    24264401.828 5 127510321.83505       929.658 5        35.248                                                                                                    24264408.980 5  99358699.02005       724.448 5        35.171
G10         2.000    21385059.979 8 112379222.95808     -2818.338 8        51.279                                    21385056.996 7  87568226.23007     -2196.110 7        43.879    21385058.759 6  87568237.24706     -2196.141 6        41.378
G32         3.000    22254424.806 5 116947939.99405       938.837 5        30.136                                    22254420.100 2  91128163.32402       731.491 2        17.396    22254421.804 4                       730.931 4        25.038
G23         4.000    24311367.127 3                     -4299.417 3        21.690                                                                                                    24311314.186 3                     -3347.812 3        21.881
E07         5.000    25398004.785 5 133467428.53105      1315.012 5        35.800                                                                    25398006.129 6  99667272.11906       981.946 6        40.341    25398009.263 6 102267283.46706      1007.529 6        39.027
G08         6.000    20248108.568 8 106405066.31308     -1625.247 8        49.177                                    20248105.269 7  82912605.60307     -1266.424 7        43.316    20248106.986 6  82912633.60506     -1266.516 6        40.839
G27         7.000    21560364.787 4 113300471.39604     -3746.880 4        28.682                                    21560358.364 3  88286021.63303     -2919.655 3        20.429    21560365.571 5  88286089.68805     -2919.919 5        34.457
G21         8.000    20867525.184 6 109659678.79006       275.919 6        40.768                                    20867518.182 3  85449011.06503       215.001 3        22.552
G02         9.000    22355657.947 6 117479994.99806      1369.554 6        40.081                                    22355644.110 1  91542591.37401      1067.192 1         9.619
E08        12.000    25864967.585 6 135921318.54606     -1280.875 6        39.631                                                                    25864966.437 6 101499726.00806      -956.526 6        41.728    25864963.836 6 104147519.43106      -981.626 6        41.633
R10        15.000    24102187.830 3                     -4731.233 3        22.057
E13        16.000    25550531.634 6 134268924.70106     -2867.709 6        39.586                                                                                                                                    25550529.701 5 102881404.82405     -2197.041 5        30.709
E31        17.000    25824437.368 7 135708333.13907      -926.776 7        42.779                                                                                                                                    25824491.245 5                      -710.057 5        30.068
E26        19.000    23255669.672 7 122209358.90907      -866.840 7        42.330                                                                    23255667.537 7  91260309.74807      -647.347 7        42.571    23255663.872 6  93640946.11206      -664.245 6        40.086
S36        23.000    38101358.592 6 200223879.77506      -852.170 6        37.077
S23        24.000    38056100.598 6 199986107.58906      -850.656 6        40.994
R12        25.000                                                                                                                                    23574165.053 5  97944724.70305       742.985 5        35.233
R20        26.000    19375946.422 6 103611923.53006      -191.435 6        36.548                                                                    19375946.261 6  80587227.59806      -149.103 6        41.959
R05        27.000    19773654.590 8 105701776.59408      1408.680 8        48.109                                                                    19773653.726 7  82212307.71107      1095.644 7        44.272
E33        28.000    25195951.884 6 132405617.91106      1073.573 6        39.937                                                                    25195950.039 6  98874317.54206       801.602 6        38.520    25195949.452 7 101453727.23107       822.625 7        42.472
R19        29.000                                                                                                                                    21924944.598 4                     -2973.049 4        26.479
R21        30.000    22146878.754 7 118512663.66407      2487.027 7        42.453                                                                    22146877.632 5  92176347.23305      1934.400 5        34.990
R04        31.000    20245513.139 6 108413777.25506     -2773.872 6        40.925                                                                    20245512.044 6  84321854.70406     -2157.642 6        37.369
R03        32.000    23963058.518 4                     -5069.327 4        26.683
C05        33.000                                                                                                                                                                                                    39059245.720 5                      -620.223 5        31.253
C33        37.000                                                                                                                                    22740697.761 6 118416750.55006     -1992.553 6        37.255                                                                    22740700.610 7  96223340.60907     -1619.183 7        43.636
C30        38.000                                                                                                                                    24928276.680 6 129808226.91606      2071.527 6        37.724                                                                    24928276.849 5                      1682.990 5        33.653
C28        40.000                                                                                                                                    21978849.411 7 114449900.84507     -2375.413 7        46.360                                                                    21978848.545 7  92999699.47107     -1930.269 7        43.754
R11        41.000    22527166.423 6 120378543.09106     -2708.398 6        36.620                                                                    22527154.738 6  93627530.69506     -2106.380 6        37.905
I01        44.000   370247112.610 5 149788428.33505     -2370.471 5        34.000
C13        45.000                                                                                                                                    39632149.850 4                     -1835.457 4        25.774    39632089.588 3                     -1419.608 3        22.381
C14        47.000                                                                                                                                    24284041.285 5 126453501.15105     -3340.354 5        33.479    24284002.735 7  97781617.17907     -2582.878 7        43.181    24284014.001 6 102753544.68706     -2714.319 6        36.991
C41        49.000                                                                                                                                    22578873.713 6 117574168.86006      1127.320 6        41.294                                                                    22578876.462 5  95538648.61305       915.960 5        34.757
C27        52.000                                                                                                                                    21539392.126 8 112161272.41608       190.538 8        48.290                                                                    21539389.736 6  91140210.56506       154.824 6        36.722
C36        56.000                                                                                                                                                                                                                                                                    26235716.190 6 111011981.36006     -1613.908 6        37.493
I06        58.000    38369627.955 5 150570834.16405      -535.542 5        30.287
> 2025 01 01 22 02 25.0000000  0 35
G14         1.000    24263528.525 6 127505681.57406       926.681 6        37.202                                    24263519.830 1  99355057.27611       722.087 1         9.238    24263523.343 6  99355083.21006       722.103 6        36.257
G10         2.000    21387742.846 8 112393320.34608     -2820.451 8        51.015                                    21387740.389 7  87579211.21407     -2197.757 7        45.135    21387741.491 7  87579222.23607     -2197.774 7        42.838
G32         3.000    22253535.943 5 116943256.39105       935.273 5        33.689                                    22253528.570 2  91124513.82702       728.776 2        16.830    22253531.428 4                       728.410 4        28.190
G23         4.000    24315464.319 3                     -4300.396 3        21.595                                                                                                    24315401.723 3                     -3348.437 3        22.724
E07         5.000    25396754.516 6 133460858.56106      1313.038 6        36.049                                                                    25396755.827 6  99662365.96806       980.616 6        39.628    25396756.878 6 102262249.29806      1006.248 6        38.616
G08         6.000    20249657.146 8 106413201.00108     -1628.492 8        49.316                                    20249653.233 7  82918944.32907     -1268.953 7        43.856    20249655.112 6  82918972.33206     -1268.871 6        41.480
G27         7.000                                                                                                                                                                    21563930.840 6  88300692.93906     -2921.431 6        36.854
G21         8.000    20867263.870 6 109658304.39506       274.096 6        40.865                                    20867256.905 3  85447940.10703       213.569 3        23.390
G02         9.000    22354354.468 6 117473150.58006      1368.741 6        38.796                                    22354341.428 1  91537258.09301      1066.645 1         7.625
E08        12.000    25866187.494 6 135927730.33806     -1283.673 6        40.117                                                                    25866186.683 6 101504514.01406      -958.435 6        41.671    25866183.637 6 104152432.33606      -983.431 6        41.571
R10        15.000    24106629.431 3                     -4731.097 3        19.403
E13        16.000    25553260.644 6 134283264.98406     -2868.251 6        39.375                                                                                                                                    25553258.430 5 102892392.90905     -2197.906 5        30.875
E31        17.000    25825320.194 7 135712973.83407      -929.273 7        42.258                                                                                                                                    25825371.981 4                      -712.189 4        27.808
E26        19.000    23256495.387 7 122213696.58907      -868.047 7        42.720                                                                    23256493.144 7  91263548.92907      -648.173 7        42.859    23256489.404 6  93644269.80206      -665.274 6        39.880
S36        23.000    38102169.614 6 200228141.57506      -852.358 6        36.749
S23        24.000    38056909.693 6 199990362.17206      -850.925 6        40.720
R12        25.000    23573259.094 4 125924131.70304       951.099 4        29.611                                                                    23573270.128 5  97941016.86905       739.994 5        33.341
R20        26.000    19376125.858 6 103612888.05606      -194.397 6        36.295                                                                    19376126.628 6  80587977.78706      -151.049 6        39.631
R05        27.000    19772339.668 8 105694744.13808      1404.452 8        48.513                                                                    19772337.559 7  82206838.03007      1092.390 7        43.278
E33        28.000    25194930.854 6 132400251.70406      1072.924 6        39.706                                                                    25194928.730 6  98870310.29306       801.270 6        37.887    25194927.577 6 101449615.44406       822.172 6        41.821
R19        29.000                                                                                                                                    21928520.769 4                     -2974.732 4        26.455
R21        30.000    22144555.935 7 118500230.67007      2486.408 7        43.321                                                                    22144555.635 5  92166677.14305      1933.881 5        34.805
R04        31.000    20248104.608 6 108427657.58406     -2778.094 6        37.766                                                                    20248104.057 6  84332650.56406     -2160.807 6        38.826
C05        33.000                                                                                                                                                                                                    39060016.879 5                      -619.782 5        31.351
C33        37.000                                                                                                                                    22742617.535 6 118426720.49806     -1995.252 6        37.932                                                                    22742615.194 7  96231442.03207     -1621.482 7        43.507
C30        38.000                                                                                                                                    24926290.999 6 129797871.67206      2070.962 6        37.172                                                                    24926289.549 5 105471281.90115      1682.577 5        34.167
C28        40.000                                                                                                                                    21981131.467 7 114461783.24207     -2377.391 7        46.916                                                                    21981130.475 7  93009354.90307     -1931.950 7        43.674
R11        41.000    22529693.394 6 120392094.16806     -2711.979 6        39.045                                                                    22529692.704 6  93638070.42206     -2109.234 6        37.055
I01        44.000   370250132.544 5 149800280.99105     -2370.753 5        34.029
C13        45.000                                                                                                                                    39633922.888 4                     -1835.191 4        28.142    39633854.600 3                     -1419.036 3        23.048
C14        47.000                                                                                                                                    24287254.672 5 126470207.87005     -3341.948 5        32.329    24287211.724 7  97794535.83207     -2584.370 7        42.284    24287223.585 6 102767120.26506     -2716.033 6        37.021
C41        49.000                                                                                                                                    22577792.803 6 117568538.42506      1124.856 6        39.060                                                                    22577794.407 5  95534073.39905       914.061 5        32.904
C27        52.000                                                                                                                                    21539210.813 7 112160325.17107       188.597 7        47.886                                                                    21539207.488 6  91139440.85706       152.997 6        37.043
C36        56.000                                                                                                                                    26237708.313 4 136626142.61904     -1989.046 4        28.209                                                                    26237620.212 6 111020056.08506     -1616.123 6        36.991
I06        58.000    38370310.840 5 150573510.16705      -535.375 5        30.445
> 2025 01 01 22 02 30.0000000  0 34
G14         1.000                                                                                                                                                                    24262642.364 6  99351477.67606       720.001 6        36.915
G10         2.000    21390427.028 8 112407426.93608     -2822.331 8        51.157                                    21390425.617 7  87590203.36707     -2199.220 7        46.214    21390425.999 7  87590214.37407     -2199.108 7        43.566
G32         3.000    22252651.822 5 116938585.62205       933.057 5        35.219                                    22252640.045 2  91120874.33402       727.034 2        17.811    22252643.837 5                       727.286 5        30.747
G23         4.000    24319551.686 3                     -4297.285 3        22.590                                                                                                    24319495.096 3                     -3350.156 3        22.324
E07         5.000    25395506.432 6 133454296.67506      1311.609 6        36.370                                                                    25395506.790 6  99657465.90006       979.242 6        38.805    25395505.754 6 102257221.33706      1004.994 6        38.411
G08         6.000    20251208.038 8 106421350.52908     -1631.369 8        49.669                                    20251204.171 7  82925294.61107     -1271.196 7        44.393    20251206.054 6  82925322.62106     -1271.228 6        41.554
G27         7.000    21567501.599 4 113337962.72404     -3751.053 4        28.806                                    21567496.169 4  88315235.65704     -2922.920 4        24.195    21567498.774 6  88315303.71006     -2922.917 6        38.625
G21         8.000    20867003.316 6 109656937.50406       272.605 6        41.731                                    20866997.309 3  85446874.99103       212.419 3        23.676
G02         9.000    22353049.377 6 117466310.43706      1367.534 6        39.360                                    22353039.699 1  91531928.07801      1065.616 1        10.370
E08        12.000    25867409.826 6 135934154.16606     -1286.078 6        40.403                                                                    25867409.277 6 101509311.03806      -960.268 6        41.847    25867406.206 6 104157354.49406      -985.412 6        41.554
E13        16.000    25555989.825 6 134297607.59106     -2868.704 6        39.366                                                                                                                                    25555989.135 5 102903382.70705     -2198.072 5        31.826
E31        17.000    25826204.900 6 135717626.59906      -931.690 6        41.271
E26        19.000    23257322.038 7 122218039.19607      -868.978 7        43.136                                                                    23257319.641 7  91266791.78007      -648.952 7        43.488    23257315.935 6  93647597.26206      -665.996 6        39.814
S36        23.000    38102978.687 6 200232403.03006      -852.413 6        36.340
S23        24.000    38057719.003 6 199994616.43706      -850.986 6        40.715
R12        25.000                                                                                                                                    23572379.111 5  97937323.38505       737.564 5        30.883
R20        26.000    19376309.957 5 103613863.80705      -196.189 5        35.429                                                                    19376310.900 6  80588736.70106      -152.720 6        39.048
R05        27.000    19771027.772 8 105687731.36608      1400.478 8        48.684                                                                    19771025.165 6  82201383.67206      1089.227 6        41.912
E33        28.000    25193910.037 6 132394887.91206      1072.443 6        39.577                                                                    25193907.735 6  98866304.86106       800.920 6        37.565    25193906.133 6 101445505.50906       821.722 6        41.144
R19        29.000                                                                                                                                    21932090.313 3                     -2975.396 3        23.657
R21        30.000    22142234.165 7 118487799.87907      2485.842 7        45.481                                                                    22142234.496 6  92157008.72306      1933.544 6        36.590
R04        31.000    20250700.699 5 108441557.77405     -2781.982 5        35.471                                                                    20250699.856 6  84343461.84606     -2164.011 6        39.318
C05        33.000                                                                                                                                                                                                    39060786.722 5                      -619.509 5        31.366
C33        37.000                                                                                                                                    22744537.440 6 118436703.17106     -1997.719 6        37.626                                                                    22744532.583 7  96239553.76307     -1623.420 7        43.357
C30        38.000                                                                                                                                    24924310.089 6 129787518.16006      2070.512 6        36.994                                                                    24924300.768 5 105462868.80005      1682.282 5        34.700
C28        40.000                                                                                                                                    21983415.921 7 114473674.19207     -2379.055 7        47.029                                                                    21983414.092 7  93019017.25707     -1933.285 7        43.471
R11        41.000    22532235.001 7 120405663.31707     -2715.551 7        42.322                                                                    22532228.717 5  93648624.18205     -2112.114 5        33.443
I01        44.000   370253153.537 5 149812134.95905     -2370.898 5        34.000
C13        45.000                                                                                                                                                                                                    39635623.077 3                     -1417.961 3        22.952
C14        47.000                                                                                                                                    24290471.220 5 126486923.01005     -3344.000 5        30.181    24290422.466 6  97807460.97206     -2585.717 6        40.927    24290434.324 6 102780702.65506     -2717.442 6        36.669
C41        49.000                                                                                                                                    22576714.010 6 117562919.32406      1122.709 6        37.917                                                                    22576715.107 5  95529507.37705       912.258 5        32.126
C27        52.000                                                                                                                                    21539030.747 7 112159386.49707       186.886 7        47.518                                                                    21539027.153 6  91138678.05206       151.790 6        37.312
C36        56.000                                                                                                                                                                                                                                                                    26239532.106 6 111028139.65706     -1617.639 6        36.193
I06        58.000    38370993.356 5 150576185.92305      -535.436 5        30.611
> 2025 01 01 22 02 35.0000000  0 34
G14         1.000    24261788.282 5 127496440.56205       921.631 5        35.900                                    24261760.595 1  99347856.46201       718.189 1         8.381    24261761.784 6  99347882.40906       718.188 6        37.788
G10         2.000    21393113.367 8 112421542.67208     -2823.989 8        51.044                                    21393112.507 7  87601202.64507     -2200.513 7        47.173    21393112.259 7  87601213.65407     -2200.484 7        43.520
G32         3.000    22251764.182 5 116933927.63805       930.424 5        34.267                                    22251754.154 3  91117244.75903       724.994 3        18.209    22251759.990 5                       724.820 5        31.042
G23         4.000    24323636.491 3                     -4298.117 3        22.609                                                                                                    24323591.375 3                     -3350.284 3        21.619
E07         5.000    25394258.883 6 133447742.85806      1310.130 6        36.423                                                                    25394258.731 6  99652571.83606       978.258 6        37.837    25394258.441 6 102252199.59106      1003.703 6        38.474
G08         6.000    20252761.922 8 106429514.84608     -1634.215 8        50.146                                    20252758.059 7  82931656.41807     -1273.416 7        45.232    20252759.427 6  82931684.42806     -1273.393 6        41.847
G27         7.000    21571074.564 5 113356722.85505     -3753.029 5        34.257                                    21571067.511 4  88329853.95404     -2924.435 4        26.731    21571069.983 6  88329921.95406     -2924.305 6        39.904
G21         8.000    20866745.226 6 109655577.99406       271.284 6        41.447                                    20866739.274 4  85445815.63904       211.393 4        24.707
G02         9.000    22351750.451 6 117459474.41906      1366.832 6        40.334                                    22351738.743 1  91526601.33001      1065.025 1         9.429
E08        12.000    25868634.549 6 135940589.98706     -1288.229 6        40.424                                                                    25868633.755 6 101514117.00306      -961.833 6        41.919    25868631.091 6 104162285.84606      -987.276 6        41.757
E13        16.000    25558719.472 6 134311952.49006     -2869.048 6        39.117                                                                                                                                    25558720.811 5 102914374.28405     -2198.540 5        32.886
E31        17.000    25827092.617 6 135722291.37506      -933.993 6        40.491                                                                                                                                    25827101.765 5 103995050.34715      -715.779 5        35.771
E26        19.000    23258149.087 7 122222386.67907      -869.917 7        43.513                                                                    23258147.155 7  91270038.26207      -649.600 7        44.107    23258143.658 6  93650928.44406      -666.565 6        39.625
S36        23.000    38103792.496 6 200236664.26606      -851.999 6        36.563
S23        24.000    38058528.103 6 199998870.37506      -850.665 6        40.739
R12        25.000                                                                                                                                    23571493.361 4  97933644.24204       734.468 4        28.114
R20        26.000    19376493.151 5 103614850.89505      -198.507 5        35.424                                                                    19376496.786 6  80589504.45306      -154.392 6        40.441
R05        27.000    19769719.305 8 105680738.30708      1396.769 8        48.193                                                                    19769717.498 6  82195944.63406      1086.319 6        41.023
E33        28.000    25192889.760 6 132389526.48806      1072.138 6        39.856                                                                    25192887.526 6  98862301.20306       800.607 6        37.089    25192885.416 6 101441397.39206       821.532 6        40.536
R21        30.000    22139912.221 7 118475371.11507      2485.640 7        46.766                                                                    22139912.000 6  92147341.92106      1933.327 6        37.161
R04        31.000    20253299.127 5 108455477.82305     -2786.123 5        30.174                                                                    20253298.173 6  84354288.57106     -2166.830 6        39.571
R03        32.000    23977234.125 3                     -5073.338 3        22.762
C05        33.000                                                                                                                                                                                                    39061556.078 5 157284688.13515      -619.409 5        31.358
C33        37.000                                                                                                                                                                                                                                                                    22746452.408 7  96247675.82507     -1625.516 7        43.399
C30        38.000                                                                                                                                    24922327.734 5 129777166.32605      2070.286 5        35.214                                                                    24922312.748 5 105454457.07405      1682.155 5        34.962
C28        40.000                                                                                                                                    21985701.349 7 114485573.64807     -2380.608 7        46.723                                                                    21985699.267 7  93028686.54707     -1934.539 7        43.141
R11        41.000    22534784.120 7 120419250.41407     -2719.039 7        42.779                                                                    22534768.080 5  93659191.91105     -2115.016 5        31.600
I01        44.000   370256175.237 5 149823990.21405     -2370.875 5        34.038
C13        45.000                                                                                                                                    39637468.760 4                     -1834.294 4        27.904    39637384.780 3                     -1419.468 3        22.438
C14        47.000                                                                                                                                    24293690.454 4 126503646.45704     -3344.941 4        26.240    24293633.941 6  97820392.52506     -2586.830 6        39.258    24293646.060 6 102794291.83506     -2718.608 6        36.824
C41        49.000                                                                                                                                    22575636.082 6 117557311.50906      1120.626 6        38.018                                                                    22575638.046 5  95524950.62605       910.391 5        30.611
C27        52.000                                                                                                                                    21538851.852 7 112158456.35307       185.269 7        46.887                                                                    21538848.566 6  91137922.23406       150.560 6        37.440
C36        56.000                                                                                                                                                                                                                                                                    26241444.870 5 111036232.02705     -1619.407 5        35.390
I06        58.000    38371674.531 5 150578861.34705      -534.863 5        30.528
> 2025 01 01 22 02 40.0000000  0 34
G14         1.000                                                                                                                                                                    24260884.744 6  99344297.47806       715.710 6        38.495
G10         2.000    21395800.967 8 112435667.66708     -2826.163 8        51.042                                    21395800.990 7  87612209.13607     -2202.204 7        47.623    21395799.274 7  87612220.14207     -2202.243 7        42.929
G32         3.000    22250880.818 5 116929282.52705       927.674 5        33.174                                    22250870.767 2  91113625.21102       722.861 2        17.170    22250876.263 5                       722.827 5        31.932
G23         4.000    24327726.371 3                     -4297.703 3        23.429                                                                                                    24327684.957 3                     -3350.172 3        21.286
E07         5.000    25393012.319 5 133441197.25205      1307.901 5        35.405                                                                    25393013.116 6  99647683.89106       976.751 6        37.327    25393013.454 6 102247184.09706      1002.314 6        39.012
G08         6.000    20254318.410 8 106437694.07508     -1637.602 8        50.318                                    20254314.873 7  82938029.84607     -1276.052 7        45.837    20254316.248 7  82938057.84907     -1276.110 7        42.722
G27         7.000    21574647.410 6 113375492.60806     -3755.138 6        39.553                                    21574640.579 5  88344479.76805     -2926.080 5        30.181    21574641.802 6  88344547.78806     -2926.030 6        40.448
G21         8.000    20866487.874 6 109654226.08906       269.394 6        40.055                                    20866482.549 4  85444762.20304       209.920 4        25.489
G02         9.000    22350455.679 6 117452642.72406      1365.539 6        40.536                                    22350438.583 1  91521277.94301      1064.038 1         9.143
E08        12.000    25869861.343 6 135947037.92706     -1290.956 6        39.823                                                                    25869860.636 7 101518932.04007      -964.081 7        42.021    25869858.507 6 104167226.47806      -989.254 6        41.993
E13        16.000    25561449.393 6 134326299.77206     -2869.985 6        38.733                                                                                                                                    25561451.357 5 102925367.65305     -2198.826 5        33.832
E31        17.000    25827983.196 6 135726968.28606      -936.997 6        40.150                                                                    25827986.510 3                      -699.122 3        22.438    25827985.829 6 103998633.86406      -717.734 6        37.096
E26        19.000    23258977.198 7 122226739.11407      -871.295 7        43.581                                                                    23258975.414 7  91273288.46107      -650.690 7        44.582    23258971.882 6  93654263.41806      -667.483 6        40.169
S36        23.000    38104607.704 6 200240925.32206      -852.488 6        36.060
S23        24.000    38059335.329 6 200003124.22906      -851.057 6        40.679
R20        26.000    19376679.930 5 103615849.39905      -201.037 5        35.524                                                                    19376683.779 6  80590281.10506      -156.408 6        41.452
R05        27.000    19768413.631 7 105673765.08707      1392.406 7        46.690                                                                    19768413.695 6  82190521.03106      1082.940 6        40.770
E33        28.000    25191869.694 6 132384167.52606      1071.213 6        39.799                                                                    25191867.751 6  98858299.40106       800.005 6        36.839    25191865.593 6 101437291.18106       820.837 6        40.000
R21        30.000    22137589.654 7 118462944.58607      2484.784 7        46.819                                                                    22137589.656 6  92137676.82306      1932.629 6        36.586
R04        31.000    20255902.456 4 108469417.64104     -2790.347 4        24.346                                                                    20255900.925 6  84365130.76906     -2170.204 6        40.958
R03        32.000    23981970.530 3                     -5073.668 3        20.476
C05        33.000                                                                                                                                                                                                    39062325.322 5 157287786.33805      -619.863 5        30.845
C33        37.000                                                                                                                                    22748397.615 5 118456706.55805     -2003.017 5        33.719                                                                    22748374.566 7  96255808.20607     -1627.673 7        43.314
C30        38.000                                                                                                                                    24920334.067 5 129766816.25505      2069.746 5        32.790                                                                    24920325.049 5 105446046.75505      1681.983 5        35.243
C28        40.000                                                                                                                                    21987988.145 7 114497481.72507     -2382.728 7        46.597                                                                    21987986.081 7  93038362.78907     -1936.197 7        42.974
R11        41.000    22537329.016 6 120432855.66406     -2723.135 6        41.478                                                                    22537314.512 5  93669773.73305     -2118.001 5        30.792
I01        44.000   370259196.211 5 149835846.79605     -2371.445 5        34.295
C13        45.000                                                                                                                                    39639231.648 4                     -1834.593 4        27.844    39639142.969 3                     -1419.176 3        22.952
C14        47.000                                                                                                                                    24296903.650 4                     -3347.950 4        24.105    24296846.840 6  97833330.61806     -2588.556 6        36.624    24296859.506 6 102807887.84206     -2720.153 6        36.412
C41        49.000                                                                                                                                    22574559.874 6 117551715.15506      1117.845 6        38.874                                                                    22574564.058 5  95520403.07105       908.497 5        30.838
C27        52.000                                                                                                                                    21538674.738 7 112157534.84107       183.233 7        46.555                                                                    21538671.705 6  91137173.40806       148.737 6        37.784
C42        54.000                                                                                                                                    26582113.378 3                     -4052.186 3        21.286
C36        56.000                                                                                                                                                                                                                                                                    26243359.596 5 111044333.24405     -1621.236 5        34.281
I06        58.000    38372355.652 5 150581536.51005      -534.961 5        30.174
> 2025 01 01 22 02 45.0000000  0 34
G14         1.000                                                                                                                                                                    24260011.464 6  99340723.36706       713.682 6        38.318
G10         2.000    21398490.463 8 112449802.43108     -2827.931 8        51.049                                    21398491.105 7  87623223.23707     -2203.583 7        47.546    21398489.140 7  87623234.23707     -2203.483 7        42.504
G32         3.000    22250001.562 4 116924650.96304       924.890 4        28.502                                    22249989.661 2  91110016.19402       720.671 2        15.095    22249996.789 5                       720.671 5        32.419
G23         4.000    24331816.712 4                     -4298.925 4        24.226                                                                                                    24331783.624 3                     -3348.632 3        20.190
E07         5.000    25391768.561 5 133434660.32905      1306.688 5        34.681                                                                    25391768.875 6  99642802.43706       975.728 6        36.544    25391769.380 6 102242175.29806      1001.232 6        39.402
G08         6.000    20255877.673 8 106445888.73208     -1640.403 8        50.522                                    20255874.660 7  82944415.29107     -1278.232 7        46.008    20255876.039 7  82944443.29607     -1278.253 7        43.625
G27         7.000    21578221.310 6 113394272.61806     -3756.981 6        41.361                                    21578215.453 5  88359113.55905     -2927.517 5        32.587    21578215.454 6  88359181.56106     -2927.519 6        40.627
G21         8.000    20866231.983 6 109652882.33606       267.919 6        39.799                                    20866227.349 4  85443715.11904       208.771 4        25.609
G02         9.000    22349161.145 6 117445815.81106      1364.994 6        40.095                                    22349139.509 1  91515958.30901      1063.661 1         8.857
E08        12.000    25871090.678 6 135953498.53306     -1293.416 6        39.613                                                                    25871089.855 6 101523756.51106      -965.880 6        41.926    25871088.053 7 104172176.80507      -990.949 7        42.519
E13        16.000    25564179.746 6 134340649.96706     -2870.231 6        38.459                                                                                                                                    25564182.314 5 102936363.28605     -2199.251 5        35.062
E31        17.000    25828876.698 6 135731657.80906      -939.082 6        40.644                                                                    25828885.114 4                      -701.225 4        24.857    25828877.276 6 104002227.13406      -719.532 6        37.493
E26        19.000    23259806.371 7 122231097.04307      -872.124 7        43.985                                                                    23259804.870 7  91276542.76407      -651.278 7        44.862    23259801.521 6  93657602.63806      -668.310 6        40.610
S36        23.000    38105415.757 5 200245186.63805      -852.009 5        35.552
S23        24.000    38060150.363 6 200007378.43606      -850.874 6        40.665
R20        26.000    19376869.842 6 103616859.83406      -203.428 6        36.132                                                                    19376872.170 6  80591066.99106      -158.163 6        41.883
R05        27.000    19767112.328 7 105666812.03207      1388.613 7        46.037                                                                    19767113.194 6  82185113.12406      1080.077 6        40.717
E33        28.000    25190850.598 6 132378811.58306      1070.979 6        39.652                                                                    25190849.203 6  98854299.85506       799.565 6        36.628    25190846.645 6 101433187.27906       820.545 6        39.622
R21        30.000    22135267.380 7 118450520.75207      2484.504 7        47.091                                                                    22135268.464 6  92128013.86106      1932.248 6        37.357
R04        31.000                                                                                                                                    20258508.809 6  84375988.95406     -2173.180 6        41.271
R03        32.000    23986704.060 3                     -5074.505 3        19.433
C05        33.000                                                                                                                                                                                                    39063094.325 5 157290884.88105      -619.744 5        31.766
C33        37.000                                                                                                                                    22750319.908 5 118466727.84105     -2005.590 5        32.958                                                                    22750299.282 7  96263951.43307     -1629.767 7        43.479
C30        38.000                                                                                                                                    24918334.243 4 129756468.54404      2069.074 4        29.412                                                                    24918337.809 5 105437638.36005      1681.415 5        35.157
C28        40.000                                                                                                                                    21990276.408 7 114509398.93507     -2384.281 7        46.905                                                                    21990274.671 7  93048046.51607     -1937.616 7        42.825
R11        41.000    22539873.258 7 120446479.52907     -2726.565 7        42.178                                                                    22539867.800 4  93680370.12104     -2120.766 4        28.777
I01        44.000   370262218.387 5 149847705.16705     -2371.487 5        34.190
C13        45.000                                                                                                                                                                                                    39640899.873 3                     -1416.348 3        21.143
C14        47.000                                                                                                                                                                                                    24300059.419 5  97846275.64705     -2589.772 5        33.695    24300073.810 5 102821491.19205     -2721.508 5        35.719
C41        49.000                                                                                                                                    22573487.229 6 117546130.73006      1115.756 6        39.757                                                                    22573491.901 5  95515865.30405       906.607 5        31.811
C27        52.000                                                                                                                                    21538499.441 7 112156622.51207       181.571 7        45.887                                                                    21538497.104 6  91136432.04506       147.461 6        38.219
C42        54.000                                                                                                                                    26586005.174 3                     -4050.627 3        22.152
C36        56.000                                                                                                                                    26245271.051 5 136666000.68705     -1997.461 5        30.075                                                                    26245276.041 5 111052443.83605     -1623.326 5        32.784
I06        58.000    38373037.184 5 150584211.85605      -534.815 5        30.966
> 2025 01 01 22 02 50.0000000  0 34
G14         1.000    24259134.094 5 127482680.45705       912.971 5        32.120                                    24259141.615 1  99337134.39201       711.429 1         9.143    24259140.120 6  99337160.35306       711.524 6        37.486
G10         2.000    21401182.187 8 112463947.34908     -2829.900 8        50.720                                    21401182.874 7  87634245.25107     -2205.117 7        47.511    21401180.921 7  87634256.25007     -2205.121 7        42.091
G32         3.000    22249139.097 4 116920032.74704       922.186 4        28.464                                    22249111.081 2  91106417.88302       718.575 2        14.333    22249117.932 5                       718.472 5        31.313
G23         4.000    24335903.555 4                     -4300.077 4        25.023
E07         5.000    25390526.209 5 133428132.58105      1304.632 5        32.228                                                                    25390526.564 6  99637927.84406       974.200 6        36.159    25390526.956 6 102237173.50606       999.729 6        39.583
G08         6.000    20257440.089 8 106454099.20408     -1643.533 8        50.932                                    20257437.420 7  82950813.06007     -1280.674 7        46.347    20257438.419 7  82950841.05707     -1280.633 7        43.560
G27         7.000    21581795.028 6 113413063.24206     -3759.119 6        41.619                                    21581792.081 5  88373755.61005     -2929.182 5        34.257    21581791.079 6  88373823.60606     -2929.269 6        40.598
G21         8.000    20865978.916 6 109651547.06306       266.308 6        41.666                                    20865973.647 4  85442674.63704       207.515 4        26.383
G02         9.000    22347866.588 6 117438994.15906      1363.919 6        38.000                                    22347841.415 1  91510642.74901      1062.787 1         8.571
E08        12.000    25872322.647 6 135959972.18606     -1295.955 6        38.607                                                                    25872321.630 7 101528590.72107      -967.695 7        42.030    25872320.067 7 104177137.13507      -992.916 7        42.823
E13        16.000    25566910.757 6 134355003.48006     -2870.844 6        37.592                                                                                                                                    25566913.462 5 102947361.44905     -2199.817 5        35.729
E31        17.000    25829772.020 6 135736360.40806      -941.816 6        41.442                                                                                                                                    25829771.642 6 104005830.41506      -721.545 6        36.994
E26        19.000    23260636.536 7 122235460.87607      -873.317 7        43.932                                                                    23260635.270 7  91279801.46507      -652.059 7        45.240    23260632.275 6  93660946.35606      -669.137 6        41.318
S36        23.000    38106230.035 6 200249449.24406      -852.571 6        36.136
S23        24.000    38060955.362 6 200011633.45306      -850.970 6        40.601
R12        25.000    23568854.599 5 125900576.62515       933.004 5        34.548                                                                    23568844.621 3                       725.242 3        22.857
R20        26.000    19377062.690 6 103617882.51406      -205.805 6        37.244                                                                    19377063.341 6  80591862.39406      -159.939 6        41.743
R05        27.000    19765816.693 7 105659879.81307      1384.433 7        47.990                                                                    19765816.364 6  82179721.41806      1076.673 6        41.774
E33        28.000    25189832.692 6 132373459.04706      1070.340 6        39.646                                                                    25189831.474 6  98850302.82906       799.164 6        36.151    25189828.181 6 101429085.98306       820.145 6        39.492
R21        30.000    22132946.383 7 118438100.03707      2483.915 7        47.643                                                                    22132947.201 6  92118353.31106      1931.886 6        37.826
R04        31.000                                                                                                                                    20261118.225 6  84386863.28906     -2176.271 6        40.439
C05        33.000                                                                                                                                                                                                    39063864.459 5 157293984.03605      -620.107 5        31.940
C33        37.000                                                                                                                                                                                                                                                                    22752226.530 7  96272105.76507     -1631.994 7        43.801
C30        38.000                                                                                                                                    24916349.362 4 129746123.51404      2068.814 4        28.322                                                                    24916351.096 5 105429232.14005      1681.378 5        35.571
C28        40.000                                                                                                                                    21992566.631 7 114521325.67607     -2386.240 7        47.580                                                                    21992565.057 7  93057737.96607     -1939.106 7        42.665
R11        41.000    22542425.777 6 120460122.39406     -2730.369 6        41.740                                                                    22542430.515 4  93690981.23604     -2123.405 4        29.299
I01        44.000   370265240.323 5 149859565.62205     -2372.376 5        34.914
C13        45.000                                                                                                                                                                                                    39642654.261 3                     -1420.479 3        20.167
C14        47.000                                                                                                                                                                                                    24303273.255 4  97859227.85904     -2590.944 4        28.957    24303290.064 5 102835102.10005     -2722.895 5        35.252
C41        49.000                                                                                                                                    22572420.366 6 117540558.70306      1113.285 6        40.584                                                                    22572421.102 5  95511337.57205       904.619 5        32.275
C27        52.000                                                                                                                                    21538325.617 7 112155719.77007       179.655 7        44.947                                                                    21538324.049 6  91135698.48006       146.029 6        38.742
C42        54.000                                                                                                                                    26589895.973 3                     -4054.466 3        21.500
C36        56.000                                                                                                                                    26247194.090 5 136675993.77305     -1999.718 5        32.024                                                                    26247194.448 5 111060564.01405     -1625.100 5        31.887
I06        58.000    38373718.880 5 150586887.70105      -535.357 5        30.574
> 2025 01 01 22 02 55.0000000  0 33
G14         1.000    24258274.686 5 127478122.50205       910.250 5        31.389                                    24258273.781 1  99333582.76201       709.279 1         9.524    24258273.160 6  99333608.78406       709.124 6        36.930
G10         2.000    21403875.935 8 112478102.76208     -2832.110 8        50.540                                    21403876.414 7  87645275.44707     -2206.842 7        47.179    21403874.962 7  87645286.43907     -2206.746 7        42.226
G32         3.000    22248261.280 5 116915429.04705       919.289 5        33.156                                    22248235.493 2  91102830.73302       716.334 2        16.453    22248240.505 5                       716.299 5        30.996
E07         5.000    25389286.291 5 133421614.28405      1303.057 5        30.943                                                                    25389286.134 5  99633060.28905       972.804 5        35.486    25389285.938 6 102232178.97706       998.340 6        39.117
G08         6.000    20259005.701 8 106462325.83408     -1646.786 8        51.737                                    20259003.177 7  82957223.42007     -1283.211 7        46.441    20259003.404 7  82957251.41107     -1283.194 7        43.141
G27         7.000    21585369.492 7 113431864.78007     -3761.288 7        42.485                                    21585370.559 5  88388406.17505     -2930.874 5        35.152    21585368.684 6  88388474.18606     -2930.997 6        40.477
G21         8.000    20865726.830 7 109650220.66307       264.493 7        43.710                                    20865721.426 4  85441641.06904       206.102 4        27.413
G02         9.000    22346570.416 5 117432178.05405      1362.843 5        32.162                                    22346544.354 1  91505331.51901      1061.907 1         8.286
E08        12.000    25873557.345 6 135966459.20806     -1298.812 6        38.360                                                                    25873555.883 7 101533434.92207      -969.789 7        42.034    25873554.585 7 104182107.70007      -995.101 7        43.082
E13        16.000    25569643.933 6 134369360.63606     -2871.787 6        37.032                                                                                                                                    25569645.217 6 102958362.41706     -2200.531 6        36.609
E31        17.000    25830668.543 6 135741076.37206      -944.519 6        41.614                                                                    25830687.996 4                      -705.545 4        29.583    25830668.471 6 104009443.94406      -723.626 6        36.896
E26        19.000    23261467.831 7 122239830.96207      -874.577 7        44.020                                                                    23261466.950 7  91283064.83907      -653.102 7        45.472    23261464.271 6  93664294.86006      -670.044 6        41.836
S36        23.000    38107036.157 6 200253712.68706      -852.857 6        36.110
S23        24.000    38061765.254 6 200015889.59206      -851.221 6        40.639
R12        25.000    23567980.223 5 125895922.96805       929.265 5        34.500
R20        26.000    19377255.343 6 103618917.76906      -208.192 6        36.348                                                                    19377257.933 7  80592667.61607      -162.008 7        42.413
R05        27.000    19764525.431 8 105652968.81508      1380.233 8        48.586                                                                    19764523.739 7  82174346.19407      1073.444 7        42.751
E33        28.000    25188815.891 6 132368110.27606      1069.580 6        40.179                                                                    25188814.355 6  98846308.61006       798.768 6        36.643    25188810.633 6 101424987.57106       819.377 6        39.054
R21        30.000    22130626.296 7 118425682.84307      2483.139 7        47.821                                                                    22130626.631 6  92108695.47106      1931.379 6        37.871
R04        31.000                                                                                                                                    20263731.795 6  84397754.11906     -2179.741 6        39.715
C05        33.000                                                                                                                                                                                                    39064634.866 5 157297084.05105      -620.319 5        30.868
C33        37.000                                                                                                                                    22754133.985 6 118486812.03106     -2010.978 6        38.730                                                                    22754156.563 7  96280271.46707     -1634.199 7        43.960
C30        38.000                                                                                                                                    24914364.738 4 129735781.48904      2068.023 4        29.649                                                                    24914364.728 5 105420828.39305      1680.786 5        34.929
C28        40.000                                                                                                                                    21994859.110 8 114533262.27308     -2388.209 8        48.399                                                                    21994857.428 7  93067437.41707     -1940.612 7        42.658
R11        41.000    22544984.171 6 120473784.62406     -2734.317 6        40.338                                                                    22544989.214 4  93701607.45604     -2126.689 4        27.760
I01        44.000   370268263.290 5 149871428.38105     -2372.586 5        34.757
C13        45.000                                                                                                                                                                                                    39644419.796 3                     -1418.589 3        19.075
C14        47.000                                                                                                                                    24306471.823 5                     -3352.853 5        31.540    24306486.715 3  97872187.61703     -2592.552 3        23.752    24306507.534 5 102848720.92405     -2724.496 5        35.181
C41        49.000                                                                                                                                    22571355.965 6 117534999.39706      1110.745 6        40.064                                                                    22571352.749 5  95506820.18205       902.557 5        33.084
C27        52.000                                                                                                                                    21538153.890 7 112154826.94307       177.630 7        44.473                                                                    21538152.781 6  91134972.96006       144.405 6        39.291
C42        54.000                                                                                                                                    26593796.833 3                     -4053.059 3        20.833
C36        56.000                                                                                                                                    26249113.852 5 136685998.98905     -2002.216 5        32.437                                                                    26249114.601 5 111068694.05105     -1626.790 5        30.604
I06        58.000    38374401.827 5 150589564.25405      -535.458 5        30.740
