     3.04           OBSERVATION DATA    M                   RINEX VERSION / TYPE
ssrcrin-15.6.1x                         20250101 194500 UTC PGM / RUN BY / DATE 
(00000000023479385599111004) Septentrio proprietary         COMMENT             
ract                                                        MARKER NAME         
01                                                          MARKER NUMBER       
geodetic                                                    MARKER TYPE         
NFB                 CLIMERS@TUW                             OBSERVER / AGENCY   
3296359             SEPT ASTERX SB3 PROB4.14.4              REC # / TYPE / VERS 
Unknown             Unknown                                 ANT # / TYPE        
  4127445.9842  1206914.8164  4695543.5406                  APPROX POSITION XYZ 
        0.0000        0.0000        0.0000                  ANTENNA: DELTA H/E/N
G   23 X1  C1C L1C D1C S1C C1W S1W C2W L2W D2W S2W C2L L2L  SYS / # / OBS TYPES 
       D2L S2L C5Q L5Q D5Q S5Q C1L L1L D1L S1L              SYS / # / OBS TYPES 
E   21 X1  C1C L1C D1C S1C C6C L6C D6C S6C C5Q L5Q D5Q S5Q  SYS / # / OBS TYPES 
       C7Q L7Q D7Q S7Q C8Q L8Q D8Q S8Q                      SYS / # / OBS TYPES 
S    9 X1  C1C L1C D1C S1C C5I L5I D5I S5I                  SYS / # / OBS TYPES 
R   17 X1  C1C L1C D1C S1C C2P L2P D2P S2P C2C L2C D2C S2C  SYS / # / OBS TYPES 
       C3Q L3Q D3Q S3Q                                      SYS / # / OBS TYPES 
C   25 X1  C1P L1P D1P S1P C5P L5P D5P S5P C2I L2I D2I S2I  SYS / # / OBS TYPES 
       C7I L7I D7I S7I C6I L6I D6I S6I C7D L7D D7D S7D      SYS / # / OBS TYPES 
J   17 X1  C1C L1C D1C S1C C2L L2L D2L S2L C5Q L5Q D5Q S5Q  SYS / # / OBS TYPES 
       C1L L1L D1L S1L                                      SYS / # / OBS TYPES 
I    5 X1  C5A L5A D5A S5A                                  SYS / # / OBS TYPES 
SEPTENTRIO RECEIVERS OUTPUT ALIGNED CARRIER PHASES.         COMMENT             
NO FURTHER PHASE SHIFT APPLIED IN THE RINEX ENCODER.        COMMENT             
G L1C                                                       SYS / PHASE SHIFT   
G L2W                                                       SYS / PHASE SHIFT   
G L2L  0.00000                                              SYS / PHASE SHIFT   
G L5Q  0.00000                                              SYS / PHASE SHIFT   
G L1L  0.00000                                              SYS / PHASE SHIFT   
E L1C  0.00000                                              SYS / PHASE SHIFT   
E L6C  0.00000                                              SYS / PHASE SHIFT   
E L5Q  0.00000                                              SYS / PHASE SHIFT   
E L7Q  0.00000                                              SYS / PHASE SHIFT   
E L8Q  0.00000                                              SYS / PHASE SHIFT   
S L1C                                                       SYS / PHASE SHIFT   
S L5I                                                       SYS / PHASE SHIFT   
R L1C                                                       SYS / PHASE SHIFT   
R L2P  0.00000                                              SYS / PHASE SHIFT   
R L2C                                                       SYS / PHASE SHIFT   
R L3Q  0.00000                                              SYS / PHASE SHIFT   
C L1P  0.00000                                              SYS / PHASE SHIFT   
C L5P  0.00000                                              SYS / PHASE SHIFT   
C L2I                                                       SYS / PHASE SHIFT   
C L7I                                                       SYS / PHASE SHIFT   
C L6I                                                       SYS / PHASE SHIFT   
C L7D                                                       SYS / PHASE SHIFT   
J L1C                                                       SYS / PHASE SHIFT   
J L2L  0.00000                                              SYS / PHASE SHIFT   
J L5Q  0.00000                                              SYS / PHASE SHIFT   
J L1L  0.00000                                              SYS / PHASE SHIFT   
I L5A                                                       SYS / PHASE SHIFT   
  2025     1     1    19    45    0.0000000     GPS         TIME OF FIRST OBS   
 C1C    0.000 C2C    0.000 C2P    0.000                     GLONASS COD/PHS/BIS 
DBHZ                                                        SIGNAL STRENGTH UNIT
    18                                                      LEAP SECONDS        
 24 R01  1 R02 -4 R03  5 R04  6 R05  1 R06 -4 R07  5 R08  6 GLONASS SLOT / FRQ #
    R09 -2 R10 -7 R11  0 R12 -1 R13 -2 R14 -7 R15  0 R16 -1 GLONASS SLOT / FRQ #
    R17  4 R18 -3 R19  3 R20  2 R21  4 R22 -3 R23  3 R24  2 GLONASS SLOT / FRQ #
                                                            END OF HEADER       
> 2025 01 01 19 45  0.0000000  0 40
G18         1.000    22588547.385 7 118703838.60507     -3546.545 7        46.227                                    22588543.700 4  92496363.56004     -2763.538 4        26.874    22588543.068 6  92496383.53706     -2763.669 6        38.072
G10         2.000    21783979.403 6 114475573.01406      1568.277 6        41.051                                    21783980.546 3  89201728.86003      1222.034 3        22.857    21783981.813 4  89201775.93104      1222.083 4        29.052
G07         3.000    25173214.655 6 132286111.71406     -1021.056 6        40.841                                    25173212.420 1 103080011.22701      -795.578 1        11.481    25173248.171 5                      -795.826 5        30.211
G23         4.000    20912475.701 6 109895710.04506     -1061.836 6        36.684                                    20912458.268 2  85632994.98502      -827.386 2        16.792    20912463.029 6  85633063.94906      -827.479 6        37.716
G15         5.000    23707240.913 5                      -874.568 5        31.841
G08         6.000    22604622.723 6 118788128.28506      2107.475 6        40.694                                    22604617.008 4  92562096.67704      1642.188 4        24.782    22604619.789 4                      1642.411 4        29.185
G27         7.000    20467966.264 6 107560368.96906       510.208 6        40.453                                    20467963.041 4  83812920.94004       397.564 4        29.270    20467963.995 6  83812911.93606       397.592 6        36.715
E15        10.000    26668619.753 5 140144518.15505     -3339.361 5        32.443                                                                    26668611.576 4 104653373.04504     -2493.671 4        28.246    26668655.867 4                     -2558.953 4        25.504
E27        15.000    27660660.032 4                     -4068.538 4        29.706                                                                                                                                    27660661.640 4                     -3117.175 4        29.261
E13        16.000    23428677.116 8 123118610.41008     -1535.778 8        49.990                                                                    23428676.814 8  91939219.50208     -1146.848 8        48.066    23428676.198 8  94337588.07008     -1176.817 8        48.528
E31        17.000    28597057.231 5 150278694.39505      2012.209 5        32.419                                                                    28597047.280 4 112220991.64904      1502.496 4        26.431    28597050.553 4 115148473.76104      1541.812 4        29.308
G16        18.000    21152017.552 8 111154612.11508     -2822.228 8        48.770                                    21152014.594 5  86613884.70705     -2199.139 5        34.590
E26        19.000    24768144.766 4                       926.751 4        28.275                                                                    24768145.925 6  97195595.96406       692.114 6        36.975    24768147.449 5  99731124.13705       710.226 5        35.452
E21        22.000    24404124.377 6 128244651.82306     -2605.131 6        36.975                                                                    24404128.571 7  95767043.19907     -1945.377 7        44.388    24404122.827 6  98265340.34006     -1996.127 6        38.504
S36        23.000    38263010.868 6 201073346.78706      -850.827 6        36.529
S23        24.000    38218347.837 6 200838765.69406      -851.773 6        40.417
G26        25.000    23028248.367 5 121014276.02905     -4212.181 5        32.066                                    23028249.135 2  94296874.34702     -3282.194 2        12.424    23028245.339 3                     -3282.466 3        21.143
R20        26.000    22714281.720 3                      2174.115 3        23.886                                                                    22714275.088 4                      1691.480 4        25.519
R02        27.000    22775041.570 3                     -3016.614 3        21.476                                                                    22775049.971 5                     -2345.438 5        32.707
R19        29.000    19659596.357 6 105165594.73706      -907.898 6        36.246                                                                    19659594.633 6  81795470.44106      -705.910 6        41.430
R18        30.000    20915558.254 7 111648675.82607     -3277.581 7        42.817                                                                    20915560.492 7  86837860.42607     -2549.140 7        46.496
R04        31.000    22822276.392 5                      3281.419 5        30.128
R03        32.000    21307712.573 4 114061846.06004       664.430 4        29.744                                                                    21307711.002 5  88714866.63205       516.591 5        35.457
R16        33.000    23219450.692 5                     -5372.965 5        31.019
R09        34.000    20688838.039 7 110477673.23107     -2821.172 7        47.209                                                                    20688834.797 7  85926726.00307     -2194.331 7        43.352
R10        35.000    21520814.899 7 114718045.58807       625.919 7        43.697
C37        36.000                                                                                                                                    24477252.917 6 127459438.02906     -2899.872 6        36.529                                                                    24477258.754 6 103571293.34606     -2356.456 6        40.625
C33        37.000                                                                                                                                                                                                                                                                    24637925.523 6 104251139.76706      1718.146 6        39.865
C28        40.000                                                                                                                                    21934375.903 7 114218299.72607       284.841 7        47.623                                                                    21934371.964 7  92811546.26307       231.376 7        46.185
C21        41.000                                                                                                                                    26292825.539 4                     -3074.674 4        26.551                                                                    26292817.318 4 111253500.20304     -2497.885 4        25.338
C43        42.000                                                                                                                                    23014026.642 7 119840134.97607     -2802.018 7        42.449                                                                    23014011.323 6  97379997.66906     -2276.852 6        36.586
C11        44.000                                                                                                                                    24776495.441 4                     -3365.031 4        24.722    24776505.961 6  99764659.77006     -2602.477 6        37.550    24776485.283 4                     -2733.532 4        25.729
C13        45.000                                                                                                                                    38225582.989 6 199050634.69206     -1667.891 6        38.547    38225585.332 5 153918561.03105     -1289.941 5        34.962    38225580.308 5 161745014.17605     -1355.676 5        33.886
C08        46.000                                                                                                                                                                                                    38624350.746 5 155524313.64105     -1490.355 5        34.062    38624347.958 5 163432263.95705     -1566.373 5        34.405
C14        47.000                                                                                                                                    23754714.321 7 123697009.78307       989.197 7        44.318    23754708.347 7  95650425.77207       764.952 7        46.151    23754705.171 7 100514030.81007       803.778 7        42.480
C42        48.000                                                                                                                                    23875764.533 7 124327512.80607      -567.810 7        43.251                                                                    23875769.299 7 101026228.65907      -461.552 7        44.072
C38        50.000                                                                                                                                    40058530.357 4                     -2074.500 4        25.444                                                                    40058505.358 4                     -1686.064 4        26.922
C27        52.000                                                                                                                                    24923396.144 6 129782710.96506      1811.441 6        36.552                                                                    24923389.447 5 105459062.98905      1471.927 5        34.667
C23        55.000                                                                                                                                    26497191.609 4                     -4104.194 4        28.550                                                                    26497171.690 4                     -3334.076 4        24.541
I06        58.000    38709011.069 6 151902639.72406      -573.104 6        38.159
> 2025 01 01 19 45  5.0000000  0 40
G18         1.000    22591922.962 7 118721573.47907     -3547.470 7        45.317                                    22591918.384 4  92510182.94704     -2764.273 4        26.802    22591917.865 6  92510202.92506     -2764.249 6        37.508
G10         2.000    21782487.521 6 114467737.83206      1565.961 6        40.462                                    21782492.721 3  89195623.48803      1220.222 3        21.333
G07         3.000    25174186.301 6 132291223.52806     -1023.661 6        40.074                                    25174185.271 1 103083994.40701      -797.627 1        10.518    25174222.224 4                      -797.352 4        28.322
G23         4.000    20913488.192 5 109901027.28805     -1065.163 5        31.879                                    20913470.120 2  85637138.25302      -829.976 2        14.619    20913473.581 6  85637207.18606      -829.892 6        36.367
G15         5.000    23708078.845 5 124586779.07015      -878.069 5        30.687
G08         6.000    22602617.080 6 118777593.03706      2106.673 6        38.856                                    22602612.952 4  92553887.38404      1641.564 4        24.316    22602616.905 5                      1641.588 5        30.392
G27         7.000    20467480.801 6 107557823.62306       507.929 6        40.720                                    20467479.412 5  83810937.56005       395.790 5        30.151    20467480.561 6  83810928.56606       395.699 6        36.302
E15        10.000    26671798.530 5 140161215.01105     -3339.668 5        32.126                                                                    26671788.618 4 104665841.42504     -2493.645 4        29.573    26671830.164 4                     -2558.321 4        25.805
E27        15.000    27664530.301 5                     -4068.389 5        30.287                                                                                                                                    27664532.026 4                     -3117.216 4        29.621
E13        16.000    23430138.997 8 123126292.50508     -1537.072 8        50.165                                                                    23430138.529 8  91944956.12608     -1147.797 8        48.152    23430138.016 8  94343474.34908     -1177.689 8        48.593
E31        17.000    28595143.641 5 150268635.06705      2011.760 5        32.228                                                                    28595131.737 4 112213479.76404      1502.879 4        25.459    28595137.480 4 115140766.00804      1541.404 4        29.583
G16        18.000    21154704.776 8 111168730.57408     -2825.122 8        48.662                                    21154701.230 5  86624886.09005     -2201.392 5        34.086
E26        19.000                                                                                                                                    24767263.976 6  97192137.26006       691.373 6        36.450    24767266.910 5  99727575.24505       709.465 5        35.776
E21        22.000    24406605.962 6 128257682.93406     -2607.271 6        39.312                                                                    24406608.623 7  95776774.25007     -1946.967 7        44.868    24406602.623 6  98275325.24706     -1997.839 6        38.838
S36        23.000    38263818.197 6 201077600.72506      -850.938 6        36.526
S23        24.000    38219158.726 6 200843024.30206      -851.645 6        40.596
G26        25.000    23032254.908 4 121035339.76104     -4213.273 4        28.341                                    23032257.708 1  94313287.71201     -3282.924 1         7.875    23032256.751 3                     -3285.054 3        23.352
R20        26.000                                                                                                                                    22712232.728 4                      1692.421 4        24.526
R02        27.000                                                                                                                                    22777874.508 5  94536837.48115     -2348.057 5        32.293
R19        29.000    19660445.772 6 105170139.06806      -909.855 6        36.011                                                                    19660443.502 6  81799004.93106      -707.542 6        40.431
R18        30.000    20918628.585 7 111665066.07007     -3278.669 7        42.000                                                                    20918630.875 7  86850608.39007     -2549.976 7        46.487
R04        31.000                                                                                                                                    22819214.610 4                      2551.453 4        29.118
R03        32.000    21307096.292 4 114058535.96404       660.102 4        26.886                                                                    21307091.773 5  88712292.15705       513.451 5        34.200
R16        33.000    23224478.804 5                     -5373.251 5        33.240
R09        34.000    20691481.386 7 110491789.54007     -2825.313 7        46.791                                                                    20691478.097 6  85937705.34706     -2197.464 6        41.688
R10        35.000    21520228.455 7 114714926.74307       621.614 7        43.699
C37        36.000                                                                                                                                    24480038.150 6 127473942.24406     -2901.711 6        37.240                                                                    24480043.903 6 103583079.22706     -2357.854 6        39.396
C33        37.000                                                                                                                                                                                                                                                                    24635895.696 6 104242551.18606      1717.327 6        40.298
C28        40.000                                                                                                                                    21934102.967 7 114216878.85307       283.467 7        47.265                                                                    21934098.963 7  92810391.68907       230.437 7        46.335
C21        41.000                                                                                                                                    26295782.377 4                     -3076.526 4        27.353                                                                    26295767.142 3 111265995.92303     -2500.078 3        23.600
C43        42.000                                                                                                                                    23016717.200 7 119854147.42907     -2803.006 7        43.374                                                                    23016701.774 5  97391383.94205     -2277.688 5        35.652
C11        44.000                                                                                                                                                                                                    24779739.400 6  99777672.79406     -2602.790 6        37.089    24779716.773 4                     -2734.740 4        24.962
C13        45.000                                                                                                                                    38227184.991 6 199058975.22206     -1668.239 6        38.709    38227187.137 5 153925010.43205     -1289.858 5        34.948    38227181.749 5 161751791.54205     -1355.695 5        33.754
C08        46.000                                                                                                                                                                                                    38626201.287 5 155531765.61305     -1490.404 5        34.076    38626198.944 5 163440094.85705     -1566.678 5        34.586
C14        47.000                                                                                                                                    23753766.823 7 123692069.66607       986.731 7        44.160    23753761.263 7  95646605.76107       763.066 7        46.686    23753756.578 7 100510016.58207       801.811 7        42.838
C42        48.000                                                                                                                                    23876310.648 7 124330359.10607      -570.795 7        44.464                                                                    23876315.623 7 101028541.52907      -463.730 7        44.075
C38        50.000                                                                                                                                    40060524.446 4                     -2075.573 4        25.008                                                                    40060498.333 4                     -1685.714 4        27.497
C27        52.000                                                                                                                                    24921665.997 6 129773654.62606      1811.082 6        36.726                                                                    24921649.900 5 105451704.05505      1471.855 5        34.552
C23        55.000                                                                                                                                    26501134.189 4                     -4104.254 4        27.737                                                                    26501115.044 3                     -3334.505 3        23.867
I06        58.000    38709741.324 6 151905505.35106      -573.135 6        38.402
> 2025 01 01 19 45 10.0000000  0 40
G18         1.000    22595298.576 7 118739313.23807     -3548.697 7        45.139                                    22595293.981 4  92524006.13204     -2765.223 4        26.874    22595294.530 6  92524026.12206     -2765.150 6        36.696
G10         2.000    21780997.788 6 114459914.34006      1563.209 6        41.774                                    21781008.857 3  89189527.15103      1218.121 3        19.493
G07         3.000    25175160.574 6 132296348.54706     -1026.583 6        39.580                                    25175160.500 1 103087987.87201      -799.956 1        10.963    25175191.457 4                      -799.387 4        25.910
G23         4.000    20914504.046 4 109906360.97304     -1068.152 4        28.569                                    20914485.026 2  85641294.34202      -832.505 2        12.788    20914487.492 5  85641363.30605      -832.831 5        35.143
G15         5.000    23708922.162 4 124591175.63304      -880.671 4        28.019
G08         6.000    22600612.036 6 118767062.79406      2105.235 6        36.064                                    22600610.000 3  92545681.99003      1640.440 3        23.867    22600611.977 5                      1640.564 5        30.400
G27         7.000    20466998.591 6 107555289.53806       505.311 6        41.874                                    20466997.675 5  83808962.95205       393.744 5        30.664    20466997.118 5  83808953.97805       393.790 5        35.162
E15        10.000    26674977.826 5 140177912.77505     -3339.853 5        31.185                                                                    26674966.557 5 104678310.58805     -2494.068 5        30.181    26675002.973 4                     -2559.086 4        26.898
E27        15.000    27668400.151 4                     -4068.920 4        29.450                                                                                                                                    27668401.894 4                     -3117.365 4        29.336
E13        16.000    23431601.743 8 123133980.97608     -1538.596 8        49.782                                                                    23431601.582 8  91950697.50908     -1148.930 8        48.241    23431601.066 8  94349365.51208     -1178.927 8        48.676
E31        17.000    28593230.165 5 150258578.81305      2010.938 5        31.789                                                                    28593216.880 4 112205970.26804      1502.349 4        24.376    28593224.354 5 115133060.63805      1540.514 5        30.083
G16        18.000    21157394.515 8 111182863.52908     -2828.311 8        49.114                                    21157390.464 5  86635898.76905     -2203.873 5        33.910
E26        19.000    24766397.806 5                       924.549 5        32.353                                                                    24766383.335 6  97188682.81306       690.176 6        36.571    24766385.937 5  99724030.66705       708.419 5        35.609
E21        22.000    24409088.313 6 128270723.96606     -2609.456 6        40.920                                                                    24409090.373 7  95786512.70007     -1948.644 7        45.347    24409084.453 6  98285317.74106     -1999.484 6        38.880
S36        23.000    38264631.563 6 201081853.89006      -850.999 6        36.654
S23        24.000    38219969.225 6 200847282.87706      -851.982 6        40.810
G26        25.000                                                                                                                                                                    23036267.381 4                     -3283.691 4        24.962
R20        26.000                                                                                                                                    22710200.997 4                      1690.218 4        24.782
R02        27.000                                                                                                                                    22780708.780 5  94548585.69905     -2351.516 5        33.748
R19        29.000    19661296.335 6 105174693.74706      -912.004 6        36.386                                                                    19661294.491 6  81802547.44406      -709.600 6        39.937
R18        30.000    20921700.474 7 111681462.04707     -3279.995 7        42.246                                                                    20921701.929 7  86863360.80607     -2551.157 7        46.140
R04        31.000                                                                                                                                    22816154.581 5                      2550.527 5        30.641
R03        32.000    21306479.130 4 114055246.48904       655.539 4        28.701                                                                    21306476.422 5  88709733.78705       509.658 5        33.820
R16        33.000    23229507.778 5 124087859.76115     -5374.286 5        34.524                                                                    23229612.421 3                     -4180.202 3        23.295
R09        34.000    20694128.837 7 110505925.83307     -2829.496 7        46.018                                                                    20694125.208 6  85948700.24006     -2200.740 6        40.965
R10        35.000    21519646.513 7 114711829.14507       617.103 7        43.420
C37        36.000                                                                                                                                    24482825.030 6 127488456.18206     -2903.844 6        37.270                                                                    24482831.130 6 103594873.02306     -2359.709 6        38.420
C33        37.000                                                                                                                                    24633871.460 4                      2111.675 4        26.311                                                                    24633867.118 6 104233967.84906      1715.831 6        40.749
C28        40.000                                                                                                                                    21933830.933 7 114215464.48907       281.962 7        46.742                                                                    21933827.105 7  92809242.40007       229.091 7        46.504
C21        41.000                                                                                                                                    26298743.548 4                     -3078.724 4        28.152                                                                    26298717.788 4                     -2501.515 4        24.737
C43        42.000                                                                                                                                    23019408.522 7 119868164.98707     -2804.240 7        43.306                                                                    23019393.968 5  97402774.33605     -2278.542 5        35.190
C11        44.000                                                                                                                                                                                                    24782971.811 5  99790687.61405     -2603.394 5        35.700    24782949.108 4                     -2735.079 4        24.647
C13        45.000                                                                                                                                    38228787.775 6 199067317.92806     -1669.095 6        39.072    38228789.248 5 153931461.53405     -1290.485 5        34.386    38228784.037 5 161758570.66705     -1356.166 5        33.886
C08        46.000                                                                                                                                                                                                    38628052.316 5 155539219.01805     -1490.972 5        33.802    38628050.146 5 163447927.25405     -1566.958 5        34.386
C14        47.000                                                                                                                                    23752820.488 7 123687141.48407       984.233 7        44.096    23752815.736 7  95642794.98807       761.015 7        46.971    23752810.442 7 100506012.01707       799.743 7        43.401
C42        48.000                                                                                                                                    23876859.435 7 124333219.98007      -573.882 7        45.079                                                                    23876865.094 7 101030866.21107      -466.323 7        44.093
C38        50.000                                                                                                                                    40062512.811 4                     -2074.155 4        24.361                                                                    40062491.188 4                     -1686.109 4        27.066
C27        52.000                                                                                                                                    24919934.231 6 129764600.28706      1810.365 6        36.382                                                                    24919910.844 5 105444346.71005      1471.093 5        34.319
C23        55.000                                                                                                                                    26505074.015 4                     -4103.474 4        27.413                                                                    26505059.368 3                     -3333.446 3        22.838
I06        58.000    38710472.536 6 151908370.73106      -573.207 6        38.468
> 2025 01 01 19 45 15.0000000  0 40
G18         1.000    22598675.240 7 118757057.93807     -3549.514 7        45.701                                    22598670.432 4  92537833.16104     -2765.855 4        26.659    22598671.460 6  92537853.13206     -2766.009 6        36.166
G10         2.000    21779513.520 7 114452102.55507      1561.154 7        43.281                                    21779527.190 3  89183439.92503      1216.507 3        18.776
G07         3.000    25176139.375 6 132301486.81906     -1028.968 6        39.348                                    25176138.221 2 103091991.66802      -801.780 2        14.333
G23         4.000                                                                                                                                                                    20915505.368 6  85645532.35306      -835.251 6        36.060
G08         6.000    22598608.897 5 118756537.55005      2104.287 5        35.100                                    22598607.773 3  92537480.51803      1639.699 3        22.990    22598608.283 5                      1639.846 5        31.102
G27         7.000    20466518.914 7 107552766.75007       503.468 7        43.145                                    20466517.745 5  83806997.15905       392.305 5        30.347    20466515.224 5  83806988.18705       392.232 5        33.922
E15        10.000    26678156.340 5 140194611.62005     -3340.330 5        30.604                                                                    26678144.268 5 104690780.50905     -2494.440 5        30.792    26678177.999 4                     -2559.342 4        27.892
E27        15.000    27672270.479 5                     -4068.978 5        30.008                                                                                                                                    27672273.755 4                     -3117.578 4        29.118
E13        16.000    23433066.053 8 123141675.89008     -1539.665 8        49.899                                                                    23433065.896 8  91956443.71908     -1149.809 8        48.367    23433065.330 8  94355261.61708     -1179.788 8        48.671
E31        17.000    28591317.604 5 150248525.76405      2010.333 5        31.366                                                                    28591299.322 3                      1499.926 3        21.714    28591313.141 5 115125357.55505      1540.299 5        30.936
G16        18.000    21160086.911 8 111197011.00208     -2831.022 8        49.576                                    21160082.318 5  86646922.76305     -2205.988 5        33.748
E26        19.000    24765508.087 5 130143619.00115       923.757 5        34.357                                                                    24765503.717 6  97185232.62906       689.804 6        36.280    24765505.804 5  99720490.47405       707.561 5        35.438
E21        22.000    24411572.405 6 128283775.00506     -2611.333 6        41.945                                                                    24411573.897 7  95796258.59407     -1949.947 7        45.464    24411568.494 6  98295317.86206     -2000.799 6        39.303
S36        23.000    38265439.098 6 201086107.41106      -850.567 6        36.722
S23        24.000    38220780.579 6 200851541.51106      -851.866 6        40.810
G26        25.000    23040291.521 3                     -4215.647 3        19.940
R20        26.000                                                                                                                                    22708168.632 4                      1689.986 4        24.827
R02        27.000                                                                                                                                    22783549.485 5                     -2354.119 5        34.938
R19        29.000    19662148.133 6 105179258.76806      -913.934 6        36.318                                                                    19662149.165 6  81806098.04306      -711.027 6        40.229
R18        30.000    20924774.639 7 111697863.87407     -3280.989 7        43.388                                                                    20924774.527 7  86876117.78107     -2551.840 7        45.496
R04        31.000                                                                                                                                    22813089.011 5                      2549.662 5        32.353
R03        32.000    21305870.587 4 114051978.07304       651.282 4        28.085                                                                    21305865.207 5  88707191.72805       506.688 5        32.808
R16        33.000    23234535.609 5                     -5374.729 5        35.276
R09        34.000    20696780.244 7 110520082.32707     -2833.286 7        46.301                                                                    20696777.256 6  85959710.84706     -2203.722 6        40.391
R10        35.000    21519069.709 7 114708752.96207       613.035 7        43.134
C37        36.000                                                                                                                                    24485614.234 5 127502980.00005     -2905.902 5        35.171                                                                    24485620.274 6 103606674.77006     -2361.009 6        37.316
C33        37.000                                                                                                                                    24631843.257 4                      2111.191 4        25.624                                                                    24631839.915 6 104225389.78806      1715.369 6        40.598
C28        40.000                                                                                                                                    21933559.876 7 114214056.68707       280.853 7        45.893                                                                    21933556.706 7  92808098.41807       228.399 7        46.506
C21        41.000                                                                                                                                    26301702.541 4                     -3080.947 4        28.578                                                                    26301672.011 4                     -2503.168 4        24.045
C43        42.000                                                                                                                                    23022100.006 7 119882187.72707     -2805.031 7        42.963                                                                    23022087.185 5  97414168.94505     -2279.091 5        34.381
C11        44.000                                                                                                                                    24786238.557 5                     -3367.011 5        30.166    24786202.221 5  99803704.30105     -2603.725 5        34.381    24786181.371 4                     -2735.569 4        25.008
C13        45.000                                                                                                                                    38230389.842 6 199075662.84706     -1669.371 6        38.892    38230391.407 5 153937914.34205     -1290.484 5        34.129    38230387.113 5 161765351.58905     -1356.478 5        34.014
C08        46.000                                                                                                                                                                                                    38629904.282 5 155546674.07105     -1491.101 5        34.329    38629901.370 5 163455761.32205     -1566.815 5        34.671
C14        47.000                                                                                                                                    23751875.842 7 123682225.30107       982.036 7        43.852    23751871.430 7  95638993.49007       759.317 7        47.034    23751866.545 7 100502017.20507       798.108 7        43.500
C42        48.000                                                                                                                                    23877411.051 7 124336095.49207      -576.605 7        45.147                                                                    23877417.406 7 101033202.78207      -468.358 7        44.244
C38        50.000                                                                                                                                    40064505.330 4                     -2075.474 4        24.722                                                                    40064484.324 4                     -1686.574 4        27.150
C27        52.000                                                                                                                                    24918195.860 5 129755548.01405      1810.125 5        34.233                                                                    24918172.367 5 105436991.00105      1470.918 5        33.964
C23        55.000                                                                                                                                    26509014.409 4                     -4103.878 4        25.669                                                                    26509005.128 3                     -3333.027 3        22.152
I06        58.000    38711202.237 6 151911235.99306      -572.973 6        38.523
I01        59.000   367316905.520 6 138289627.51816     -1867.116 6        38.159
> 2025 01 01 19 45 20.0000000  0 39
G18         1.000    22602053.165 7 118774807.47607     -3550.245 7        46.197                                    22602047.763 4  92551663.95704     -2766.426 4        26.084    22602049.843 6  92551683.93206     -2766.502 6        36.076
G10         2.000    21778029.222 7 114444302.44207      1558.921 7        43.354                                    21778045.576 3  89177361.79903      1214.762 3        21.595
G07         3.000    25177120.434 6 132306638.27506     -1031.319 6        38.586                                    25177118.297 2 103096005.78702      -803.608 2        16.377
G23         4.000                                                                                                                                                                    20916526.806 6  85649714.19906      -837.254 6        36.616
G08         6.000    22596607.186 6 118746017.30806      2103.873 6        36.752                                    22596606.485 3  92529282.91303      1639.389 3        22.381    22596606.968 5                      1639.068 5        30.958
G27         7.000    20466040.481 7 107550255.19607       501.309 7        43.369                                    20466039.603 4  83805040.13004       390.624 4        29.716    20466037.381 5  83805031.10905       390.632 5        34.214
E15        10.000    26681334.010 5 140211311.35205     -3339.546 5        30.219                                                                    26681321.857 5 104703251.06805     -2494.075 5        31.570    26681353.996 4                     -2559.186 4        29.024
E27        15.000    27676143.736 5                     -4069.072 5        30.189                                                                                                                                    27676144.911 4                     -3118.354 4        28.787
E13        16.000    23434531.719 8 123149377.15008     -1540.715 8        49.850                                                                    23434531.440 8  91962194.65308     -1150.532 8        48.448    23434530.848 8  94361162.58108     -1180.594 8        48.749
E31        17.000    28589406.121 5 150238475.95105      2009.636 5        30.725                                                                    28589385.391 3                      1499.800 3        21.452    28589402.146 5 115117657.12405      1539.974 5        31.396
G16        18.000    21162781.934 8 111211172.91508     -2833.698 8        49.572                                    21162776.779 5  86657958.00405     -2208.070 5        33.808
E26        19.000    24764631.547 6 130139004.27406       922.472 6        36.654                                                                    24764625.311 6  97181786.66306       688.826 6        36.639    24764626.760 5  99716954.56205       706.843 5        35.533
E21        22.000    24414059.183 7 128296835.88907     -2612.971 7        42.068                                                                    24414059.272 7  95806011.84807     -1951.226 7        45.391    24414054.832 6  98305325.56206     -2002.154 6        39.982
S36        23.000    38266252.070 6 201090360.65806      -850.445 6        37.047
S23        24.000    38221592.473 6 200855800.13606      -851.590 6        40.994
G26        25.000                                                                                                                                                                    23044307.751 4                     -3286.125 4        28.995
R20        26.000    22706170.804 4                      2170.920 4        28.133                                                                    22706136.248 3                      1689.097 3        23.810
R19        29.000    19663003.166 5 105183833.90205      -915.674 5        35.900                                                                    19663004.672 6  81809656.46606      -712.350 6        40.999
R18        30.000    20927847.648 7 111714271.39707     -3281.942 7        42.847                                                                    20927848.031 7  86888879.18407     -2552.590 7        45.579
R04        31.000    22810074.953 4                      3276.756 4        28.019
R03        32.000    21305264.675 5 114048730.44705       647.804 5        32.156                                                                    21305258.712 5  88704665.72705       504.535 5        32.778
R16        33.000    23239564.536 5                     -5374.886 5        35.371
R09        34.000    20699436.246 7 110534258.71507     -2837.178 7        46.438                                                                    20699430.945 6  85970736.89506     -2206.604 6        39.138
R10        35.000    21518496.092 6 114705697.98106       609.001 6        41.793
C37        36.000                                                                                                                                    24488404.381 4 127517513.59104     -2907.675 4        29.848                                                                    24488411.243 6 103618484.44506     -2362.733 6        36.265
C33        37.000                                                                                                                                    24629818.976 4                      2108.634 4        25.579                                                                    24629813.867 6 104216817.03906      1714.067 6        40.319
C28        40.000                                                                                                                                    21933290.233 7 114212655.37007       279.773 7        44.798                                                                    21933287.604 7  92806959.73607       227.290 7        46.464
C21        41.000                                                                                                                                    26304660.868 4                     -3082.643 4        28.275                                                                    26304627.230 3                     -2505.976 3        23.752
C43        42.000                                                                                                                                    23024792.381 7 119896215.53607     -2805.887 7        42.679                                                                    23024781.249 5  97425567.69005     -2279.843 5        33.503
C11        44.000                                                                                                                                    24789463.871 5                     -3367.510 5        32.527    24789433.594 5  99816722.72405     -2603.698 5        31.728    24789417.310 4                     -2736.246 4        25.038
C13        45.000                                                                                                                                    38231992.603 6 199084009.93206     -1669.357 6        39.159    38231994.737 5 153944368.85205     -1291.016 5        33.485    38231989.796 5 161772134.28605     -1356.455 5        33.533
C08        46.000                                                                                                                                                                                                    38631756.561 5 155554130.50105     -1491.042 5        34.362    38631753.400 5 163463596.92305     -1566.998 5        34.310
C14        47.000                                                                                                                                    23750933.774 7 123677321.08807       979.740 7        43.316    23750928.949 7  95635201.23207       757.641 7        46.814    23750924.753 7 100498032.12807       796.063 7        43.826
C42        48.000                                                                                                                                    23877965.884 7 124338985.55307      -579.362 7        44.594                                                                    23877972.543 7 101035551.20307      -470.864 7        44.331
C38        50.000                                                                                                                                    40066498.722 3                     -2076.318 3        23.581                                                                    40066476.352 4                     -1686.140 4        26.862
C27        52.000                                                                                                                                                                                                                                                                    24916434.374 5 105429636.85705      1471.088 5        33.485
C23        55.000                                                                                                                                    26512956.466 4                     -4102.530 4        25.489                                                                    26512947.672 3                     -3332.638 3        21.381
I06        58.000    38711931.487 6 151914101.03206      -572.970 6        38.541
I01        59.000   367319283.342 6 138298966.20806     -1867.618 6        38.099
> 2025 01 01 19 45 25.0000000  0 40
G18         1.000    22605431.553 7 118792561.91907     -3551.549 7        46.444                                    22605426.052 4  92565498.58704     -2767.436 4        26.144    22605428.936 6  92565518.56006     -2767.372 6        36.563
G10         2.000    21776546.286 7 114436514.02807      1556.453 7        42.836                                    21776564.954 4  89171292.84504      1212.834 4        25.248    21776559.633 5                      1212.684 5        32.234
G07         3.000    25178102.821 6 132311802.95406     -1034.364 6        38.952                                    25178100.834 2 103100030.19902      -805.982 2        17.547    25178084.615 4                      -806.248 4        27.329
G23         4.000                                                                                                                                                                    20917550.697 6  85653908.96106      -840.530 6        36.745
G08         6.000    22594605.959 6 118735502.12906      2102.448 6        37.478                                    22594606.015 3  92521089.24903      1638.266 3        21.381    22594606.512 5                      1638.315 5        31.238
G27         7.000    20465564.118 7 107547754.90207       498.933 7        42.694                                    20465563.331 4  83803091.88604       388.766 4        28.332    20465563.189 5  83803082.87405       388.908 5        34.243
E15        10.000    26684509.694 4 140228012.10504     -3340.462 4        28.597                                                                    26684499.277 5 104715722.37805     -2494.291 5        31.841    26684531.907 5                     -2559.535 5        30.113
E27        15.000    27680016.277 4                     -4069.466 4        29.829                                                                                                                                    27680016.585 4                     -3118.107 4        28.692
E13        16.000    23435998.239 8 123157084.81808     -1542.311 8        49.593                                                                    23435998.194 8  91967950.37808     -1151.712 8        48.843    23435997.521 8  94367068.45408     -1181.756 8        48.836
E31        17.000    28587494.634 5 150228429.34105      2008.928 5        30.091                                                                    28587472.002 3                      1501.234 3        20.976    28587490.432 5 115109959.12405      1539.153 5        32.048
G16        18.000    21165479.269 8 111225349.29308     -2836.858 8        49.373                                    21165473.914 5  86669004.51305     -2210.537 5        33.545
E26        19.000    24763755.233 6 130134395.34206       921.321 6        38.258                                                                    24763748.508 6  97178344.95206       687.686 6        37.452    24763749.428 6  99713423.05406       705.815 6        36.004
E21        22.000    24416547.498 7 128309906.69907     -2615.271 7        42.011                                                                    24416546.341 7  95815772.52907     -1952.893 7        45.077    24416542.866 6  98315340.86106     -2003.933 6        40.253
S36        23.000    38267056.444 6 201094615.66706      -851.026 6        36.957
S23        24.000    38222402.687 6 200860058.82106      -851.850 6        40.906
G26        25.000    23048326.043 5                     -4218.009 5        30.415                                                                                                    23048323.094 4                     -3286.751 4        29.640
R20        26.000    22704136.364 4                      2170.675 4        28.711                                                                    22704114.945 3                      1687.114 3        18.896
R02        27.000                                                                                                                                    22789252.109 5  94583918.39515     -2360.156 5        34.052
R19        29.000    19663861.839 5 105188419.34905      -918.527 5        34.605                                                                    19663862.718 6  81813222.90006      -714.175 6        41.697
R18        30.000    20930921.307 7 111730684.68607     -3283.375 7        42.796                                                                    20930923.296 7  86901645.08207     -2553.745 7        45.950
R04        31.000                                                                                                                                    22806955.581 5                      2547.834 5        31.894
R03        32.000    21304663.584 5 114045503.72405       643.229 5        34.776                                                                    21304655.276 5  88702156.06005       500.348 5        32.641
R16        33.000    23244590.191 5 124168480.45015     -5375.678 5        34.543
R09        34.000    20702094.245 7 110548455.14507     -2841.353 7        46.292                                                                    20702088.750 6  85981778.59906     -2209.935 6        37.353
R10        35.000    21517926.789 6 114702664.39206       604.390 6        41.011
C37        36.000                                                                                                                                    24491194.208 4 127532056.95104     -2910.054 4        25.594                                                                    24491204.053 5 103630302.02205     -2364.369 5        35.010
C33        37.000                                                                                                                                    24627796.989 3                      2107.727 3        23.524                                                                    24627789.034 6 104208249.56506      1712.927 6        39.943
C28        40.000                                                                                                                                    21933022.186 7 114211260.62107       278.152 7        43.759                                                                    21933019.889 7  92805826.37007       226.041 7        46.574
C21        41.000                                                                                                                                    26307624.383 4                     -3084.325 4        26.323                                                                    26307589.671 4                     -2505.656 4        24.962
C43        42.000                                                                                                                                    23027487.274 7 119910248.49107     -2807.245 7        42.322                                                                    23027476.582 5  97436970.59305     -2280.855 5        32.916
C11        44.000                                                                                                                                                                                                    24792665.490 4  99829743.02704     -2604.333 4        28.218    24792653.521 4                     -2736.964 4        27.210
C13        45.000                                                                                                                                    38233595.875 6 199092359.19806     -1670.331 6        38.844    38233597.100 5 153950824.99905     -1291.379 5        33.132    38233593.212 5 161778918.74305     -1357.154 5        34.071
C08        46.000                                                                                                                                    38633626.485 3                     -1929.997 3        20.190    38633609.134 5 155561588.47705     -1491.951 5        34.771    38633605.469 5 163471434.11205     -1567.676 5        34.448
C14        47.000                                                                                                                                    23749993.586 7 123672428.85907       977.139 7        42.705    23749989.042 7  95631418.23707       755.572 7        46.440    23749985.302 7 100494056.77707       794.014 7        44.311
C42        48.000                                                                                                                                    23878523.383 7 124341890.21307      -582.530 7        43.647                                                                    23878530.581 7 101037911.47307      -473.348 7        44.796
C38        50.000                                                                                                                                    40068497.837 4                     -2075.734 4        24.060                                                                    40068469.797 4                     -1686.479 4        26.443
C27        52.000                                                                                                                                                                                                                                                                    24914696.766 5 105422284.36305      1470.063 5        32.623
C23        55.000                                                                                                                                    26516893.422 3                     -4103.530 3        23.600                                                                    26516886.680 3                     -3327.686 3        18.418
I06        58.000    38712662.339 6 151916965.86006      -573.043 6        38.535
I01        59.000   367321664.098 6 138308306.17106     -1867.937 6        37.924
> 2025 01 01 19 45 30.0000000  0 40
G18         1.000    22608811.020 7 118810321.75107     -3552.243 7        46.428                                    22608805.382 4  92579337.41404     -2767.978 4        26.036    22608808.583 6  92579357.36406     -2768.010 6        36.507
G10         2.000    21775066.065 6 114428737.85506      1554.222 6        41.983                                    21775086.538 4  89165233.45404      1211.093 4        27.198    21775082.437 5  89165321.40115      1211.308 5        34.910
G07         3.000    25179088.246 6 132316981.36406     -1036.766 6        38.910                                    25179086.093 3 103104065.32703      -807.887 3        18.478
G23         4.000                                                                                                                                                                    20918577.595 6  85658116.97706      -842.860 6        36.321
G08         6.000    22592605.876 6 118724992.45006      2101.607 6        38.057                                    22592606.346 3  92512899.86803      1637.618 3        20.405    22592605.434 4                      1637.129 4        29.810
G27         7.000    20465089.721 6 107545266.44606       496.601 6        41.108                                    20465089.330 4  83801152.87404       386.958 4        27.425    20465088.560 5  83801143.84505       387.284 5        32.611
E15        10.000    26687687.412 4 140244714.30204     -3340.009 4        27.581                                                                    26687677.240 5 104728194.84005     -2494.604 5        31.691    26687710.291 5                     -2559.637 5        30.521
E27        15.000    27683888.398 4                     -4069.644 4        29.763                                                                                                                                    27683888.750 4                     -3118.755 4        28.834
E13        16.000    23437466.275 8 123164799.40108     -1543.348 8        49.394                                                                    23437466.305 8  91973711.26608     -1152.495 8        48.980    23437465.632 8  94372979.62508     -1182.561 8        48.953
E31        17.000    28585583.117 4 150218386.48704      2008.323 4        29.554                                                                                                                                    28585579.166 5 115102263.96005      1538.912 5        32.108
G16        18.000    21168180.015 8 111239540.65408     -2839.532 8        49.532                                    21168173.884 5  86680062.70105     -2212.622 5        33.826
E26        19.000    24762878.569 6 130129792.63806       920.052 6        38.622                                                                    24762872.973 6  97174907.85906       687.078 6        37.887    24762873.562 6  99709896.30506       705.331 6        36.919
E21        22.000    24419036.639 7 128322987.97007     -2617.145 7        42.017                                                                    24419035.276 7  95825541.00207     -1954.350 7        44.316    24419032.289 6  98325364.17106     -2005.460 6        40.982
S36        23.000    38267867.775 6 201098871.73506      -850.950 6        36.582
S23        24.000    38223212.225 6 200864317.79406      -851.526 6        40.918
G26        25.000    23052330.474 5                     -4218.873 5        34.471                                                                                                    23052333.062 5                     -3287.825 5        30.468
R20        26.000    22702101.386 4                      2169.746 4        27.653
R02        27.000    22792070.596 5 121622796.18005     -3037.987 5        34.890                                                                    22792098.504 5  94595725.65505     -2362.801 5        33.994
R19        29.000    19664720.556 5 105193015.64005      -920.273 5        31.608                                                                    19664720.540 6  81816797.80306      -715.622 6        41.340
R18        30.000    20933997.886 7 111747104.32107     -3284.287 7        43.393                                                                    20933999.688 7  86914415.91507     -2554.541 7        46.232
R04        31.000                                                                                                                                    22803898.163 5                      2546.837 5        30.362
R03        32.000    21304066.525 6 114042298.33006       639.157 6        36.654                                                                    21304058.690 5  88699663.04005       497.339 5        34.338
R16        33.000    23249614.981 5 124195359.67105     -5375.801 5        33.240
R09        34.000    20704755.973 7 110562672.00107     -2845.161 7        45.929                                                                    20704752.215 6  85992836.15506     -2213.052 6        36.922
R10        35.000    21517363.115 6 114699652.70206       600.321 6        40.861
C37        36.000                                                                                                                                    24493989.960 5 127546610.28505     -2910.846 5        30.158                                                                    24493999.050 5 103642127.93205     -2366.027 5        33.940
C33        37.000                                                                                                                                    24625770.548 4                      2105.974 4        26.000                                                                    24625765.676 6 104199687.81706      1711.787 6        38.907
C28        40.000                                                                                                                                    21932754.914 7 114209872.91307       277.054 7        43.348                                                                    21932753.566 7  92804698.73407       225.005 7        46.574
C21        41.000                                                                                                                                    26310592.641 3                     -3089.824 3        22.457
C43        42.000                                                                                                                                    23030182.776 6 119924287.06406     -2808.044 6        41.735                                                                    23030172.603 5  97448378.09705     -2281.771 5        32.251
C11        44.000                                                                                                                                    24795914.062 5                     -3368.438 5        34.676    24795895.663 3  99842765.50103     -2604.501 3        22.724    24795889.156 4                     -2737.343 4        28.066
C13        45.000                                                                                                                                    38235200.871 6 199100711.08506     -1670.256 6        38.709    38235201.655 5 153957283.24905     -1291.953 5        33.138    38235197.386 5 161785705.36105     -1357.301 5        34.038
C08        46.000                                                                                                                                                                                                    38635461.758 5 155569048.31905     -1492.144 5        35.086    38635458.211 5 163479273.26505     -1568.116 5        34.286
C14        47.000                                                                                                                                    23749056.620 7 123667549.12407       974.860 7        42.487    23749051.660 7  95627644.90407       753.933 7        46.359    23749048.380 7 100490091.59007       792.139 7        44.650
C42        48.000                                                                                                                                    23879084.713 7 124344809.99707      -585.308 7        43.625                                                                    23879091.521 7 101040284.03407      -475.746 7        45.192
C38        50.000                                                                                                                                    40070487.642 3                     -2076.359 3        23.752                                                                    40070463.304 4                     -1687.327 4        26.575
C27        52.000                                                                                                                                                                                                                                                                    24912959.352 5 105414933.87905      1470.171 5        32.431
C23        55.000                                                                                                                                    26520830.998 3                     -4101.385 3        21.381
I06        58.000    38713392.974 6 151919830.92106      -572.748 6        38.571
I01        59.000   367324044.630 6 138317647.79306     -1868.393 6        37.822
> 2025 01 01 19 45 35.0000000  0 40
G18         1.000    22612191.422 7 118828086.13807     -3553.712 7        46.181                                    22612185.611 4  92593179.78904     -2769.117 4        26.012    22612188.859 6  92593199.76006     -2769.210 6        36.344
G10         2.000    21773589.498 6 114420973.10106      1551.412 6        40.439                                    21773610.120 4  89159182.94504      1208.909 4        27.365    21773604.191 5  89159270.88505      1208.838 5        35.833
G07         3.000    25180075.850 6 132322172.66506     -1039.823 6        37.361                                    25180073.870 3 103108110.48803      -810.248 3        18.269    25180082.889 5                      -810.065 5        31.208
G23         4.000                                                                                                                                                                    20919608.710 6  85662337.63806      -845.720 6        36.132
G15         5.000    23713085.252 5 124613417.93705      -898.965 5        31.728
G08         6.000    22590606.813 6 118714487.51806      2100.168 6        36.900                                    22590607.575 3  92504714.22703      1636.491 3        18.090    22590605.264 4                      1636.878 4        28.370
G27         7.000    20464616.660 6 107542788.94606       493.875 6        41.437                                    20464617.663 4  83799222.39304       384.826 4        26.395    20464618.245 4  83799213.36204       384.608 4        28.853
E15        10.000    26690865.944 4 140261417.16104     -3340.775 4        27.772                                                                    26690855.425 5 104740667.78005     -2494.535 5        31.728    26690888.609 5                     -2559.666 5        30.423
E27        15.000    27687762.080 4                     -4070.167 4        28.787                                                                                                                                    27687761.068 4                     -3118.683 4        28.815
E13        16.000    23438935.371 8 123172520.04908     -1545.127 8        49.198                                                                    23438935.558 8  91979476.68708     -1153.862 8        49.207    23438934.908 8  94378895.44808     -1183.924 8        49.026
E31        17.000    28583672.574 4 150208346.38104      2007.289 4        28.730                                                                    28583686.711 5 112168527.47515      1499.029 5        32.240    28583668.999 5 115094570.93005      1537.986 5        32.671
G16        18.000    21170883.330 8 111253746.18008     -2842.868 8        49.554                                    21170876.703 5  86691131.92105     -2215.218 5        33.820
E26        19.000    24762003.253 6 130125195.30206       918.558 6        39.504                                                                    24761998.554 6  97171474.78706       685.893 6        38.523    24761999.003 6  99706373.68306       703.838 6        38.087
E21        22.000    24421527.016 7 128336078.82507     -2619.443 7        42.021                                                                    24421525.786 7  95835316.63607     -1956.162 7        43.530    24421523.536 6  98335394.80606     -2007.072 6        41.199
S36        23.000    38268678.221 6 201103127.68006      -851.514 6        36.718
S23        24.000    38224022.518 6 200868576.54706      -852.091 6        40.856
G26        25.000    23056338.137 6 121161918.79916     -4220.600 6        36.945                                    23056340.154 2  94411858.31912     -3288.771 2        12.485    23056347.023 5                     -3288.521 5        30.023
R20        26.000    22700070.429 4                      2168.906 4        25.278
R02        27.000    22794917.232 5 121637995.48005     -3042.238 5        33.713                                                                    22794943.944 5  94607547.28705     -2366.114 5        32.467
R19        29.000    19665582.217 5 105197621.86805      -922.869 5        31.238                                                                    19665581.949 7  81820380.51807      -717.698 7        42.119
R18        30.000    20937076.271 7 111763529.41507     -3285.939 7        44.006                                                                    20937076.482 7  86927190.96907     -2555.750 7        46.338
R04        31.000                                                                                                                                    22800838.714 4                      2545.941 4        29.953
R03        32.000    21303471.182 5 114039113.51905       634.838 5        34.695                                                                    21303466.020 5  88697186.05105       493.767 5        35.595
R16        33.000    23254647.896 5                     -5377.230 5        31.502
R09        34.000    20707421.949 7 110576908.56107     -2849.670 7        45.081                                                                    20707418.817 6  86003909.02106     -2216.349 6        37.561
R10        35.000    21516801.433 6 114696662.06806       595.595 6        41.983
C37        36.000                                                                                                                                                                                                                                                                    24496795.194 5 103653961.46405     -2367.569 5        31.879
C33        37.000                                                                                                                                    24623748.932 5                      2105.603 5        30.981                                                                    24623743.628 6 104191131.11906      1710.630 6        37.622
C28        40.000                                                                                                                                    21932489.019 7 114208491.44507       275.256 7        42.764                                                                    21932488.227 7  92803576.15207       223.687 7        46.334
C43        42.000                                                                                                                                    23032876.145 6 119938330.45206     -2809.468 6        40.653                                                                    23032869.887 5  97459789.48205     -2282.657 5        31.441
C11        44.000                                                                                                                                    24799144.636 5 129135672.52115     -3369.312 5        34.352                                                                    24799123.879 4                     -2737.411 4        28.986
C13        45.000                                                                                                                                    38236805.402 6 199109064.86906     -1671.391 6        38.489    38236806.109 5 153963742.89805     -1292.500 5        32.281    38236801.384 5 161792493.47105     -1357.993 5        33.964
C08        46.000                                                                                                                                    38637315.721 3                     -1930.030 3        23.371    38637314.693 5 155576509.44105     -1492.841 5        35.452    38637311.404 5 163487113.73505     -1568.355 5        34.243
C14        47.000                                                                                                                                    23748122.330 7 123662681.08007       972.082 7        42.366    23748116.263 7  95623880.61407       751.650 7        46.133    23748113.664 7 100486135.89707       789.926 7        44.957
C42        48.000                                                                                                                                    23879648.825 7 124347744.05007      -588.643 7        43.822                                                                    23879655.210 7 101042668.16807      -478.233 7        45.783
C38        50.000                                                                                                                                    40072479.387 3                     -2075.764 3        22.686                                                                    40072456.436 4                     -1687.234 4        26.228
C27        52.000                                                                                                                                                                                                                                                                    24911222.468 5 105407584.76305      1469.307 5        31.758
C23        55.000                                                                                                                                    26524772.228 3                     -4102.749 3        19.552
I06        58.000    38714122.152 6 151922695.51706      -573.149 6        38.700
I01        59.000   367326425.448 6 138326990.39006     -1868.848 6        37.766
> 2025 01 01 19 45 40.0000000  0 40
G18         1.000    22615572.732 7 118845855.35007     -3554.493 7        45.831                                    22615566.927 4  92607025.93704     -2769.736 4        25.865    22615570.218 6  92607045.89106     -2769.747 6        36.628
G10         2.000    21772113.447 6 114413220.04306      1549.390 6        37.467                                    21772135.759 4  89153141.53204      1207.326 4        26.455    21772126.596 6  89153229.46806      1207.426 6        36.745
G07         3.000    25181065.767 5 132327377.16105     -1042.339 5        34.333                                    25181064.205 2 103112165.91302      -812.206 2        17.660    25181071.279 5                      -812.234 5        32.455
G23         4.000    20920623.050 6 109938710.96306     -1088.409 6        39.330                                                                                                    20920643.020 6  85666571.12206      -848.056 6        37.958
G15         5.000    23713944.926 4 124617918.06404      -902.132 4        29.829
G08         6.000    22588608.109 5 118703987.60405      2099.293 5        35.910                                    22588609.538 2  92496532.46402      1635.833 2        15.524    22588605.514 4                      1635.627 4        28.085
G27         7.000    20464148.549 7 107540322.69107       491.931 7        42.550                                    20464148.729 4  83797300.66604       383.324 4        26.383    20464154.247 4  83797291.62004       383.202 4        29.735
E15        10.000    26694041.685 4 140278120.98504     -3340.710 4        27.976                                                                    26694033.888 5 104753141.44105     -2495.166 5        30.792    26694066.935 5                     -2560.191 5        30.098
E27        15.000    27691633.517 4                     -4070.742 4        28.569                                                                                                                                    27691633.542 4                     -3118.473 4        28.190
E13        16.000    23440405.757 8 123180247.01408     -1546.158 8        48.928                                                                    23440405.964 8  91985246.82308     -1154.600 8        49.469    23440405.367 8  94384816.10708     -1184.756 8        49.246
E31        17.000    28581763.341 4 150198309.36204      2007.077 4        28.787                                                                    28581776.594 5 112161032.23705      1498.723 5        32.269    28581758.873 5 115086880.20405      1537.790 5        33.293
G16        18.000    21173589.293 8 111267966.11308     -2845.638 8        49.577                                    21173582.464 5  86702212.37505     -2217.374 5        33.898
E26        19.000    24761129.751 6 130120603.56006       917.691 6        40.324                                                                    24761125.057 6  97168045.89206       685.378 6        38.826    24761125.206 6  99702855.34506       703.325 6        39.141
E21        22.000    24424020.030 7 128349179.52207     -2621.285 7        42.209                                                                    24424018.405 7  95845099.62807     -1957.502 7        42.868    24424016.567 6  98345433.00406     -2008.496 6        41.790
S36        23.000    38269490.138 6 201107383.11906      -851.418 6        37.127
S23        24.000    38224833.045 6 200872835.07106      -851.891 6        40.889
G26        25.000    23060350.252 6 121183023.00206     -4221.656 6        38.408                                    23060356.485 2  94428303.14402     -3289.621 2        14.810    23060364.163 5                     -3289.265 5        30.166
R20        26.000    22698038.819 3                      2169.368 3        22.800                                                                    22698024.018 5                      1686.350 5        31.562
R02        27.000    22797765.390 4 121653213.81204     -3045.429 4        27.497                                                                    22797795.066 5  94619383.82005     -2369.325 5        30.136
R19        29.000    19666443.732 5 105202238.50905      -924.867 5        32.228                                                                    19666446.217 7  81823971.21107      -719.055 7        43.054
R18        30.000    20940154.462 7 111779960.16007     -3286.931 7        44.479                                                                    20940154.601 7  86939970.43107     -2556.438 7        46.390
R04        31.000    22797771.775 4                      3271.843 4        25.940                                                                    22797783.626 5                      2544.966 5        30.513
R03        32.000    21302879.116 4 114035949.49504       630.910 4        29.261                                                                    21302874.468 5  88694725.23505       490.226 5        34.514
R16        33.000    23259682.950 4                     -5377.441 4        28.787
R09        34.000    20710091.448 7 110591164.97107     -2853.458 7        43.566                                                                    20710088.068 6  86014997.34306     -2219.269 6        40.010
R10        35.000    21516244.789 7 114693692.82407       591.568 7        43.153
C37        36.000                                                                                                                                    24499629.581 5 127575745.91705     -2915.704 5        35.333                                                                    24499592.355 5 103665802.89505     -2369.005 5        30.709
C33        37.000                                                                                                                                    24621727.687 5                      2103.961 5        33.371                                                                    24621722.735 6 104182579.73106      1709.740 6        36.684
C28        40.000                                                                                                                                    21932224.657 7 114207116.45407       274.258 7        42.745                                                                    21932224.242 7  92802458.86007       222.827 7        46.473
C21        41.000                                                                                                                                                                                                                                                                    26316512.561 4                     -2511.557 4        27.796
C43        42.000                                                                                                                                    23035567.182 6 119952378.91306     -2810.317 6        39.547                                                                    23035568.638 5  97471205.02905     -2283.956 5        31.970
C11        44.000                                                                                                                                    24802379.295 5 129152517.97205     -3369.422 5        32.958    24802383.437 3                     -2605.375 3        23.581    24802358.253 4                     -2737.561 4        29.346
C13        45.000                                                                                                                                    38238411.068 6 199117420.76206     -1671.724 6        38.288    38238410.029 5 153970204.19505     -1292.705 5        32.114    38238406.148 5 161799283.32705     -1358.214 5        34.038
C08        46.000                                                                                                                                    38639165.895 3                     -1931.216 3        23.981    38639167.608 5 155583971.94905     -1492.920 5        35.257    38639164.631 5 163494955.71905     -1568.363 5        34.476
C14        47.000                                                                                                                                    23747189.101 7 123657824.98907       969.932 7        42.074    23747183.191 7  95620125.57707       749.953 7        45.723    23747181.039 7 100482189.93907       788.119 7        45.475
C42        48.000                                                                                                                                    23880214.563 7 124350692.64607      -591.320 7        43.937                                                                    23880221.791 7 101045064.16907      -480.512 7        46.440
C38        50.000                                                                                                                                    40074475.542 3                     -2076.390 3        22.171                                                                    40074449.420 4                     -1687.735 4        27.066
C27        52.000                                                                                                                                    24909534.521 5 129710479.55115      1808.038 5        32.713                                                                    24909486.644 5 105400237.24805      1469.409 5        31.940
I06        58.000    38714851.685 6 151925559.88906      -572.913 6        38.595
I01        59.000   367328805.897 6 138336334.17406     -1868.937 6        37.554
> 2025 01 01 19 45 45.0000000  0 39
G18         1.000    22618955.522 7 118863630.31907     -3555.658 7        45.931                                    22618949.356 4  92620876.56504     -2770.649 4        25.444    22618952.493 6  92620896.50306     -2770.561 6        36.828
G10         2.000    21770638.965 5 114405479.60405      1546.640 5        35.895                                    21770663.459 4  89147109.96804      1205.180 4        25.654    21770652.656 6  89147197.93706      1205.297 6        37.221
G07         3.000    25182057.054 5 132332595.75905     -1045.163 5        31.940                                    25182057.419 2 103116232.35002      -814.415 2        17.321    25182063.286 5                      -814.273 5        32.180
G23         4.000                                                                                                                                                                    20921680.651 6  85670818.17306      -850.912 6        40.286
G15         5.000    23714804.783 4 124622436.22704      -904.947 4        26.407
G08         6.000    22586611.169 5 118693493.64705      2097.974 5        35.276                                    22586612.847 2  92488355.39702      1634.784 2        14.048    22586610.571 4                      1635.122 4        26.623
G27         7.000    20463682.066 7 107537868.62907       489.639 7        43.664                                    20463682.549 4  83795388.43404       381.538 4        26.359    20463689.255 5  83795379.38905       381.418 5        31.147
E15        10.000    26697219.345 4 140294826.68004     -3341.372 4        28.474                                                                    26697213.071 5 104765616.42905     -2495.440 5        30.611    26697245.637 4                     -2560.204 4        29.953
E27        15.000    27695506.134 4                     -4070.854 4        27.102                                                                                                                                    27695506.755 4                     -3119.602 4        27.641
E13        16.000    23441877.604 8 123187981.25608     -1547.610 8        48.689                                                                    23441877.803 8  91991022.40008     -1155.665 8        49.626    23441877.148 8  94390742.34708     -1185.846 8        49.433
E31        17.000    28579854.679 4 150188276.55804      2006.030 4        29.365                                                                    28579866.760 5 112153540.25405      1497.905 5        32.431    28579849.469 5 115079192.73105      1537.413 5        33.575
G16        18.000    21176298.486 8 111282201.38508     -2848.603 8        49.623                                    21176291.270 5  86713304.78205     -2219.684 5        33.760
E26        19.000    24760257.193 6 130116018.40606       916.271 6        40.717                                                                    24760252.692 6  97164621.93406       684.211 6        39.772    24760252.749 6  99699342.05506       702.180 6        40.045
E21        22.000    24426515.059 7 128362291.02007     -2623.403 7        42.565                                                                    24426513.082 7  95854890.67507     -1959.086 7        42.218    24426512.012 7  98355479.46707     -2010.078 7        42.463
S36        23.000    38270298.361 6 201111639.72906      -851.536 6        36.881
S23        24.000    38225642.994 6 200877094.36706      -851.859 6        40.739
G26        25.000    23064365.068 6 121204133.76706     -4222.740 6        39.219                                    23064373.970 2  94444753.11302     -3290.454 2        15.810    23064385.520 5                     -3290.483 5        30.279
R20        26.000    22696010.880 4                      2166.948 4        26.587                                                                    22696001.973 5  94395550.27015      1685.724 5        34.609
R19        29.000    19667309.820 5 105206866.24605      -926.663 5        34.729                                                                    19667311.194 7  81827570.55907      -720.727 7        43.329
R18        30.000    20943233.341 7 111796397.58207     -3288.145 7        45.824                                                                    20943234.055 7  86952755.09307     -2557.409 7        45.940
R04        31.000    22794723.908 4                      3270.303 4        26.407                                                                    22794729.959 5                      2544.026 5        31.087
R03        32.000    21302287.033 4 114032807.27404       626.128 4        29.754                                                                    21302286.327 5  88692281.34805       486.801 5        33.419
R16        33.000    23264718.629 4 124276013.12914     -5377.221 4        25.398
R09        34.000    20712765.048 7 110605442.17807     -2857.526 7        42.174                                                                    20712761.338 6  86026101.85906     -2222.498 6        40.961
R10        35.000    21515692.456 7 114690745.85107       587.126 7        44.182
C37        36.000                                                                                                                                    24502419.793 5 127590328.94105     -2917.625 5        35.667                                                                    24502392.836 5 103677652.96205     -2371.414 5        30.626
C33        37.000                                                                                                                                    24619705.794 5 128201269.02415      2102.276 5        34.419                                                                    24619702.909 5 104174034.40205      1708.618 5        34.614
C28        40.000                                                                                                                                    21931962.689 7 114205748.89207       272.772 7        43.435                                                                    21931961.557 7  92801347.59807       221.612 7        46.461
C21        41.000                                                                                                                                                                                                                                                                    26319489.464 4                     -2513.107 4        27.748
C43        42.000                                                                                                                                    23038263.205 6 119966433.42106     -2811.573 6        38.787                                                                    23038267.561 5  97482625.38005     -2284.693 5        32.299
C11        44.000                                                                                                                                    24805614.509 5 129169366.61505     -3369.544 5        30.309                                                                    24805591.754 4                     -2738.071 4        27.856
C13        45.000                                                                                                                                    38240016.619 6 199125779.67106     -1672.237 6        37.951    38240014.914 5 153976667.86305     -1293.428 5        31.600    38240011.758 5 161806075.63505     -1358.425 5        34.148
C08        46.000                                                                                                                                    38641021.797 3                     -1930.736 3        23.295    38641022.207 5 155591436.64205     -1493.135 5        35.310    38641018.186 5 163502799.99605     -1569.307 5        34.476
C14        47.000                                                                                                                                    23746257.809 6 123652981.83006       967.376 6        41.790    23746252.543 7  95616380.54107       747.936 7        44.915    23746250.930 7 100478254.48707       786.043 7        45.776
C42        48.000                                                                                                                                    23880783.206 7 124353656.74407      -594.419 7        44.166                                                                    23880791.082 7 101047472.74507      -483.042 7        46.967
C38        50.000                                                                                                                                    40076471.406 3                     -2078.398 3        21.667                                                                    40076443.429 4                     -1687.283 4        25.684
C27        52.000                                                                                                                                    24907793.502 5 129701440.08605      1807.642 5        33.683                                                                    24907751.311 5 105392892.07305      1468.842 5        32.485
I06        58.000    38715581.864 6 151928424.76106      -573.100 6        38.697
I01        59.000   367331187.582 6 138345679.92906     -1869.289 6        37.338
> 2025 01 01 19 45 50.0000000  0 39
G18         1.000    22622339.031 7 118881410.17907     -3556.516 7        45.883                                    22622332.952 4  92634731.00704     -2771.310 4        26.012    22622335.418 6  92634750.94706     -2771.081 6        36.824
G10         2.000    21769167.913 5 114397750.94605      1544.907 5        35.881                                    21769192.648 4  89141087.56104      1203.844 4        26.036    21769183.081 6  89141175.58606      1203.411 6        37.214
G07         3.000    25183053.940 5 132337827.60605     -1047.751 5        33.245                                    25183053.098 2 103120309.11102      -816.423 2        16.604    25183059.626 5                      -816.491 5        31.494
G23         4.000    20922731.684 6 109949628.25306     -1095.032 6        39.850                                    20922710.970 3  85674999.12413      -853.267 3        18.806    20922721.351 6  85675078.11906      -853.183 6        41.948
G15         5.000    23715668.419 3                      -910.021 3        22.267
G08         6.000    22584615.305 5 118683004.76005      2097.336 5        32.844                                    22584617.023 1  92480182.18901      1634.359 1        10.444    22584617.104 4                      1634.594 4        26.719
G27         7.000    20463217.012 7 107535425.95907       487.446 7        43.782                                    20463218.631 4  83793485.06404       379.828 4        27.138    20463222.906 4  83793476.03104       379.481 4        29.137
E15        10.000    26700403.509 5 140311533.40305     -3341.256 5        30.370                                                                    26700391.587 5 104778092.22305     -2495.054 5        30.445    26700424.111 5                     -2560.248 5        30.551
E27        15.000    27699378.139 4                     -4071.957 4        26.240                                                                                                                                    27699379.748 4                     -3119.580 4        27.078
E13        16.000    23443350.663 8 123195721.92608     -1548.887 8        48.330                                                                    23443350.852 8  91996802.76608     -1156.592 8        49.965    23443350.130 8  94396673.50808     -1186.795 8        49.617
E31        17.000    28577944.851 4 150178246.93404      2005.721 4        29.621                                                                    28577957.795 5 112146050.47605      1497.482 5        32.042    28577941.351 5 115071507.60105      1536.765 5        34.286
G16        18.000    21179010.114 8 111296451.15008     -2851.467 8        49.274                                    21179002.983 5  86724408.48105     -2221.921 5        34.067
E26        19.000    24759385.810 6 130111438.99206       915.221 6        41.466                                                                    24759381.527 6  97161202.24606       683.528 6        40.443    24759381.382 6  99695833.15606       701.233 6        40.584
E21        22.000    24429011.886 7 128375412.45907     -2625.394 7        42.457                                                                    24429009.905 6  95864689.14206     -1960.496 6        41.881    24429009.757 7  98365533.55907     -2011.665 7        43.079
S36        23.000    38271108.583 6 201115897.05606      -851.441 6        36.881
S23        24.000    38226454.486 6 200881353.54906      -851.832 6        40.832
G26        25.000    23068383.227 6 121225250.31506     -4223.779 6        39.057                                    23068391.790 2  94461207.58202     -3291.193 2        16.453    23068406.756 4                     -3291.349 4        29.782
R20        26.000                                                                                                                                    22693982.552 6  94387124.06506      1685.017 6        36.034
R19        29.000    19668177.258 5 105211504.14905      -928.591 5        35.833                                                                    19668177.433 7  81831177.82507      -722.356 7        43.681
R18        30.000    20946314.829 7 111812840.78707     -3289.317 7        47.345                                                                    20946313.606 7  86965544.22807     -2558.358 7        44.870
R04        31.000    22791677.325 5                      3269.568 5        30.030                                                                    22791674.947 5                      2543.254 5        31.185
R03        32.000    21301706.656 6 114029686.21806       622.088 6        36.098                                                                    21301706.088 5  88689853.79505       484.333 5        32.060
R16        33.000    23269751.331 3                     -5378.602 3        22.990
R09        34.000    20715442.879 7 110619739.50107     -2861.613 7        42.502                                                                    20715438.296 6  86037222.03706     -2225.633 6        40.987
R10        35.000    21515143.212 7 114687820.32007       582.892 7        44.810
C37        36.000                                                                                                                                                                                                                                                                    24505195.402 5 103689510.85105     -2372.597 5        30.687
C33        37.000                                                                                                                                    24617683.648 5 128190759.09005      2101.387 5        35.914                                                                    24617684.583 5 104165494.46905      1707.233 5        32.006
C28        40.000                                                                                                                                    21931702.593 7 114204387.93207       271.514 7        44.035                                                                    21931700.189 7  92800241.69207       220.536 7        46.435
C21        41.000                                                                                                                                                                                                                                                                    26322466.437 4                     -2515.248 4        29.033
C43        42.000                                                                                                                                    23040964.486 6 119980493.04506     -2812.428 6        37.743                                                                    23040968.373 5  97494049.96505     -2285.725 5        33.479
C11        44.000                                                                                                                                    24808850.910 4 129186217.83604     -3370.692 4        24.887    24808876.940 4                     -2606.147 4        29.554    24808826.687 4                     -2738.383 4        27.820
C13        45.000                                                                                                                                    38241621.120 6 199134140.77806     -1672.462 6        37.149    38241619.561 5 153983133.17505     -1293.072 5        30.989    38241617.193 5 161812869.71405     -1358.922 5        34.229
C08        46.000                                                                                                                                    38642880.700 4                     -1931.186 4        24.722    38642875.853 5 155598902.86505     -1493.396 5        35.429    38642872.814 5 163510645.84205     -1569.667 5        34.319
C14        47.000                                                                                                                                    23745329.667 6 123648150.77206       964.924 6        41.297    23745324.503 7  95612644.85607       746.073 7        44.101    23745323.161 7 100474328.84207       784.084 7        45.941
C42        48.000                                                                                                                                    23881354.434 7 124356635.49707      -597.267 7        44.182                                                                    23881363.261 7 101049893.21607      -485.364 7        47.443
C38        50.000                                                                                                                                    40078463.286 3                     -2078.138 3        21.548                                                                    40078438.139 4                     -1688.018 4        26.323
C27        52.000                                                                                                                                    24906052.723 5 129692402.82605      1807.284 5        35.481                                                                    24906015.991 5 105385548.53805      1468.293 5        32.940
I06        58.000    38716312.053 6 151931289.47206      -573.056 6        38.381
I01        59.000   367333569.075 6 138355026.98106     -1869.637 6        36.801
> 2025 01 01 19 45 55.0000000  0 40
G18         1.000    22625723.462 7 118899194.44007     -3557.639 7        45.979                                    22625717.479 4  92648588.87104     -2772.188 4        25.654    22625720.021 6  92648608.80606     -2771.893 6        36.522
G10         2.000    21767700.809 6 114390033.62706      1542.054 6        37.800                                    21767723.636 4  89135074.00104      1201.613 4        26.790    21767715.601 6  89135162.04206      1201.436 6        36.824
G07         3.000    25184053.106 5 132343072.19305     -1050.461 5        34.871                                    25184051.047 2 103124395.83802      -818.560 2        16.113    25184057.057 4                      -818.142 4        29.128
G23         4.000    20923771.178 6 109955111.15906     -1098.397 6        36.011                                    20923757.280 3  85679271.57203      -855.915 3        19.164    20923764.023 7  85679350.57607      -855.925 7        42.749
G08         6.000    22582618.594 4 118672520.50604      2096.073 4        28.986                                    22582622.304 1  92472012.67101      1633.232 1         7.250
G27         7.000    20462753.914 7 107532994.13807       484.992 7        44.062                                    20462756.815 4  83791590.14104       377.921 4        27.245    20462758.181 4  83791581.09304       378.657 4        27.377
E15        10.000    26703588.783 5 140328240.68405     -3341.563 5        31.072                                                                    26703570.715 4 104790568.37904     -2495.398 4        29.479    26703602.071 5                     -2560.472 5        30.626
E27        15.000    27703250.229 4                     -4070.732 4        25.128                                                                                                                                    27703253.340 4                     -3119.140 4        27.234
E13        16.000    23444824.740 7 123203468.48707     -1550.220 7        47.655                                                                    23444825.014 8  92002587.53808     -1157.642 8        50.054    23444824.235 8  94402609.18208     -1187.850 8        49.887
E31        17.000    28576037.356 4 150168220.14004      2004.340 4        29.374                                                                    28576048.682 5 112138562.87605      1497.005 5        32.030    28576034.113 5 115063824.70605      1536.166 5        34.590
G16        18.000    21181724.327 8 111310714.85808     -2854.466 8        48.525                                    21181717.535 5  86735523.05405     -2224.259 5        34.052
E26        19.000    24758515.430 6 130106864.80406       913.990 6        41.518                                                                    24758511.286 6  97157786.46406       682.564 6        40.987    24758511.034 6  99692328.26806       700.426 6        41.223
E21        22.000    24431510.303 6 128388543.33906     -2627.541 6        41.170                                                                    24431508.586 6  95874494.65206     -1962.068 6        41.473    24431509.160 7  98375594.86707     -2013.167 7        43.900
S36        23.000    38271916.565 6 201120153.35306      -851.359 6        36.828
S23        24.000    38227263.278 6 200885612.34506      -852.059 6        41.001
G26        25.000    23072402.785 6 121246372.08706     -4225.140 6        38.261                                    23072410.433 2  94477666.11402     -3292.310 2        15.762    23072426.052 4                     -3292.397 4        28.796
R20        26.000    22691976.533 4                      2165.484 4        29.659
R02        27.000    22806359.897 5                     -3056.844 5        30.060
R19        29.000    19669046.231 6 105216151.92106      -930.776 6        36.178                                                                    19669045.948 7  81834792.74707      -723.952 7        43.532
R18        30.000    20949396.408 8 111829289.28708     -3290.564 8        48.218                                                                    20949394.801 7  86978337.49907     -2559.314 7        43.718
R04        31.000    22788624.655 5                      3268.542 5        30.732                                                                    22788623.015 5                      2542.185 5        31.223
R03        32.000    21301126.089 6 114026585.42706       617.706 6        37.240                                                                    21301125.819 5  88687442.05405       480.682 5        30.415
R16        33.000    23274784.548 3                     -5376.627 3        19.373
R09        34.000    20718125.938 7 110634056.27507     -2865.669 7        43.723                                                                    20718118.822 6  86048357.31106     -2228.912 6        41.144
R10        35.000    21514598.845 7 114684915.63807       578.516 7        44.919
C37        36.000                                                                                                                                                                                                                                                                    24508000.316 5 103701376.27305     -2373.916 5        31.230
C33        37.000                                                                                                                                                                                                                                                                    24615662.040 4 104156959.57404      1706.811 4        27.725
C28        40.000                                                                                                                                    21931442.533 7 114203033.06907       269.974 7        43.843                                                                    21931439.825 7  92799140.75507       219.399 7        46.257
C21        41.000                                                                                                                                                                                                                                                                    26325440.062 4                     -2516.807 4        28.408
C43        42.000                                                                                                                                    23043666.338 6 119994557.32106     -2813.511 6        37.716                                                                    23043670.958 5  97505478.32405     -2286.464 5        34.600
C11        44.000                                                                                                                                                                                                    24812112.946 5                     -2606.532 5        32.108    24812064.160 4                     -2738.931 4        28.038
C13        45.000                                                                                                                                    38243226.178 6 199142503.53606     -1672.748 6        36.416    38243225.352 5 153989599.81105     -1294.514 5        30.189    38243223.500 5 161819665.19005     -1359.816 5        34.609
C08        46.000                                                                                                                                    38644732.913 3                     -1931.473 3        23.276    38644730.857 5 155606370.19805     -1493.813 5        35.305    38644727.502 5 163518492.89205     -1569.947 5        34.109
C14        47.000                                                                                                                                    23744404.030 6 123643331.24606       962.394 6        40.629    23744398.808 7  95608918.08907       744.242 7        43.795    23744397.675 7 100470412.61007       782.000 7        46.094
C42        48.000                                                                                                                                    23881927.929 7 124359628.37707      -600.286 7        43.757                                                                    23881938.078 7 101052325.19707      -487.813 7        47.614
C38        50.000                                                                                                                                    40080460.406 3                     -2081.772 3        18.657                                                                    40080432.398 4                     -1687.701 4        26.359
C27        52.000                                                                                                                                                                                                                                                                    24904281.095 5 105378206.31005      1467.898 5        33.347
C23        55.000                                                                                                                                    26540511.177 3                     -4102.897 3        20.952
I06        58.000    38717042.619 6 151934153.64906      -573.197 6        38.420
I01        59.000   367335951.338 6 138364374.92506     -1869.934 6        36.261
> 2025 01 01 19 46  0.0000000  0 41
G18         1.000    22629108.459 7 118916983.44207     -3558.510 7        46.465                                    22629102.993 4  92662450.43804     -2772.853 4        25.263    22629104.625 6  92662470.38106     -2772.781 6        36.026
G10         2.000    21766236.351 6 114382327.93406      1539.699 6        41.042                                    21766257.136 4  89129069.52304      1199.781 4        27.389    21766249.810 5  89129157.62205      1199.712 5        35.381
G07         3.000    25185054.323 6 132348329.87306     -1053.069 6        37.282                                    25185051.528 2 103128492.74302      -820.579 2        16.038    25185047.298 4                      -820.254 4        25.835
G23         4.000    20924811.417 5 109960610.61305     -1101.918 5        33.671                                    20924806.064 3  85683556.81903      -858.658 3        19.910    20924810.298 7  85683635.84007      -858.529 7        43.189
G15         5.000    23717396.223 3                      -918.169 3        18.896
G08         6.000    22580625.355 4 118662041.19304      2094.937 4        27.126                                    22580628.506 1  92463847.12501      1632.404 1         4.286
G27         7.000    20462293.626 7 107530573.57107       482.744 7        45.109                                    20462297.097 4  83789703.96504       376.165 4        27.174    20462302.653 4  83789694.95104       376.372 4        25.624
E15        10.000                                                                                                                                    26706750.351 4 104803045.22904     -2495.046 4        29.318    26706778.622 4                     -2560.559 4        29.896
E27        15.000    27707124.572 3                     -4071.902 3        23.962                                                                                                                                    27707126.543 4                     -3119.865 4        27.269
E13        16.000    23446300.341 7 123211221.34707     -1551.475 7        46.961                                                                    23446300.355 8  92008377.00508     -1158.571 8        50.232    23446299.444 8  94408549.67808     -1188.788 8        50.021
E31        17.000    28574129.538 4 150158196.52804      2004.423 4        29.062                                                                    28574140.693 5 112131077.69805      1496.842 5        31.185    28574126.743 5 115056144.29605      1535.503 5        34.162
G16        18.000    21184441.308 7 111324992.89407     -2857.257 7        47.482                                    21184434.985 5  86746648.78505     -2226.434 5        33.473
E26        19.000    24757645.856 6 130102296.23206       912.973 6        41.242                                                                    24757642.178 6  97154374.86806       681.737 6        41.731    24757641.585 6  99688827.67306       699.440 6        41.750
E21        22.000    24434010.718 6 128401684.01906     -2629.448 6        40.386                                                                    24434009.099 6  95884307.48706     -1963.458 6        41.485    24434010.386 7  98385663.69607     -2014.682 7        44.325
S36        23.000    38272725.500 6 201124408.80706      -851.483 6        36.699
S23        24.000    38228074.493 6 200889870.92506      -851.921 6        41.080
G26        25.000    23076422.451 6 121267499.44706     -4226.247 6        37.214                                    23076429.782 2  94494128.98202     -3293.146 2        14.476    23076444.950 4                     -3292.927 4        28.180
R20        26.000    22689953.589 4                      2164.653 4        28.427                                                                    22689957.389 5                      1683.414 5        35.833
R02        27.000    22809220.417 5                     -3060.650 5        34.329                                                                    22809222.299 4                     -2379.932 4        24.812
R19        29.000    19669915.933 6 105220809.86706      -932.832 6        36.068                                                                    19669916.395 7  81838415.62107      -725.606 7        43.105
R18        30.000    20952478.569 8 111845743.46908     -3291.638 8        48.422                                                                    20952476.855 7  86991135.18707     -2560.188 7        42.529
R04        31.000    22785575.156 5                      3267.330 5        32.359                                                                    22785574.370 5                      2541.213 5        30.996
R03        32.000    21300551.138 6 114023505.54206       613.599 6        37.958                                                                    21300550.254 4  88685046.57004       477.070 4        29.981
R16        33.000                                                                                                                                    23279836.264 4                     -4184.255 4        24.075
R09        34.000    20720812.138 7 110648392.93207     -2869.625 7        43.352                                                                    20720804.533 7  86059508.06607     -2231.968 7        42.064
R10        35.000    21514057.329 7 114682032.32707       574.226 7        43.932
C37        36.000                                                                                                                                    24510799.367 5 127634135.63305     -2923.521 5        35.786                                                                    24510806.437 5 103713249.46105     -2375.607 5        30.521
C33        37.000                                                                                                                                    24613635.740 6 128169758.66206      2098.481 6        39.222                                                                    24613634.553 3                      1704.811 3        23.105
C28        40.000                                                                                                                                    21931182.774 7 114201684.66907       268.833 7        43.549                                                                    21931180.834 7  92798045.03307       218.363 7        45.961
C21        41.000                                                                                                                                                                                                                                                                    26328413.771 4                     -2518.254 4        26.814
C43        42.000                                                                                                                                    23046369.162 6 120008626.64006     -2814.611 6        38.012                                                                    23046374.211 5  97516910.74405     -2287.346 5        34.890
C11        44.000                                                                                                                                                                                                    24815339.382 5                     -2606.956 5        34.290    24815303.197 4                     -2739.756 4        29.659
C13        45.000                                                                                                                                    38244830.343 5 199150868.40805     -1673.444 5        35.086    38244830.798 5 153996068.04805     -1294.037 5        30.762    38244830.002 5 161826462.28305     -1359.761 5        34.243
C08        46.000                                                                                                                                    38646582.314 3                     -1931.291 3        23.829    38646585.641 5 155613838.96905     -1494.164 5        35.333    38646581.997 5 163526341.38105     -1570.114 5        34.343
C14        47.000                                                                                                                                    23743480.168 6 123638523.72306       960.070 6        40.501    23743475.619 7  95605200.59807       742.343 7        43.776    23743474.403 7 100466506.07807       780.018 7        46.037
C42        48.000                                                                                                                                    23882504.015 7 124362635.79007      -603.180 7        43.609                                                                    23882515.582 7 101054768.94507      -490.167 7        47.415
C38        50.000                                                                                                                                    40082459.713 3                     -2074.521 3        18.478                                                                    40082426.276 4                     -1687.037 4        25.173
C27        52.000                                                                                                                                                                                                                                                                    24902545.835 5 105370865.57605      1467.687 5        33.737
C23        55.000                                                                                                                                    26544450.100 3                     -4100.312 3        22.590
I06        58.000    38717771.944 6 151937017.56506      -573.102 6        38.414
I01        59.000   367338333.123 5 138373724.09805     -1870.173 5        35.886
> 2025 01 01 19 46  5.0000000  0 40
G18         1.000    22632494.491 7 118934777.38507     -3559.278 7        46.638                                    22632489.546 4  92676315.85104     -2773.456 4        24.647    22632490.554 5  92676335.80305     -2773.570 5        35.767
G10         2.000    21764771.513 7 114374634.15107      1537.586 7        43.336                                    21764793.381 4  89123074.31904      1198.139 4        26.790    21764785.284 5  89123162.47105      1197.839 5        32.653
G07         3.000    25186057.134 6 132353600.86406     -1055.534 6        40.124                                    25186054.254 2 103132600.06202      -822.507 2        15.857    25186047.909 4                      -822.537 4        25.233
G23         4.000    20925861.843 6 109966126.64906     -1104.811 6        36.439                                    20925857.436 3  85687855.00903      -860.900 3        20.690    20925859.544 7  85687934.03907      -860.999 7        43.420
G08         6.000    22578635.769 4 118651567.26804      2094.903 4        24.406
G27         7.000    20461836.161 7 107528164.41907       480.628 7        45.701                                    20461839.547 4  83787826.67204       374.523 4        25.955    20461844.959 3  83787817.68903       374.342 3        22.914
E15        10.000    26709966.754 5 140361657.94805     -3342.030 5        32.844                                                                    26709930.203 4 104815522.81904     -2495.872 4        28.834    26709953.658 5                     -2560.623 5        30.279
E27        15.000    27710995.580 3                     -4072.051 3        21.976                                                                                                                                    27711001.280 4                     -3120.238 4        27.329
E13        16.000    23447776.921 7 123218980.66707     -1552.482 7        46.762                                                                    23447776.913 8  92014171.30908     -1159.380 8        50.266    23447775.900 8  94414495.13908     -1189.646 8        50.140
E31        17.000    28572222.574 5 150148176.41105      2003.620 5        30.551                                                                    28572233.508 5 112123595.15905      1496.301 5        31.291    28572220.170 5 115048466.54705      1535.252 5        34.895
G16        18.000    21187161.549 7 111339285.42307     -2859.969 7        45.976                                    21187155.216 5  86757785.81805     -2228.539 5        32.587
E26        19.000    24756777.907 6 130097733.43706       911.969 6        40.558                                                                    24756774.038 7  97150967.57807       680.996 7        42.123    24756773.102 7  99685331.48907       698.778 7        42.190
E21        22.000    24436513.194 6 128414834.69106     -2631.172 6        40.040                                                                    24436511.523 6  95894127.76906     -1964.828 6        41.299    24436513.188 7  98395740.16807     -2016.105 7        44.679
S36        23.000    38273538.450 6 201128663.82006      -851.249 6        36.805
S23        24.000    38228884.925 6 200894129.62306      -851.725 6        41.080
G26        25.000    23080443.355 6 121288632.60706     -4227.162 6        36.382                                    23080450.025 2  94510596.36402     -3293.906 2        14.238    23080466.047 4                     -3294.297 4        27.485
R20        26.000    22687923.933 4                      2163.721 4        25.534                                                                    22687937.892 5  94361863.92515      1683.019 5        34.471
R02        27.000    22812085.677 5 121729688.17315     -3064.642 5        35.648                                                                    22812088.063 4                     -2383.244 4        25.414
R19        29.000    19670789.802 6 105225478.29106      -934.977 6        36.567                                                                    19670789.203 7  81842046.59107      -726.943 7        42.902
R18        30.000    20955561.182 8 111862203.46708     -3292.641 8        48.641                                                                    20955560.626 7  87003937.40507     -2560.859 7        42.466
R04        31.000    22782526.337 5                      3266.112 5        33.850                                                                    22782527.044 5                      2540.228 5        30.966
R03        32.000    21299980.873 6 114020446.74506       609.665 6        40.350                                                                    21299983.128 5  88682667.48605       474.081 5        31.502
R16        33.000                                                                                                                                    23284873.323 4                     -4184.389 4        24.797
R09        34.000    20723498.108 7 110662749.51407     -2873.360 7        42.391                                                                    20723493.357 7  86070674.31607     -2234.854 7        42.370
R10        35.000    21513520.451 7 114679170.51607       570.132 7        43.863
C37        36.000                                                                                                                                    24513611.547 6 127648757.13306     -2925.241 6        36.499                                                                    24513614.948 4 103725130.66204     -2377.009 4        29.147
C33        37.000                                                                                                                                    24611624.375 6 128159268.33906      2097.417 6        40.069                                                                    24611619.501 3                      1704.441 3        22.933
C28        40.000                                                                                                                                    21930925.131 7 114200342.95807       267.621 7        43.230                                                                    21930923.103 7  92796954.75707       217.493 7        45.862
C21        41.000                                                                                                                                                                                                                                                                    26331388.407 4                     -2520.521 4        24.917
C43        42.000                                                                                                                                    23049072.755 6 120022701.17806     -2815.385 6        39.141                                                                    23049077.884 5  97528347.43205     -2287.752 5        35.686
C11        44.000                                                                                                                                    24818546.338 4                     -3372.382 4        26.683    24818570.139 5  99934125.12715     -2607.154 5        35.238    24818541.788 5                     -2739.682 5        32.048
C13        45.000                                                                                                                                    38246433.125 5 199159235.55905     -1673.697 5        34.257    38246437.220 5 154002538.03705     -1294.438 5        30.860    38246437.059 5 161833261.29505     -1360.111 5        34.852
C08        46.000                                                                                                                                    38648437.934 3                     -1932.696 3        22.800    38648440.924 5 155621309.31505     -1494.199 5        35.271    38648437.432 5 163534191.55205     -1570.213 5        34.562
C14        47.000                                                                                                                                    23742559.850 6 123633728.31106       957.904 6        40.215    23742554.964 7  95601492.48807       740.618 7        43.592    23742553.551 7 100462609.41407       778.360 7        46.220
C42        48.000                                                                                                                                    23883084.732 7 124365657.90907      -605.962 7        43.735                                                                    23883095.726 7 101057224.68307      -492.421 7        47.041
C38        50.000                                                                                                                                                                                                                                                                    40084422.221 4                     -1687.744 4        26.695
C27        52.000                                                                                                                                    24900806.594 6 129665301.68506      1806.076 6        36.431                                                                    24900811.212 5 105363526.60805      1467.178 5        33.958
C23        55.000                                                                                                                                    26548390.726 3                     -4102.604 3        23.867
I06        58.000    38718501.501 6 151939881.36606      -572.730 6        38.601
I01        59.000   367340716.422 5 138383074.63305     -1870.104 5        35.538
> 2025 01 01 19 46 10.0000000  0 39
G18         1.000    22635881.038 7 118952576.71107     -3560.327 7        46.503                                    22635877.323 3  92690185.45303     -2774.280 3        23.790    22635877.135 5  92690205.36305     -2774.123 5        35.238
G10         2.000    21763310.160 7 114366952.68107      1535.184 7        44.364                                    21763333.012 4  89117088.68004      1196.258 4        26.084    21763327.257 4  89117176.94304      1196.799 4        27.737
G07         3.000    25187066.694 6 132358885.58006     -1058.146 6        41.349                                    25187059.466 2 103136718.05002      -824.555 2        16.189    25187050.880 3                      -824.488 3        22.533
G23         4.000    20926915.933 6 109971659.70806     -1108.209 6        36.817                                    20926911.478 3  85692166.50803      -863.557 3        20.262    20926912.856 7  85692245.51007      -863.565 7        43.316
G27         7.000    20461379.959 7 107525767.16807       478.338 7        46.183                                    20461384.555 3  83785958.60903       372.754 3        23.333    20461389.362 3                       371.734 3        22.057
E15        10.000    26713146.903 5 140378368.57005     -3342.312 5        32.976                                                                    26713109.149 4 104828001.51204     -2495.138 4        28.550    26713122.907 5                     -2560.805 5        30.936
E27        15.000    27714871.761 3                     -4073.241 3        20.738                                                                                                                                    27714876.209 4                     -3120.523 4        26.575
E13        16.000    23449254.706 7 123226746.88707     -1553.780 7        46.585                                                                    23449254.741 8  92019970.75508     -1160.307 8        50.087    23449253.703 8  94420445.87308     -1190.576 8        50.304
E31        17.000    28570316.257 5 150138160.01605      2002.948 5        31.857                                                                    28570327.073 5 112116115.35305      1496.253 5        30.641    28570314.100 5 115040791.63105      1534.715 5        35.319
G16        18.000    21189884.259 7 111353592.86607     -2862.834 7        44.068                                    21189878.304 5  86768934.48405     -2230.770 5        31.525
E26        19.000    24755910.434 6 130093176.86906       910.945 6        39.580                                                                    24755907.076 7  97147564.93807       680.314 7        42.142    24755905.976 7  99681840.09007       698.036 7        42.298
E21        22.000    24439018.119 6 128427995.77306     -2633.168 6        40.605                                                                    24439015.787 6  95903955.82906     -1966.210 6        40.877    24439017.397 7  98405824.61807     -2017.583 7        44.935
S36        23.000    38274348.556 6 201132919.15606      -850.810 6        36.832
S23        24.000    38229694.155 6 200898388.97606      -851.760 6        41.144
G26        25.000    23084467.679 6 121309771.97106     -4228.456 6        36.306                                    23084471.566 2  94527068.55102     -3294.889 2        13.636    23084494.603 4                     -3295.011 4        26.790
R20        26.000                                                                                                                                    22685914.886 5  94353450.75705      1682.699 5        31.042
R02        27.000    22814955.550 6                     -3068.116 6        36.575                                                                    22814965.700 4                     -2385.927 4        26.024
R19        29.000    19671665.430 6 105230157.36506      -936.681 6        36.344                                                                    19671663.733 7  81845685.90207      -728.546 7        42.527
R18        30.000    20958645.928 8 111878669.76908     -3293.733 8        49.057                                                                    20958645.399 7  87016744.54007     -2561.762 7        42.400
R04        31.000    22779480.236 5 121983084.95215      3265.182 5        33.838                                                                    22779484.535 5                      2539.245 5        31.253
R03        32.000    21299417.247 6 114017409.24306       605.405 6        41.843                                                                    21299419.905 5  88680304.98005       470.957 5        33.659
R16        33.000    23289897.153 3                     -5383.141 3        20.190                                                                    23289905.870 3                     -4183.306 3        23.695
R09        34.000    20726186.877 6 110677126.61206     -2877.322 6        41.454                                                                    20726185.771 7  86081856.55007     -2237.965 7        42.724
R10        35.000    21512987.982 7 114676330.75707       565.939 7        43.697
C37        36.000                                                                                                                                    24516421.912 6 127663388.80506     -2927.270 6        39.114                                                                    24516425.706 4 103737020.09004     -2379.652 4        26.838
C33        37.000                                                                                                                                    24609613.266 6 128148785.20106      2096.045 6        40.744
C28        40.000                                                                                                                                    21930669.150 7 114199008.31107       266.330 7        43.786                                                                    21930666.658 7  92795870.21907       216.474 7        45.466
C21        41.000                                                                                                                                                                                                                                                                    26334364.361 3                     -2520.725 3        22.229
C43        42.000                                                                                                                                    23051778.179 6 120036781.34606     -2816.381 6        40.734                                                                    23051782.213 5  97539788.74205     -2288.616 5        35.652
C11        44.000                                                                                                                                    24821782.385 4                     -3372.292 4        28.483    24821803.339 5  99947162.87205     -2607.661 5        35.710    24821780.361 5                     -2740.265 5        32.383
C13        45.000                                                                                                                                    38248038.180 5 199167605.36405     -1674.072 5        33.048    38248045.032 5 154009010.11405     -1294.832 5        31.057    38248044.010 5 161840062.44405     -1360.669 5        34.595
C08        46.000                                                                                                                                    38650293.058 3                     -1932.881 3        22.267    38650296.434 5 155628781.48105     -1494.472 5        35.010    38650293.264 5 163542043.65205     -1570.280 5        34.081
C14        47.000                                                                                                                                    23741641.728 6 123628945.50706       955.554 6        39.730    23741636.191 7  95597794.12007       738.846 7        43.145    23741635.231 7 100458722.98307       776.490 7        46.139
C42        48.000                                                                                                                                    23883668.447 7 124368695.16107      -608.775 7        43.907                                                                    23883678.680 7 101059692.69607      -494.623 7        46.490
C38        50.000                                                                                                                                                                                                                                                                    40086417.079 4                     -1688.616 4        25.398
C27        52.000                                                                                                                                    24899079.642 6 129656272.56606      1805.806 6        38.492                                                                    24899077.367 5 105356189.67205      1467.488 5        34.167
C23        55.000                                                                                                                                    26552329.859 4                     -4103.084 4        24.060
I06        58.000    38719231.220 6 151942745.41506      -572.705 6        38.541
I01        59.000   367343099.497 5 138392426.87005     -1870.675 5        34.700
> 2025 01 01 19 46 15.0000000  0 38
G18         1.000    22639268.717 7 118970380.50207     -3561.256 7        46.210                                    22639265.632 3  92704058.52303     -2774.991 3        23.162    22639264.938 5  92704078.44105     -2775.007 5        34.457
G10         2.000    21761850.088 7 114359282.67207      1532.687 7        43.981                                    21761875.330 4  89111111.97004      1194.320 4        25.128
G07         3.000    25188081.188 7 132364183.10107     -1060.782 7        42.356                                    25188066.909 2 103140845.99202      -826.606 2        15.810    25188059.969 3                      -827.060 3        23.676
G23         4.000    20927971.080 5 109977208.92605     -1111.613 5        35.829                                    20927968.140 3  85696490.57703      -866.189 3        19.433    20927967.992 7  85696569.57007      -866.123 7        43.136
G27         7.000    20460926.172 7 107523380.89507       476.025 7        45.479                                    20460932.420 3  83784099.00503       370.964 3        20.524    20460942.719 3                       369.896 3        22.629
E15        10.000    26716320.589 5 140395079.79705     -3342.337 5        32.760                                                                    26716289.791 4 104840480.68404     -2495.947 4        28.294    26716297.853 5                     -2560.876 5        30.687
E27        15.000    27718749.065 3                     -4074.750 3        20.476                                                                                                                                    27718750.495 4                     -3120.101 4        26.012
E13        16.000    23450733.776 7 123234519.10807     -1555.032 7        46.359                                                                    23450733.663 8  92025774.68908     -1161.267 8        50.060    23450732.699 8  94426401.21408     -1191.603 8        50.253
E31        17.000    28568409.858 5 150128146.57105      2002.244 5        30.936                                                                    28568421.137 5 112108637.83905      1495.322 5        30.053    28568408.580 5 115033119.04405      1534.166 5        35.138
G16        18.000    21192611.116 7 111367914.33807     -2865.764 7        43.735                                    21192603.874 5  86780094.07505     -2233.059 5        30.528
E26        19.000    24755044.701 6 130088625.63306       909.503 6        39.108                                                                    24755041.071 7  97144166.29407       679.158 7        42.512    24755039.826 7  99678352.78407       696.958 7        42.677
E21        22.000    24441525.026 6 128441166.35506     -2635.094 6        41.251                                                                    24441521.675 6  95913790.99706     -1967.732 6        40.770    24441523.194 7  98415916.36207     -2019.151 7        44.707
S36        23.000    38275159.923 6 201137173.97506      -850.893 6        36.541
S23        24.000    38230505.186 6 200902648.12206      -851.889 6        40.982
G26        25.000    23088494.369 6 121330916.60506     -4229.509 6        36.847                                    23088494.000 2  94543544.82302     -3295.708 2        14.714    23088521.385 4                     -3296.053 4        27.102
R20        26.000                                                                                                                                    22683896.046 4  94345040.67804      1681.594 4        29.166
R02        27.000    22817833.274 6 121760370.25516     -3071.826 6        37.739                                                                    22817844.852 3                     -2386.099 3        21.690
R19        29.000    19672540.109 6 105234846.30206      -939.027 6        36.431                                                                    19672539.536 6  81849332.86206      -730.239 6        41.499
R18        30.000    20961732.261 8 111895141.42408     -3294.945 8        49.513                                                                    20961730.774 7  87029555.81807     -2562.678 7        42.445
R04        31.000    22776433.268 5 121966764.06715      3263.694 5        33.413                                                                    22776443.044 5                      2538.262 5        30.951
R03        32.000    21298855.674 6 114014392.48406       601.117 6        39.685                                                                    21298855.373 5  88677958.64705       467.347 5        35.995
R16        33.000    23294931.493 4                     -5382.396 4        24.556                                                                    23294943.864 3                     -4186.628 3        22.438
R09        34.000    20728882.264 6 110691523.18906     -2881.242 6        39.577                                                                    20728882.123 7  86093053.89807     -2241.074 7        42.880
R10        35.000    21512458.903 7 114673511.98807       561.595 7        43.445
C37        36.000                                                                                                                                    24519236.729 6 127678029.71506     -2929.064 6        41.793                                                                    24519236.439 3                     -2379.957 3        23.238
C33        37.000                                                                                                                                    24607602.130 6 128138308.34406      2094.713 6        40.598                                                                    24607624.052 5 104122896.42115      1701.985 5        35.876
C28        40.000                                                                                                                                    21930414.113 7 114197679.85507       265.062 7        44.548                                                                    21930411.467 7  92794790.75507       215.429 7        45.196
C43        42.000                                                                                                                                    23054484.194 7 120050866.28807     -2817.560 7        42.083                                                                    23054487.878 5  97551233.91405     -2289.296 5        35.438
C11        44.000                                                                                                                                    24825020.251 4                     -3372.734 4        28.711    24825037.335 5  99960202.15505     -2608.170 5        34.686    24825018.737 5                     -2740.690 5        31.849
C13        45.000                                                                                                                                    38249644.352 5 199175976.99205     -1675.048 5        32.036    38249652.546 5 154015483.53505     -1294.748 5        32.018    38249651.819 5 161846865.03905     -1360.889 5        34.752
C08        46.000                                                                                                                                    38652152.019 3                     -1933.018 3        22.552    38652152.857 5 155636254.90105     -1494.921 5        34.938    38652149.276 5 163549897.10905     -1570.862 5        34.167
C14        47.000                                                                                                                                    23740725.103 6 123624174.44006       953.074 6        39.613    23740719.844 7  95594104.85607       736.784 7        42.588    23740719.056 7 100454846.12207       774.402 7        46.053
C42        48.000                                                                                                                                    23884255.105 7 124371746.69807      -611.791 7        43.602                                                                    23884264.291 7 101062172.34407      -497.141 7        45.634
C38        50.000                                                                                                                                                                                                                                                                    40088410.926 4                     -1688.443 4        25.940
C27        52.000                                                                                                                                    24897347.779 6 129647245.08606      1805.179 6        40.131                                                                    24897343.755 5 105348854.14105      1466.677 5        35.005
C23        55.000                                                                                                                                    26556266.550 3                     -4101.215 3        23.829
I06        58.000    38719961.670 6 151945608.96706      -572.602 6        38.658
I01        59.000   367345482.455 5 138401780.04705     -1870.816 5        33.545
> 2025 01 01 19 46 20.0000000  0 40
G18         1.000    22642657.438 7 118988189.21407     -3562.042 7        46.041                                    22642654.890 3  92717935.44003     -2775.604 3        21.786    22642651.671 5  92717955.33205     -2775.283 5        33.048
G10         2.000    21760390.221 6 114351624.57106      1530.535 6        41.688                                    21760419.388 4  89105144.51804      1192.644 4        24.150    21760395.312 5                      1192.464 5        31.457
G07         3.000    25189095.295 6 132369493.92106     -1063.322 6        41.859                                    25189076.919 2 103144984.35602      -828.543 2        15.714    25189073.659 4                      -829.008 4        25.594
G23         4.000    20929029.113 5 109982774.76205     -1114.470 5        32.976                                    20929027.284 3  85700827.60303      -868.413 3        18.925    20929027.211 7  85700906.55307      -868.522 7        42.686
G15         5.000    23720950.174 4                      -929.428 4        28.351
G08         6.000                                                                                                                                                                    22572657.481 4                      1629.501 4        27.737
G27         7.000    20460474.434 7 107521006.08107       473.994 7        46.104                                    20460482.222 4  83782248.35604       369.371 4        24.331
E15        10.000    26719495.658 5 140411792.08505     -3342.655 5        32.707                                                                    26719470.556 4 104852960.62204     -2496.005 4        28.389    26719474.699 5                     -2561.244 5        30.694
E27        15.000                                                                                                                                                                                                    27722625.826 4                     -3121.044 4        26.335
E13        16.000    23452214.063 7 123242297.78507     -1556.206 7        46.116                                                                    23452213.697 8  92031583.44108     -1162.092 8        49.783    23452212.803 8  94432361.49908     -1192.403 8        50.267
E31        17.000    28566505.429 5 150118136.58305      2001.912 5        31.200                                                                    28566516.293 4 112101162.87204      1494.810 4        29.441    28566503.666 5 115025449.04805      1533.673 5        35.033
G16        18.000    21195341.157 7 111382250.27407     -2868.437 7        43.033                                    21195331.998 4  86791264.93304     -2235.154 4        29.422
E26        19.000    24754179.513 6 130084080.17606       908.664 6        38.532                                                                    24754176.157 7  97140771.95307       678.610 7        42.330    24754174.835 7  99674869.90807       696.273 7        42.863
E21        22.000    24444033.007 6 128454346.91206     -2636.844 6        41.423                                                                    24444029.523 6  95923633.60706     -1968.992 6        40.260    24444030.807 7  98426015.73607     -2020.501 7        44.593
S36        23.000    38275964.645 6 201141428.16506      -850.651 6        36.646
S23        24.000    38231317.287 6 200906907.51406      -851.635 6        41.199
G26        25.000    23092517.572 6 121352066.98406     -4230.491 6        37.240                                    23092517.128 2  94560025.61302     -3296.482 2        16.377    23092545.487 4                     -3296.013 4        24.962
R20        26.000    22681839.284 3                      2159.538 3        23.219
R02        27.000    22820709.455 6 121775739.40206     -3075.588 6        37.017
R19        29.000    19673419.490 6 105239545.73306      -940.723 6        37.406                                                                    19673418.046 6  81852987.97506      -731.728 6        41.664
R18        30.000    20964819.802 8 111911618.96708     -3295.966 8        50.148                                                                    20964817.487 7  87042371.67907     -2563.475 7        42.554
R04        31.000    22773390.239 5                      3262.378 5        31.887                                                                    22773395.365 5                      2537.258 5        30.468
R03        32.000    21298290.938 6 114011396.85706       597.381 6        37.259                                                                    21298296.356 5  88675628.75805       464.682 5        34.876
R16        33.000    23299963.741 4                     -5381.324 4        26.359                                                                    23299975.745 3                     -4186.670 3        23.238
R09        34.000    20731581.203 6 110705939.65906     -2885.108 6        37.698                                                                    20731581.648 7  86104266.71807     -2243.922 7        42.756
R10        35.000    21511933.939 7 114670715.02507       557.406 7        43.137
C37        36.000                                                                                                                                    24522053.520 7 127692680.40207     -2930.919 7        43.871
C33        37.000                                                                                                                                    24605591.542 6 128127838.28106      2093.390 6        39.871                                                                    24605609.014 6 104114388.56006      1700.953 6        37.388
C28        40.000                                                                                                                                    21930160.222 7 114196358.06707       263.905 7        45.108                                                                    21930157.453 7  92793716.69407       214.381 7        45.008
C43        42.000                                                                                                                                    23057190.846 7 120064956.43607     -2818.400 7        42.671                                                                    23057194.689 5  97562683.31705     -2290.305 5        35.057
C11        44.000                                                                                                                                    24828261.614 4                     -3373.161 4        28.720    24828275.516 5  99973243.41105     -2608.671 5        32.820    24828259.040 5                     -2741.189 5        32.515
C13        45.000                                                                                                                                    38251252.567 5 199184350.85205     -1674.996 5        30.732    38251260.297 5 154021958.77405     -1294.973 5        31.585    38251260.021 5 161853669.46905     -1360.890 5        34.933
C08        46.000                                                                                                                                    38654004.263 3                     -1935.670 3        21.857    38654009.309 5 155643729.83605     -1495.005 5        34.700    38654006.048 5 163557752.10405     -1571.102 5        34.419
C14        47.000                                                                                                                                    23739810.639 6 123619415.57706       950.670 6        39.420    23739805.765 6  95590424.99006       735.093 6        41.576    23739805.081 7 100450979.14907       772.474 7        46.128
C42        48.000                                                                                                                                    23884843.982 7 124374812.95507      -614.577 7        43.361                                                                    23884852.755 7 101064663.91807      -499.366 7        44.805
C38        50.000                                                                                                                                    40090449.720 3                     -2078.649 3        21.976                                                                    40090407.523 4                     -1688.645 4        25.068
C27        52.000                                                                                                                                    24895615.602 6 129638219.70806      1804.941 6        40.992                                                                    24895611.370 6 105341520.27806      1466.811 6        36.276
C23        55.000                                                                                                                                    26560203.197 4                     -4101.594 4        24.602
I06        58.000    38720691.208 6 151948472.45406      -572.445 6        38.592
I01        59.000   367347866.972 5 138411134.53805     -1870.719 5        33.012
> 2025 01 01 19 46 25.0000000  0 40
G18         1.000    22646047.271 7 119006002.80807     -3562.913 7        45.831                                    22646044.822 3  92731816.15703     -2776.291 3        20.810    22646041.006 5  92731836.04805     -2776.274 5        31.094
G10         2.000    21758933.897 6 114343978.35006      1528.289 6        39.601                                    21758964.197 3  89099186.34203      1190.865 3        23.905    21758941.946 5  89099229.21915      1190.959 5        35.838
G07         3.000    25190106.482 6 132374817.96006     -1065.773 6        40.734                                    25190089.343 2 103149132.96402      -830.471 2        15.571    25190088.981 4                      -831.039 4        26.898
G23         4.000    20930092.637 5 109988357.11405     -1117.828 5        35.257                                    20930089.232 3  85705177.46203      -871.025 3        18.537    20930088.763 7  85705256.43707      -871.000 7        42.063
G08         6.000                                                                                                                                                                    22570676.489 4                      1628.057 4        26.383
G27         7.000    20460025.343 7 107518642.69907       471.820 7        47.860                                    20460032.623 4  83780406.70604       367.659 4        29.109    20460028.200 5                       367.363 5        30.475
E15        10.000    26722671.758 5 140428505.32105     -3342.385 5        31.909                                                                    26722650.769 4 104865441.30204     -2495.652 4        28.161    26722655.896 5                     -2561.275 5        31.736
E27        15.000                                                                                                                                                                                                    27726500.849 4                     -3120.316 4        26.395
E13        16.000    23453695.116 7 123250082.86607     -1557.369 7        45.846                                                                    23453695.072 8  92037396.96908     -1162.972 8        49.517    23453694.190 8  94438326.68508     -1193.242 8        50.475
E31        17.000    28564600.968 5 150108130.00805      2000.942 5        30.989                                                                    28564612.025 4 112093690.50304      1494.359 4        28.180    28564600.048 5 115017781.72205      1533.458 5        35.329
G16        18.000    21198070.629 6 111396600.61606     -2871.241 6        41.120                                    21198062.760 4  86802447.03804     -2237.333 4        27.940
E26        19.000    24753315.274 6 130079540.49106       907.668 6        37.947                                                                    24753312.289 7  97137381.92407       677.779 7        42.508    24753310.983 7  99671391.43107       695.518 7        43.407
E21        22.000    24446542.606 6 128467537.41006     -2638.828 6        40.448                                                                    24446539.073 6  95933483.63206     -1970.484 6        40.198    24446540.293 7  98436122.72407     -2021.930 7        44.379
S36        23.000    38276777.371 6 201145682.27706      -850.439 6        36.677
S23        24.000    38232126.565 6 200911166.93106      -851.598 6        41.063
G26        25.000    23096542.687 6 121373223.00206     -4231.362 6        37.338                                    23096541.396 2  94576510.81102     -3297.156 2        17.170    23096565.851 3                     -3296.568 3        21.571
R20        26.000    22679816.027 3                      2160.401 3        22.990                                                                    22679880.805 4  94328230.63304      1679.339 4        25.835
R02        27.000    22823586.501 6 121791127.18816     -3079.200 6        36.098
R19        29.000    19674300.390 6 105244255.51506      -942.567 6        37.467                                                                    19674299.464 6  81856651.14406      -733.132 6        41.633
R18        30.000    20967907.837 8 111928102.23208     -3296.938 8        50.078                                                                    20967905.900 7  87055191.99307     -2564.220 7        42.609
R04        31.000                                                                                                                                    22770349.748 4                      2536.717 4        29.043
R03        32.000    21297730.292 6 114008422.01606       593.244 6        39.270                                                                    21297732.932 5  88673314.98905       461.482 5        33.449
R16        33.000    23304998.408 4                     -5381.752 4        29.109
R09        34.000    20734284.437 6 110720376.06206     -2888.928 6        38.991                                                                    20734285.004 7  86115495.04907     -2246.889 7        42.047
R10        35.000    21511413.309 7 114667939.57007       553.193 7        44.084
C37        36.000                                                                                                                                    24524869.287 7 127707340.75707     -2932.701 7        44.558
C33        37.000                                                                                                                                    24603582.937 6 128117374.91206      2092.312 6        38.435                                                                    24603597.519 6 104105886.19006      1700.055 6        38.474
C28        40.000                                                                                                                                    21929907.229 7 114195042.92007       262.665 7        45.070                                                                    21929904.624 7  92792648.02707       213.291 7        44.715
C21        41.000                                                                                                                                                                                                                                                                    26343274.114 4                     -2526.621 4        26.120
C43        42.000                                                                                                                                    23059896.501 7 120079051.76107     -2819.223 7        42.108                                                                    23059902.486 5  97574136.90005     -2290.933 5        34.157
C11        44.000                                                                                                                                    24831500.419 4                     -3373.309 4        27.701    24831514.847 5  99986286.50705     -2608.434 5        31.434    24831501.096 5                     -2741.352 5        32.988
C13        45.000                                                                                                                                    38252861.214 4 199192726.91704     -1675.122 4        29.678    38252868.149 5 154028435.68905     -1295.376 5        32.473    38252868.379 5 161860475.74005     -1361.279 5        35.105
C08        46.000                                                                                                                                    38655859.795 3                     -1935.798 3        21.429    38655865.083 5 155651206.23505     -1495.254 5        34.352    38655862.646 5 163565608.68305     -1571.345 5        34.452
C14        47.000                                                                                                                                    23738898.041 6 123614668.84706       948.516 6        39.414    23738893.638 6  95586754.51006       733.398 6        40.682    23738893.531 7 100447122.05407       770.588 7        45.917
C42        48.000                                                                                                                                    23885437.250 7 124377893.87707      -617.293 7        44.074                                                                    23885444.323 7 101067167.43607      -501.759 7        43.992
C38        50.000                                                                                                                                    40092443.241 3                     -2073.407 3        21.071                                                                    40092403.043 4                     -1688.064 4        24.797
C27        52.000                                                                                                                                    24893884.710 6 129629196.41006      1804.723 6        40.610                                                                    24893879.506 6 105334188.12606      1466.467 6        37.093
C23        55.000                                                                                                                                    26564143.465 4                     -4101.341 4        25.173
I06        58.000    38721420.574 6 151951335.78006      -572.316 6        38.508
I01        59.000   367350250.261 5 138420490.44905     -1871.222 5        32.168
> 2025 01 01 19 46 30.0000000  0 38
G18         1.000    22649438.064 7 119023821.37407     -3563.980 7        45.663                                    22649434.822 3  92745700.73703     -2777.106 3        20.452    22649432.045 4  92745720.70104     -2777.604 4        28.900
G10         2.000    21757482.205 6 114336344.14906      1525.796 6        38.438                                    21757509.801 3  89093237.55003      1188.929 3        23.543    21757484.897 6  89093280.33306      1189.124 6        37.440
G07         3.000    25191113.129 6 132380155.39306     -1068.567 6        39.093                                    25191104.697 2 103153292.03802      -832.662 2        16.604    25191106.781 4                      -832.727 4        28.682
G23         4.000    20931162.996 6 109993956.20306     -1121.289 6        38.291                                    20931154.051 3  85709540.32703      -873.732 3        19.493    20931154.155 6  85709619.31506      -873.686 6        41.077
G08         6.000                                                                                                                                                                    22568692.431 4                      1628.075 4        27.377
G27         7.000    20459578.331 8 107516290.83808       469.516 8        48.989                                    20459584.548 5  83778574.06505       365.859 5        32.479    20459581.901 5                       365.794 5        32.832
E15        10.000    26725845.443 5 140445219.66505     -3342.860 5        30.792                                                                    26725831.725 4 104877922.87804     -2496.594 4        27.617    26725840.045 5                     -2561.599 5        31.713
E27        15.000    27730405.753 3                     -4073.944 3        21.357                                                                                                                                    27730377.152 4                     -3120.107 4        25.940
E13        16.000    23455177.696 7 123257874.47207     -1558.687 7        45.449                                                                    23455177.661 8  92043215.37608     -1164.027 8        49.235    23455176.878 8  94444296.87808     -1194.314 8        50.395
E31        17.000    28562697.227 5 150098126.83005      2000.469 5        31.789                                                                    28562707.650 4 112086220.57204      1493.910 4        27.760    28562696.439 5 115010116.93105      1532.834 5        35.357
G16        18.000    21200801.319 6 111410965.43706     -2873.977 6        37.550                                    21200796.169 4  86813640.45204     -2239.470 4        25.985
E26        19.000    24752452.032 6 130075006.67006       906.483 6        38.483                                                                    24752449.506 7  97133996.25707       676.926 7        42.425    24752448.259 7  99667917.45707       694.541 7        43.659
E21        22.000    24449054.084 6 128480737.94506     -2640.802 6        38.384                                                                    24449050.700 6  95943341.15306     -1972.141 6        40.045    24449052.126 7  98446237.41107     -2023.572 7        44.108
S36        23.000    38277586.265 6 201149937.09206      -850.604 6        36.919
S23        24.000    38232936.926 6 200915426.31906      -851.697 6        41.135
G26        25.000    23100571.816 6 121394384.79306     -4232.634 6        36.987                                    23100567.216 3  94593000.52003     -3298.166 3        18.179
R02        27.000    22826472.945 6 121806533.85706     -3082.933 6        36.374
R19        29.000    19675182.327 6 105248975.69906      -944.859 6        38.327                                                                    19675181.258 6  81860322.39206      -734.911 6        41.304
R18        30.000    20970996.742 8 111944591.40408     -3298.189 8        49.452                                                                    20970994.448 7  87068016.90107     -2565.220 7        42.172
R04        31.000                                                                                                                                    22767305.521 4                      2535.549 4        28.626
R03        32.000    21297181.930 6 114005468.48106       588.897 6        41.545                                                                    21297179.831 5  88671017.74305       458.204 5        34.705
R16        33.000    23310043.534 5                     -5382.112 5        30.664                                                                    23310059.473 4                     -4186.694 4        25.248
R09        34.000    20736993.934 6 110734832.56106     -2892.945 6        40.675                                                                    20736992.041 7  86126738.97507     -2249.989 7        42.298
R10        35.000    21510896.485 7 114665185.66607       548.842 7        44.033
C37        36.000                                                                                                                                    24527683.230 7 127722010.93807     -2934.776 7        44.032                                                                    24527723.517 4                     -2384.909 4        29.412
C33        37.000                                                                                                                                    24601576.283 6 128106918.42006      2090.832 6        36.624                                                                    24601587.197 6 104097389.40006      1698.771 6        39.066
C28        40.000                                                                                                                                    21929655.213 7 114193734.49707       261.264 7        45.096                                                                    21929653.427 7  92791584.82907       212.174 7        44.364
C43        42.000                                                                                                                                    23062603.055 6 120093152.39706     -2820.411 6        41.342                                                                    23062611.484 5  97585594.80005     -2291.519 5        32.784
C11        44.000                                                                                                                                    24834741.558 4                     -3374.327 4        27.078    24834753.935 5  99999331.63905     -2608.982 5        31.713    24834743.143 5                     -2741.846 5        34.086
C13        45.000                                                                                                                                    38254471.119 5 199201105.30305     -1675.346 5        30.158    38254475.806 5 154034914.38405     -1295.758 5        32.994    38254477.342 5 161867283.87805     -1361.767 5        34.662
C08        46.000                                                                                                                                    38657717.074 3                     -1933.289 3        21.857    38657722.402 5 155658684.29205     -1495.623 5        34.186    38657720.052 5 163573466.98705     -1571.738 5        34.162
C14        47.000                                                                                                                                    23737988.852 6 123609934.40106       945.867 6        39.159    23737984.625 6  95583093.52406       731.447 6        40.713    23737984.244 7 100443274.91507       768.591 7        45.884
C42        48.000                                                                                                                                    23886033.368 7 124380989.58807      -620.365 7        45.421                                                                    23886038.709 7 101069682.98107      -504.240 7        43.162
C38        50.000                                                                                                                                    40094432.290 3                     -2078.469 3        22.095                                                                    40094398.518 4                     -1687.620 4        24.947
C27        52.000                                                                                                                                    24892155.913 6 129620175.29706      1804.388 6        39.252                                                                    24892147.148 6 105326857.78106      1466.102 6        37.595
C23        55.000                                                                                                                                    26568080.514 4                     -4101.256 4        25.594
I06        58.000    38722150.101 6 151954199.04806      -572.352 6        38.700
I01        59.000   367352635.432 5 138429847.67205     -1871.201 5        30.966
> 2025 01 01 19 46 35.0000000  0 40
G18         1.000    22652830.113 7 119041645.01207     -3564.980 7        45.937                                    22652825.693 3  92759589.25703     -2777.897 3        20.310    22652825.291 4  92759609.24704     -2777.955 4        29.526
G10         2.000    21756031.801 6 114328722.04006      1523.438 6        37.403                                    21756056.506 3  89087298.19803      1187.119 3        22.114    21756033.107 6  89087341.05106      1187.132 6        38.324
G07         3.000    25192125.883 6 132385506.24206     -1071.222 6        38.781                                    25192123.064 2 103157461.54302      -834.694 2        17.132    25192129.074 5                      -834.735 5        30.045
G23         4.000    20932232.411 6 109999572.04306     -1124.760 6        40.751                                    20932222.111 3  85713916.25903      -876.441 3        20.476    20932223.238 6  85713995.24206      -876.291 6        40.398
G15         5.000    23723576.492 4                      -939.957 4        27.952
G27         7.000    20459132.451 8 107513950.64008       467.083 8        49.647                                    20459138.499 5  83776750.50805       363.961 5        35.219    20459136.554 5  83776745.47215       364.166 5        34.410
E15        10.000                                                                                                                                    26729012.780 4 104890405.28804     -2496.267 4        26.802    26729020.477 5                     -2561.753 5        31.291
E27        15.000    27734273.573 3                     -4072.573 3        20.881                                                                                                                                    27734252.148 4                     -3121.171 4        25.985
E13        16.000    23456661.829 7 123265672.70707     -1559.995 7        44.734                                                                    23456661.520 8  92049038.72608     -1165.017 8        48.981    23456660.873 8  94450272.14608     -1195.405 8        50.192
E31        17.000    28560793.491 5 150088127.16305      1999.951 5        30.491                                                                    28560805.062 4 112078753.31404      1492.868 4        27.988    28560793.815 5 115002454.86905      1532.467 5        35.152
G16        18.000    21203534.713 5 111425344.95405     -2876.689 5        33.814                                    21203532.149 4  86824845.22304     -2241.596 4        24.211
E26        19.000    24751590.122 6 130070478.81406       905.292 6        38.072                                                                    24751587.925 7  97130615.06507       675.919 7        42.741    24751586.524 7  99664448.06207       693.575 7        43.462
E21        22.000    24451567.859 6 128493948.59006     -2642.741 6        36.900                                                                    24451564.717 6  95953206.23606     -1973.710 6        40.062    24451566.169 7  98456359.85407     -2025.047 7        43.685
S36        23.000    38278395.557 6 201154193.18906      -851.234 6        36.915
S23        24.000    38233748.566 6 200919685.87006      -851.717 6        41.259
G26        25.000    23104601.149 6 121415552.44006     -4234.003 6        36.688                                    23104594.265 2  94609494.81002     -3299.209 2        17.660
R20        26.000                                                                                                                                    22675767.930 4                      1678.769 4        25.865
R02        27.000    22829369.189 6 121821959.58106     -3086.723 6        37.478
R19        29.000    19676066.835 6 105253706.29806      -946.941 6        38.619                                                                    19676066.132 6  81864001.75206      -736.523 6        41.752
R18        30.000    20974086.220 8 111961086.57608     -3299.385 8        48.545                                                                    20974085.044 6  87080846.48306     -2566.157 6        41.850
R04        31.000    22764285.693 5 121901543.17615      3258.571 5        31.721                                                                    22764263.230 4                      2534.585 4        28.066
R03        32.000    21296642.886 7 114002536.35907       584.581 7        42.008                                                                    21296632.973 5  88668737.17505       454.677 5        34.738
R16        33.000    23315083.947 5                     -5382.899 5        31.698                                                                    23315094.323 4                     -4186.619 4        27.317
R09        34.000    20739704.946 6 110749309.05706     -2897.191 6        40.119                                                                    20739704.235 6  86137998.48206     -2253.367 6        41.933
R10        35.000    21510383.691 7 114662453.51707       544.587 7        44.087
C37        36.000                                                                                                                                    24530500.553 7 127736691.00407     -2936.760 7        42.677                                                                    24530540.840 4                     -2386.468 4        28.246
C33        37.000                                                                                                                                    24599570.140 5 128096468.90605      2089.474 5        34.376                                                                    24599579.400 6 104088898.25306      1697.769 6        39.601
C28        40.000                                                                                                                                    21929405.475 7 114192432.91507       259.853 7        45.636                                                                    21929403.469 7  92790527.18307       211.081 7        44.126
C21        41.000                                                                                                                                                                                                                                                                    26349269.035 4                     -2530.614 4        26.910
C43        42.000                                                                                                                                    23065312.286 6 120107258.40006     -2821.448 6        40.903                                                                    23065321.036 5  97597057.11205     -2292.822 5        30.340
C11        44.000                                                                                                                                    24837984.379 4                     -3374.644 4        25.910    24837993.871 5 100012378.74905     -2609.676 5        30.898    24837981.968 5                     -2742.312 5        34.471
C13        45.000                                                                                                                                    38256082.767 5 199209486.12505     -1676.290 5        30.015    38256085.156 5 154041394.93005     -1296.393 5        33.198    38256086.734 5 161874093.90805     -1362.045 5        34.848
C08        46.000                                                                                                                                    38659576.585 3                     -1934.093 3        21.714    38659579.748 5 155666164.03705     -1496.004 5        34.057    38659577.764 5 163581327.02505     -1571.979 5        33.892
C14        47.000                                                                                                                                    23737082.168 6 123605212.39906       943.214 6        38.228    23737077.838 6  95579442.15106       729.446 6        40.601    23737077.222 7 100439437.87307       766.390 7        45.430
C42        48.000                                                                                                                                    23886631.084 7 124384100.18407      -623.375 7        46.699                                                                    23886635.917 7 101072210.62307      -506.672 7        42.597
C38        50.000                                                                                                                                                                                                                                                                    40096394.324 4                     -1688.787 4        25.624
C27        52.000                                                                                                                                    24890427.084 6 129611156.50706      1803.667 6        37.338                                                                    24890414.683 6 105319529.30306      1465.510 6        37.826
C23        55.000                                                                                                                                    26572020.944 4                     -4101.385 4        26.108
I06        58.000    38722880.216 6 151957062.35306      -572.514 6        38.607
I01        59.000   367355020.115 5 138439206.42205     -1871.642 5        30.000
> 2025 01 01 19 46 40.0000000  0 41
G18         1.000    22656222.720 7 119059473.42607     -3566.041 7        46.103                                    22656217.169 3  92773481.47903     -2778.734 3        20.429    22656218.841 5  92773501.47505     -2778.777 5        31.811
G10         2.000    21754583.779 6 114321111.77206      1520.726 6        36.181                                    21754604.436 3  89081368.08303      1184.994 3        21.357    21754583.873 6  89081410.94906      1185.161 6        38.715
G07         3.000    25193149.603 6 132390870.22206     -1073.760 6        37.157                                    25193144.128 2 103161641.25902      -836.721 2        17.660    25193148.452 5                      -836.723 5        31.019
G23         4.000    20933303.530 6 110005204.29706     -1127.900 6        40.901                                    20933293.449 3  85718305.00803      -878.876 3        21.881    20933295.705 6  85718384.00806      -879.006 6        40.827
G15         5.000    23724482.282 4                      -942.643 4        26.407
G08         6.000    22564703.289 6 118578394.50906      2087.117 6        40.677                                    22564722.216 2  92398764.39012      1626.329 2        15.857    22564710.388 4                      1626.460 4        29.128
G27         7.000    20458688.936 8 107511621.80508       464.792 8        50.197                                    20458694.709 6  83774935.81506       362.176 6        37.047    20458692.927 5  83774930.80405       362.105 5        33.695
E15        10.000    26732197.234 4 140478651.64004     -3343.506 4        25.128                                                                    26732193.680 4 104902888.35604     -2496.182 4        26.611    26732200.762 5                     -2561.783 5        32.006
E27        15.000    27738142.948 3                     -4074.394 3        22.476                                                                                                                                    27738127.560 4                     -3121.142 4        26.359
E13        16.000    23458146.787 7 123273477.25907     -1561.410 7        44.448                                                                    23458146.662 8  92054866.78908     -1165.989 8        48.722    23458146.047 8  94456252.24808     -1196.336 8        50.239
E31        17.000    28558891.278 4 150078130.89404      1999.069 4        29.498                                                                    28558903.520 4 112071288.55604      1493.082 4        26.898    28558891.556 5 114994795.39905      1531.741 5        35.252
G16        18.000    21206274.677 6 111439738.86906     -2880.142 6        36.715                                    21206270.821 3  86836061.25303     -2244.292 3        23.924
E26        19.000    24750729.603 6 130065956.63606       903.919 6        38.126                                                                    24750727.407 7  97127238.09707       675.013 7        42.855    24750725.885 7  99660982.98607       692.774 7        43.427
E21        22.000    24454084.209 5 128507169.07405     -2644.690 5        35.314                                                                    24454080.755 6  95963078.65206     -1975.105 6        40.138    24454082.194 7  98466489.82507     -2026.628 7        43.568
S36        23.000    38279205.574 6 201158449.15206      -851.347 6        36.620
S23        24.000    38234558.708 6 200923945.34806      -851.882 6        41.204
G26        25.000    23108633.193 5 121436725.68405     -4234.901 5        34.600                                    23108622.839 2  94625993.40702     -3299.942 2        16.679    23108616.606 3                     -3300.033 3        23.200
R20        26.000    22673797.572 3                      2158.651 3        22.971                                                                    22673751.622 4                      1678.187 4        29.469
R02        27.000    22832266.592 6 121837403.83306     -3090.430 6        38.417                                                                    22832271.505 4                     -2403.556 4        26.407
R19        29.000    19676952.971 6 105258447.14506      -949.016 6        39.003                                                                    19676952.250 7  81867689.09007      -738.212 7        42.502
R18        30.000    20977176.486 7 111977587.45307     -3300.625 7        47.876                                                                    20977176.245 7  87093680.50607     -2567.034 7        42.351
R04        31.000                                                                                                                                    22761223.904 4                      2534.032 4        27.892
R03        32.000    21296101.231 7 113999625.19607       580.386 7        42.811                                                                    21296088.886 5  88666472.85505       451.022 5        33.126
R16        33.000    23320120.800 5                     -5383.044 5        30.891                                                                    23320131.749 4                     -4186.767 4        27.473
R09        34.000    20742417.343 6 110763805.35306     -2901.153 6        40.877                                                                    20742417.494 6  86149273.35706     -2256.328 6        40.882
R10        35.000    21509875.827 7 114659742.79707       540.110 7        44.691
C37        36.000                                                                                                                                    24533321.964 6 127751380.62106     -2938.698 6        40.410                                                                    24533364.562 4                     -2387.698 4        27.521
C33        37.000                                                                                                                                    24597562.028 5 128086026.08405      2088.081 5        32.389                                                                    24597573.121 6 104080412.53206      1696.665 6        39.937
C28        40.000                                                                                                                                    21929157.243 7 114191137.87107       258.526 7        46.313                                                                    21929154.772 7  92789474.86507       210.046 7        44.072
C21        41.000                                                                                                                                                                                                                                                                    26352258.882 4                     -2531.719 4        27.784
C43        42.000                                                                                                                                    23068022.948 6 120121369.47006     -2822.675 6        40.729                                                                    23068030.828 4  97608523.56704     -2293.448 4        28.227
C11        44.000                                                                                                                                    24841231.582 3                     -3376.232 3        23.924    24841232.956 5 100025427.61105     -2609.945 5        31.645    24841222.964 5 105111348.67915     -2742.559 5        35.262
C13        45.000                                                                                                                                    38257695.511 5 199217868.99505     -1676.945 5        30.883    38257695.233 5 154047877.09505     -1296.464 5        33.593    38257696.429 5 161880905.69205     -1362.285 5        34.357
C08        46.000                                                                                                                                    38661435.210 3                     -1932.795 3        23.352    38661438.468 5 155673645.17705     -1496.291 5        33.587    38661435.580 5 163589188.60705     -1572.229 5        33.994
C14        47.000                                                                                                                                    23736175.610 6 123600502.46306       940.958 6        37.558    23736173.403 6  95575800.15606       727.480 6        40.567    23736172.643 7 100435610.67107       764.490 7        45.469
C42        48.000                                                                                                                                    23887231.078 7 124387225.38707      -626.339 7        47.546                                                                    23887236.239 7 101074750.11907      -508.994 7        42.588
C38        50.000                                                                                                                                                                                                                                                                    40098390.304 3                     -1687.807 3        23.371
C27        52.000                                                                                                                                    24888697.229 5 129602139.72405      1803.236 5        35.590                                                                    24888682.904 6 105312202.43506      1465.363 6        37.716
C23        55.000                                                                                                                                    26575956.034 4                     -4100.295 4        25.744
I06        58.000    38723610.246 6 151959925.42506      -572.548 6        38.679
I01        59.000   367357403.441 4 138448566.40304     -1872.300 4        28.303
> 2025 01 01 19 46 45.0000000  0 41
G18         1.000    22659616.416 7 119077306.25407     -3566.973 7        46.151                                    22659609.802 3  92787377.15903     -2779.447 3        21.333    22659612.525 5  92787397.15705     -2779.573 5        34.352
G10         2.000    21753138.586 6 114313512.92006      1518.744 6        36.072                                    21753153.869 3  89075446.85303      1183.437 3        22.590    21753138.342 6  89075489.81406      1183.385 6        39.973
G07         3.000    25194172.993 5 132396247.00005     -1076.484 5        34.662                                    25194168.040 2 103165830.96402      -838.852 2        17.283    25194172.503 5                      -839.218 5        30.996
G23         4.000    20934376.949 6 110010852.63906     -1131.448 6        40.074                                    20934368.450 3  85722706.32503      -881.650 3        23.410    20934371.016 7  85722785.32207      -881.498 7        42.385
G15         5.000    23725382.196 3                      -946.666 3        22.495
G08         6.000    22562723.505 6 118567961.80106      2086.011 6        40.467                                    22562737.043 2  92390635.03602      1625.465 2        16.981    22562725.006 5                      1625.453 5        30.619
G27         7.000    20458248.239 8 107509303.97908       462.480 8        50.200                                    20458253.123 6  83773129.71006       360.376 6        38.102    20458252.978 5  83773124.71205       360.579 5        32.054
E15        10.000    26735377.301 3                     -3345.347 3        22.095                                                                    26735374.769 4 104915371.90804     -2496.676 4        25.925    26735381.405 5                     -2561.904 5        32.251
E27        15.000    27742015.539 3                     -4074.501 3        23.638                                                                                                                                    27742004.059 4                     -3121.555 4        26.443
E13        16.000    23459632.891 7 123281287.78007     -1562.797 7        43.846                                                                    23459632.944 8  92060699.30408     -1167.010 8        48.685    23459632.414 8  94462236.92608     -1197.449 8        50.279
E31        17.000    28556988.422 4 150068137.61104      1998.013 4        28.502                                                                    28557002.842 4 112063826.02904      1492.244 4        25.985    28556989.741 5 114987138.23205      1531.290 5        34.595
G16        18.000    21209019.055 6 111454146.73206     -2882.981 6        39.694                                    21209012.091 4  86847288.16204     -2246.480 4        24.647
E26        19.000    24749870.033 6 130061439.75706       902.742 6        38.622                                                                    24749867.764 7  97123865.08607       674.215 7        43.240    24749866.207 7  99657521.99607       691.804 7        43.570
E21        22.000    24456601.765 5 128520399.08105     -2647.010 5        32.671                                                                    24456598.512 6  95972958.15606     -1976.711 6        40.543    24456599.804 7  98476627.05607     -2028.106 7        43.651
S36        23.000    38280015.447 6 201162705.36806      -851.368 6        36.465
S23        24.000    38235370.875 6 200928204.29906      -851.749 6        41.118
G26        25.000    23112668.881 5 121457904.18905     -4236.500 5        30.030                                    23112652.487 2  94642496.12702     -3301.152 2        15.333    23112650.327 4                     -3300.644 4        26.491
R20        26.000    22671787.962 3                      2155.375 3        19.373                                                                    22671740.313 5                      1677.630 5        31.509
R02        27.000    22835170.473 6 121852866.45416     -3094.509 6        37.403                                                                    22835168.750 4                     -2407.055 4        26.826
R19        29.000    19677841.599 6 105263197.97806      -951.226 6        39.700                                                                    19677840.243 7  81871384.16707      -739.830 7        42.853
R18        30.000    20980269.223 8 111994093.64508     -3301.824 8        48.031                                                                    20980268.965 7  87106518.65307     -2568.155 7        42.724
R04        31.000                                                                                                                                    22758185.123 4                      2531.956 4        26.024
R03        32.000    21295556.565 7 113996734.51707       576.013 7        44.271                                                                    21295549.455 5  88664224.51405       448.377 5        34.962
R16        33.000    23325159.036 5                     -5383.748 5        31.042                                                                    23325166.488 4                     -4187.250 4        27.593
R09        34.000    20745136.792 6 110778321.00506     -2905.091 6        41.464                                                                    20745136.000 6  86160563.32306     -2259.605 6        40.541
R10        35.000    21509371.532 7 114657053.33107       535.790 7        44.328
C37        36.000                                                                                                                                    24536143.738 6 127766079.49606     -2940.740 6        36.658                                                                    24536189.224 4                     -2389.573 4        25.579
C33        37.000                                                                                                                                    24595555.678 5 128075589.49405      2086.901 5        32.018                                                                    24595568.052 6 104071931.97106      1695.665 6        40.248
C28        40.000                                                                                                                                    21928909.914 7 114189849.03807       257.103 7        46.661                                                                    21928907.277 7  92788427.59107       208.942 7        43.954
C21        41.000                                                                                                                                                                                                                                                                    26355248.555 4                     -2533.564 4        28.190
C43        42.000                                                                                                                                    23070734.687 6 120135485.28206     -2823.664 6        40.689                                                                    23070742.817 4  97619993.86004     -2294.799 4        27.150
C11        44.000                                                                                                                                    24844478.302 3                     -3375.496 3        20.214    24844472.895 5 100038478.03105     -2610.253 5        30.981    24844463.677 5 105125062.67405     -2742.917 5        35.224
C13        45.000                                                                                                                                    38259307.026 5 199226253.68305     -1677.063 5        31.932    38259305.145 5 154054360.65405     -1296.668 5        33.635    38259306.366 5 161887718.93205     -1362.954 5        34.652
C08        46.000                                                                                                                                    38663300.270 3                     -1935.930 3        23.886    38663296.196 5 155681127.55405     -1496.496 5        33.216    38663294.021 5 163597051.40605     -1572.848 5        33.701
C14        47.000                                                                                                                                    23735275.680 6 123595804.30806       938.407 6        37.255    23735271.378 6  95572167.24706       725.638 6        41.044    23735270.529 7 100431793.03907       762.539 7        45.318
C42        48.000                                                                                                                                    23887833.701 8 124390364.85908      -629.350 8        48.274                                                                    23887839.494 7 101077301.21207      -511.385 7        42.732
C38        50.000                                                                                                                                    40100362.480 4                     -2078.576 4        27.952                                                                    40100386.065 4                     -1690.064 4        24.301
C27        52.000                                                                                                                                    24886961.718 5 129593124.61905      1802.899 5        34.452                                                                    24886951.392 6 105304876.93906      1464.895 6        37.198
C23        55.000                                                                                                                                    26579894.156 4                     -4100.062 4        24.617
I06        58.000    38724338.979 6 151962788.04906      -572.355 6        38.946
I01        59.000   367359790.165 4 138457927.44104     -1872.271 4        27.365
> 2025 01 01 19 46 50.0000000  0 40
G18         1.000    22663010.474 7 119095143.72607     -3567.896 7        46.316                                    22663003.719 3  92801276.47903     -2780.168 3        22.686    22663005.826 5  92801296.47305     -2780.311 5        35.871
G10         2.000    21751695.535 6 114305925.82406      1516.355 6        37.497                                    21751705.251 4  89069534.81104      1181.573 4        26.551    21751695.593 6  89069577.81106      1181.539 6        40.841
G07         3.000    25195196.930 5 132401636.84805     -1079.038 5        30.355                                    25195194.103 2 103170030.82102      -840.793 2        16.679    25195197.743 5                      -840.931 5        31.094
G23         4.000    20935453.813 6 110016517.32206     -1134.443 6        38.156                                    20935446.692 4  85727120.35904      -883.984 4        24.361    20935449.146 7  85727199.38507      -884.106 7        44.450
G15         5.000    23726278.792 3                      -953.849 3        18.657
G08         6.000    22560742.367 6 118557534.14806      2084.999 6        40.529                                    22560752.358 2  92382509.62102      1624.659 2        16.038    22560742.181 4                      1624.632 4        28.464
G27         7.000    20457809.112 8 107506997.38608       460.252 8        50.005                                    20457813.821 6  83771332.35206       358.639 6        38.559    20457814.009 5  83771327.36505       358.430 5        30.528
E15        10.000                                                                                                                                    26738555.706 4 104927855.98104     -2496.710 4        25.128    26738562.374 5                     -2562.101 5        32.437
E27        15.000    27745890.530 4                     -4073.086 4        25.053                                                                                                                                    27745880.392 4                     -3121.687 4        27.365
E13        16.000    23461119.916 7 123289104.48807     -1563.894 7        42.882                                                                    23461120.438 8  92066536.44708     -1167.837 8        48.643    23461119.980 8  94468226.34708     -1198.337 8        50.367
E31        17.000    28555088.808 4 150058147.46204      1997.645 4        27.545                                                                    28555103.139 4 112056365.96304      1491.105 4        26.359    28555088.743 5 114979483.53405      1530.741 5        35.033
G16        18.000    21211763.996 6 111468568.77306     -2885.933 6        41.054                                    21211756.133 4  86858526.11504     -2248.793 4        26.180
E26        19.000    24749011.941 6 130056928.41506       901.768 6        39.387                                                                    24749009.362 7  97120496.24607       673.278 7        43.479    24749007.730 7  99654065.26707       690.918 7        43.386
E21        22.000    24459120.706 5 128533638.71805     -2648.642 5        30.641                                                                    24459118.340 6  95982844.90206     -1978.058 6        41.251    24459119.219 7  98486771.72907     -2029.617 7        43.854
S36        23.000    38280824.708 6 201166961.60906      -851.093 6        36.457
S23        24.000    38236181.741 6 200932463.24806      -851.701 6        41.018
G26        25.000                                                                                                                                                                    23116683.283 4                     -3301.957 4        27.892
R02        27.000    22838069.052 5 121868347.44815     -3097.980 5        33.904                                                                    22838069.411 4                     -2409.364 4        28.114
R19        29.000    19678731.735 6 105267958.77606      -953.193 6        40.574                                                                    19678730.436 7  81875087.02307      -741.349 7        42.891
R18        30.000    20983363.354 7 112010605.37907     -3302.908 7        47.955                                                                    20983362.306 7  87119361.11007     -2568.875 7        43.236
R04        31.000    22755118.061 5 121852691.89315      3255.395 5        30.475                                                                    22755146.674 4                      2532.106 4        26.311
R03        32.000    21295015.281 7 113993864.85907       571.885 7        45.549                                                                    21295016.007 6  88661992.61606       444.775 6        36.019
R16        33.000    23330195.840 4                     -5384.164 4        29.659                                                                    23330204.093 4                     -4187.718 4        27.892
R09        34.000    20747861.649 7 110792856.41807     -2908.991 7        43.621                                                                    20747857.669 6  86171868.61606     -2262.581 6        40.045
R10        35.000    21508870.385 7 114654385.18207       531.488 7        44.269
C37        36.000                                                                                                                                    24538966.082 5 127780787.84105     -2942.987 5        31.208                                                                    24539014.234 3                     -2390.772 3        22.038
C33        37.000                                                                                                                                    24593551.975 5 128065159.56205      2085.096 5        32.479                                                                    24593564.593 6 104063456.74606      1694.561 6        40.841
C28        40.000                                                                                                                                    21928663.513 7 114188566.64207       255.854 7        46.300                                                                    21928661.101 7  92787385.51207       207.951 7        44.006
C21        41.000                                                                                                                                                                                                                                                                    26358241.457 4                     -2535.099 4        28.237
C43        42.000                                                                                                                                    23073447.588 6 120149606.05006     -2824.672 6        40.984                                                                    23073459.314 4  97631468.12904     -2295.318 4        28.777
C11        44.000                                                                                                                                                                                                    24847712.016 5 100051530.14905     -2610.194 5        30.204    24847704.308 5 105138778.43605     -2743.235 5        35.124
C13        45.000                                                                                                                                    38260918.835 5 199234640.30105     -1677.513 5        33.335    38260916.721 5 154060845.77105     -1297.028 5        33.940    38260916.540 5 161894533.78105     -1363.400 5        34.352
C08        46.000                                                                                                                                    38665161.709 4                     -1935.941 4        26.407    38665155.593 5 155688611.23005     -1497.052 5        33.377    38665152.362 5 163604915.56405     -1572.633 5        33.665
C14        47.000                                                                                                                                    23734379.944 6 123591118.10506       936.204 6        36.809    23734371.406 6  95568543.57306       723.863 6        41.669    23734370.565 7 100427985.09507       760.712 7        45.412
C42        48.000                                                                                                                                    23888438.824 8 124393518.82508      -632.154 8        48.967                                                                    23888445.442 7 101079864.05007      -513.685 7        43.492
C38        50.000                                                                                                                                                                                                                                                                    40102381.317 4                     -1688.600 4        24.135
C27        52.000                                                                                                                                                                                                                                                                    24885220.239 6 105297552.93306      1464.659 6        37.074
C23        55.000                                                                                                                                    26583831.112 4                     -4100.701 4        24.556
I06        58.000    38725069.051 6 151965650.36906      -572.492 6        38.883
I01        59.000   367362174.081 4 138467289.68804     -1872.663 4        26.407
> 2025 01 01 19 46 55.0000000  0 41
G18         1.000    22666405.558 7 119112986.51907     -3569.179 7        46.114                                    22666399.027 3  92815179.93203     -2781.174 3        23.771    22666400.499 6  92815199.93906     -2781.237 6        36.790
G10         2.000    21750254.501 6 114298351.17206      1513.736 6        38.715                                    21750259.718 5  89063632.48605      1179.528 5        30.302    21750253.838 6  89063675.48606      1179.405 6        41.039
G07         3.000    25196224.134 5 132407040.47005     -1082.460 5        30.038                                    25196222.701 2 103174241.43102      -843.451 2        16.000    25196225.232 4                      -843.146 4        28.815
G23         4.000    20936535.147 6 110022199.02806     -1138.075 6        36.885                                    20936528.373 4  85731547.67104      -886.831 4        25.053    20936529.818 7  85731626.69307      -886.775 7        46.024
G15         5.000    23727183.898 3                      -952.473 3        21.738
G08         6.000    22558759.332 6 118547112.22706      2083.762 6        40.272                                    22558768.098 2  92374388.66302      1623.722 2        14.619    22558754.218 4                      1624.118 4        27.305
G27         7.000    20457372.411 8 107504702.75608       457.815 8        49.410                                    20457376.962 6  83769544.31106       356.741 6        38.129    20457379.180 4  83769539.31804       356.334 4        29.365
E15        10.000                                                                                                                                    26741739.547 3 104940341.25703     -2496.681 3        23.886    26741744.596 5                     -2562.263 5        32.814
E27        15.000    27749766.475 4                     -4074.439 4        24.602                                                                                                                                    27749758.581 4                     -3121.830 4        27.078
E13        16.000    23462608.217 6 123296928.06306     -1565.390 6        41.940                                                                    23462609.327 8  92072378.72408     -1168.969 8        48.504    23462608.863 8  94474221.03208     -1199.434 8        50.506
E31        17.000    28553187.370 4 150048161.19804      1996.256 4        25.850                                                                                                                                    28553188.763 5 114971831.66905      1530.021 5        34.833
G16        18.000    21214510.967 6 111483005.64406     -2888.719 6        41.604                                    21214502.980 4  86869775.62904     -2250.953 4        27.281
E26        19.000    24748155.311 6 130052423.33006       900.349 6        40.365                                                                    24748152.016 7  97117132.05407       672.411 7        43.481    24748150.605 7  99650613.31707       689.932 7        43.530
E21        22.000    24461642.683 4 128546888.73604     -2651.015 4        28.967                                                                    24461639.978 6  95992739.40706     -1979.750 6        41.664    24461640.743 7  98496924.36807     -2031.323 7        44.163
S36        23.000    38281633.473 6 201171218.53906      -851.424 6        36.340
S23        24.000    38236992.876 6 200936722.78506      -851.983 6        41.013
G26        25.000                                                                                                                                                                    23120714.527 4                     -3302.768 4        28.104
R20        26.000                                                                                                                                    22667733.712 4                      1676.190 4        28.180
R02        27.000                                                                                                                                    22840975.385 4                     -2412.423 4        27.066
R19        29.000    19679624.662 6 105272730.31006      -955.336 6        40.849                                                                    19679622.606 7  81878798.22607      -743.139 7        42.510
R18        30.000    20986456.958 7 112027123.35807     -3304.233 7        47.558                                                                    20986456.463 7  87132208.43507     -2569.964 7        44.036
R04        31.000    22752087.539 4 121836420.91414      3253.935 4        27.281                                                                    22752101.387 3                      2528.790 3        23.505
R03        32.000    21294483.957 7 113991016.88407       567.410 7        46.595                                                                    21294486.613 5  88659777.48005       441.443 5        35.976
R16        33.000                                                                                                                                    23335242.663 4                     -4188.108 4        27.629
R09        34.000    20750593.176 7 110807412.11607     -2913.186 7        44.679                                                                    20750583.967 6  86183189.68506     -2265.575 6        40.162
R10        35.000    21508374.173 7 114651739.15507       527.061 7        44.357
C37        36.000                                                                                                                                    24541791.915 4 127795506.34904     -2944.946 4        26.874                                                                    24541844.820 3                     -2393.112 3        22.190
C33        37.000                                                                                                                                    24591550.099 5 128054736.88305      2083.688 5        32.737                                                                    24591563.038 6 104054987.47006      1693.250 6        41.030
C28        40.000                                                                                                                                    21928417.688 7 114187291.38407       254.273 7        44.938                                                                    21928416.167 7  92786349.26007       206.614 7        43.661
C21        41.000                                                                                                                                                                                                                                                                    26361238.996 4                     -2536.776 4        27.317
C43        42.000                                                                                                                                    23076161.768 6 120163732.46106     -2825.854 6        40.965                                                                    23076173.480 4  97642947.04904     -2296.150 4        29.791
C11        44.000                                                                                                                                    24850958.309 3                     -3376.620 3        22.248    24850950.888 4 100064584.53204     -2611.318 4        28.597    24850944.979 5 105152496.57605     -2743.813 5        34.833
C13        45.000                                                                                                                                    38262530.682 5 199243029.66505     -1678.314 5        33.808    38262526.599 5 154067332.92505     -1297.497 5        34.081    38262527.901 5 161901350.82605     -1363.647 5        33.898
C08        46.000                                                                                                                                    38667020.745 4                     -1936.726 4        26.647    38667014.389 5 155696096.81405     -1497.334 5        33.347    38667011.565 5 163612781.79605     -1573.331 5        32.958
C14        47.000                                                                                                                                    23733488.625 5 123586444.62605       933.424 5        35.914    23733474.296 7  95564929.73207       721.684 7        42.660    23733473.171 7 100424187.52407       758.460 7        45.120
C42        48.000                                                                                                                                    23889047.121 8 124396687.95708      -635.343 8        49.200                                                                    23889054.436 7 101082439.25807      -516.298 7        43.837
C38        50.000                                                                                                                                    40104372.569 4                     -2079.034 4        28.853                                                                    40104379.269 3                     -1690.173 3        23.733
C27        52.000                                                                                                                                    24883485.488 5 129575100.97105      1801.890 5        30.725                                                                    24883489.791 5 105290231.07205      1464.266 5        35.871
C23        55.000                                                                                                                                    26587768.903 4                     -4100.304 4        24.376
I06        58.000    38725798.253 6 151968512.91806      -572.502 6        38.775
I01        59.000   367364561.176 4 138476653.53604     -1873.286 4        25.985
> 2025 01 01 19 47  0.0000000  0 39
G18         1.000    22669802.269 7 119130834.09507     -3569.893 7        46.216                                    22669795.573 4  92829087.11504     -2781.719 4        24.872    22669797.088 6  92829107.13006     -2781.597 6        38.051
G10         2.000    21748815.359 6 114290788.38706      1511.581 6        40.491                                    21748817.311 5  89057739.42505      1177.852 5        33.060    21748814.859 6  89057782.42006      1177.783 6        40.665
G07         3.000    25197256.974 5 132412457.23005     -1084.547 5        30.106                                    25197253.884 2 103178462.27002      -845.099 2        14.619    25197249.815 4                      -844.772 4        26.048
G23         4.000    20937619.874 6 110027897.26306     -1141.223 6        38.462                                    20937613.399 4  85735987.85704      -889.281 4        25.308    20937614.123 7  85736066.86207      -889.188 7        46.373
G08         6.000    22556777.211 6 118536695.48106      2082.902 6        40.269                                    22556783.458 2  92366271.80202      1622.993 2        14.000    22556773.491 4                      1622.917 4        28.445
G27         7.000    20456937.963 8 107502419.52808       455.646 8        48.764                                    20456942.486 6  83767765.15806       355.055 6        37.134    20456946.908 4  83767760.13704       354.595 4        29.867
E15        10.000                                                                                                                                    26744922.632 4 104952827.06204     -2497.906 4        24.331    26744926.544 5                     -2562.382 5        33.066
E27        15.000    27753642.580 3                     -4074.843 3        23.962                                                                                                                                    27753635.603 4                     -3122.230 4        26.455
E13        16.000    23464098.077 6 123304757.98106     -1566.557 6        41.304                                                                    23464099.324 8  92078225.72908     -1169.753 8        48.441    23464098.961 8  94480220.57508     -1200.252 8        50.641
E31        17.000    28551287.702 3 150038178.16603      1996.822 3        23.352                                                                    28551303.254 4 112041453.71404      1490.555 4        26.072    28551289.065 5 114964182.36605      1529.599 5        34.671
G16        18.000    21217260.432 7 111497456.84907     -2891.500 7        42.334                                    21217252.634 4  86881036.30604     -2253.121 4        28.521
E26        19.000    24747299.615 6 130047923.95006       899.496 6        40.868                                                                    24747295.736 7  97113772.12807       671.672 7        43.407    24747294.389 7  99647165.73207       689.235 7        43.617
E21        22.000    24464165.716 4 128560148.63804     -2653.513 4        27.820                                                                    24464163.498 7  96002641.27007     -1981.025 7        42.248    24464164.102 7  98507084.54407     -2032.639 7        44.483
S36        23.000    38282447.961 6 201175475.09206      -851.124 6        36.439
S23        24.000    38237802.266 6 200940982.21406      -851.737 6        41.213
G26        25.000    23124826.826 5 121521474.23305     -4239.703 5        30.008                                    23124778.293 1  94692030.64201     -3303.568 1         5.143    23124749.397 4                     -3303.818 4        28.815
R20        26.000    22665720.498 3                      2155.615 3        23.429
R02        27.000    22843865.414 5 121899366.64915     -3105.678 5        30.604                                                                    22843892.564 3                     -2414.643 3        22.190
R19        29.000    19680518.008 6 105277512.20906      -957.199 6        40.381                                                                    19680516.437 7  81882517.47807      -744.582 7        42.216
R18        30.000    20989552.513 7 112043647.09707     -3305.173 7        47.726                                                                    20989551.999 7  87145060.23107     -2570.660 7        43.945
R04        31.000    22749046.968 4 121820156.17004      3253.176 4        27.257                                                                    22749062.991 3                      2529.174 3        21.310
R03        32.000    21293958.883 7 113988189.95407       563.455 7        47.028                                                                    21293957.771 6  88657578.75506       438.135 6        36.688
R16        33.000    23340258.100 4                     -5385.082 4        29.725                                                                    23340277.652 4                     -4188.616 4        28.275
R09        34.000    20753325.324 7 110821987.62107     -2916.903 7        44.060                                                                    20753313.070 6  86194526.21106     -2268.672 6        40.048
R10        35.000    21507881.778 7 114649114.64707       522.852 7        43.797
C33        37.000                                                                                                                                    24589546.242 5 128044320.93805      2082.565 5        32.605                                                                    24589562.952 6 104046523.66706      1692.253 6        41.621
C28        40.000                                                                                                                                    21928173.341 7 114186022.70707       253.182 7        44.977                                                                    21928172.580 7  92785318.34807       205.738 7        43.570
C21        41.000                                                                                                                                                                                                                                                                    26364240.514 4                     -2538.691 4        26.659
C43        42.000                                                                                                                                    23078877.128 6 120177863.98706     -2826.631 6        41.197                                                                    23078887.711 4  97654430.07704     -2296.963 4        29.602
C11        44.000                                                                                                                                    24854204.322 3                     -3377.675 3        23.314    24854186.629 4 100077640.68604     -2611.397 4        28.237    24854186.906 5 105166216.61405     -2743.970 5        34.171
C13        45.000                                                                                                                                    38264141.910 5 199251421.14205     -1678.504 5        34.843    38264138.999 5 154073821.77805     -1297.758 5        33.772    38264139.284 5 161908169.61705     -1363.923 5        34.081
C08        46.000                                                                                                                                    38668882.519 4                     -1936.437 4        28.237    38668873.710 5 155703583.87705     -1497.392 5        33.491    38668870.802 5 163620649.56005     -1573.573 5        33.210
C14        47.000                                                                                                                                    23732595.967 5 123581783.33805       931.011 5        35.443    23732579.949 7  95561325.30207       720.040 7        44.054    23732578.005 7 100420399.81707       756.710 7        44.954
C42        48.000                                                                                                                                    23889658.137 8 124399871.74308      -638.110 8        49.343                                                                    23889666.079 7 101085026.33307      -518.491 7        44.491
C38        50.000                                                                                                                                    40106367.695 4                     -2079.021 4        29.299                                                                    40106374.511 3                     -1689.120 3        23.429
C27        52.000                                                                                                                                    24881754.127 5 129566092.43005      1801.759 5        32.449                                                                    24881759.454 5 105282910.82005      1464.071 5        35.171
C23        55.000                                                                                                                                    26591710.482 4                     -4099.168 4        24.812
I06        58.000    38726527.428 6 151971375.30506      -572.527 6        38.886
I01        59.000   367366946.536 4 138486018.65804     -1872.614 4        25.729
> 2025 01 01 19 47  5.0000000  0 41
G18         1.000    22673199.745 7 119148686.53407     -3570.800 7        46.552                                    22673193.183 4  92842998.10204     -2782.450 4        25.699    22673194.804 6  92843018.12206     -2782.450 6        38.661
G10         2.000    21747378.830 6 114283237.59206      1509.111 6        41.990                                    21747377.726 5  89051855.71205      1175.927 5        34.943    21747377.542 6  89051898.70806      1176.010 6        39.850
G07         3.000    25198292.574 5 132417887.17705     -1087.187 5        32.245                                    25198287.250 2 103182693.39002      -847.138 2        14.381    25198283.431 4                      -847.289 4        27.377
G23         4.000    20938708.450 6 110033612.06606     -1144.437 6        41.116                                    20938701.273 4  85740440.94404      -891.759 4        26.084    20938700.972 7  85740519.94807      -891.731 7        46.225
G15         5.000    23729029.050 4                      -960.248 4        24.436
G08         6.000    22554796.426 6 118526284.03206      2081.841 6        41.070                                    22554799.529 2  92358159.07502      1622.204 2        14.952    22554794.959 4                      1622.117 4        29.754
G27         7.000    20456505.685 8 107500147.83008       453.434 8        48.676                                    20456510.625 5  83765994.97405       353.331 5        35.133    20456514.444 5  83765989.95305       352.730 5        30.340
E15        10.000    26748140.734 4                     -3344.679 4        25.594                                                                    26748105.253 4 104965313.68604     -2497.972 4        24.241    26748108.099 5 107703547.26315     -2562.452 5        33.311
E27        15.000    27757517.219 4                     -4074.912 4        24.466                                                                                                                                    27757511.579 4                     -3122.648 4        27.054
E13        16.000    23465589.184 6 123312594.32206     -1567.705 6        40.539                                                                    23465590.725 8  92084077.55508     -1170.683 8        48.326    23465590.244 8  94486225.05908     -1201.229 8        50.782
E31        17.000    28549384.065 3                      1994.831 3        22.324                                                                    28549403.670 4 112034001.49204      1490.426 4        25.564    28549390.127 5 114956535.71605      1528.921 5        34.667
G16        18.000    21220013.010 7 111511922.47307     -2894.337 7        43.670                                    21220005.262 4  86892308.21604     -2255.326 4        29.147
E26        19.000    24746443.825 6 130043430.36706       898.345 6        41.423                                                                    24746440.415 7  97110416.52007       670.858 7        43.037    24746439.483 7  99643722.59507       688.325 7        43.827
E21        22.000    24466690.300 4 128573418.45904     -2655.001 4        27.545                                                                    24466688.875 7  96012550.54907     -1982.494 7        42.667    24466689.379 7  98517252.33407     -2034.146 7        44.891
S36        23.000    38283255.889 6 201179731.77806      -851.283 6        36.446
S23        24.000    38238612.131 6 200945241.64706      -851.657 6        41.135
G26        25.000                                                                                                                                                                    23128785.752 5                     -3304.456 5        30.981
R20        26.000    22663710.562 3                      2156.063 3        21.690
R02        27.000    22846780.690 4 121914904.20204     -3109.474 4        26.719
R19        29.000    19681413.074 6 105282304.40206      -959.179 6        39.559                                                                    19681412.122 7  81886244.73107      -746.134 7        42.313
R18        30.000    20992649.124 7 112060176.61507     -3306.262 7        47.604                                                                    20992648.562 7  87157916.52507     -2571.577 7        43.276
R04        31.000    22746009.549 5 121803897.91605      3251.220 5        32.042
R03        32.000    21293434.912 7 113985384.19407       559.230 7        46.320                                                                    21293435.103 6  88655396.48606       435.019 6        37.928
R16        33.000    23345303.990 5                     -5385.407 5        30.332                                                                    23345309.453 4                     -4188.226 4        27.174
R09        34.000    20756056.171 6 110836582.97006     -2920.950 6        41.035                                                                    20756046.988 6  86205878.14406     -2271.711 6        40.093
R10        35.000    21507392.645 6 114646511.84906       518.617 6        41.995
C37        36.000                                                                                                                                    24547470.772 5 127824972.19505     -2948.044 5        35.167                                                                    24547520.364 4                     -2395.430 4        25.549
C33        37.000                                                                                                                                                                                                                                                                    24587564.149 7 104038065.44707      1691.214 7        42.182
C28        40.000                                                                                                                                    21927931.764 7 114184760.69007       251.899 7        45.977                                                                    21927930.203 7  92784292.87607       204.548 7        43.494
C21        41.000                                                                                                                                                                                                                                                                    26367247.850 4                     -2539.390 4        25.910
C43        42.000                                                                                                                                    23081592.091 6 120192000.71406     -2827.598 6        41.828                                                                    23081603.274 4  97665917.28504     -2297.637 4        28.483
C11        44.000                                                                                                                                                                                                    24857429.103 4 100090698.78204     -2612.256 4        27.126    24857428.472 5 105179938.65905     -2744.801 5        33.204
C13        45.000                                                                                                                                    38265753.050 5 199259814.84605     -1678.617 5        35.324    38265750.830 5 154080312.34105     -1298.424 5        34.152    38265751.240 5 161914990.16205     -1363.744 5        33.365
C08        46.000                                                                                                                                    38670742.235 4                     -1936.891 4        28.626    38670733.926 5 155711072.46405     -1497.874 5        33.922    38670730.890 5 163628518.90005     -1574.048 5        32.874
C14        47.000                                                                                                                                    23731696.275 5 123577134.25505       928.796 5        35.233    23731687.965 7  95557730.36407       718.192 7        45.877    23731685.248 7 100416622.08707       754.628 7        44.828
C42        48.000                                                                                                                                    23890271.846 8 124403070.24908      -640.960 8        49.238                                                                    23890280.520 7 101087625.38907      -520.936 7        44.933
C38        50.000                                                                                                                                    40108362.696 4                     -2079.121 4        29.242                                                                    40108371.001 3                     -1689.338 3        23.429
C27        52.000                                                                                                                                                                                                                                                                    24880029.539 5 105275592.37205      1463.619 5        35.024
C23        55.000                                                                                                                                    26595650.956 4                     -4099.616 4        24.466
I06        58.000    38727256.487 6 151974237.55906      -572.206 6        38.619
I01        59.000   367369334.105 4 138495385.16404     -1873.165 4        26.096
> 2025 01 01 19 47 10.0000000  0 39
G18         1.000    22676597.835 7 119166543.76007     -3571.903 7        46.807                                    22676591.724 4  92856912.82304     -2783.304 4        26.455    22676593.394 6  92856932.85006     -2783.264 6        39.438
G10         2.000    21745944.560 7 114275698.72807      1506.587 7        42.961                                    21745941.007 6  89045981.28706      1173.962 6        36.144    21745942.848 6  89046024.28106      1173.948 6        39.420
G07         3.000    25199330.032 5 132423330.35305     -1090.054 5        34.548                                    25199323.092 2 103186934.78402      -849.408 2        14.714    25199322.851 4                      -849.443 4        29.346
G23         4.000    20939799.161 6 110039343.35406     -1147.815 6        40.939                                    20939792.099 4  85744906.87004      -894.396 4        26.060    20939790.929 7  85744985.88507      -894.452 7        45.872
G08         6.000    22552817.003 6 118515877.79606      2080.795 6        41.375                                    22552816.556 2  92350050.34302      1621.379 2        17.924    22552817.460 5                      1621.310 5        30.845
G27         7.000    20456075.754 8 107497887.56408       450.985 8        48.146                                    20456081.595 5  83764233.69105       351.428 5        32.234    20456083.045 4  83764228.57104       351.495 4        28.512
E15        10.000    26751324.753 4                     -3344.037 4        26.407                                                                    26751289.221 4 104977800.98304     -2497.719 4        25.489    26751288.289 5 107716360.32405     -2562.602 5        34.157
E27        15.000    27761392.005 4                     -4075.481 4        24.180                                                                                                                                    27761390.009 4                     -3122.042 4        27.317
E13        16.000    23467081.671 6 123320436.99506     -1569.038 6        39.730                                                                    23467083.311 8  92089934.10108     -1171.747 8        48.554    23467082.809 8  94492234.38908     -1202.302 8        51.055
E31        17.000    28547486.067 3                      1993.096 3        21.190                                                                    28547505.279 4 112026551.72204      1489.819 4        26.216    28547491.732 5 114948891.59305      1528.647 5        34.052
G16        18.000    21222768.284 7 111526402.39207     -2897.344 7        44.503                                    21222760.649 4  86903591.27304     -2257.672 4        29.744
E26        19.000    24745589.084 6 130038942.48706       897.114 6        41.518                                                                    24745586.285 7  97107065.18107       669.883 7        43.062    24745585.750 7  99640283.82807       687.354 7        44.087
E21        22.000    24469218.873 4 128586698.19904     -2657.370 4        27.952                                                                    24469216.138 7  96022467.17507     -1984.018 7        43.236    24469216.525 7  98527427.66007     -2035.768 7        45.478
S36        23.000    38284065.347 6 201183988.09606      -851.420 6        36.529
S23        24.000    38239421.150 6 200949500.92706      -851.716 6        41.092
G26        25.000                                                                                                                                                                    23132823.847 5                     -3305.398 5        31.472
R20        26.000    22661695.161 4                      2152.743 4        27.677                                                                    22661683.946 4                      1674.517 4        25.895
R02        27.000    22849691.146 3                     -3114.748 3        22.000
R19        29.000    19682310.906 6 105287106.92806      -961.446 6        39.033                                                                    19682309.704 7  81889980.04107      -747.834 7        42.542
R18        30.000    20995746.178 7 112076711.86907     -3307.544 7        46.669                                                                    20995745.791 7  87170777.26607     -2572.561 7        42.370
R04        31.000    22742978.768 5 121787646.08205      3249.720 5        34.124
R03        32.000    21292912.209 7 113982599.49107       554.968 7        45.454                                                                    21292915.121 6  88653230.64706       431.550 6        37.372
R16        33.000    23350345.794 5                     -5386.183 5        30.438                                                                    23350347.983 4                     -4188.845 4        28.066
R09        34.000                                                                                                                                    20758782.708 6  86217245.41406     -2274.924 6        39.586
R10        35.000    21506908.175 6 114643930.65306       514.100 6        40.224
C37        36.000                                                                                                                                    24550302.170 6 127839719.41006     -2950.426 6        36.586                                                                    24550349.895 4                     -2397.446 4        24.782
C33        37.000                                                                                                                                    24585570.235 5 128023509.72805      2079.878 5        35.333                                                                    24585566.488 7 104029612.73307      1690.125 7        42.318
C28        40.000                                                                                                                                    21927691.249 7 114183505.26707       250.508 7        46.595                                                                    21927689.177 7  92783272.75007       203.569 7        43.627
C43        42.000                                                                                                                                    23084307.695 7 120206142.52607     -2828.716 7        42.921                                                                    23084321.897 4  97677408.69104     -2299.106 4        25.985
C11        44.000                                                                                                                                                                                                                                                                    24860669.586 5 105193662.62105     -2745.149 5        32.018
C13        45.000                                                                                                                                    38267365.676 6 199268210.69106     -1679.266 6        36.170    38267363.610 5 154086804.53505     -1298.581 5        34.667    38267363.372 5 161921812.52005     -1364.679 5        33.587
C08        46.000                                                                                                                                    38672601.326 4                     -1937.644 4        29.763    38672594.299 5 155718562.48805     -1498.306 5        34.262    38672590.899 5 163636389.75605     -1574.410 5        33.036
C14        47.000                                                                                                                                    23730800.382 6 123572497.35006       926.347 6        36.219    23730797.972 7  95554144.86307       716.197 7        47.301    23730794.749 7 100412854.26507       752.581 7        44.786
C42        48.000                                                                                                                                    23890888.786 8 124406283.39908      -644.005 8        49.281                                                                    23890897.258 7 101090236.32807      -523.308 7        45.422
C38        50.000                                                                                                                                    40110356.861 4                     -2079.430 4        29.460                                                                    40110367.415 4                     -1688.847 4        24.045
C27        52.000                                                                                                                                    24878316.674 6 129548081.66806      1800.692 6        37.841                                                                    24878301.212 5 105268275.56305      1463.289 5        35.257
C23        55.000                                                                                                                                    26599592.043 4                     -4100.183 4        24.767
I06        58.000    38727986.559 6 151977099.64206      -572.380 6        38.937
I01        59.000   367371722.913 4 138504752.96704     -1873.721 4        25.895
> 2025 01 01 19 47 15.0000000  0 40
G18         1.000    22679996.440 7 119184405.62307     -3572.959 7        47.091                                    22679991.176 4  92870831.16804     -2784.129 4        27.210    22679991.719 6  92870851.19606     -2784.123 6        39.931
G10         2.000    21744512.143 7 114268171.65307      1504.021 7        43.221                                    21744507.021 6  89040116.04506      1171.960 6        36.968    21744510.353 6  89040159.04006      1172.063 6        39.342
G07         3.000    25200366.950 5 132428786.55405     -1092.616 5        35.333                                    25200361.389 2 103191186.38602      -851.352 2        15.238    25200360.857 4                      -851.401 4        27.976
G23         4.000    20940891.214 6 110045090.99206     -1151.206 6        39.204                                    20940885.898 4  85749385.56304      -897.046 4        26.096    20940884.940 7  85749464.57107      -897.213 7        45.252
G08         6.000    22550837.465 6 118505476.65906      2079.544 6        41.137                                    22550834.867 3  92341945.54603      1620.413 3        20.167    22550835.775 5                      1620.657 5        30.709
G27         7.000    20455647.380 7 107495638.62607       448.391 7        46.891                                    20455655.079 4  83762481.18904       349.408 4        29.052    20455650.008 4  83762475.97104       349.301 4        28.019
E15        10.000    26754510.073 4                     -3344.926 4        25.985                                                                    26754472.540 4 104990288.95204     -2497.787 4        25.414    26754470.376 5 107729174.03505     -2563.048 5        34.200
E27        15.000    27765270.315 4                     -4075.408 4        24.677                                                                                                                                    27765268.780 4                     -3123.062 4        27.293
E13        16.000    23468575.060 6 123328285.89006     -1570.550 6        39.363                                                                    23468576.999 8  92095795.28108     -1172.798 8        48.633    23468576.581 8  94498248.47908     -1203.420 8        51.252
E31        17.000                                                                                                                                    28545606.623 4 112019104.42204      1488.943 4        25.789    28545593.973 5 114941250.04905      1527.870 5        33.635
G16        18.000    21225525.854 7 111540896.50807     -2900.417 7        44.701                                    21225518.969 5  86914885.38305     -2260.067 5        30.272
E26        19.000    24744736.407 6 130034460.18206       895.654 6        41.120                                                                    24744733.289 7  97103718.01707       668.871 7        42.775    24744733.103 7  99636849.35007       686.319 7        44.218
E21        22.000    24471750.881 5 128599987.57705     -2659.087 5        31.525                                                                    24471745.281 7  96032391.07107     -1985.712 7        43.928    24471745.500 7  98537610.44207     -2037.418 7        45.908
S36        23.000    38284875.614 6 201188244.40706      -851.119 6        36.665
S23        24.000    38240233.241 6 200953759.89706      -851.907 6        41.137
G26        25.000                                                                                                                                                                    23136863.399 5                     -3306.396 5        31.872
R20        26.000    22659688.681 4                      2152.134 4        28.692
R02        27.000    22852611.781 3                     -3119.259 3        21.238
R19        29.000    19683210.070 6 105291919.64306      -963.791 6        38.964                                                                    19683209.991 7  81893723.27907      -749.542 7        42.751
R18        30.000    20998844.481 7 112093252.67407     -3308.870 7        45.547                                                                    20998844.226 7  87183642.34507     -2573.632 7        42.068
R04        31.000    22739947.364 5 121771400.48705      3248.240 5        32.425                                                                    22739927.511 3                      2528.104 3        21.810
R03        32.000    21292395.312 7 113979835.82807       550.346 7        44.864                                                                    21292394.572 6  88651081.15706       427.951 6        36.231
R16        33.000    23355388.961 5                     -5386.676 5        30.913                                                                    23355391.938 4                     -4189.292 4        28.863
R09        34.000    20761523.549 5 110865832.71305     -2929.354 5        35.224                                                                    20761523.748 6  86228627.94206     -2278.173 6        40.644
R10        35.000    21506428.835 6 114641370.83306       509.797 6        39.706
C37        36.000                                                                                                                                    24553131.748 5 127854476.10805     -2952.504 5        35.343                                                                    24553187.730 3                     -2398.796 3        22.838
C33        37.000                                                                                                                                    24583571.477 6 128013114.16806      2078.261 6        36.578                                                                    24583569.945 7 104021165.44507      1688.813 7        42.313
C28        40.000                                                                                                                                    21927451.175 7 114182256.35707       248.944 7        47.178                                                                    21927449.275 7  92782257.91407       202.350 7        43.242
C21        41.000                                                                                                                                    26373329.667 3                     -3130.175 3        23.333                                                                    26373277.605 3                     -2543.978 3        22.629
C43        42.000                                                                                                                                    23087024.783 7 120220289.34307     -2829.984 7        44.271
C11        44.000                                                                                                                                                                                                    24863914.241 4 100116820.25704     -2612.040 4        26.000    24863912.902 5 105207388.37205     -2745.288 5        30.694
C13        45.000                                                                                                                                    38268978.574 6 199276608.47606     -1679.750 6        36.567    38268976.262 5 154093298.23505     -1298.911 5        34.519    38268975.993 5 161928636.40905     -1365.233 5        33.737
C08        46.000                                                                                                                                    38674461.177 5                     -1937.974 5        30.460    38674454.130 5 155726053.90305     -1498.613 5        34.419    38674451.123 5 163644262.11205     -1575.067 5        32.707
C14        47.000                                                                                                                                    23729912.835 6 123567872.54806       923.513 6        37.032    23729909.629 8  95550568.70208       714.144 8        48.200    23729906.318 7 100409096.25207       750.545 7        44.402
C42        48.000                                                                                                                                    23891508.675 8 124409511.08908      -647.149 8        49.263                                                                    23891516.719 7 101092859.08607      -525.779 7        45.470
C38        50.000                                                                                                                                    40112354.987 5                     -2079.803 5        30.158                                                                    40112364.701 4                     -1691.236 4        24.165
C27        52.000                                                                                                                                    24876589.204 6 129539079.26506      1800.044 6        39.090                                                                    24876573.217 5 105260960.34205      1462.730 5        34.843
C23        55.000                                                                                                                                    26603531.918 4                     -4098.603 4        24.436
I06        58.000    38728715.166 6 151979961.48606      -572.495 6        38.898
I01        59.000   367374111.277 4 138514121.93604     -1874.358 4        26.671
> 2025 01 01 19 47 20.0000000  0 38
G18         1.000    22683396.739 7 119202272.42307     -3573.772 7        47.381                                    22683391.523 4  92884753.35204     -2784.758 4        27.641    22683391.377 6  92884773.36406     -2784.754 6        39.712
G10         2.000    21743082.092 7 114260656.68807      1501.954 7        44.041                                    21743075.811 6  89034260.24406      1170.351 6        37.800    21743080.580 6  89034303.24806      1170.226 6        39.916
G07         3.000    25201407.209 5 132434256.08605     -1094.973 5        35.914                                    25201402.025 2 103195448.37402      -853.237 2        16.264    25201397.903 4                      -853.475 4        26.647
G23         4.000    20941986.669 5 110050855.26705     -1154.396 5        35.433                                    20941982.501 4  85753877.20704      -899.526 4        25.083    20941981.583 7  85753956.23807      -899.570 7        44.313
G08         6.000    22548857.308 6 118495080.90406      2078.857 6        40.107                                    22548855.271 3  92333844.95403      1619.901 3        21.429    22548858.428 4                      1619.932 4        29.772
G27         7.000    20455221.350 7 107493401.31907       446.398 7        45.798                                    20455228.405 4  83760737.71804       347.867 4        27.437    20455218.101 5  83760732.54705       347.863 5        32.018
E15        10.000    26757695.304 4                     -3345.105 4        25.053                                                                    26757655.517 4 105002777.75804     -2497.902 4        26.719    26757652.676 5 107741988.56505     -2562.837 5        33.778
E27        15.000    27769148.593 4                     -4075.247 4        25.549                                                                                                                                    27769145.703 4                     -3122.745 4        27.737
E13        16.000    23470070.196 6 123336141.28806     -1571.540 6        38.592                                                                    23470071.970 8  92101661.33208     -1173.603 8        48.935    23470071.547 8  94504267.56308     -1204.196 8        51.399
E31        17.000                                                                                                                                    28543709.300 4 112011659.65104      1488.706 4        26.371    28543696.896 5 114933611.10005      1527.691 5        33.269
G16        18.000    21228286.689 7 111555405.07507     -2903.079 7        44.597                                    21228280.062 5  86926190.75805     -2262.137 5        30.521
E26        19.000    24743885.653 6 130029983.77106       894.775 6        41.418                                                                    24743881.700 7  97100375.25107       668.210 7        42.973    24743881.442 7  99633419.38207       685.608 7        44.412
E21        22.000    24474283.053 5 128613287.03905     -2660.858 5        34.814                                                                    24474276.130 7  96042322.43207     -1986.964 7        44.330    24474276.331 7  98547800.88907     -2038.785 7        46.222
S36        23.000    38285683.967 6 201192500.73606      -851.118 6        36.805
S23        24.000    38241042.833 6 200958018.93406      -851.615 6        41.244
G26        25.000    23140882.034 5 121606311.85105     -4243.999 5        34.014                                    23140922.349 1  94758137.89301     -3307.094 1         5.429    23140902.356 5                     -3307.050 5        31.079
R20        26.000    22657680.310 4                      2151.047 4        27.748                                                                    22657646.210 5                      1673.360 5        33.892
R19        29.000    19684111.734 6 105296742.77506      -965.508 6        38.736                                                                    19684110.442 7  81897474.60207      -750.998 7        42.500
R18        30.000    21001943.502 7 112109799.35707     -3309.721 7        44.789                                                                    21001944.349 6  87196511.99106     -2574.312 6        41.957
R04        31.000    22736917.399 5 121755161.26305      3247.563 5        30.030
R03        32.000    21291882.548 7 113977093.40107       546.527 7        44.260                                                                    21291879.473 5  88648948.17805       425.044 5        35.862
R16        33.000    23360432.697 5                     -5386.890 5        31.796                                                                    23360435.883 4                     -4189.964 4        29.810
R09        34.000    20764271.387 6 110880487.31806     -2932.574 6        36.934                                                                    20764268.835 6  86240025.99406     -2281.111 6        41.979
R10        35.000    21505953.692 6 114638832.70806       505.608 6        40.856
C37        36.000                                                                                                                                    24555958.758 5 127869242.49905     -2954.346 5        35.771
C33        37.000                                                                                                                                    24581568.929 6 128002725.58606      2077.078 6        37.690                                                                    24581574.700 6 104012723.84806      1687.612 6        41.735
C28        40.000                                                                                                                                    21927212.784 7 114181014.20407       247.843 7        47.749                                                                    21927210.733 7  92781248.57707       201.205 7        42.982
C21        41.000                                                                                                                                    26376328.400 3                     -3132.041 3        23.371                                                                    26376281.436 3                     -2542.024 3        20.690
C43        42.000                                                                                                                                    23089742.548 7 120234441.46407     -2830.804 7        44.804                                                                    23089786.920 4  97700403.78004     -2300.495 4        28.597
C11        44.000                                                                                                                                                                                                    24867159.704 4 100129883.92404     -2612.898 4        28.559    24867156.013 4 105221116.27504     -2745.825 4        28.531
C13        45.000                                                                                                                                    38270591.100 6 199285008.69906     -1680.089 6        36.843    38270589.959 5 154099793.80805     -1298.887 5        34.281    38270589.311 5 161935462.27305     -1365.528 5        33.629
C08        46.000                                                                                                                                    38676322.816 5                     -1938.228 5        31.102    38676315.364 5 155733546.90805     -1498.563 5        34.367    38676312.201 5 163652136.09305     -1575.026 5        32.138
C14        47.000                                                                                                                                    23729027.891 6 123563260.10306       921.343 6        38.327    23729023.385 8  95547002.10208       712.474 8        48.446    23729020.143 7 100405348.29107       748.552 7        43.740
C42        48.000                                                                                                                                    23892131.290 8 124412753.59808      -649.853 8        48.693                                                                    23892138.920 7 101095493.88507      -528.253 7        45.183
C38        50.000                                                                                                                                    40114353.606 4                     -2079.849 4        28.910                                                                    40114361.844 4                     -1691.188 4        24.075
C27        52.000                                                                                                                                    24874854.819 6 129530079.04406      1799.877 6        39.790                                                                    24874844.982 5 105253646.96005      1462.403 5        34.867
I06        58.000    38729445.186 6 151982823.28806      -572.352 6        38.706
I01        59.000   367376497.343 4 138523492.40404     -1873.874 4        27.653
> 2025 01 01 19 47 25.0000000  0 40
G18         1.000    22686797.388 7 119220143.64507     -3575.024 7        47.953                                    22686792.604 4  92898678.98504     -2785.737 4        27.940    22686792.353 6  92898698.99106     -2785.571 6        39.688
G10         2.000    21741654.418 7 114253153.34307      1499.219 7        44.424                                    21741647.270 6  89028413.49606      1168.221 6        38.357    21741652.511 6  89028456.48906      1168.284 6        40.677
G07         3.000    25202451.575 6 132439738.43906     -1098.099 6        36.253                                    25202445.085 2 103199720.35502      -855.656 2        16.528    25202440.202 4                      -855.313 4        25.564
G23         4.000    20943087.458 5 110056635.68805     -1158.084 5        30.445                                    20943081.961 3  85758381.46503      -902.388 3        23.467    20943081.951 7  85758460.48407      -902.262 7        44.134
G08         6.000    22546879.490 6 118484690.06706      2077.359 6        38.754                                    22546877.146 3  92325748.18203      1618.727 3        21.500    22546876.587 4                      1618.671 4        26.311
G27         7.000    20454797.612 7 107491175.12707       443.759 7        44.831                                    20454802.269 4  83759002.93404       345.790 4        28.938    20454795.738 5  83758997.84905       345.730 5        34.000
E15        10.000    26760882.757 4                     -3344.353 4        24.466                                                                    26760839.255 4 105015266.97604     -2498.260 4        27.281    26760835.059 5 107754803.57005     -2563.307 5        34.043
E27        15.000    27773026.675 4                     -4075.521 4        26.635                                                                                                                                    27773024.210 4                     -3123.423 4        27.222
E13        16.000    23471566.975 6 123344002.68606     -1573.357 6        38.790                                                                    23471568.060 8  92107531.85108     -1174.799 8        49.349    23471567.638 8  94510291.23008     -1205.432 8        51.598
E31        17.000                                                                                                                                    28541812.472 4 112004217.30204      1487.879 4        26.599    28541800.840 5 114925974.57505      1526.802 5        33.317
G16        18.000    21231050.322 7 111569927.58707     -2906.195 7        44.903                                    21231043.923 5  86937507.00105     -2264.565 5        30.649
E26        19.000    24743034.908 7 130025512.74607       893.322 7        42.413                                                                    24743031.150 7  97097036.50407       667.109 7        43.029    24743030.973 7  99629993.53907       684.442 7        44.828
E21        22.000    24476817.026 6 128626595.94006     -2663.059 6        37.599                                                                    24476808.997 7  96052260.88407     -1988.644 7        44.761    24476808.858 7  98557998.60607     -2040.507 7        46.495
S36        23.000    38286496.013 6 201196756.15006      -851.228 6        36.499
S23        24.000    38241854.044 6 200962277.75306      -852.025 6        40.944
G26        25.000    23144930.073 5 121627534.76605     -4245.487 5        34.757                                    23144960.725 1  94774675.21501     -3308.138 1         7.125    23144939.547 5                     -3307.925 5        30.189
R20        26.000    22655663.295 3                      2150.395 3        21.024                                                                    22655635.575 6  94227671.85116      1672.263 6        36.147
R02        27.000                                                                                                                                    22858475.625 5                     -2430.008 5        32.287
R19        29.000    19685015.070 6 105301575.84706      -968.079 6        38.357                                                                    19685014.350 6  81901233.64806      -752.739 6        41.979
R18        30.000    21005044.097 7 112126351.38307     -3311.322 7        45.168                                                                    21005044.830 6  87209385.78606     -2575.486 6        41.518
R04        31.000    22733884.170 4 121738928.29604      3245.748 4        28.085
R03        32.000    21291373.728 7 113974371.82907       541.895 7        43.437                                                                    21291372.784 6  88646831.41006       421.610 6        36.083
R16        33.000    23365479.053 5                     -5387.394 5        32.150                                                                    23365479.556 5                     -4190.200 5        31.185
R09        34.000    20767019.164 5 110895161.25205     -2937.068 5        33.731                                                                    20767016.405 6  86251439.02106     -2284.310 6        41.509
R10        35.000    21505481.505 6 114636315.75906       501.025 6        40.021
C37        36.000                                                                                                                                    24558794.106 6 127884018.03906     -2956.217 6        37.130                                                                    24558884.873 3                     -2402.248 3        20.024
C33        37.000                                                                                                                                    24579572.621 6 127992343.49806      2075.478 6        38.213                                                                    24579580.626 6 104004287.53606      1686.497 6        41.571
C28        40.000                                                                                                                                    21926975.545 8 114179778.33108       246.214 8        48.095                                                                    21926973.243 7  92780244.35507       200.135 7        42.899
C21        41.000                                                                                                                                                                                                                                                                    26379286.053 3                     -2555.132 3        21.000
C43        42.000                                                                                                                                    23092460.352 7 120248598.36007     -2832.182 7        44.752                                                                    23092505.319 4  97711907.45304     -2301.363 4        29.194
C11        44.000                                                                                                                                                                                                                                                                    24870399.918 4 105234845.83604     -2746.390 4        27.892
C13        45.000                                                                                                                                    38272204.533 6 199293410.67306     -1680.802 6        36.957    38272204.200 5 154106290.78005     -1299.827 5        34.400    38272202.481 5 161942289.58005     -1365.862 5        33.563
C08        46.000                                                                                                                                    38678184.236 5                     -1938.539 5        31.374    38678176.832 5 155741041.16205     -1499.252 5        34.390    38678173.034 5 163660011.38305     -1575.163 5        31.668
C14        47.000                                                                                                                                    23728145.357 6 123558659.59006       918.491 6        39.504    23728139.866 8  95543444.71208       710.304 8        48.302    23728136.389 7 100401610.03907       746.467 7        43.464
C42        48.000                                                                                                                                    23892757.136 8 124416010.45308      -653.092 8        48.379                                                                    23892764.143 7 101098140.37007      -530.735 7        45.091
C38        50.000                                                                                                                                    40116353.351 4                     -2080.266 4        29.137                                                                    40116359.287 3                     -1690.325 3        22.952
C27        52.000                                                                                                                                    24873122.508 6 129521080.53606      1799.344 6        40.226                                                                    24873117.363 5 105246335.00105      1462.017 5        34.795
C23        55.000                                                                                                                                    26611421.260 3                     -4098.890 3        23.333
I06        58.000    38730174.340 6 151985684.64806      -572.366 6        38.616
I01        59.000   367378886.305 4 138532863.86404     -1874.410 4        28.938
