     3.04           OBSERVATION DATA    M                   RINEX VERSION / TYPE
ssrcrin-15.6.1x                         20250101 124500 UTC PGM / RUN BY / DATE 
(00000000023479385599111004) Septentrio proprietary         COMMENT             
ract                                                        MARKER NAME         
01                                                          MARKER NUMBER       
geodetic                                                    MARKER TYPE         
NFB                 CLIMERS@TUW                             OBSERVER / AGENCY   
3296359             SEPT ASTERX SB3 PROB4.14.4              REC # / TYPE / VERS 
Unknown             Unknown                                 ANT # / TYPE        
  4127446.5258  1206915.1049  4695543.1922                  APPROX POSITION XYZ 
        0.0000        0.0000        0.0000                  ANTENNA: DELTA H/E/N
G   23 X1  C1C L1C D1C S1C C1W S1W C2W L2W D2W S2W C2L L2L  SYS / # / OBS TYPES 
       D2L S2L C5Q L5Q D5Q S5Q C1L L1L D1L S1L              SYS / # / OBS TYPES 
E   21 X1  C1C L1C D1C S1C C6C L6C D6C S6C C5Q L5Q D5Q S5Q  SYS / # / OBS TYPES 
       C7Q L7Q D7Q S7Q C8Q L8Q D8Q S8Q                      SYS / # / OBS TYPES 
S    9 X1  C1C L1C D1C S1C C5I L5I D5I S5I                  SYS / # / OBS TYPES 
R   17 X1  C1C L1C D1C S1C C2P L2P D2P S2P C2C L2C D2C S2C  SYS / # / OBS TYPES 
       C3Q L3Q D3Q S3Q                                      SYS / # / OBS TYPES 
C   25 X1  C1P L1P D1P S1P C5P L5P D5P S5P C2I L2I D2I S2I  SYS / # / OBS TYPES 
       C7I L7I D7I S7I C6I L6I D6I S6I C7D L7D D7D S7D      SYS / # / OBS TYPES 
J   17 X1  C1C L1C D1C S1C C2L L2L D2L S2L C5Q L5Q D5Q S5Q  SYS / # / OBS TYPES 
       C1L L1L D1L S1L                                      SYS / # / OBS TYPES 
I    5 X1  C5A L5A D5A S5A                                  SYS / # / OBS TYPES 
SEPTENTRIO RECEIVERS OUTPUT ALIGNED CARRIER PHASES.         COMMENT             
NO FURTHER PHASE SHIFT APPLIED IN THE RINEX ENCODER.        COMMENT             
G L1C                                                       SYS / PHASE SHIFT   
G L2W                                                       SYS / PHASE SHIFT   
G L2L  0.00000                                              SYS / PHASE SHIFT   
G L5Q  0.00000                                              SYS / PHASE SHIFT   
G L1L  0.00000                                              SYS / PHASE SHIFT   
E L1C  0.00000                                              SYS / PHASE SHIFT   
E L6C  0.00000                                              SYS / PHASE SHIFT   
E L5Q  0.00000                                              SYS / PHASE SHIFT   
E L7Q  0.00000                                              SYS / PHASE SHIFT   
E L8Q  0.00000                                              SYS / PHASE SHIFT   
S L1C                                                       SYS / PHASE SHIFT   
S L5I                                                       SYS / PHASE SHIFT   
R L1C                                                       SYS / PHASE SHIFT   
R L2P  0.00000                                              SYS / PHASE SHIFT   
R L2C                                                       SYS / PHASE SHIFT   
R L3Q  0.00000                                              SYS / PHASE SHIFT   
C L1P  0.00000                                              SYS / PHASE SHIFT   
C L5P  0.00000                                              SYS / PHASE SHIFT   
C L2I                                                       SYS / PHASE SHIFT   
C L7I                                                       SYS / PHASE SHIFT   
C L6I                                                       SYS / PHASE SHIFT   
C L7D                                                       SYS / PHASE SHIFT   
J L1C                                                       SYS / PHASE SHIFT   
J L2L  0.00000                                              SYS / PHASE SHIFT   
J L5Q  0.00000                                              SYS / PHASE SHIFT   
J L1L  0.00000                                              SYS / PHASE SHIFT   
I L5A                                                       SYS / PHASE SHIFT   
  2025     1     1    12    45    0.0000000     GPS         TIME OF FIRST OBS   
 C1C    0.000 C2C    0.000 C2P    0.000                     GLONASS COD/PHS/BIS 
DBHZ                                                        SIGNAL STRENGTH UNIT
    18                                                      LEAP SECONDS        
 24 R01  1 R02 -4 R03  5 R04  6 R05  1 R06 -4 R07  5 R08  6 GLONASS SLOT / FRQ #
    R09 -2 R10 -7 R11  0 R12 -1 R13 -2 R14 -7 R15  0 R16 -1 GLONASS SLOT / FRQ #
    R17  4 R18 -3 R19  3 R20  2 R21  4 R22 -3 R23  3 R24  2 GLONASS SLOT / FRQ #
                                                            END OF HEADER       
> 2025 01 01 12 45  0.0000000  0 38
G19         1.000    22426248.331 5 117850770.03405     -3333.580 5        35.352                                    22426245.080 1  91831776.29401     -2597.658 1         7.500
G06         2.000    23369011.855 5                       541.152 5        34.152                                                                                                    23369021.906 4                       421.698 4        28.351
G25         3.000    21821467.955 7 114672628.85607      1824.537 7        42.844                                    21821476.258 5  89355239.25805      1421.717 5        34.429    21821473.157 6  89355396.26006      1421.653 6        38.384
G17         5.000    25457634.092 4                     -4264.054 4        24.421
G12         7.000    20354064.576 7 106961336.13107      -411.048 7        47.940                                    20354067.617 6  83346511.49106      -320.295 6        38.006    20354067.211 5  83346524.53005      -320.286 5        35.786
E30         9.000    23933436.798 7 125771095.85007      -167.444 7        45.774                                                                    23933445.378 8  93919998.46108      -124.994 8        49.561    23933443.286 7  96370089.49107      -128.288 7        47.325
G32        11.000    23414711.637 7 123045164.37507       794.607 7        47.848                                    23414721.378 6  95879394.40406       619.168 6        39.333    23414721.183 7  95879411.41507       619.132 7        42.135
E02        13.000    24574593.069 6 129140347.41906     -2533.524 6        40.079                                                                    24574598.569 6  96436054.94406     -1891.926 6        40.112    24574600.420 7  98951784.56007     -1941.224 7        43.570
E27        15.000    27076825.890 4 142289588.53204      1500.930 4        27.677                                                                    27076826.462 6 106255309.65806      1120.666 6        38.910    27076823.677 5 109027223.10105      1149.801 5        31.049
G24        16.000    20981193.016 8 110256910.38008     -2932.973 8        50.112                                    20981197.875 8  85914514.29708     -2285.434 8        48.564    20981198.060 7  85914471.30307     -2285.415 7        44.965
E08        17.000    26567690.731 6 139614143.02606     -3907.703 6        37.735                                                                    26567701.573 6 104257321.68706     -2918.138 6        37.550    26567702.043 6 106976999.73306     -2994.176 6        41.449
E07        18.000    24699485.734 5 129796742.58605     -1849.010 5        34.119                                                                    24699493.949 6  96926155.41606     -1380.571 6        37.153    24699493.854 7  99454633.60407     -1416.741 7        43.826
E36        19.000    26666738.707 4                       723.754 4        24.211                                                                    26666718.924 5 104645983.22305       540.502 5        30.317
R22        22.000    21660304.328 6 115624272.70506     -2523.675 6        36.949                                                                    21660310.963 5  89930054.22105     -1962.715 5        35.286
S36        23.000    38374056.804 5 201656950.84905      -839.647 5        34.676
S23        24.000    38312974.735 5 201336032.30005      -844.265 5        34.148
R04        25.000    21360961.893 7 114386903.07307     -1891.088 7        45.029                                                                    21360966.087 7  88967649.30507     -1470.775 7        43.757
E29        26.000    26654362.881 7 140069664.57407       945.143 7        45.606                                                                    26654377.831 7 104597589.81007       705.855 7        43.376    26654375.496 7 107326133.83907       724.174 7        43.371
R13        29.000    19854738.349 7 106023181.97607     -1857.761 7        47.274
R12        31.000    22658819.616 4 121039377.22304     -3906.238 4        28.351
C10        32.000                                                                                                                                    39361665.489 5 204966501.30505     -1520.486 5        30.951    39361660.241 6 158493076.42406     -1175.719 6        36.336    39361658.993 5 166552013.67905     -1235.315 5        34.500
R03        33.000    22618346.520 4 121077793.66204     -4771.020 4        25.008                                                                    22618392.491 5                     -3710.324 5        30.475
C24        34.000                                                                                                                                    21498407.961 8 111948052.37108      -486.111 8        52.859                                                                    21498408.538 8  90966851.74608      -395.030 8        48.307
R14        35.000    21084828.805 5 112394124.18805      1654.110 5        32.186                                                                    21084844.371 7  87417697.57107      1286.722 7        43.223
R23        36.000    20757577.443 5 111039089.58105      1209.493 5        30.891
C26        37.000                                                                                                                                    23536961.599 5                     -2984.834 5        32.862                                                                    23536947.010 6  99592521.84006     -2425.340 6        41.681
S21        38.000    38602018.101 5 202854948.89105      -839.370 5        34.171
C44        39.000                                                                                                                                    22959429.275 7 119555870.01107      1347.602 7        45.567                                                                    22959433.122 6  97148948.68606      1095.091 6        36.484
C35        40.000                                                                                                                                    23247651.017 7 121056606.17907     -1423.170 7        47.751                                                                    23247654.731 7  98368566.07607     -1156.393 7        42.991
R05        42.000                                                                                                                                    23026205.067 6  95735257.24206      1254.433 6        36.529
C12        43.000                                                                                                                                    24601102.881 5 128104409.01605      2390.088 5        32.976    24601109.813 6  99058516.85206      1848.104 6        39.429    24601108.813 6 104095396.67306      1941.951 6        38.979
C40        44.000                                                                                                                                    40851310.706 4                     -2039.784 4        26.263
C33        46.000                                                                                                                                    25734888.782 5 134008311.05105     -3459.225 5        35.286                                                                    25734910.498 6 108892815.20806     -2810.876 6        37.062
C14        48.000                                                                                                                                                                                                    26537079.897 3                     -3049.625 3        23.562
C41        50.000                                                                                                                                                                                                                                                                    25566772.688 3                     -1042.631 3        22.324
C07        53.000                                                                                                                                    40329830.440 4                     -1766.867 4        25.880    40329847.251 5                     -1365.898 5        30.143
I06        58.000    38613598.584 6 151528009.87706      -734.155 6        38.868
I02        60.000    37147078.087 6 145773113.06106      -777.564 6        41.347
> 2025 01 01 12 45  5.0000000  0 38
G19         1.000    22429421.086 5 117867444.40405     -3336.253 5        35.714                                    22429417.996 1  91844769.31101     -2599.685 1         7.625
G06         2.000    23368498.169 5 122802279.54715       538.245 5        32.048                                                                                                    23368517.650 4                       419.510 4        28.730
G25         3.000    21819732.707 7 114663510.16407      1822.911 7        43.740                                    21819741.241 5  89348133.80705      1420.447 5        34.438    21819738.703 6  89348290.83706      1420.295 6        38.099
G17         5.000    25461691.128 4                     -4264.653 4        24.150
G12         7.000    20354457.130 8 106963397.09308      -413.391 8        48.099                                    20354459.224 6  83348117.42906      -322.121 6        37.508    20354458.915 6  83348130.47006      -322.179 6        36.699
E30         9.000    23933596.944 7 125771936.01207      -168.616 7        45.490                                                                    23933605.295 8  93920625.85908      -125.952 8        49.698    23933603.207 7  96370733.25407      -129.243 7        47.334
G32        11.000    23413957.048 7 123041198.44707       791.695 7        47.994                                    23413967.301 6  95876304.09406       616.899 6        40.007    23413967.018 7  95876321.09707       616.865 7        42.273
E02        13.000    24577003.700 6 129153016.47806     -2534.178 6        40.698                                                                    24577009.551 6  96445515.60306     -1892.498 6        40.057    24577011.327 7  98961492.02707     -1941.793 7        44.087
E27        15.000    27075400.740 4 142282085.28604      1499.800 4        28.720                                                                    27075398.986 6 106249706.66106      1120.394 6        39.147    27075395.476 5 109021473.92005      1149.807 5        30.438
G24        16.000    20983984.899 8 110271581.45708     -2935.455 8        49.895                                    20983989.916 8  85925946.30208     -2287.366 8        48.842    20983990.171 7  85925903.30507     -2287.290 7        45.204
E08        17.000    26571409.768 6 139633683.55506     -3908.422 6        38.072                                                                    26571419.926 6 104271913.58406     -2918.706 6        37.747    26571420.374 6 106991972.30006     -2994.870 6        41.409
E07        18.000    24701245.756 5 129805993.36605     -1851.532 5        33.090                                                                    24701254.096 5  96933063.46105     -1382.537 5        35.710    24701254.315 7  99461721.86307     -1418.619 7        43.644
E36        19.000    26666045.574 4                       721.933 4        24.241                                                                    26666030.264 5 104643284.36505       538.860 5        30.392
R22        22.000    21662663.632 6 115636900.87106     -2527.823 6        36.416                                                                    21662676.380 5  89939876.05705     -1966.226 5        31.487
S36        23.000    38374858.392 5 201661150.35405      -839.833 5        34.690
S23        24.000    38313779.829 5 201340253.26105      -844.124 5        34.476
R04        25.000    21362730.855 7 114396369.82407     -1895.641 7        44.957                                                                    21362733.088 7  88975012.31107     -1474.416 7        42.356
E29        26.000    26653464.598 7 140064943.46307       943.255 7        45.710                                                                    26653479.423 7 104594064.36207       704.396 7        43.323    26653476.855 7 107322516.40907       722.749 7        43.266
R13        29.000    19856478.249 7 106032475.71207     -1859.784 7        46.489
R12        31.000    22662472.873 4 121058908.86504     -3906.693 4        28.626
C10        32.000                                                                                                                                    39363125.371 5 204974103.48405     -1520.167 5        30.898    39363121.162 6 158498954.92806     -1175.795 6        36.639    39363119.049 5 166558191.06605     -1235.517 5        34.548
R03        33.000    22622789.179 3                     -4771.776 3        23.200                                                                    22622842.417 5                     -3711.744 5        30.370
C24        34.000                                                                                                                                    21498875.795 8 111950487.07308      -487.739 8        53.122                                                                    21498875.988 7  90968830.15307      -396.473 7        47.713
R14        35.000    21083279.789 5 112385855.45605      1653.014 5        35.905                                                                    21083292.643 7  87411266.40207      1285.617 7        42.595
R23        36.000    20756451.720 4 111033050.54704      1205.703 4        29.251
C26        37.000                                                                                                                                                                                                                                                                    23539813.099 6  99604650.70706     -2426.219 6        40.987
S21        38.000    38602814.010 5 202859145.29905      -839.580 5        34.167
C44        39.000                                                                                                                                    22958136.752 7 119549137.77707      1345.335 7        45.437                                                                    22958140.394 6  97143478.26106      1093.005 6        37.558
C35        40.000                                                                                                                                    23249019.648 8 121063729.28408     -1426.127 8        48.500                                                                    23249022.746 7  98374354.19407     -1158.825 7        43.774
R05        42.000                                                                                                                                    23024700.176 6  95728992.18606      1251.529 6        36.178
C12        43.000                                                                                                                                    24598806.040 5 128092461.47205      2388.714 5        31.192    24598815.175 6  99049278.23006      1847.454 6        38.399    24598814.675 6 104085688.30106      1941.097 6        40.072
C40        44.000                                                                                                                                    40853270.288 4                     -2039.119 4        24.857
C33        46.000                                                                                                                                    25738210.597 5 134025609.95305     -3460.301 5        34.800                                                                    25738232.818 6 108906871.94306     -2812.024 6        36.979
C14        48.000                                                                                                                                                                                                    26540862.648 3                     -3050.545 3        21.167
C41        50.000                                                                                                                                                                                                                                                                    25568004.615 3                     -1043.924 3        21.095
C07        53.000                                                                                                                                    40331533.766 4                     -1765.544 4        25.263    40331544.276 5                     -1365.879 5        30.136
I06        58.000    38614533.607 6 151531680.89606      -734.283 6        38.844
I02        60.000    37148068.709 6 145777001.18806      -777.773 6        41.249
> 2025 01 01 12 45 10.0000000  0 37
G19         1.000    22432597.092 6 117884130.80306     -3338.098 6        36.665                                    22432593.081 1  91857771.66801     -2601.120 1         6.250
G06         2.000    23367987.621 5 122799596.02005       535.097 5        31.343                                                                                                    23368007.586 5                       417.148 5        30.460
G25         3.000    21817998.371 7 114654399.41807      1821.749 7        44.209                                    21818007.531 5  89341034.54205      1419.538 5        34.548    21818004.957 6  89341191.56206      1419.613 6        37.633
G17         5.000    25465749.268 4                     -4264.965 4        24.105
G12         7.000    20354852.204 8 106965470.23608      -415.490 8        49.199                                    20354853.415 6  83349732.86106      -323.759 6        37.225    20354853.640 6  83349745.92906      -323.969 6        37.414
E30         9.000    23933758.170 7 125772782.84707      -169.680 7        45.041                                                                    23933766.405 8  93921258.23908      -126.679 8        49.847    23933764.366 7  96371382.12807      -130.017 7        47.314
G32        11.000    23413205.532 8 123037247.65908       788.914 8        48.330                                    23413216.144 6  95873225.57806       614.740 6        40.462    23413215.097 7  95873242.57807       614.803 7        42.603
E02        13.000    24579415.529 6 129165690.00706     -2534.880 6        40.698                                                                    24579421.540 6  96454979.59106     -1892.884 6        39.898    24579423.079 7  98971202.90207     -1942.200 7        44.402
E27        15.000    27073972.316 4 142274585.39904      1499.845 4        29.374                                                                    27073971.627 6 106244106.15506      1120.259 6        39.021    27073967.577 4 109015727.29304      1149.162 4        29.829
G24        16.000    20986779.332 8 110286265.67308     -2937.709 8        49.903                                    20986784.309 8  85937388.54708     -2289.123 8        48.957    20986784.734 7  85937345.55307     -2289.116 7        45.570
E08        17.000    26575128.742 6 139653228.47806     -3909.016 6        37.928                                                                    26575139.027 6 104286508.76606     -2919.161 6        37.868    26575139.618 6 107006948.22806     -2995.231 6        41.342
E07        18.000    24703007.549 5 129815256.61505     -1853.573 5        32.042                                                                    24703016.506 5  96939980.77805     -1384.091 5        34.062    24703017.392 7  99468819.63807     -1420.199 7        43.177
E36        19.000    26665358.402 4                       719.637 4        24.722                                                                    26665345.443 5 104640593.92505       537.241 5        31.343
R22        22.000    21665031.333 6 115649550.77106     -2531.714 6        39.922
S36        23.000    38375658.531 5 201665351.16105      -840.010 5        34.962
S23        24.000    38314586.245 5 201344474.87705      -843.803 5        34.481
R04        25.000    21364502.765 7 114405859.49107     -1899.960 7        46.173                                                                    21364503.965 6  88982393.14806     -1477.680 6        41.023
E29        26.000    26652568.053 7 140060232.56907       941.525 7        45.427                                                                    26652582.881 7 104590546.54407       703.024 7        43.638    26652580.164 7 107318906.83107       721.339 7        43.198
R13        29.000    19858219.551 7 106041780.59307     -1861.697 7        45.493
R12        31.000                                                                                                                                    22666139.445 4                     -3039.428 4        28.995
C10        32.000                                                                                                                                    39364588.325 5 204981707.21605     -1520.725 5        31.404    39364581.762 6 158504834.58806     -1175.744 6        37.066    39364579.302 5 166564369.70005     -1235.718 5        34.500
R03        33.000    22627246.407 4                     -4773.636 4        28.882                                                                    22627291.959 5                     -3712.870 5        32.210
C24        34.000                                                                                                                                    21499345.063 8 111952930.59008      -489.246 8        52.939                                                                    21499345.136 7  90970815.69307      -397.650 7        47.231
R14        35.000    21081731.929 6 112377593.64606      1652.035 6        36.994                                                                    21081741.468 6  87404840.54606      1284.896 6        41.838
R23        36.000    20755333.577 6 111027033.13206      1201.719 6        36.749
C26        37.000                                                                                                                                    23542680.077 6 122592984.24316     -2986.912 6        40.255                                                                    23542680.385 6  99616784.75206     -2427.297 6        40.400
S21        38.000    38603615.799 5 202863342.32705      -839.215 5        34.067
C44        39.000                                                                                                                                    22956845.983 7 119542417.05207      1343.347 7        44.784                                                                    22956849.747 6  97138017.13606      1091.425 6        38.544
C35        40.000                                                                                                                                    23250390.835 8 121070867.28608     -1428.765 8        49.161                                                                    23250393.584 7  98380154.41307     -1161.012 7        44.301
R05        42.000    23023181.891 5 123072043.86415      1605.869 5        34.148                                                                    23023204.531 5  95722741.90005      1248.980 5        35.924
C12        43.000                                                                                                                                    24596512.580 4 128080519.87004      2388.415 4        29.403    24596521.414 6  99040044.24306      1846.449 6        37.490    24596521.480 6 104075984.77106      1940.323 6        40.374
C40        44.000                                                                                                                                    40855228.782 4                     -2040.400 4        24.662
C33        46.000                                                                                                                                    25741534.141 5 134042915.92005     -3461.645 5        34.114                                                                    25741556.439 6 108920934.41406     -2813.056 6        36.299
C41        50.000                                                                                                                                                                                                                                                                    25569242.929 3                     -1046.812 3        21.571
C07        53.000                                                                                                                                    40333229.977 4                     -1765.814 4        25.624    40333240.599 5                     -1366.090 5        30.694
I06        58.000    38615469.282 6 151535352.40206      -733.989 6        38.880
I02        60.000    37149060.028 6 145780890.60506      -777.763 6        41.409
> 2025 01 01 12 45 15.0000000  0 37
G19         1.000    22435774.231 6 117900828.47706     -3340.549 6        37.221                                    22435770.169 1  91870782.81701     -2603.027 1         7.500
G06         2.000    23367484.456 4 122796926.97504       532.563 4        29.583                                                                                                    23367497.043 5                       415.008 5        30.272
G25         3.000    21816265.927 7 114645295.69007      1820.304 7        44.542                                    21816274.938 5  89333940.75505      1418.414 5        34.538    21816272.254 6  89334097.77306      1418.430 6        37.285
G17         5.000    25469808.464 3                     -4265.730 3        23.333
G12         7.000    20355248.603 8 106967554.68308      -417.765 8        49.024                                    20355249.994 6  83351357.10906      -325.534 6        36.639    20355249.700 6  83351370.15506      -325.475 6        36.892
E30         9.000    23933920.661 7 125773635.47507      -170.891 7        44.426                                                                    23933928.631 8  93921894.94308      -127.560 8        49.953    23933926.669 7  96372035.44307      -130.958 7        47.377
G32        11.000    23412456.689 8 123033311.06008       786.192 8        48.089                                    23412467.666 6  95870158.12106       612.615 6        40.579    23412465.506 7  95870175.13907       612.579 7        42.804
E02        13.000    24581827.772 6 129178367.03006     -2535.458 6        40.794                                                                    24581834.028 6  96464446.21206     -1893.424 6        40.040    24581835.516 7  98980916.48007     -1942.834 7        44.615
E27        15.000    27072543.166 4 142267087.87704      1499.797 4        29.943                                                                    27072544.473 6 106238507.43106      1119.711 6        38.733    27072540.386 4 109009982.50004      1148.648 4        29.185
G24        16.000    20989575.845 8 110300962.10208     -2940.226 8        49.009                                    20989580.911 8  85948840.30808     -2291.083 8        48.896    20989581.350 7  85948797.30207     -2291.016 7        45.856
E08        17.000    26578847.399 6 139672776.85206     -3909.773 6        37.936                                                                    26578859.223 6 104301106.51606     -2919.683 6        37.868    26578859.300 6 107021926.79506     -2995.759 6        41.080
E07        18.000    24704771.930 5 129824531.26605     -1855.601 5        31.472                                                                    24704781.154 5  96946906.66505     -1385.898 5        32.844    24704782.510 7  99475926.20507     -1421.918 7        42.927
E36        19.000    26664673.702 3                       718.144 3        23.886                                                                    26664662.467 5 104637911.11205       536.074 5        31.404
R22        22.000    21667409.544 7 115662221.50807     -2535.971 7        43.680
S36        23.000    38376459.300 5 201669551.76705      -839.904 5        35.238
S23        24.000    38315384.180 5 201348696.36205      -843.852 5        34.386
R04        25.000    21366280.821 7 114415371.26707     -1904.334 7        45.652                                                                    21366279.740 6  88989791.17906     -1480.918 6        39.976
E29        26.000    26651672.999 7 140055530.94907       939.665 7        45.245                                                                    26651688.373 7 104587035.63307       701.621 7        43.541    26651685.177 7 107315304.31407       720.008 7        43.259
R13        29.000    19859964.178 7 106051095.73007     -1863.789 7        45.031
R12        31.000    22669819.147 4 121097986.16014     -3908.250 4        26.623                                                                    22669804.275 4                     -3040.098 4        27.617
C10        32.000                                                                                                                                    39366049.029 5 204989311.42005     -1520.594 5        30.883    39366041.960 6 158510714.65506     -1175.773 6        37.149    39366039.859 5 166570548.80505     -1235.806 5        34.443
R03        33.000    22631711.412 5                     -4775.159 5        31.140                                                                    22631752.550 5  94227419.65915     -3713.959 5        34.681
C24        34.000                                                                                                                                    21499815.980 8 111955382.02108      -490.790 8        52.802                                                                    21499815.903 7  90972807.70307      -398.926 7        46.926
R14        35.000    21080182.155 6 112369337.50306      1650.861 6        38.712                                                                    21080193.446 6  87398419.13306      1284.041 6        41.633
R23        36.000    20754213.218 6 111021036.25306      1197.522 6        40.336
C26        37.000                                                                                                                                    23545547.556 6 122607922.42506     -2987.916 6        40.896                                                                    23545548.648 6  99628923.26906     -2428.089 6        39.775
S21        38.000    38604409.552 5 202867539.13305      -839.144 5        34.267
C44        39.000                                                                                                                                    22955556.705 7 119535706.97807      1341.236 7        44.247                                                                    22955561.127 6  97132564.70406      1089.859 6        39.381
C35        40.000                                                                                                                                    23251764.292 8 121078019.29208     -1431.582 8        49.798                                                                    23251767.100 7  98385966.04507     -1163.350 7        44.661
R05        42.000                                                                                                                                    23021708.959 5  95716505.61605      1246.155 5        35.848
C12        43.000                                                                                                                                    24594219.100 4 128068583.38604      2387.062 4        26.563    24594229.717 6  99030814.22006      1845.572 6        36.945    24594229.163 6 104066285.42106      1939.491 6        40.937
C40        44.000                                                                                                                                    40857188.569 4                     -2039.768 4        24.286
C33        46.000                                                                                                                                    25744859.371 5 134060228.07805     -3462.936 5        33.934                                                                    25744881.347 5 108935001.91005     -2813.904 5        34.762
C41        50.000                                                                                                                                                                                                                                                                    25570480.508 3                     -1051.705 3        21.167
C07        53.000                                                                                                                                    40334926.506 4                     -1766.143 4        25.549    40334937.956 5                     -1365.873 5        30.838
I06        58.000    38616405.335 6 151539023.78506      -734.145 6        39.078
I02        60.000    37150050.889 6 145784780.92606      -777.881 6        41.321
> 2025 01 01 12 45 20.0000000  0 38
G19         1.000    22438954.348 6 117917537.60406     -3342.852 6        37.667                                    22438949.412 1  91883802.79901     -2604.846 1         6.375
G06         2.000    23366983.425 5 122794272.73605       529.698 5        30.445                                    23366983.606 1  95683889.07511       412.688 1        10.296    23366985.695 4                       412.752 4        27.245
G25         3.000    21814534.525 7 114636199.37907      1818.552 7        44.828                                    21814543.552 5  89326852.74005      1417.050 5        34.557    21814540.822 6  89327009.76406      1416.825 6        36.941
G17         5.000    25473868.823 3                     -4262.223 3        21.000
G12         7.000    20355646.754 8 106969650.81508      -420.397 8        48.062                                    20355648.890 6  83352990.46506      -327.584 6        36.329    20355647.986 6  83353003.53006      -327.684 6        37.180
E30         9.000    23934084.490 7 125774494.26007      -172.428 7        43.793                                                                    23934092.078 8  93922536.23808      -128.756 8        50.193    23934090.116 7  96372693.47107      -132.101 7        47.496
G32        11.000    23411710.214 7 123029389.07307       782.994 7        47.578                                    23411721.956 6  95867102.04706       610.122 6        40.570    23411719.115 7  95867119.07207       610.060 7        42.309
E02        13.000    24584240.702 6 129191047.98506     -2536.651 6        40.994                                                                    24584247.163 6  96473915.72006     -1894.226 6        40.133    24584248.563 7  98990633.02207     -1943.646 7        44.632
E27        15.000    27071115.968 4 142259593.19204      1499.204 4        29.829                                                                    27071117.703 6 106232910.79806      1119.049 6        38.030    27071113.046 4 109004239.85904      1148.201 4        28.682
G24        16.000    20992374.734 8 110315671.12008     -2943.083 8        48.699                                    20992379.847 8  85960301.87608     -2293.311 8        48.915    20992380.271 7  85960258.86707     -2293.241 7        45.377
E08        17.000    26582568.023 6 139692329.07106     -3910.875 6        38.000                                                                    26582580.007 6 104315707.11506     -2920.402 6        37.909    26582579.915 6 107036908.30806     -2996.631 6        41.142
E07        18.000    24706541.052 5 129833817.85905     -1858.209 5        32.365                                                                    24706547.448 5  96953841.42505     -1387.490 5        31.683    24706549.682 7  99483041.88107     -1424.022 7        42.299
E36        19.000    26663988.918 4                       715.570 4        24.256                                                                    26663981.634 5 104635236.36405       534.175 5        31.162
R22        22.000    21669790.042 7 115674913.40607     -2540.419 7        45.028
S36        23.000    38377256.684 5 201673752.67205      -840.173 5        35.010
S23        24.000    38316191.732 5 201352918.06905      -844.258 5        34.629
R04        25.000    21368061.803 7 114424905.32707     -1909.101 7        42.690                                                                    21368058.701 6  88997206.51106     -1484.899 6        36.125
E29        26.000    26650779.916 7 140050839.01307       937.550 7        44.918                                                                    26650795.539 7 104583531.93707       700.140 7        43.791    26650792.159 7 107311709.23207       718.270 7        43.046
R13        29.000    19861711.045 7 106060421.31907     -1866.169 7        45.052
R12        31.000    22673465.420 3 121117531.16903     -3909.600 3        22.648                                                                    22673466.784 4                     -3040.494 4        26.108
C10        32.000                                                                                                                                    39367510.004 5 204996916.53105     -1520.981 5        30.468    39367502.391 6 158516595.44206     -1176.341 6        37.274    39367500.129 5 166576728.58605     -1236.355 5        34.486
R03        33.000    22636173.058 5                     -4776.822 5        30.408                                                                    22636213.592 5  94245994.22515     -3715.604 5        35.186
C24        34.000                                                                                                                                    21500288.300 8 111957841.75308      -492.748 8        52.411                                                                    21500288.295 7  90974806.41207      -400.564 7        46.524
R14        35.000    21078633.162 6 112361087.48706      1649.517 6        38.532                                                                    21078645.254 6  87392002.51906      1282.941 6        40.691
R23        36.000    20753094.781 7 111015060.47607      1192.965 7        42.102
C26        37.000                                                                                                                                    23548416.497 6 122622866.48206     -2989.388 6        40.639                                                                    23548418.213 6  99641066.50106     -2429.129 6        39.252
S21        38.000    38605211.510 5 202871736.17705      -839.508 5        34.319
C44        39.000                                                                                                                                    22954269.416 7 119529007.91007      1338.731 7        43.092                                                                    22954274.601 6  97127121.14706      1087.729 6        40.203
C35        40.000                                                                                                                                    23253140.594 8 121085185.67808     -1434.760 8        50.128                                                                    23253143.146 7  98391789.30307     -1165.920 7        44.974
R05        42.000    23020170.320 4                      1598.461 4        25.368
C12        43.000                                                                                                                                    24591925.363 4 128056652.36404      2385.533 4        26.766    24591939.501 6  99021588.42506      1844.513 6        36.775    24591937.837 6 104056590.50106      1938.447 6        41.044
C40        44.000                                                                                                                                    40859144.488 4                     -2040.585 4        24.286
C33        46.000                                                                                                                                    25748185.885 5 134077546.73605     -3464.410 5        34.329                                                                    25748207.545 5 108949074.71605     -2815.199 5        32.832
C14        48.000                                                                                                                                                                                                    26552185.324 5                     -3049.146 5        31.321
C41        50.000                                                                                                                                    25571720.197 5                     -1293.406 5        35.495                                                                    25571720.847 3                     -1048.666 3        21.119
C07        53.000                                                                                                                                    40336627.337 4                     -1766.109 4        24.782    40336635.786 5                     -1366.472 5        30.558
I06        58.000    38617340.354 6 151542695.26206      -734.186 6        39.171
I02        60.000    37151042.410 6 145788671.93806      -778.320 6        41.299
> 2025 01 01 12 45 25.0000000  0 37
G19         1.000    22442136.368 6 117934258.20306     -3345.034 6        38.477                                    22442130.994 1  91896831.83401     -2606.564 1         6.125
G06         2.000    23366482.031 4 122791633.23904       526.684 4        29.374                                    23366481.466 1  95681832.25701       410.399 1        11.185    23366480.196 3                       410.139 3        23.886
G25         3.000    21812805.014 7 114627110.34907      1817.218 7        44.760                                    21812813.285 5  89319770.40105      1416.006 5        34.338    21812811.588 6  89319927.41806      1416.020 6        36.181
G17         5.000    25477928.694 3                     -4265.804 3        21.238
G12         7.000    20356047.462 7 106971758.48307      -422.517 7        47.401                                    20356049.981 5  83354632.81705      -329.239 5        35.810    20356049.392 6  83354645.86906      -329.085 6        36.412
E30         9.000    23934249.239 7 125775359.07507      -173.404 7        43.154                                                                    23934256.628 8  93923182.05108      -129.506 8        50.270    23934254.643 7  96373356.12607      -132.833 7        47.417
G32        11.000    23410965.987 7 123025481.59507       780.219 7        46.683                                    23410978.902 6  95864057.28106       607.954 6        40.474    23410975.140 6  95864074.30606       607.998 6        41.602
E02        13.000    24586654.613 6 129203732.70306     -2537.251 6        41.201                                                                    24586661.026 6  96483388.07406     -1894.588 6        40.012    24586662.257 7  99000352.46907     -1944.029 7        44.438
E27        15.000    27069687.490 4 142252101.11804      1498.168 4        29.829                                                                    27069691.752 6 106227316.12206      1118.810 6        37.240    27069687.311 4 108998499.23704      1147.891 4        29.564
G24        16.000    20995176.536 8 110330392.60508     -2945.457 8        48.575                                    20995181.144 8  85971773.16108     -2295.164 8        49.025    20995181.804 7  85971730.15907     -2295.111 7        44.947
E08        17.000    26586289.236 6 139711885.00806     -3911.515 6        37.493                                                                    26586301.539 6 104330310.51806     -2920.866 6        37.992    26586300.870 6 107051892.66306     -2996.966 6        40.751
E07        18.000    24708311.479 5 129843116.20005     -1860.710 5        35.519                                                                    24708316.534 5  96960784.94705     -1389.495 5        30.068    24708319.005 6  99490166.55906     -1425.789 6        41.311
E36        19.000    26663317.611 3                       712.471 3        21.762                                                                    26663303.247 5 104632569.51105       532.300 5        30.332
R22        22.000    21672170.650 7 115687626.30807     -2544.500 7        45.505
S36        23.000    38378051.323 5 201677953.57005      -840.063 5        35.038
S23        24.000    38316992.215 5 201357140.07705      -844.248 5        34.395
R04        25.000    21369840.107 6 114434461.76806     -1913.208 6        41.509                                                                    21369842.356 5  89004639.30505     -1488.014 5        34.390
E29        26.000    26649888.927 7 140046156.63407       935.716 7        44.393                                                                    26649904.349 7 104580035.35707       698.810 7        43.600    26649901.097 7 107308121.44307       717.000 7        42.925
R13        29.000    19863459.475 7 106069757.35407     -1868.132 7        44.628
C10        32.000                                                                                                                                    39368972.090 5 205004522.53005     -1521.005 5        30.619    39368962.923 6 158522476.89706     -1176.188 6        37.750    39368960.844 5 166582909.10505     -1236.233 5        33.946
R03        33.000    22640635.939 5                     -4778.726 5        30.166                                                                    22640676.172 5  94264575.11605     -3716.766 5        34.495
C24        34.000                                                                                                                                    21500761.988 8 111960309.66108      -494.225 8        52.333                                                                    21500762.258 7  90976811.78507      -401.524 7        46.132
R14        35.000    21077086.271 6 112352843.58706      1648.278 6        39.688                                                                    21077097.322 6  87385590.61606      1282.055 6        39.453
R23        36.000    20751981.253 7 111009105.63307      1188.951 7        43.549
C26        37.000                                                                                                                                    23551286.701 6 122637816.25206     -2990.458 6        40.875                                                                    23551288.973 6  99653214.43106     -2429.822 6        38.550
S21        38.000    38606012.798 5 202875933.62805      -839.330 5        34.157
C44        39.000                                                                                                                                    22952984.607 7 119522319.74807      1336.724 7        42.988                                                                    22952989.983 6  97121686.49906      1086.230 6        40.448
C35        40.000                                                                                                                                    23254519.178 8 121092366.33208     -1437.355 8        50.249                                                                    23254522.049 7  98397624.17007     -1167.860 7        44.980
R05        42.000                                                                                                                                    23018700.997 5  95704075.84615      1240.419 5        33.078
C12        43.000                                                                                                                                    24589635.574 5 128044726.76705      2384.639 5        30.528    24589651.355 6  99012366.82806      1843.995 6        37.508    24589647.487 6 104046899.97706      1937.827 6        40.622
C40        44.000                                                                                                                                    40861105.009 3                     -2040.489 3        23.657
C33        46.000                                                                                                                                    25751514.519 5 134094871.82305     -3465.407 5        34.833                                                                    25751535.438 4 108963152.75304     -2815.987 4        29.877
C14        48.000                                                                                                                                                                                                    26555968.451 5                     -3049.321 5        32.180
C41        50.000                                                                                                                                    25572957.902 5 133165123.16115     -1296.141 5        34.086                                                                    25572971.672 3                     -1052.910 3        21.714
C07        53.000                                                                                                                                    40338330.958 4                     -1767.502 4        25.338    40338333.290 5                     -1365.982 5        30.913
I06        58.000    38618276.391 6 151546366.78706      -734.262 6        39.231
I02        60.000    37152034.518 6 145792563.73206      -778.289 6        41.194
> 2025 01 01 12 45 30.0000000  0 38
G19         1.000    22445321.106 6 117950990.34406     -3347.427 6        39.465                                    22445314.771 1  91909869.86101     -2608.375 1         8.286
G06         2.000    23365983.523 5 122789008.54505       523.537 5        30.679                                    23365982.325 1  95679787.09301       408.008 1         8.762    23365982.026 3                       407.945 3        20.857
G25         3.000    21811076.913 7 114618028.82507      1815.659 7        44.376                                    21811084.220 5  89312693.91305      1414.792 5        34.205    21811084.058 6  89312850.91406      1414.835 6        36.030
G17         5.000    25481994.078 3                     -4262.856 3        22.609
G12         7.000    20356451.183 7 106973877.95807      -424.942 7        46.791                                    20356453.147 5  83356284.37305      -331.127 5        35.433    20356451.417 6  83356297.41806      -331.006 6        36.522
E30         9.000    23934415.118 7 125776230.08407      -174.715 7        42.783                                                                    23934422.274 8  93923832.48208      -130.471 8        50.293    23934420.402 7  96374023.52907      -133.898 7        47.717
G32        11.000    23410225.509 7 123021588.78207       777.210 7        46.555                                    23410238.478 6  95861023.94906       605.613 6        40.327    23410233.583 6  95861040.97406       605.612 6        40.953
E02        13.000    24589068.903 6 129216421.34506     -2537.965 6        41.509                                                                    24589075.738 6  96492863.34306     -1895.126 6        40.124    24589076.530 7  99010074.92607     -1944.676 7        44.200
E27        15.000    27068258.288 4 142244611.82104      1497.947 4        27.353                                                                    27068265.899 6 106221723.56706      1118.552 6        36.117    27068263.085 5 108992760.75805      1147.651 5        30.332
G24        16.000    20997980.524 8 110345126.71608     -2947.943 8        48.612                                    20997984.865 8  85983254.28608     -2297.099 8        49.363    20997985.823 7  85983211.28507     -2297.164 7        44.646
E08        17.000    26590012.043 6 139731444.78906     -3912.298 6        36.745                                                                    26590023.545 6 104344916.79606     -2921.515 6        37.917    26590022.889 6 107066879.97606     -2997.633 6        40.777
E07        18.000    24710083.526 6 129852426.43006     -1863.147 6        37.380                                                                    24710088.156 4  96967737.41104     -1390.782 4        28.588    24710090.641 6  99497300.34906     -1427.477 6        40.348
E36        19.000    26662631.517 3                       711.341 3        21.619                                                                    26662625.660 4 104629910.62504       531.557 4        28.313
R22        22.000    21674555.100 7 115700360.36907     -2548.813 7        45.013
S36        23.000    38378851.077 5 201682154.71705      -840.137 5        35.162
S23        24.000    38317796.495 5 201361362.44505      -844.391 5        34.743
R04        25.000    21371623.618 6 114444040.57806     -1917.871 6        41.661                                                                    21371631.080 6  89012089.52406     -1491.608 6        36.450
E29        26.000    26648999.864 7 140041484.05207       933.585 7        43.873                                                                    26649015.325 7 104576546.13207       697.236 7        43.289    26649011.851 7 107304541.18907       715.344 7        42.643
R13        29.000    19865209.683 7 106079103.89807     -1870.231 7        44.737
R12        31.000                                                                                                                                    22680801.372 4                     -3041.869 4        28.891
C10        32.000                                                                                                                                    39370432.154 5 205012129.45805     -1521.158 5        30.891    39370424.178 6 158528359.06806     -1176.422 6        37.607    39370421.727 5 166589090.30305     -1235.861 5        34.124
R03        33.000    22645103.135 5                     -4780.568 5        33.437                                                                    22645138.448 5  94283162.66705     -3718.136 5        32.988
C24        34.000                                                                                                                                    21501237.333 8 111962785.90408      -496.034 8        52.203                                                                    21501237.987 7  90978823.89507      -402.880 7        46.014
R14        35.000    21075542.129 6 112344605.91906      1646.945 6        39.529                                                                    21075551.363 6  87379183.58606      1280.973 6        38.318
R23        36.000    20750872.022 7 111003171.96507      1184.743 7        43.319
C26        37.000                                                                                                                                    23554158.382 6 122652771.89906     -2991.576 6        40.653                                                                    23554161.173 6  99665367.10006     -2430.922 6        38.736
S21        38.000    38606808.054 5 202880131.58305      -839.479 5        34.595
C44        39.000                                                                                                                                    22951702.377 7 119515642.63507      1334.490 7        42.925                                                                    22951707.409 6  97116260.78806      1084.518 6        40.865
C35        40.000                                                                                                                                    23255900.246 8 121099561.39608     -1440.398 8        50.167                                                                    23255903.784 7  98403470.71207     -1170.224 7        45.288
R05        42.000    23017204.145 5 123040153.50315      1590.727 5        35.048                                                                    23017214.829 5  95697882.54305      1237.631 5        31.404
C12        43.000                                                                                                                                    24587350.499 5 128032806.70105      2383.296 5        32.880    24587363.188 6  99003149.49106      1843.117 6        38.396    24587357.987 6 104037213.92406      1936.940 6        40.667
C40        44.000                                                                                                                                    40863067.626 3                     -2040.507 3        22.990
C33        46.000                                                                                                                                    25754842.488 5 134112203.50205     -3466.958 5        35.343                                                                    25754869.897 4 108977236.16504     -2817.458 4        27.892
C14        48.000                                                                                                                                                                                                    26559760.158 5                     -3049.373 5        31.774
C41        50.000                                                                                                                                    25574199.340 5 133171611.95005     -1298.762 5        34.319
C07        53.000                                                                                                                                                                                                    40340031.492 5                     -1366.312 5        30.815
I06        58.000    38619211.490 6 151550038.44006      -734.177 6        39.120
I02        60.000    37153026.309 6 145796456.50506      -778.388 6        41.216
> 2025 01 01 12 45 35.0000000  0 38
G19         1.000    22448508.044 6 117967733.93306     -3349.756 6        40.958                                    22448500.847 1  91922916.72901     -2610.200 1        10.370
G06         2.000    23365487.404 5 122786398.65205       520.565 5        32.431                                    23365485.980 1  95677753.40301       405.696 1         5.714
G25         3.000    21809350.433 7 114608954.61907      1814.047 7        44.081                                    21809356.372 5  89305623.12305      1413.536 5        34.109    21809357.632 5  89305780.13205      1413.528 5        35.362
G17         5.000    25486042.323 3                     -4263.487 3        21.571
G12         7.000    20356856.801 7 106976009.02707      -427.493 7        47.448                                    20356858.343 5  83357944.96805      -333.117 5        34.762    20356856.445 5  83357957.99805      -333.136 5        35.748
E30         9.000    23934582.029 7 125777107.20407      -176.208 7        43.501                                                                    23934589.087 8  93924487.46508      -131.502 8        50.217    23934587.244 7  96374695.60207      -134.993 7        47.793
G32        11.000    23409488.246 7 123017710.54107       774.089 7        46.292                                    23409500.606 6  95858001.97106       603.179 6        40.155    23409495.835 6  95858018.99306       603.197 6        40.203
E02        13.000    24591484.276 7 129229113.81607     -2538.909 7        42.320                                                                    24591491.081 6  96502341.48406     -1896.043 6        40.036    24591491.507 7  99019800.32407     -1945.500 7        43.886
E27        15.000    27066825.580 4 142237125.32404      1496.684 4        27.665                                                                    27066840.434 5 106216133.06805      1117.628 5        34.252    27066840.371 5 108987024.40605      1147.127 5        32.060
G24        16.000    21000786.714 8 110359873.33708     -2950.681 8        49.375                                    21000791.014 8  85994745.15608     -2299.231 8        49.756    21000792.190 7  85994702.14307     -2299.182 7        44.787
E08        17.000    26593734.784 6 139751008.31806     -3913.042 6        36.563                                                                    26593746.597 6 104359525.86806     -2922.241 6        37.913    26593745.322 6 107081870.15606     -2998.467 6        40.636
E07        18.000    24711856.471 6 129861748.47206     -1865.668 6        39.486                                                                    24711862.019 4  96974698.66204     -1393.118 4        27.186    24711864.270 6  99504443.17806     -1429.439 6        38.823
E36        19.000    26661948.928 4                       709.268 4        25.609                                                                    26661947.599 4 104627259.73404       529.400 4        26.132
R22        22.000    21676943.630 7 115713115.47807     -2553.234 7        43.968
S36        23.000    38379656.894 5 201686356.18705      -840.407 5        35.286
S23        24.000    38318596.862 5 201365584.99905      -844.577 5        34.648
R04        25.000    21373418.724 7 114453641.84507     -1922.608 7        42.385                                                                    21373423.601 6  89019557.15906     -1495.509 6        36.461
E29        26.000    26648112.895 7 140036821.12307       931.544 7        44.209                                                                    26648127.939 7 104573064.12007       695.646 7        43.367    26648124.440 7 107300968.35007       713.784 7        42.671
R13        29.000    19866961.571 7 106088460.87407     -1872.523 7        45.448
R12        31.000                                                                                                                                    22684464.302 4                     -3042.729 4        28.863
C10        32.000                                                                                                                                    39371891.694 5 205019737.26105     -1521.775 5        30.694    39371885.094 6 158534241.91706     -1176.714 6        37.947    39371882.997 5 166595272.32905     -1236.637 5        34.190
R03        33.000    22649572.222 6 121244921.49816     -4782.304 6        37.153                                                                    22649603.434 5  94301756.66205     -3719.445 5        31.230
C24        34.000                                                                                                                                    21501714.310 8 111965270.37908      -497.741 8        52.156                                                                    21501715.309 7  90980842.76707      -404.587 7        45.943
R14        35.000    21073997.265 6 112336374.31006      1645.628 6        38.276                                                                    21074006.338 6  87372781.22906      1279.879 6        37.043
R23        36.000    20749766.391 7 110997259.39307      1180.274 7        43.615
C26        37.000                                                                                                                                    23557031.007 6 122667733.37406     -2993.077 6        40.052                                                                    23557034.696 6  99677524.51306     -2432.032 6        38.883
S21        38.000    38607606.646 5 202884329.63105      -839.872 5        34.462
C44        39.000                                                                                                                                    22950421.686 7 119508976.50507      1332.070 7        43.513                                                                    22950426.989 6  97110844.06006      1082.349 6        41.242
C35        40.000                                                                                                                                    23257284.383 8 121106770.77408     -1443.347 8        50.340                                                                    23257288.326 7  98409328.95007     -1172.909 7        45.526
R05        42.000    23015716.812 5 123032209.05605      1587.099 5        33.707                                                                    23015737.031 4  95691703.48504      1234.275 4        29.355
C12        43.000                                                                                                                                    24585063.734 5 128020892.10305      2382.316 5        35.414    24585075.160 6  98993936.42006      1842.110 6        38.571    24585069.325 6 104027532.38206      1935.687 6        40.391
C40        44.000                                                                                                                                    40865027.341 4                     -2039.683 4        25.098
C33        46.000                                                                                                                                    25758171.619 5 134129541.58805     -3468.358 5        35.090                                                                    25758204.698 4 108991324.87304     -2818.613 4        28.057
C14        48.000                                                                                                                                                                                                    26563553.923 5                     -3049.579 5        31.592
C41        50.000                                                                                                                                                                                                                                                                    25575504.059 4                     -1058.194 4        29.393
C07        53.000                                                                                                                                    40341747.922 3                     -1766.140 3        23.562    40341727.462 5                     -1366.416 5        30.611
I06        58.000    38620147.264 6 151553710.20306      -734.518 6        39.105
I02        60.000    37154018.760 6 145800350.22606      -778.847 6        41.125
> 2025 01 01 12 45 40.0000000  0 38
G19         1.000    22451696.653 6 117984488.84506     -3352.320 6        41.878                                    22451689.190 1  91935972.49601     -2612.152 1        11.630
G06         2.000    23364992.320 5 122783803.40005       517.533 5        33.509                                    23364991.458 1  95675731.14501       403.426 1         4.571
G25         3.000    21807624.975 7 114599887.65407      1812.528 7        44.144                                    21807629.847 5  89298557.97405      1412.358 5        34.038    21807631.350 5  89298714.96805      1412.408 5        34.567
G17         5.000    25490094.262 3                     -4267.664 3        20.786
G12         7.000    20357264.785 7 106978151.54707      -429.867 7        47.139                                    20357265.547 5  83359614.49205      -334.965 5        34.410    20357263.644 5  83359627.51605      -334.897 5        34.667
E30         9.000    23934750.081 7 125777990.25507      -177.338 7        44.405                                                                    23934757.128 8  93925146.89508      -132.434 8        50.253    23934755.235 8  96375372.23408      -135.917 8        48.098
G32        11.000    23408753.072 7 123013846.74707       771.158 7        45.342                                    23408765.190 6  95854991.25306       600.893 6        39.841    23408761.029 6  95855008.26406       601.010 6        39.631
E02        13.000    24593900.166 7 129241809.97707     -2539.727 7        42.648                                                                    24593907.015 6  96511822.38706     -1896.480 6        40.315    24593907.085 7  99029528.54507     -1946.110 7        43.481
E27        15.000    27065398.497 4 142229641.36604      1496.688 4        29.128                                                                    27065415.392 5 106210544.47305      1117.381 5        32.731    27065417.600 5 108981290.01205      1146.914 5        33.341
G24        16.000    21003595.290 8 110374632.32108     -2953.124 8        49.481                                    21003599.600 8  86006245.65608     -2301.134 8        50.074    21003600.709 7  86006202.65007     -2301.208 7        45.574
E08        17.000    26597459.005 6 139770575.44406     -3913.956 6        36.136                                                                    26597470.336 6 104374137.61106     -2922.606 6        38.147    26597468.997 6 107096863.09906     -2999.094 6        40.825
E07        18.000    24713632.045 6 129871082.15706     -1868.111 6        40.365                                                                    24713638.197 4  96981668.60004     -1395.233 4        25.744    24713640.389 6  99511594.95806     -1431.449 6        37.312
E36        19.000    26661270.288 4                       706.512 4        27.066                                                                    26661270.468 4 104624616.72704       527.178 4        26.024
R22        22.000    21679337.206 7 115725891.52207     -2557.568 7        44.649
S36        23.000    38380456.506 5 201690557.12705      -840.165 5        35.433
S23        24.000    38319399.777 5 201369807.50505      -844.612 5        34.676
R04        25.000    21375221.816 7 114463265.19107     -1926.965 7        43.515                                                                    21375220.707 6  89027041.97806     -1498.818 6        36.004
E29        26.000    26647227.464 7 140032167.74407       929.527 7        44.030                                                                    26647242.277 7 104569589.24607       694.167 7        43.333    26647238.963 7 107297402.82007       712.201 7        42.806
R13        29.000    19868716.392 7 106097828.28307     -1874.667 7        46.074
R12        31.000                                                                                                                                    22688132.378 4                     -3043.489 4        28.692
C10        32.000                                                                                                                                    39373354.509 5 205027345.72605     -1521.883 5        30.626    39373346.918 6 158540125.29006     -1176.833 6        38.024    39373344.232 5 166601454.82605     -1236.899 5        34.076
R03        33.000    22654041.842 6 121268836.33606     -4783.978 6        38.417                                                                    22654073.897 4  94320357.00804     -3720.535 4        28.341
C24        34.000                                                                                                                                    21502192.861 8 111967762.97508      -499.483 8        51.773                                                                    21502194.053 7  90982868.19707      -405.949 7        45.673
R14        35.000    21072456.568 6 112328148.83106      1644.400 6        40.184                                                                    21072462.652 5  87366383.72205      1278.821 5        34.895
R23        36.000    20748665.216 7 110991367.68807      1176.016 7        44.173
C26        37.000                                                                                                                                    23559904.516 6 122682700.45406     -2994.250 6        39.369                                                                    23559909.285 6  99689686.49406     -2433.038 6        39.345
S21        38.000    38608405.389 5 202888527.68805      -839.893 5        34.367
C44        39.000                                                                                                                                    22949143.035 7 119502321.21007      1329.846 7        43.445                                                                    22949149.072 6  97105436.10706      1080.577 6        41.735
C35        40.000                                                                                                                                    23258671.206 8 121113994.32208     -1446.270 8        50.149                                                                    23258675.452 7  98415198.65507     -1175.254 7        45.776
R05        42.000    23014229.535 6                      1583.277 6        36.503
C12        43.000                                                                                                                                    24582777.137 6 128008982.81406      2381.229 6        37.705    24582786.750 6  98984727.44606      1841.135 6        38.670    24582782.050 6 104017855.13006      1934.834 6        40.083
C40        44.000                                                                                                                                    40866987.571 4                     -2040.032 4        24.827
C33        46.000                                                                                                                                    25761501.165 5 134146885.92905     -3469.415 5        34.448                                                                    25761536.063 4 109005418.61704     -2819.408 4        29.213
C14        48.000                                                                                                                                                                                                    26567345.966 5                     -3049.881 5        30.717
C41        50.000                                                                                                                                    25576717.365 6 133184631.11706     -1304.781 6        38.889
C07        53.000                                                                                                                                    40343439.434 3                     -1767.076 3        22.933    40343421.612 5                     -1366.009 5        30.943
I06        58.000    38621082.662 6 151557381.88406      -734.533 6        39.003
I02        60.000    37155010.568 6 145804244.67406      -779.174 6        41.089
> 2025 01 01 12 45 45.0000000  0 38
G19         1.000    22454887.437 7 118001255.73807     -3354.483 7        42.138                                    22454879.898 2  91949037.59302     -2613.877 2        13.273
G06         2.000    23364495.940 5 122781223.60405       514.596 5        32.192                                    23364499.566 1  95673720.49901       400.961 1         2.800    23364493.369 4                       400.431 4        25.639
G25         3.000    21805901.575 7 114590828.64207      1811.111 7        44.524                                    21805904.986 5  89291499.02805      1411.252 5        33.772    21805908.599 5  89291656.04205      1411.194 5        34.914
G17         5.000    25494154.356 3                     -4266.096 3        21.095
G12         7.000    20357674.652 7 106980306.25807      -432.060 7        46.300                                    20357674.987 5  83361293.50305      -336.675 5        34.048    20357674.832 5  83361306.52505      -336.776 5        35.671
E30         9.000    23934919.632 7 125778880.01807      -178.454 7        45.269                                                                    23934926.369 8  93925811.33108      -133.304 8        50.314    23934924.552 8  96376054.01008      -136.777 8        48.117
G32        11.000    23408020.680 7 123009998.14807       768.291 7        44.959                                    23408032.336 6  95851992.37706       598.663 6        39.279    23408028.821 6  95852009.37006       598.678 6        39.045
E02        13.000    24596316.941 7 129254510.54207     -2540.378 7        42.499                                                                    24596324.001 6  96521306.58306     -1897.051 6        40.234    24596323.764 7  99039260.14107     -1946.543 7        42.995
E27        15.000    27063979.718 4 142222160.80204      1495.639 4        29.441                                                                    27063991.563 5 106204958.37005      1116.988 5        30.551    27063994.745 5 108975558.17905      1146.212 5        34.852
G24        16.000    21006406.316 8 110389404.39608     -2955.590 8        49.499                                    21006410.779 8  86017756.35908     -2303.054 8        50.087    21006411.550 7  86017713.34207     -2303.040 7        46.445
E08        17.000    26601183.204 5 139790146.87605     -3914.529 5        35.581                                                                    26601194.520 6 104388752.60306     -2923.236 6        38.093    26601193.262 6 107111859.34406     -2999.435 6        40.691
E07        18.000    24715410.544 6 129880428.22506     -1870.452 6        41.132                                                                    24715416.248 4  96988647.84504     -1395.968 4        25.353    24715417.935 5  99518756.19105     -1433.260 5        35.881
E36        19.000                                                                                                                                    26660599.315 4 104621982.10504       526.193 4        27.018    26660604.135 5 107351206.21015       540.029 5        34.800
R22        22.000    21681735.153 7 115738689.20107     -2561.630 7        45.982                                                                    21681699.628 6  90019045.64106     -1992.470 6        37.781
S36        23.000    38381252.280 5 201694758.58905      -840.053 5        35.662
S23        24.000    38320209.892 5 201374030.70605      -844.542 5        35.000
R04        25.000    21377027.017 6 114472911.47506     -1931.464 6        40.405                                                                    21377023.155 6  89034544.62706     -1502.258 6        36.257
E29        26.000    26646344.086 7 140027524.55207       927.737 7        43.845                                                                    26646358.560 7 104566121.94807       692.811 7        43.445    26646355.429 7 107293845.07207       710.845 7        42.756
R13        29.000    19870472.603 7 106107206.75707     -1876.662 7        45.694
R12        31.000                                                                                                                                    22691803.634 4                     -3044.617 4        25.594
C10        32.000                                                                                                                                    39374816.509 5 205034955.63805     -1522.257 5        30.521    39374808.275 6 158546009.77306     -1177.101 6        38.165    39374805.697 5 166607638.51905     -1236.554 5        34.014
R03        33.000    22658513.886 6 121292760.05906     -4785.511 6        37.629                                                                    22658552.804 3                     -3721.907 3        21.095
C24        34.000                                                                                                                                    21502673.053 8 111970264.39708      -501.023 8        51.213                                                                    21502674.481 7  90984900.80407      -407.115 7        45.752
R14        35.000    21070915.868 7 112319929.99307      1643.267 7        42.102                                                                    21070920.849 5  87359991.30105      1277.528 5        31.804
R23        36.000    20747569.597 7 110985497.70807      1171.940 7        44.698
C26        37.000                                                                                                                                    23562778.881 6 122697673.91206     -2995.101 6        39.477                                                                    23562785.034 6  99701853.64306     -2433.776 6        39.745
S21        38.000    38609202.823 5 202892726.47705      -839.518 5        34.848
C44        39.000                                                                                                                                    22947867.032 7 119495677.51907      1327.714 7        43.278                                                                    22947873.601 7  97100037.58507      1078.856 7        42.313
C35        40.000                                                                                                                                    23260060.520 8 121121232.76208     -1449.045 8        49.595                                                                    23260065.560 7  98421080.48307     -1177.441 7        46.033
R05        42.000    23012752.623 6 123016375.20516      1579.780 6        38.294
C12        43.000                                                                                                                                    24580493.412 6 127997079.58806      2380.221 6        39.529    24580500.200 6  98975523.15706      1840.456 6        38.733    24580495.642 6 104008182.83806      1934.155 6        39.832
C40        44.000                                                                                                                                    40868947.264 4                     -2040.584 4        25.128
C33        46.000                                                                                                                                    25764831.320 5 134164237.29505     -3470.416 5        31.645                                                                    25764865.357 5 109019517.99605     -2820.081 5        30.747
C14        48.000                                                                                                                                                                                                    26571130.113 5                     -3049.611 5        30.023
C41        50.000                                                                                                                                    25577972.507 6 133191161.99506     -1307.329 6        38.916                                                                    25577990.200 5                     -1062.583 5        32.784
C07        53.000                                                                                                                                    40345134.259 3                     -1767.249 3        22.286    40345119.255 5                     -1366.515 5        30.649
I06        58.000    38622019.546 6 151561054.09006      -734.295 6        39.078
I02        60.000    37156003.393 6 145808140.46906      -779.266 6        40.858
> 2025 01 01 12 45 50.0000000  0 38
G19         1.000    22458079.991 7 118018034.03707     -3356.762 7        42.248                                    22458072.972 2  91962111.58002     -2615.613 2        14.286
G06         2.000                                                                                                                                                                    23364009.356 5                       398.760 5        30.158
G25         3.000    21804179.018 7 114581777.01807      1809.682 7        44.935                                    21804181.748 5  89284445.84405      1410.133 5        33.934    21804186.151 5  89284602.85805      1410.216 5        35.681
G17         5.000    25498223.806 3                     -4266.700 3        19.761
G12         7.000    20358086.683 7 106982472.54707      -434.302 7        46.118                                    20358086.792 5  83362981.54005      -338.423 5        33.778    20358087.976 6  83362994.53906      -338.447 6        36.117
E30         9.000    23935090.205 7 125779775.85207      -179.684 7        46.277                                                                    23935096.823 8  93926480.30508      -134.226 8        50.362    23935095.111 8  96376740.43608      -137.679 8        48.160
G32        11.000    23407290.909 7 123006164.12807       765.435 7        45.436                                    23407302.088 6  95849004.86306       596.439 6        39.162    23407299.236 6  95849021.82906       596.640 6        38.408
E02        13.000    24598734.186 6 129267214.94606     -2541.165 6        41.647                                                                    24598741.698 6  96530793.62406     -1897.608 6        40.422    24598741.212 7  99048994.67707     -1947.164 7        42.478
E27        15.000    27062558.385 4 142214682.83404      1495.653 4        28.389                                                                    27062567.423 4 106199374.32404      1116.490 4        28.957    27062572.156 5 108969828.42605      1145.923 5        35.643
G24        16.000    21009219.476 8 110404188.99208     -2958.068 8        49.777                                    21009224.427 8  86029276.81608     -2304.986 8        50.235    21009224.755 7  86029233.79807     -2305.015 7        46.818
E08        17.000    26604908.149 5 139809722.03705     -3915.262 5        34.995                                                                    26604919.781 6 104403370.38706     -2923.764 6        38.333    26604918.275 6 107126858.45806     -3000.012 6        40.579
E07        18.000    24717191.558 6 129889786.12306     -1872.727 6        41.492                                                                    24717197.630 4  96995635.86504     -1398.609 4        25.203    24717198.034 5  99525926.47105     -1434.871 5        34.100
E36        19.000    26659915.605 4                       702.298 4        28.758                                                                    26659931.149 4 104619355.53704       524.609 4        28.190    26659932.940 5 107348511.14905       538.270 5        35.390
R22        22.000    21684137.039 7 115751507.89807     -2565.786 7        46.289
S36        23.000    38382053.130 5 201698959.93805      -840.133 5        35.433
S23        24.000    38321011.292 5 201378254.10705      -844.646 5        35.114
R04        25.000                                                                                                                                    21378829.164 6  89042064.66906     -1505.642 6        36.571
E29        26.000    26645462.271 7 140022891.08107       925.815 7        43.505                                                                    26645476.702 7 104562661.92207       691.320 7        43.414    26645473.732 7 107290294.78907       709.383 7        42.736
R13        29.000    19872230.800 7 106116595.62607     -1878.843 7        45.637
R12        31.000    22695480.781 4                     -3913.396 4        25.293                                                                    22695481.861 3                     -3045.984 3        21.190
C10        32.000                                                                                                                                    39376277.382 5 205042566.42105     -1521.912 5        30.460    39376269.854 6 158551894.87506     -1177.038 6        38.402    39376266.656 5 166613822.85605     -1236.941 5        34.181
R03        33.000    22662987.477 5 121316692.15015     -4787.125 5        35.262
C24        34.000                                                                                                                                    21503154.665 8 111972774.08008      -502.665 8        50.542                                                                    21503156.550 7  90986940.11007      -408.490 7        45.860
R14        35.000    21069375.920 7 112311717.35207      1642.072 7        42.580                                                                    21069378.325 4  87353603.68204      1277.400 4        26.862
R23        36.000    20746475.933 7 110979648.83107      1167.822 7        44.954
C26        37.000                                                                                                                                    23565658.563 6 122712653.13006     -2996.373 6        40.563                                                                    23565661.794 6  99714025.49606     -2434.744 6        40.446
S21        38.000    38610007.008 5 202896925.11105      -839.736 5        34.852
C44        39.000                                                                                                                                    22946593.769 7 119489044.83207      1325.532 7        43.407                                                                    22946600.445 7  97094647.99207      1077.036 7        43.209
C35        40.000                                                                                                                                    23261452.319 8 121128485.50808     -1451.985 8        48.791                                                                    23261458.384 7  98426973.90607     -1179.806 7        46.558
R05        42.000    23011282.445 6 123008486.33606      1576.028 6        38.562                                                                    23011259.497 5                      1225.801 5        32.647
C12        43.000                                                                                                                                    24578210.243 6 127985181.85806      2379.185 6        40.553    24578215.270 6  98966323.13206      1839.539 6        38.165    24578210.479 6 103998514.99106      1933.143 6        39.934
C40        44.000                                                                                                                                    40870905.222 4                     -2039.549 4        25.203
C33        46.000                                                                                                                                    25768158.604 4 134181595.11004     -3472.264 4        28.502                                                                    25768196.550 5 109033622.60305     -2821.360 5        32.497
C14        48.000                                                                                                                                                                                                    26574915.994 4                     -3049.887 4        28.720
C41        50.000                                                                                                                                    25579222.566 6 133197706.75106     -1310.040 6        38.477                                                                    25579248.300 5                     -1064.610 5        32.090
C07        53.000                                                                                                                                    40346830.806 3                     -1763.127 3        22.438    40346817.948 5                     -1366.793 5        30.823
I06        58.000    38622955.112 6 151564726.39206      -734.418 6        39.228
I02        60.000    37156996.738 6 145812037.05106      -779.323 6        40.963
> 2025 01 01 12 45 55.0000000  0 35
G19         1.000    22461275.462 7 118034823.18007     -3358.841 7        42.362                                    22461268.282 2  91975193.99902     -2617.290 2        14.857
G06         2.000    23363504.856 4 122776107.93404       508.336 4        29.450                                    23363524.726 1  95669734.36301       396.110 1         9.524    23363525.933 5                       396.512 5        32.228
G25         3.000    21802457.930 7 114572732.22707      1808.229 7        45.618                                    21802460.101 5  89277397.97905      1409.008 5        34.124    21802464.942 6  89277554.99706      1409.009 6        36.359
G12         7.000    20358501.362 7 106984649.88207      -436.536 7        46.373                                    20358500.887 5  83364678.16705      -340.164 5        33.671    20358502.601 5  83364691.17405      -340.234 5        35.871
E30         9.000    23935261.442 7 125780677.24807      -180.839 7        46.937                                                                    23935268.405 8  93927153.42608      -135.048 8        50.327    23935266.639 8  96377431.12608      -138.579 8        48.346
G32        11.000    23406564.316 7 123002344.17507       762.663 7        46.400                                    23406574.461 6  95846028.30106       594.278 6        39.108    23406573.255 6  95846045.31606       594.002 6        38.775
E02        13.000    24601151.891 6 129279922.64106     -2541.935 6        40.210                                                                    24601159.701 6  96540283.13406     -1898.151 6        40.343    24601159.261 7  99058731.73007     -1947.618 7        42.224
E27        15.000    27061136.225 4 142207207.18104      1495.135 4        26.120                                                                    27061145.025 4 106193791.87304      1116.055 4        26.683    27061149.570 6 108964100.33706      1145.430 6        36.646
G24        16.000    21012035.304 8 110418985.50808     -2960.466 8        50.355                                    21012040.346 8  86040806.55608     -2306.852 8        50.291    21012039.855 7  86040763.54007     -2306.877 7        46.513
E08        17.000    26608633.334 5 139829300.38305     -3916.260 5        34.557                                                                    26608645.326 6 104417990.50606     -2924.068 6        38.435    26608643.817 6 107141859.99406     -3000.665 6        40.658
E07        18.000    24718974.335 6 129899155.26606     -1874.989 6        40.892                                                                    24718979.365 3  97002632.27803     -1399.890 3        23.829    24718981.157 5  99533105.39405     -1436.614 5        34.162
E36        19.000    26659249.141 4                       700.250 4        28.872                                                                    26659264.626 4 104616736.49404       523.535 4        28.531    26659264.849 5 107345823.84005       536.792 5        35.114
R22        22.000    21686542.216 7 115764347.08607     -2569.866 7        47.301
S36        23.000    38382849.995 5 201703160.45705      -839.956 5        35.405
S23        24.000    38321814.046 5 201382477.24905      -844.549 5        35.014
R04        25.000    21380625.981 5 114492270.40405     -1940.207 5        35.543                                                                    21380639.474 5  89049601.59005     -1509.139 5        35.014
E29        26.000    26644581.899 7 140018266.74607       923.940 7        43.257                                                                    26644596.664 7 104559208.68907       689.991 7        43.041    26644593.713 7 107286751.47507       708.019 7        43.026
R13        29.000    19873991.583 7 106125994.50607     -1880.833 7        45.842
C10        32.000                                                                                                                                    39377740.451 5 205050177.46105     -1522.169 5        30.121    39377731.864 6 158557780.25206     -1177.149 6        38.402    39377728.878 5 166620007.50405     -1236.916 5        33.635
R03        33.000    22667459.757 5 121340632.07015     -4788.772 5        33.713                                                                    22667467.288 5                     -3724.527 5        30.174
C24        34.000                                                                                                                                    21503638.107 8 111975291.46908      -504.217 8        50.152                                                                    21503639.878 7  90988985.70007      -409.781 7        45.448
R14        35.000    21067837.738 7 112303510.32507      1640.929 7        45.272                                                                    21067841.723 5  87347220.47905      1276.102 5        31.441
R23        36.000    20745384.077 7 110973820.54707      1163.643 7        45.443
C26        37.000                                                                                                                                    23568543.962 6 122727637.55606     -2997.292 6        41.373                                                                    23568539.349 6  99726201.60606     -2435.678 6        40.477
S21        38.000    38610804.504 5 202901123.23405      -839.586 5        34.805
C44        39.000                                                                                                                                    22945323.499 7 119482422.60907      1323.433 7        43.913                                                                    22945328.981 7  97089266.91607      1075.330 7        43.757
C35        40.000                                                                                                                                    23262847.000 8 121135752.02008     -1454.695 8        48.023                                                                    23262853.853 7  98432878.53707     -1182.109 7        46.543
C12        43.000                                                                                                                                    24575926.526 6 127973289.14206      2378.007 6        41.030    24575931.434 6  98957126.94806      1838.801 6        37.698    24575926.516 6 103988851.19806      1932.379 6        39.667
C40        44.000                                                                                                                                    40872863.726 4                     -2039.679 4        25.323
C33        46.000                                                                                                                                    25771489.454 5 134198958.74905     -3473.321 5        31.275                                                                    25771529.532 5 109047731.95905     -2822.543 5        32.138
C14        48.000                                                                                                                                                                                                    26578701.460 4                     -3049.809 4        28.284
C41        50.000                                                                                                                                    25580477.233 6 133204264.86306     -1313.208 6        36.968                                                                    25580503.874 5                     -1066.971 5        31.577
C07        53.000                                                                                                                                    40348530.662 3                     -1765.904 3        22.019    40348515.134 5                     -1366.485 5        30.747
I06        58.000    38623890.382 6 151568398.34106      -734.322 6        39.483
I02        60.000    37157989.743 6 145815934.06106      -779.466 6        40.982
> 2025 01 01 12 46  0.0000000  0 36
G19         1.000    22464472.921 7 118051623.09207     -3361.204 7        42.760                                    22464465.398 2  91988284.80602     -2619.110 2        15.333
G06         2.000    23363027.172 4 122773571.42604       505.751 4        29.801                                    23363041.853 1  95667757.87701       394.078 1        11.333    23363043.798 5                       394.250 5        33.731
G25         3.000    21800737.658 7 114563694.20307      1806.727 7        46.941                                    21800740.002 5  89270355.39205      1407.834 5        34.386    21800744.253 6  89270512.42606      1407.739 6        36.106
G12         7.000    20358917.823 7 106986838.18507      -438.965 7        45.296                                    20358917.266 5  83366383.33805      -342.051 5        33.731    20358917.175 5  83366396.32805      -342.047 5        35.605
E30         9.000    23935433.787 7 125781584.12907      -182.104 7        47.065                                                                    23935440.940 8  93927830.64008      -135.923 8        50.244    23935439.265 8  96378126.01008      -139.491 8        48.389
G32        11.000    23405840.180 7 122998538.22207       759.642 7        46.909                                    23405849.603 6  95843062.64906       591.921 6        39.165    23405849.264 6  95843079.64906       591.964 6        39.003
E02        13.000    24603570.700 6 129292633.52306     -2542.687 6        38.742                                                                    24603578.466 6  96549775.02906     -1898.657 6        40.215    24603578.058 7  99068471.23207     -1948.275 7        42.059
E27        15.000    27059714.822 3 142199733.75203      1493.865 3        23.486                                                                    27059719.076 4 106188211.03704      1115.311 4        24.932    27059727.203 6 108958373.86906      1144.916 6        37.183
G24        16.000    21014853.462 8 110433793.91608     -2962.999 8        51.218                                    21014858.412 8  86052345.56608     -2308.830 8        50.389    21014857.418 7  86052302.55407     -2308.802 7        45.812
E08        17.000    26612359.556 5 139848881.80105     -3916.791 5        34.295                                                                    26612371.297 6 104432612.96806     -2924.831 6        38.360    26612370.098 6 107156863.91206     -3001.240 6        40.603
E07        18.000    24720758.489 6 129908535.57206     -1877.285 6        40.472                                                                    24720766.109 3  97009636.96503     -1399.562 3        23.029    24720766.580 5  99540292.84405     -1438.239 5        34.109
E36        19.000    26658583.540 4                       698.080 4        27.904                                                                    26658599.594 4 104614125.03504       521.483 4        28.796    26658597.787 5 107343144.29805       535.227 5        34.195
R22        22.000    21688952.441 7 115777206.64607     -2574.071 7        47.444                                                                    21688959.108 6  90049003.49506     -2002.104 6        39.520
S36        23.000    38383648.712 5 201707360.09305      -840.055 5        35.471
S23        24.000    38322615.281 5 201386699.92005      -844.360 5        34.657
R04        25.000    21382443.125 5 114501982.39205     -1944.818 5        35.100                                                                    21382452.260 5  89057155.26505     -1512.632 5        33.287
E29        26.000    26643703.023 7 140013651.50807       921.918 7        42.840                                                                    26643718.162 7 104555762.27007       688.573 7        42.792    26643715.412 7 107283215.15607       706.456 7        43.064
R13        29.000    19875753.192 7 106135403.20107     -1882.864 7        45.452
C10        32.000                                                                                                                                    39379201.600 4 205057788.80004     -1522.782 4        29.858    39379193.983 6 158563665.79706     -1177.341 6        38.538    39379190.761 5 166626192.32005     -1237.313 5        33.940
R03        33.000    22671930.321 5 121364579.52805     -4790.327 5        35.024                                                                    22671944.236 5                     -3725.791 5        32.162
C24        34.000                                                                                                                                    21504123.461 8 111977816.50508      -505.925 8        49.885                                                                    21504124.719 7  90991037.50507      -411.108 7        45.380
R14        35.000    21066300.908 7 112295308.83207      1639.500 7        45.992                                                                    21066306.002 6  87340841.53906      1275.237 6        36.091
R23        36.000    20744296.592 7 110968012.74707      1159.372 7        45.225
C26        37.000                                                                                                                                    23571433.176 6 122742627.22706     -2998.588 6        41.135                                                                    23571417.969 6  99738381.92006     -2436.697 6        41.147
S21        38.000    38611605.036 5 202905321.11405      -840.014 5        34.400
C44        39.000                                                                                                                                    22944055.513 7 119475810.79607      1321.197 7        44.632                                                                    22944059.765 7  97083894.29807      1073.555 7        44.539
C35        40.000                                                                                                                                    23264244.489 7 121143032.20607     -1457.495 7        47.138                                                                    23264251.956 7  98438794.27307     -1184.312 7        46.871
R05        42.000    23008360.157 6                      1568.452 6        36.597                                                                    23008334.050 5                      1220.249 5        33.677
C12        43.000                                                                                                                                    24573643.107 6 127961401.31406      2376.839 6        41.251    24573648.342 6  98947934.55406      1838.089 6        37.437    24573643.685 6 103979191.40706      1931.407 6        39.997
C40        44.000                                                                                                                                    40874822.842 4                     -2039.562 4        25.444
C33        46.000                                                                                                                                                                                                                                                                    25774864.555 5 109061845.97505     -2823.549 5        31.389
C14        48.000                                                                                                                                                                                                    26582495.520 4                     -3049.933 4        26.695
C41        50.000                                                                                                                                    25581740.016 5 133210836.21405     -1315.815 5        34.871                                                                    25581756.335 5                     -1069.033 5        32.760
C07        53.000                                                                                                                                    40350233.336 3                     -1763.633 3        21.762    40350211.968 5                     -1366.616 5        30.581
I06        58.000    38624825.900 6 151572069.93206      -734.365 6        39.414
I02        60.000    37158982.803 6 145819831.67506      -779.649 6        40.841
> 2025 01 01 12 46  5.0000000  0 37
G19         1.000    22467672.820 7 118068434.78207     -3363.426 7        42.354                                    22467664.822 2  92001384.80202     -2620.831 2        16.151
G06         2.000    23362548.804 4 122771050.16904       503.133 4        27.425                                    23362561.525 1  95665793.27601       392.061 1        11.333    23362564.333 5                       391.803 5        33.216
G25         3.000    21799019.268 7 114554664.03707      1805.395 7        47.604                                    21799021.683 5  89263318.93205      1406.794 5        34.510    21799025.120 6  89263475.94106      1406.930 6        36.121
G12         7.000    20359336.299 7 106989038.52707      -441.085 7        43.409                                    20359336.043 5  83368097.88405      -343.695 5        33.910    20359335.579 6  83368110.86606      -343.804 6        36.140
E30         9.000    23935607.344 7 125782497.55707      -183.193 7        46.772                                                                    23935614.776 8  93928512.74608      -136.758 8        50.047    23935613.134 8  96378825.91508      -140.267 8        48.371
G32        11.000    23405118.091 7 122994747.36407       756.803 7        47.094                                    23405127.753 6  95840108.76306       589.708 6        39.069    23405127.227 6  95840125.77306       589.743 6        39.562
E02        13.000    24605990.777 6 129305348.68106     -2543.245 6        38.069                                                                    24605998.056 6  96559270.12906     -1899.118 6        40.200    24605997.828 6  99078214.03706     -1948.834 6        41.909
E27        15.000    27058310.364 3                      1493.185 3        22.667                                                                    27058296.185 3 106182632.57003      1116.143 3        22.800    27058305.129 6 108952649.82906      1144.728 6        37.720
G24        16.000    21017673.745 8 110448615.26608     -2965.354 8        51.307                                    21017678.763 8  86063894.66308     -2310.664 8        50.209    21017677.728 7  86063851.65507     -2310.644 7        45.360
E08        17.000    26616086.351 5 139868467.39605     -3917.520 5        34.176                                                                    26616098.327 6 104447238.53106     -2925.146 6        38.234    26616097.332 6 107171871.00106     -3001.493 6        40.605
E07        18.000    24722545.956 6 129917928.12206     -1879.557 6        40.415                                                                    24722554.578 4                     -1402.733 4        24.797    24722556.236 5  99547489.70505     -1440.235 5        35.571
E36        19.000    26657922.974 4                       696.150 4        28.028                                                                    26657936.926 4 104611521.95904       519.561 4        29.422    26657934.168 5 107340473.32505       533.600 5        33.228
R22        22.000    21691365.861 7 115790087.67007     -2578.100 7        46.219                                                                    21691370.066 6  90059022.04506     -2005.248 6        41.228
S36        23.000    38384452.222 5 201711560.63105      -840.118 5        35.357
S23        24.000    38323420.911 5 201390923.19805      -844.550 5        34.667
R04        25.000    21384265.278 6 114511717.19106     -1948.893 6        37.074                                                                    21384269.944 5  89064726.73605     -1515.961 5        30.770
E29        26.000    26642826.421 7 140009046.44207       920.141 7        42.499                                                                    26642841.562 7 104552323.46507       687.117 7        42.715    26642839.099 7 107279686.63607       705.106 7        43.285
R13        29.000    19877516.304 7 106144822.86507     -1884.907 7        45.315
R12        31.000    22706410.205 4                     -3916.757 4        25.669                                                                    22706450.523 4                     -3046.692 4        27.461
C10        32.000                                                                                                                                    39380662.633 4 205065401.43604     -1522.373 4        29.270    39380656.376 6 158569552.37606     -1177.337 6        38.405    39380652.779 5 166632378.20605     -1237.184 5        33.760
R03        33.000    22676407.738 5 121388535.64705     -4791.904 5        34.476                                                                    22676423.733 5                     -3727.072 5        32.299
C24        34.000                                                                                                                                    21504610.494 8 111980350.25108      -507.442 8        49.791                                                                    21504611.127 7  90993096.39107      -412.462 7        45.073
R14        35.000    21064760.006 7 112287113.98907      1638.504 7        44.960                                                                    21064769.589 6  87334467.84206      1274.353 6        37.811
R23        36.000    20743214.227 7 110962226.53907      1155.259 7        44.957
C26        37.000                                                                                                                                    23574318.388 6 122757623.09606     -2999.613 6        39.288                                                                    23574297.754 6  99750567.30006     -2437.610 6        41.652
S21        38.000    38612397.216 5 202909519.82905      -839.926 5        34.443
C44        39.000                                                                                                                                    22942788.651 7 119469210.49607      1319.116 7        44.733                                                                    22942792.493 7  97078531.01907      1071.726 7        45.329
C35        40.000                                                                                                                                    23265644.818 7 121150327.14907     -1460.322 7        46.499                                                                    23265652.960 7  98444722.00907     -1186.718 7        47.139
R05        42.000    23006891.748 5 122984927.86415      1565.511 5        31.487                                                                    23006868.096 5  95654916.49915      1217.293 5        34.019
C12        43.000                                                                                                                                    24571360.130 6 127949519.46106      2376.037 6        41.018    24571367.771 6  98938746.77206      1837.330 6        37.327    24571362.291 6 103969536.46206      1930.582 6        40.367
C40        44.000                                                                                                                                    40876777.715 4                     -2039.111 4        25.594
C33        46.000                                                                                                                                    25778187.600 5 134233704.37805     -3475.635 5        33.988                                                                    25778200.220 5 109075965.56205     -2824.188 5        30.045
C14        48.000                                                                                                                                                                                                    26586285.332 4                     -3049.983 4        26.407
C41        50.000                                                                                                                                    25583005.211 5 133217421.85905     -1318.267 5        32.335                                                                    25583021.447 5                     -1071.540 5        33.814
C07        53.000                                                                                                                                    40351938.455 3                     -1767.675 3        20.976    40351908.130 5                     -1366.556 5        30.483
I06        58.000    38625761.841 6 151575741.93706      -734.267 6        39.751
I02        60.000    37159975.983 6 145823730.48206      -779.772 6        40.846
> 2025 01 01 12 46 10.0000000  0 37
G19         1.000    22470874.530 6 118085257.08806     -3365.976 6        40.887                                    22470866.378 2  92014493.05002     -2622.847 2        16.340
G06         2.000    23362068.410 4 122768543.15204       499.373 4        26.000                                    23362084.255 1  95663839.75301       389.120 1        10.370    23362085.181 5                       389.576 5        32.796
G25         3.000    21797301.975 7 114545640.49207      1803.729 7        46.989                                    21797304.835 5  89256287.62705      1405.497 5        34.471    21797308.823 6  89256444.64706      1405.374 6        37.009
G12         7.000    20359757.697 7 106991249.68907      -443.747 7        44.033                                    20359756.925 5  83369820.85005      -345.773 5        34.124    20359756.998 6  83369833.85506      -345.687 6        36.057
E30         9.000    23935781.720 7 125783416.29607      -184.607 7        46.420                                                                    23935789.684 8  93929198.82708      -137.886 8        49.962    23935788.030 8  96379529.90508      -141.533 8        48.332
G32        11.000    23404399.253 7 122990970.35907       753.672 7        46.757                                    23404408.712 6  95837165.66406       587.276 6        38.949    23404408.827 6  95837182.67406       587.120 6        40.050
E02        13.000    24608411.380 6 129318066.91206     -2544.178 6        37.282                                                                    24608418.093 6  96568767.51506     -1899.846 6        40.179    24608418.137 6  99087959.16606     -1949.546 6        41.969
E27        15.000    27056895.082 4                      1493.509 4        25.293                                                                    27056868.947 3                      1113.856 3        21.571    27056883.719 6 108946927.29806      1144.051 6        38.171
G24        16.000    21020496.085 8 110463448.30808     -2968.117 8        50.782                                    21020501.188 8  86075452.86808     -2312.818 8        49.915    21020500.311 7  86075409.86307     -2312.804 7        45.087
E08        17.000    26619813.898 5 139888055.93105     -3918.371 5        34.852                                                                    26619825.949 6 104461866.28406     -2926.077 6        38.243    26619824.774 6 107186880.35006     -3002.284 6        40.601
E07        18.000    24724336.557 6 129927331.69206     -1882.090 6        40.434                                                                                                                                    24724353.869 6  99554694.89906     -1442.036 6        38.402
E36        19.000    26657266.795 4                       693.677 4        27.641                                                                    26657275.955 5 104608926.27005       517.949 5        30.196    26657272.288 5 107337809.93405       532.199 5        31.887
R22        22.000    21693780.729 7 115802988.85707     -2582.637 7        43.206                                                                    21693788.304 7  90069056.30307     -2008.603 7        42.036
S36        23.000    38385248.726 5 201715761.07605      -840.462 5        35.395
S23        24.000    38324227.878 5 201395145.71605      -844.850 5        34.667
R04        25.000    21386092.584 6 114521473.51506     -1953.682 6        40.496                                                                    21386092.539 4  89072314.89804     -1519.351 4        29.592
E29        26.000    26641951.715 7 140004450.27507       918.059 7        42.152                                                                    26641966.749 7 104548891.29007       685.531 7        42.633    26641964.501 7 107276164.92507       703.465 7        43.462
R13        29.000    19879282.417 7 106154252.27807     -1887.179 7        45.267
R12        31.000                                                                                                                                    22710117.370 4                     -3047.219 4        27.078
C10        32.000                                                                                                                                    39382123.624 4 205073014.24304     -1523.128 4        29.791    39382118.623 6 158575439.04606     -1177.514 6        38.501    39382114.360 5 166638564.18905     -1237.240 5        33.970
R03        33.000    22680883.143 4 121412499.14814     -4793.475 4        28.427                                                                    22680900.735 5                     -3728.187 5        32.365
C24        34.000                                                                                                                                    21505098.825 8 111982891.50308      -509.359 8        49.584                                                                    21505099.023 7  90995161.36107      -413.704 7        44.787
R14        35.000    21063221.457 7 112278924.40807      1637.001 7        45.023                                                                    21063233.303 6  87328098.23306      1273.163 6        39.447
R23        36.000    20742136.033 7 110956460.66507      1150.773 7        44.442
C26        37.000                                                                                                                                    23577195.344 6 122772623.92606     -3000.885 6        37.380                                                                    23577178.561 7  99762756.73807     -2438.444 7        42.051
S21        38.000    38613199.568 5 202913717.96305      -840.185 5        34.390
C44        39.000                                                                                                                                    22941522.657 7 119462620.45807      1316.609 7        44.563                                                                    22941526.989 7  97073176.08107      1070.049 7        45.898
C35        40.000                                                                                                                                    23267048.141 7 121157635.61307     -1463.350 7        45.625                                                                    23267056.491 7  98450660.72807     -1189.018 7        47.323
R05        42.000                                                                                                                                    23005406.776 5  95648837.07505      1214.235 5        33.144
C12        43.000                                                                                                                                    24569079.425 6 127937642.39506      2374.595 6        40.708    24569087.805 6  98929562.70606      1836.145 6        37.614    24569081.747 6 103959885.39906      1929.683 6        40.880
C40        44.000                                                                                                                                    40878733.701 4                     -2039.547 4        26.263
C33        46.000                                                                                                                                    25781522.330 5 134251086.20205     -3477.252 5        33.970                                                                    25781536.079 4 109090089.69104     -2825.850 4        28.123
C14        48.000                                                                                                                                                                                                    26590071.888 4                     -3051.116 4        24.647
C41        50.000                                                                                                                                    25584274.591 4 133224020.67004     -1321.333 4        29.156                                                                    25584288.909 5                     -1073.944 5        34.857
C07        53.000                                                                                                                                    40353633.888 3                     -1767.061 3        20.619    40353605.791 5                     -1366.730 5        30.543
I06        58.000    38626698.012 6 151579413.44006      -734.550 6        39.550
I02        60.000    37160969.606 6 145827629.53206      -780.045 6        40.763
> 2025 01 01 12 46 15.0000000  0 37
G19         1.000    22474076.581 6 118102091.18106     -3367.922 6        39.712                                    22474070.255 2  92027610.48902     -2624.345 2        15.810
G06         2.000    23361598.380 4 122766051.36104       496.884 4        28.654                                    23361610.035 1  95661898.10101       387.193 1        10.296    23361608.305 5                       387.174 5        31.826
G25         3.000    21795585.118 7 114536624.76907      1802.350 7        45.530                                    21795589.583 5  89249262.41705      1404.421 5        34.671    21795592.744 6  89249419.40706      1404.475 6        36.215
G12         7.000    20360181.421 7 106993472.88107      -445.847 7        44.885                                    20360180.213 5  83371553.19805      -347.412 5        34.643    20360179.887 6  83371566.19806      -347.243 6        36.004
E30         9.000    23935957.886 7 125784341.56907      -185.740 7        45.880                                                                    23935965.767 8  93929889.77508      -138.672 8        50.100    23935964.085 8  96380238.87508      -142.215 8        48.185
G32        11.000    23403683.246 7 122987208.43907       750.861 7        46.396                                    23403692.599 6  95834234.32506       585.080 6        38.811    23403692.890 6  95834251.31806       585.100 6        39.748
E02        13.000    24610832.849 6 129330789.37906     -2544.904 6        37.153                                                                    24610838.796 6  96578268.06706     -1900.371 6        40.372    24610839.027 7  99097707.53507     -1949.866 7        42.186
E27        15.000    27055475.847 4                      1493.143 4        27.222                                                                    27055447.141 3                      1113.211 3        20.143    27055463.066 6 108941207.17706      1143.680 6        38.871
G24        16.000    21023320.857 8 110478294.25908     -2970.460 8        50.215                                    21023325.984 8  86087021.13508     -2314.644 8        49.604    21023325.324 7  86086978.12907     -2314.652 7        44.930
E08        17.000    26623543.039 5 139907648.56805     -3918.998 5        35.443                                                                    26623554.228 6 104476497.10806     -2926.607 6        38.198    26623553.306 6 107201892.84306     -3002.770 6        40.782
E07        18.000    24726128.571 6 129936747.47506     -1884.304 6        39.985                                                                    24726154.033 5                     -1407.097 5        32.994    24726146.936 6  99561909.54706     -1443.712 6        39.979
E36        19.000    26656613.004 4                       692.465 4        27.186                                                                    26656615.767 5 104606338.88005       517.061 5        30.604    26656611.486 5 107335155.12305       530.361 5        30.755
R22        22.000    21696199.356 6 115815911.44406     -2586.573 6        41.816                                                                    21696210.099 6  90079107.21606     -2011.818 6        41.845
S36        23.000    38386050.890 5 201719962.24305      -840.332 5        35.495
S23        24.000    38325030.883 5 201399368.95805      -844.693 5        34.605
R04        25.000    21387921.957 6 114531252.45306     -1958.037 6        39.123                                                                    21387919.881 4  89079920.64404     -1522.762 4        29.318
E29        26.000    26641078.858 6 139999864.29906       916.371 6        41.211                                                                    26641093.875 7 104545466.75107       684.201 7        42.732    26641091.929 7 107272651.03707       702.125 7        43.826
R13        29.000    19881050.774 7 106163692.45707     -1889.093 7        44.426
R12        31.000    22713762.214 4                     -3918.606 4        26.647                                                                    22713782.540 3                     -3047.327 3        23.314
C10        32.000                                                                                                                                    39383583.690 4 205080628.24604     -1522.712 4        29.536    39383580.736 6 158581326.70906     -1177.570 6        38.279    39383576.240 5 166644751.21605     -1237.273 5        33.731
R03        33.000                                                                                                                                    22685375.166 5                     -3729.593 5        32.120
C24        34.000                                                                                                                                    21505589.047 8 111985441.43608      -510.817 8        49.421                                                                    21505588.661 7  90997233.40107      -415.102 7        44.510
R14        35.000    21061687.374 7 112270741.64307      1635.920 7        44.533                                                                    21061697.932 6  87321733.85406      1272.432 6        38.649
R23        36.000    20741061.856 7 110950716.29707      1146.758 7        43.791
C26        37.000                                                                                                                                                                                                                                                                    23580060.509 7  99774951.22107     -2439.345 7        42.343
S21        38.000    38613999.018 5 202917916.90905      -840.012 5        34.386
C44        39.000                                                                                                                                    22940258.948 7 119456041.89807      1314.652 7        44.001                                                                    22940263.609 7  97067830.47607      1068.260 7        46.261
C35        40.000                                                                                                                                    23268454.376 7 121164958.80607     -1466.112 7        45.178                                                                    23268462.934 7  98456611.41407     -1191.261 7        47.658
R05        42.000    23003940.154 5 122969313.89005      1557.601 5        33.527                                                                    23003947.937 5  95642772.38605      1211.693 5        32.048
C12        43.000                                                                                                                                    24566800.792 6 127925771.32006      2373.610 6        40.529    24566808.560 6  98920383.28606      1835.477 6        37.664    24566802.264 6 103950239.21706      1928.837 6        41.299
C40        44.000                                                                                                                                    40880694.990 4                     -2039.665 4        26.084
C33        46.000                                                                                                                                    25784856.585 5 134268474.76805     -3478.232 5        33.814                                                                    25784875.753 4 109104219.37704     -2827.109 4        26.742
C14        48.000                                                                                                                                                                                                    26593858.226 3                     -3049.906 3        23.143
C41        50.000                                                                                                                                    25585547.494 5 133230633.76305     -1323.572 5        32.168                                                                    25585558.812 5 108260868.92515     -1075.921 5        35.562
C07        53.000                                                                                                                                    40355325.566 3                     -1762.145 3        20.738    40355302.762 5                     -1366.706 5        31.208
I06        58.000    38627633.515 6 151583085.33606      -734.340 6        39.703
I02        60.000    37161963.974 6 145831529.81606      -780.355 6        40.832
> 2025 01 01 12 46 20.0000000  0 37
G19         1.000    22477282.233 6 118118936.25906     -3369.806 6        38.324                                    22477276.203 2  92040736.50002     -2625.796 2        15.286
G06         2.000    23361129.019 4 122763574.01004       493.757 4        29.223                                    23361138.279 1  95659967.79101       384.723 1         9.905    23361139.205 5                       384.884 5        30.181
G25         3.000    21793870.339 7 114527616.10507      1801.405 7        44.870                                    21793875.700 5  89242242.70905      1403.686 5        34.857    21793878.937 5  89242399.71105      1403.751 5        35.652
G12         7.000    20360606.183 7 106995707.30707      -447.686 7        45.222                                    20360605.746 5  83373294.30305      -348.843 5        35.510    20360606.161 6  83373307.33806      -348.865 6        36.631
E30         9.000    23936135.446 7 125785272.56607      -186.430 7        45.357                                                                    23936142.980 8  93930585.00208      -139.288 8        50.036    23936141.169 8  96380952.24508      -142.875 8        48.073
G32        11.000    23402970.128 7 122983460.79107       748.406 7        45.529                                    23402979.246 6  95831314.10506       583.170 6        38.742    23402978.606 6  95831331.10606       583.180 6        39.021
E02        13.000    24613254.919 6 129343515.30606     -2545.298 6        38.117                                                                    24613260.447 6  96587771.19206     -1900.611 6        40.589    24613260.971 7  99107458.57507     -1950.252 7        42.510
E27        15.000    27054055.387 4                      1493.045 4        25.789                                                                    27054024.803 3                      1115.480 3        19.045    27054043.213 6 108935488.87206      1143.796 6        39.363
G24        16.000    21026148.146 8 110493152.32608     -2972.549 8        49.940                                    21026153.042 8  86098598.84208     -2316.269 8        49.326    21026152.551 7  86098555.83607     -2316.243 7        44.748
E08        17.000    26627271.935 6 139927244.50306     -3919.132 6        36.450                                                                    26627283.222 6 104491130.39106     -2926.569 6        38.168    26627282.335 6 107216907.88506     -3003.064 6        40.999
E07        18.000    24727922.413 6 129946174.65806     -1886.248 6        39.006                                                                    24727944.708 5                     -1412.228 5        34.038    24727937.533 6  99569132.96606     -1445.387 6        41.294
E36        19.000                                                                                                                                    26655958.332 5 104603759.31205       515.193 5        30.664    26655953.500 5 107332508.28405       528.556 5        30.181
R22        22.000    21698623.390 6 115828854.66506     -2590.453 6        41.244                                                                    21698633.727 6  90089174.12106     -2014.546 6        40.465
S36        23.000    38386853.573 5 201724162.33105      -839.758 5        35.457
S23        24.000    38325829.210 5 201403592.15305      -844.439 5        34.600
R04        25.000                                                                                                                                    21389750.120 5  89087543.61405     -1526.132 5        30.189
E29        26.000    26640208.023 6 139995287.65506       914.596 6        40.291                                                                    26640222.703 7 104542049.12107       682.993 7        42.146    26640221.324 7 107269144.25407       700.932 7        43.731
R13        29.000    19882819.380 7 106173142.78807     -1890.730 7        43.983
R12        31.000    22717426.440 4                     -3919.823 4        27.449                                                                    22717439.849 4                     -3047.578 4        24.707
C10        32.000                                                                                                                                    39385044.028 5 205088242.71005     -1522.223 5        30.121    39385043.037 6 158587214.71806     -1177.310 6        38.501    39385038.800 5 166650938.63605     -1237.260 5        33.587
R03        33.000                                                                                                                                    22689856.268 5                     -3730.777 5        33.174
C24        34.000                                                                                                                                    21506080.839 8 111987999.28308      -512.052 8        49.421                                                                    21506079.842 7  90999311.87907      -416.162 7        43.981
R14        35.000    21060153.143 7 112262564.53307      1635.096 7        42.673                                                                    21060162.483 6  87315373.91906      1271.807 6        39.180
R23        36.000    20739990.926 7 110944992.83507      1142.840 7        42.811
C26        37.000                                                                                                                                    23582929.242 5 122802643.53505     -3002.906 5        35.252                                                                    23582943.294 7  99787150.12907     -2440.104 7        42.377
S21        38.000    38614794.131 5 202922115.73705      -839.470 5        34.581
C44        39.000                                                                                                                                    22938998.210 7 119449474.04207      1312.753 7        43.416                                                                    22939002.126 7  97062493.57407      1066.714 7        46.299
C35        40.000                                                                                                                                    23269864.091 7 121172295.92607     -1468.634 7        45.067                                                                    23269872.122 7  98462573.42907     -1193.319 7        47.727
R05        42.000    23002490.365 5 122961534.44405      1554.379 5        35.362                                                                    23002492.501 4  95636721.72704      1208.833 4        28.872
C12        43.000                                                                                                                                    24564523.302 6 127913905.43506      2373.044 6        40.334    24564529.379 6  98911207.87706      1834.925 6        38.069    24564523.676 6 103940597.26606      1928.093 6        41.571
C40        44.000                                                                                                                                    40882656.570 4                     -2039.786 4        26.132
C33        46.000                                                                                                                                    25788198.881 5 134285869.34205     -3479.125 5        34.867
C14        48.000                                                                                                                                                                                                    26597644.156 3                     -3051.382 3        22.019
C41        50.000                                                                                                                                    25586827.019 5 133237260.28705     -1326.501 5        35.943                                                                    25586830.979 5 108266253.50005     -1077.721 5        35.705
C07        53.000                                                                                                                                    40357027.344 3                     -1764.190 3        20.143    40357000.043 5                     -1366.740 5        30.974
I06        58.000    38628569.143 6 151586757.03006      -733.939 6        39.501
I02        60.000    37162958.046 6 145835430.65906      -780.095 6        40.656
> 2025 01 01 12 46 25.0000000  0 36
G19         1.000    22480491.008 6 118135792.50306     -3372.579 6        37.168                                    22480484.248 2  92053871.20202     -2627.978 2        13.939
G06         2.000    23360660.504 4 122761111.44704       490.980 4        28.749                                    23360669.515 1  95658048.91801       382.544 1         8.857    23360666.201 4                       383.310 4        26.647
G25         3.000    21792158.350 7 114518614.68207      1799.461 7        44.757                                    21792163.260 5  89235228.63905      1402.172 5        34.929    21792165.870 6  89235385.64906      1402.222 6        36.053
G12         7.000    20361033.651 7 106997953.18307      -450.366 7        46.240                                    20361033.497 6  83375044.32706      -350.929 6        36.423    20361034.651 6  83375057.35206      -350.970 6        38.015
E30         9.000    23936314.006 7 125786209.48207      -188.082 7        45.594                                                                    23936321.276 8  93931284.65208      -140.493 8        50.041    23936319.455 7  96381670.15207      -144.104 7        47.910
G32        11.000    23402260.249 7 122979727.64507       745.084 7        44.644                                    23402268.638 6  95828405.18506       580.581 6        38.345    23402267.931 6  95828422.17206       580.558 6        38.787
E02        13.000    24615676.806 6 129356244.83906     -2546.431 6        39.553                                                                    24615683.012 6  96597277.03306     -1901.500 6        40.870    24615683.308 7  99117212.38307     -1951.163 7        42.940
E27        15.000    27052635.920 4                      1492.194 4        26.742                                                                                                                                    27052623.786 6 108929772.55206      1142.981 6        40.012
G24        16.000    21028978.219 8 110508022.66408     -2975.420 8        50.096                                    21028982.430 8  86110186.11308     -2318.509 8        48.948    21028982.195 7  86110143.10607     -2318.438 7        44.369
E08        17.000    26631001.919 6 139946843.94806     -3920.443 6        38.030                                                                    26631013.020 6 104505766.27906     -2927.263 6        38.258    26631012.189 6 107231925.60706     -3003.919 6        41.008
E07        18.000    24729717.484 6 129955613.45406     -1888.947 6        38.757                                                                    24729738.685 5  97044814.65815     -1410.766 5        34.510    24729731.863 7  99576365.27207     -1447.552 7        42.157
E36        19.000                                                                                                                                    26655302.700 5 104601187.59105       513.586 5        32.036    26655298.297 4 107329869.55104       526.790 4        29.232
R22        22.000    21701051.837 6 115841818.69806     -2594.902 6        38.961                                                                    21701061.266 6  90099257.25106     -2018.299 6        40.072
S36        23.000    38387646.325 5 201728362.80405      -840.432 5        35.252
S23        24.000    38326639.298 5 201407815.47405      -844.601 5        34.971
E29        26.000    26639338.832 6 139990720.57506       912.310 6        40.191                                                                    26639353.484 7 104538638.69007       681.327 7        42.360    26639352.497 7 107265644.85607       699.067 7        44.378
R13        29.000    19884591.063 7 106182603.48907     -1893.190 7        44.646
R12        31.000    22721097.893 5                     -3920.366 5        30.113                                                                    22721101.102 4                     -3048.796 4        25.865
C10        32.000                                                                                                                                    39386508.095 4 205095857.97104     -1523.520 4        29.403    39386506.492 6 158593103.27406     -1177.857 6        38.381    39386501.182 5 166657126.61305     -1237.624 5        33.479
R03        33.000    22694367.653 4                     -4798.628 4        26.527                                                                    22694337.022 5                     -3732.213 5        33.461
C24        34.000                                                                                                                                    21506573.882 8 111990565.23008      -514.075 8        49.830                                                                    21506572.667 7  91001396.93107      -417.820 7        43.600
R14        35.000    21058619.247 7 112254393.55407      1633.417 7        42.573                                                                    21058629.246 6  87309018.74106      1270.585 6        39.667
R23        36.000    20738925.371 7 110939290.40407      1138.298 7        43.937
C26        37.000                                                                                                                                    23585818.003 6 122817661.63306     -3004.477 6        36.480                                                                    23585827.314 7  99799353.54707     -2441.281 7        42.480
S21        38.000    38615599.421 5 202926314.75005      -839.894 5        34.476
C44        39.000                                                                                                                                    22937739.801 7 119442917.07407      1310.220 7        43.086                                                                    22937742.497 7  97057165.51307      1064.539 7        46.218
C35        40.000                                                                                                                                    23271276.492 7 121179647.14707     -1471.738 7        44.892                                                                    23271283.996 8  98468546.89708     -1195.939 8        48.014
R05        42.000    23001039.642 6 122953773.46816      1550.277 6        37.830
C12        43.000                                                                                                                                    24562246.887 6 127902044.94906      2371.541 6        40.067    24562251.222 6  98902036.67506      1833.720 6        38.285    24562245.935 6 103930959.68706      1926.900 6        41.988
C40        44.000                                                                                                                                    40884613.987 4                     -2040.371 4        26.335
C33        46.000                                                                                                                                    25791550.660 5 134303270.09805     -3480.831 5        35.714                                                                    25791597.530 5 109132493.57305     -2828.415 5        32.317
C14        48.000                                                                                                                                                                                                    26601430.185 3                     -3049.808 3        20.833
C41        50.000                                                                                                                                    25588112.906 6 133243900.48806     -1329.499 6        37.365                                                                    25588106.016 6 108271649.17606     -1080.445 6        36.140
C07        53.000                                                                                                                                                                                                    40358697.806 5                     -1366.880 5        31.147
I06        58.000    38629504.780 6 151590428.69306      -734.328 6        39.658
I02        60.000    37163951.824 6 145839332.33706      -780.552 6        40.641
> 2025 01 01 12 46 30.0000000  0 36
G19         1.000    22483701.604 5 118152660.09405     -3374.628 5        34.938                                    22483694.332 2  92067014.75802     -2629.587 2        12.000
G06         2.000    23360195.936 4 122758663.83304       488.345 4        29.081                                    23360203.540 1  95656141.64901       380.477 1         6.750    23360198.805 4                       380.581 4        24.617
G25         3.000    21790447.424 7 114509620.67107      1798.188 7        44.569                                    21790452.257 5  89228220.34605      1401.182 5        35.214    21790454.889 6  89228377.36406      1401.018 6        37.395
G12         7.000    20361463.245 7 107000210.65507      -452.561 7        47.621                                    20361463.426 6  83376803.39406      -352.645 6        37.626    20361463.920 6  83376816.42906      -352.631 6        39.408
E30         9.000    23936493.870 7 125787152.49307      -189.101 7        45.810                                                                    23936500.793 8  93931988.84308      -141.195 8        50.018    23936498.937 7  96382392.72307      -144.932 7        47.601
G32        11.000    23401552.451 7 122976009.15907       742.319 7        44.236                                    23401560.735 6  95825507.68706       578.432 6        38.006    23401560.322 6  95825524.67206       578.592 6        38.703
E02        13.000    24618099.273 6 129368978.17906     -2546.988 6        40.415                                                                    24618106.701 6  96606785.70206     -1902.053 6        41.364    24618106.465 7  99126969.09907     -1951.489 7        43.319
E27        15.000    27051212.853 3                      1491.551 3        22.990                                                                    27051223.224 5 106154812.35915      1113.459 5        33.425    27051204.477 6 108924058.30606      1142.652 6        40.095
G24        16.000    21031810.395 8 110522905.45608     -2977.764 8        50.196                                    21031814.179 8  86121783.08908     -2320.332 8        48.727    21031814.496 7  86121740.08707     -2320.278 7        44.128
E08        17.000    26634731.965 6 139966447.04306     -3920.771 6        39.447                                                                    26634743.548 6 104520404.92406     -2927.798 6        38.183    26634742.605 6 107246946.12206     -3004.443 6        41.211
E07        18.000    24731514.579 6 129965064.03306     -1891.318 6        37.894                                                                    24731535.601 5  97051871.89805     -1412.601 5        35.029    24731529.885 7  99583606.58307     -1449.097 7        42.753
E36        19.000    26654676.223 3                       686.871 3        20.429                                                                    26654649.687 5 104598623.96605       511.763 5        33.102    26654648.254 4 107327239.01804       525.144 4        29.128
R22        22.000    21703483.008 6 115854803.62206     -2599.082 6        38.904                                                                    21703493.491 6  90109356.64206     -2021.465 6        39.024
S36        23.000    38388451.981 5 201732563.93105      -840.376 5        35.871
S23        24.000    38327441.279 5 201412038.80805      -844.635 5        34.838
E29        26.000    26638471.364 6 139986163.21606       910.614 6        40.715                                                                    26638486.058 7 104535235.50907       679.862 7        42.423    26638485.566 7 107262152.88607       697.670 7        44.816
R13        29.000    19886365.354 7 106192074.58907     -1895.227 7        45.198
R12        31.000    22724771.774 5                     -3921.220 5        33.060                                                                    22724770.470 3                     -3050.150 3        23.657
C10        32.000                                                                                                                                    39387972.509 4 205103474.04104     -1523.326 4        29.308    39387969.378 6 158598992.48806     -1177.840 6        38.724    39387964.021 5 166663315.28905     -1237.693 5        33.126
R03        33.000    22698843.077 3                     -4803.962 3        18.955                                                                    22698818.549 5  94506652.20715     -3733.472 5        33.844
C24        34.000                                                                                                                                    21507068.172 8 111993139.44308      -515.575 8        50.101                                                                    21507066.910 7  91003488.70207      -419.083 7        42.935
R14        35.000    21057088.012 6 112246228.78406      1632.409 6        40.329                                                                    21057098.102 6  87302668.38806      1269.668 6        40.307
R23        36.000    20737865.643 7 110933609.18907      1134.300 7        45.810
C26        37.000                                                                                                                                    23588706.409 6 122832685.43806     -3005.174 6        37.675                                                                    23588712.559 7  99811561.66007     -2441.967 7        42.372
S21        38.000    38616392.069 5 202930513.90605      -839.769 5        34.609
C44        39.000                                                                                                                                    22936482.892 7 119436371.16807      1308.247 7        43.060                                                                    22936485.228 7  97051846.44807      1062.964 7        46.161
C35        40.000                                                                                                                                    23272691.417 7 121187012.63607     -1474.401 7        44.846                                                                    23272698.592 8  98474531.95708     -1198.130 8        48.009
R05        42.000    22999593.756 6 122946031.17506      1546.581 6        41.139
C12        43.000                                                                                                                                    24559970.837 6 127890190.08606      2370.398 6        39.312    24559975.221 6  98892869.75306      1833.069 6        39.165    24559969.318 7 103921326.67107      1926.203 7        42.089
C40        44.000                                                                                                                                    40886566.785 4                     -2040.302 4        25.910
C33        46.000                                                                                                                                    25794897.691 5 134320677.11605     -3482.168 5        35.000                                                                    25794934.719 5 109146638.20005     -2829.399 5        33.886
C14        48.000                                                                                                                                                                                                    26605222.743 3                     -3051.749 3        20.619
C41        50.000                                                                                                                                    25589390.982 6 133250554.50206     -1332.134 6        36.801                                                                    25589383.442 5 108277056.11205     -1082.494 5        35.829
C07        53.000                                                                                                                                                                                                    40360395.574 5                     -1366.893 5        31.585
I06        58.000    38630440.371 6 151594100.42506      -734.349 6        39.730
I02        60.000    37164946.543 6 145843234.84306      -780.490 6        40.448
> 2025 01 01 12 46 35.0000000  0 36
G19         1.000    22486911.464 5 118169538.37505     -3376.992 5        32.042                                    22486906.205 1  92080166.59601     -2631.410 1        11.037
G06         2.000    23359735.347 4 122756230.49104       485.587 4        28.834                                    23359740.410 1  95654245.58701       378.391 1         5.857    23359740.387 4                       377.744 4        26.910
G25         3.000    21788737.342 7 114500633.38907      1796.690 7        44.676                                    21788742.518 5  89221217.29205      1400.018 5        35.443    21788745.515 6  89221374.29506      1399.855 6        38.024
G12         7.000    20361894.752 8 107002479.06708      -454.903 8        48.760                                    20361895.407 6  83378570.98506      -354.471 6        38.784    20361895.303 6  83378584.01206      -354.421 6        39.943
E30         9.000    23936674.436 7 125788100.91507      -190.329 7        46.477                                                                    23936681.280 8  93932697.09108      -142.149 8        49.915    23936679.525 7  96383119.44007      -145.875 7        47.443
G32        11.000    23400847.701 7 122972304.66607       739.361 7        44.108                                    23400855.422 6  95822621.09006       576.122 6        37.637    23400854.989 6  95822638.09306       576.251 6        37.747
E02        13.000    24620522.710 6 129381714.64006     -2547.633 6        41.399                                                                    24620530.932 6  96616296.70206     -1902.533 6        41.692    24620530.186 7  99136728.21507     -1952.062 7        43.668
E27        15.000                                                                                                                                    27049803.801 5 106149244.95005      1113.386 5        31.849    27049785.535 6 108918345.63106      1142.247 6        40.393
G24        16.000    21034644.781 8 110537800.01608     -2980.279 8        49.985                                    21034648.199 8  86133389.23608     -2322.294 8        48.646    21034648.956 7  86133346.23307     -2322.254 7        44.363
E08        17.000    26638462.859 6 139986053.13006     -3921.679 6        40.577                                                                    26638474.473 6 104535045.79906     -2928.581 6        38.288    26638473.642 6 107261968.92406     -3004.875 6        41.366
E07        18.000    24733315.089 5 129974525.64405     -1893.570 5        35.467                                                                    24733335.619 6  97058937.41906     -1414.239 6        36.102    24733330.224 7  99590856.40307     -1450.908 7        43.204
E36        19.000                                                                                                                                    26653999.232 5 104596067.85305       510.207 5        33.599    26654000.114 4 107324616.16204       523.967 4        28.123
R22        22.000    21705921.444 6 115867808.86306     -2603.202 6        40.675                                                                    21705929.486 6  90119471.80706     -2024.837 6        38.276
S36        23.000    38389249.173 5 201736764.95805      -840.529 5        35.348
S23        24.000    38328236.513 5 201416261.63005      -844.614 5        34.195
R04        25.000    21395293.376 6 114570847.45816     -1975.571 6        38.114                                                                    21395297.517 6  89110515.09516     -1536.548 6        36.401
E29        26.000    26637606.063 6 139981615.01306       908.649 6        40.858                                                                    26637620.467 7 104531839.23007       678.316 7        42.227    26637620.314 7 107258668.00107       696.112 7        45.139
R13        29.000    19888140.692 7 106201555.50507     -1897.326 7        44.938
R12        31.000    22728444.156 5                     -3922.011 5        32.647                                                                    22728438.444 3                     -3052.676 3        22.895
C10        32.000                                                                                                                                    39389434.962 4 205111090.30704     -1523.600 4        29.346    39389431.289 6 158604881.86806     -1178.017 6        38.601    39389426.330 5 166669504.12405     -1237.657 5        32.910
R03        33.000                                                                                                                                    22703302.008 5  94525321.71005     -3734.609 5        34.300
C24        34.000                                                                                                                                    21507563.255 8 111995721.27008      -517.232 8        50.027                                                                    21507562.545 7  91005586.65807      -420.329 7        42.392
R14        35.000    21055553.450 5 112238069.45905      1631.179 5        34.790                                                                    21055566.912 6  87296322.25406      1268.730 6        40.217
R23        36.000    20736809.134 7 110927948.50407      1129.939 7        46.745
C26        37.000                                                                                                                                    23591593.168 6 122847714.40606     -3006.456 6        37.758                                                                    23591598.720 7  99823773.93407     -2443.067 7        42.277
S21        38.000    38617196.103 5 202934712.72405      -839.729 5        34.333
C44        39.000                                                                                                                                    22935227.622 7 119429835.67307      1305.941 7        43.276                                                                    22935230.086 7  97046535.85307      1061.137 7        46.016
C35        40.000                                                                                                                                    23274108.790 7 121194391.72507     -1477.317 7        45.025                                                                    23274115.703 8  98480528.09408     -1200.504 8        48.055
R05        42.000    22998153.737 6 122938306.69616      1542.854 6        40.138
C12        43.000                                                                                                                                    24557694.504 6 127878340.11906      2369.496 6        38.447    24557699.655 6  98883706.67106      1832.165 6        39.526    24557693.468 7 103911697.65107      1925.235 7        42.298
C40        44.000                                                                                                                                    40888524.318 4                     -2040.727 4        26.036
C33        46.000                                                                                                                                    25798241.154 5 134338089.76005     -3483.454 5        33.150                                                                    25798269.961 5 109160787.45205     -2830.409 5        34.495
C41        50.000                                                                                                                                                                                                                                                                    25590663.242 5 108282473.77005     -1084.766 5        35.048
C07        53.000                                                                                                                                                                                                    40362092.890 5                     -1366.941 5        31.389
I06        58.000    38631376.073 6 151597771.70806      -734.296 6        39.886
I02        60.000    37165941.303 6 145847137.77806      -780.818 6        40.484
> 2025 01 01 12 46 40.0000000  0 36
G19         1.000    22490125.975 4 118186428.49604     -3378.891 4        29.630                                    22490120.358 1  92093327.68801     -2632.975 1         9.429
G06         2.000                                                                                                                                                                    23359281.420 4                       375.808 4        29.336
G25         3.000    21787028.753 7 114491654.14507      1795.034 7        45.187                                    21787034.207 5  89214220.50405      1398.725 5        35.457    21787036.361 6  89214377.49106      1398.900 6        37.705
G12         7.000    20362328.339 8 107004759.70108      -457.251 8        49.479                                    20362329.646 6  83380348.10506      -356.302 6        39.733    20362328.571 6  83380361.12106      -356.268 6        39.426
E30         9.000    23936856.125 7 125789056.00207      -191.555 7        46.385                                                                    23936863.055 8  93933410.30608      -143.038 8        49.689    23936861.354 7  96383851.26707      -146.759 7        47.199
G32        11.000    23400146.059 7 122968615.42607       736.422 7        43.979                                    23400152.997 6  95819746.38506       573.827 6        37.059    23400152.625 6  95819763.39506       573.815 6        37.633
E02        13.000    24622947.327 6 129394455.49606     -2548.459 6        41.328                                                                    24622955.582 6  96625810.98706     -1903.014 6        41.802    24622954.770 7  99146490.70707     -1952.752 7        44.108
E27        15.000                                                                                                                                    27048386.232 5 106143679.99705      1112.921 5        30.445    27048367.284 6 108912635.51006      1141.831 6        40.596
G24        16.000    21037481.180 8 110552707.58808     -2982.701 8        49.594                                    21037484.809 8  86145005.52208     -2324.181 8        48.430    21037485.828 7  86144962.51607     -2324.173 7        44.796
E08        17.000    26642194.865 6 140005663.43706     -3922.296 6        41.104                                                                    26642206.370 6 104549689.79906     -2929.003 6        38.282    26642205.319 6 107276994.96106     -3005.404 6        41.707
E07        18.000    24735118.711 5 129983999.62605     -1895.861 5        34.100                                                                    24735138.967 6  97066012.16506     -1415.849 6        37.142    24735132.794 7  99598115.68007     -1452.610 7        43.507
E36        19.000    26653351.737 4                       681.309 4        25.008                                                                    26653350.582 5 104593520.20205       508.838 5        33.240    26653353.293 4 107322002.05504       522.216 4        28.569
R22        22.000    21708362.480 6 115880835.58106     -2607.250 6        40.665                                                                    21708370.384 6  90129603.69306     -2027.991 6        36.692
S36        23.000    38390049.124 5 201740966.48405      -840.460 5        35.276
S23        24.000    38329047.772 5 201420485.14405      -844.481 5        34.471
R04        25.000    21397133.070 6 114580736.93406     -1980.017 6        38.814                                                                    21397141.151 5  89118206.84905     -1540.031 5        35.252
E29        26.000    26636742.459 6 139977077.01806       906.683 6        41.018                                                                    26636756.696 7 104528450.48007       677.047 7        42.205    26636756.970 7 107255190.84507       694.747 7        45.336
R13        29.000    19889918.264 7 106211047.42807     -1899.384 7        44.983
R12        31.000    22732111.897 5                     -3922.853 5        32.371
C10        32.000                                                                                                                                    39390899.822 4 205118707.93004     -1523.278 4        29.602    39390893.909 6 158610772.30206     -1178.055 6        38.237    39390889.457 5 166675694.08305     -1238.134 5        32.569
R03        33.000    22707769.441 4                     -4803.490 4        27.952                                                                    22707789.832 5  94543997.97205     -3735.559 5        34.695
C24        34.000                                                                                                                                    21508060.311 8 111998311.94308      -518.931 8        49.898                                                                    21508059.967 7  91007691.79407      -421.573 7        42.197
R14        35.000    21054023.883 5 112229917.07405      1629.878 5        35.562                                                                    21054037.711 6  87289981.50806      1267.779 6        40.291
R23        36.000    20735755.197 7 110922309.66107      1125.714 7        46.687
C26        37.000                                                                                                                                    23594480.453 6 122862749.73006     -3007.566 6        37.871                                                                    23594485.991 7  99835991.33507     -2444.034 7        42.341
S21        38.000    38617993.545 5 202938912.32505      -840.051 5        34.267
C44        39.000                                                                                                                                    22933973.984 7 119423311.84507      1303.673 7        43.934                                                                    22933977.129 7  97041234.71907      1059.406 7        45.701
C35        40.000                                                                                                                                    23275529.263 7 121201785.65807     -1480.189 7        46.238                                                                    23275535.552 8  98486536.26808     -1202.790 8        48.020
R05        42.000    22996714.436 6 122930601.31616      1539.288 6        38.757
C12        43.000                                                                                                                                    24555419.322 6 127866496.40506      2368.173 6        37.130    24555425.460 6  98874548.36606      1831.414 6        39.979    24555418.986 7 103902073.65807      1924.370 7        42.301
C40        44.000                                                                                                                                    40890483.859 4                     -2040.149 4        26.659
C33        46.000                                                                                                                                    25801589.680 5 134355509.35305     -3484.803 5        32.210                                                                    25801612.126 5 109174942.20205     -2831.467 5        34.381
C41        50.000                                                                                                                                    25591920.148 5 133263903.44805     -1337.852 5        33.826                                                                    25591943.917 5 108287903.13105     -1086.991 5        34.114
C07        53.000                                                                                                                                                                                                    40363789.898 5                     -1366.900 5        31.547
I06        58.000    38632311.746 6 151601443.50606      -734.336 6        39.856
I02        60.000    37166935.825 6 145851041.89506      -780.935 6        40.210
> 2025 01 01 12 46 45.0000000  0 35
G06         2.000                                                                                                                                                                    23358825.583 4                       373.218 4        29.716
G25         3.000    21785321.466 7 114482681.56407      1793.599 7        45.371                                    21785327.026 5  89207228.90705      1397.607 5        35.605    21785328.075 6  89207385.91506      1397.612 6        37.444
G12         7.000    20362763.946 8 107007051.20408      -459.624 8        49.820                                    20362765.826 6  83382133.70306      -358.151 6        40.598    20362763.777 6  83382146.72006      -358.130 6        39.183
E30         9.000    23937039.080 7 125790016.46807      -192.826 7        46.624                                                                    23937045.855 8  93934127.53708      -144.013 8        49.499    23937044.317 7  96384587.20607      -147.764 7        46.947
G32        11.000    23399446.487 7 122964940.16807       733.436 7        43.281                                    23399453.233 6  95816882.57506       571.500 6        36.801    23399453.987 6  95816899.56106       571.534 6        37.323
E02        13.000    24625372.932 6 129407199.44306     -2549.355 6        41.099                                                                    24625380.729 6  96635327.58906     -1903.839 6        41.857    24625379.761 7  99156255.56207     -1953.369 7        44.333
E27        15.000                                                                                                                                    27046969.196 4 106138116.46004      1112.528 4        29.100    27046949.656 6 108906926.92606      1141.347 6        40.839
G24        16.000    21040320.111 8 110567626.87608     -2985.268 8        49.109                                    21040323.779 8  86156630.93408     -2326.184 8        48.351    21040324.980 7  86156587.92507     -2326.178 7        45.192
E08        17.000    26645926.882 6 140025276.65606     -3923.178 6        41.533                                                                    26645938.885 6 104564335.98306     -2929.442 6        37.992    26645937.595 6 107292023.24006     -3005.916 6        41.783
E07        18.000    24736923.634 5 129993484.68405     -1898.599 5        33.719                                                                    24736945.291 6  97073095.15906     -1417.671 6        38.240    24736937.418 7  99605383.43407     -1454.561 7        43.509
E36        19.000                                                                                                                                    26652703.950 5 104590980.09305       507.124 5        32.479    26652707.909 4 107319395.64504       520.329 4        28.142
R22        22.000    21710806.286 6 115893882.46506     -2611.625 6        41.635                                                                    21710815.506 5  90139751.23405     -2031.439 5        35.700
S36        23.000    38390845.382 5 201745167.36905      -840.514 5        35.462
S23        24.000    38329851.372 5 201424708.33805      -845.098 5        34.524
R04        25.000    21398975.421 6 114590647.92606     -1984.506 6        37.989
E29        26.000    26635880.869 6 139972548.08406       904.639 6        41.571                                                                    26635894.820 7 104525068.51407       675.552 7        42.135    26635895.451 7 107251720.65207       693.268 7        45.913
R13        29.000    19891698.101 7 106220549.08707     -1901.544 7        44.650
R12        31.000    22735782.514 5                     -3923.560 5        31.328
C10        32.000                                                                                                                                    39392364.956 4 205126325.78804     -1523.793 4        29.109    39392357.602 6 158616662.84606     -1178.327 6        38.096    39392352.130 5 166681884.17405     -1238.066 5        32.754
R03        33.000    22712257.985 4                     -4804.835 4        28.028                                                                    22712278.317 5  94562679.83015     -3737.263 5        34.486
C24        34.000                                                                                                                                    21508559.207 8 112000910.18208      -520.628 8        49.802                                                                    21508558.834 6  91009803.10206      -423.098 6        41.816
R14        35.000    21052501.073 6 112221770.10506      1628.748 6        38.772                                                                    21052509.994 6  87283645.02606      1266.675 6        39.108
R23        36.000    20734705.030 7 110916691.24907      1121.378 7        47.048
C26        37.000                                                                                                                                    23597369.350 6 122877790.08206     -3008.828 6        38.318                                                                    23597374.276 7  99848212.85007     -2444.875 7        42.305
S21        38.000    38618790.670 5 202943111.26305      -840.087 5        34.476
C44        39.000                                                                                                                                    22932722.761 7 119416798.40207      1301.394 7        44.531                                                                    22932726.184 7  97035942.05107      1057.527 7        45.628
C35        40.000                                                                                                                                    23276952.671 7 121209193.15107     -1483.041 7        47.370                                                                    23276957.886 7  98492555.48407     -1205.083 7        47.819
R05        42.000    22995277.826 5 122922913.83115      1535.471 5        34.567                                                                    22995336.421 5                      1194.411 5        32.539
C12        43.000                                                                                                                                    24553143.720 5 127854657.56605      2367.094 5        34.871    24553151.540 6  98865393.85706      1830.414 6        40.217    24553145.132 7 103892453.67107      1923.335 7        42.303
C40        44.000                                                                                                                                    40892447.984 4                     -2039.473 4        26.766
C33        46.000                                                                                                                                    25804935.629 5 134372934.50805     -3486.098 5        31.494                                                                    25804959.654 5 109189101.50505     -2832.304 5        34.114
C41        50.000                                                                                                                                    25593204.075 5 133270598.18005     -1340.325 5        33.737                                                                    25593224.891 5 108293343.19405     -1089.160 5        33.251
C07        53.000                                                                                                                                                                                                    40365485.711 5                     -1366.881 5        31.570
I06        58.000    38633247.512 6 151605114.85306      -734.356 6        39.709
I02        60.000    37167930.828 6 145854946.44106      -781.169 6        40.155
> 2025 01 01 12 46 50.0000000  0 36
G19         1.000    22496577.353 5 118220241.67105     -3383.617 5        32.533                                    22496554.754 1  92119675.38901     -2636.612 1         4.857
G06         2.000    23358397.217 4                       476.223 4        24.917                                                                                                    23358368.547 4                       371.408 4        28.938
G25         3.000    21783614.827 7 114473716.72207      1792.287 7        45.506                                    21783621.254 5  89200243.34005      1396.577 5        35.552    21783621.458 6  89200400.35306      1396.636 6        37.463
G12         7.000    20363202.532 8 107009354.60608      -461.815 8        49.843                                    20363204.041 6  83383928.57206      -359.858 6        41.163    20363202.310 6  83383941.58306      -359.851 6        39.928
E30         9.000    23937223.305 7 125790983.33307      -193.915 7        47.423                                                                    23937229.830 8  93934849.54708      -144.781 8        49.345    23937228.396 7  96385328.05907      -148.605 7        47.020
G32        11.000    23398748.820 7 122961279.90807       730.546 7        42.610                                    23398756.371 6  95814030.44406       569.253 6        36.590    23398757.380 6  95814047.42906       569.071 6        37.701
E02        13.000    24627798.753 6 129419947.48706     -2549.927 6        40.479                                                                    24627806.213 7  96644847.22907     -1904.143 7        42.013    24627805.627 7  99166023.55507     -1953.892 7        44.778
E27        15.000                                                                                                                                    27045554.084 4 106132555.26204      1112.253 4        29.014    27045532.602 6 108901220.67506      1141.193 6        41.302
G24        16.000    21043161.545 8 110582558.90008     -2987.579 8        48.611                                    21043165.267 8  86168266.27508     -2327.982 8        48.160    21043166.151 7  86168223.26907     -2327.949 7        45.433
E08        17.000    26649659.997 7 140044893.81907     -3923.799 7        42.190                                                                    26649671.888 6 104578985.11906     -2930.107 6        38.126    26649670.638 7 107307054.52607     -3006.505 7        42.154
E07        18.000    24738729.978 5 130002981.79505     -1900.595 5        34.857                                                                    24738753.602 6  97080187.15606     -1419.296 6        39.159    24738744.214 7  99612660.42107     -1456.278 7        43.854
E36        19.000                                                                                                                                    26652058.883 5 104588448.23305       505.345 5        31.200    26652064.534 4 107316797.70204       518.952 4        28.445
R22        22.000    21713254.426 6 115906950.57606     -2615.670 6        41.685                                                                    21713265.727 5  90149915.26605     -2034.409 5        34.038
S36        23.000    38391645.811 5 201749369.05205      -840.511 5        35.329
S23        24.000    38330654.896 5 201428932.09105      -844.785 5        34.790
R04        25.000    21400823.984 6 114600581.51906     -1988.906 6        39.619                                                                    21400814.913 5  89133641.25105     -1546.872 5        34.000
E29        26.000    26635021.051 7 139968029.21707       902.782 7        42.243                                                                    26635034.893 7 104521694.06407       674.239 7        42.605    26635035.738 7 107248258.16707       691.792 7        46.390
R13        29.000    19893478.722 7 106230061.57907     -1903.448 7        44.385
R12        31.000    22739451.127 4                     -3924.336 4        27.665                                                                    22739477.020 4                     -3050.718 4        24.602
C10        32.000                                                                                                                                    39393826.707 4 205133944.68204     -1523.852 4        29.024    39393820.466 6 158622554.27606     -1178.230 6        37.977    39393815.108 5 166688075.18305     -1238.287 5        32.377
R03        33.000                                                                                                                                    22716766.188 5  94581368.24815     -3738.544 5        33.563
C24        34.000                                                                                                                                    21509059.582 8 112003517.02408      -522.207 8        49.573                                                                    21509059.152 6  91011921.36506      -424.271 6        41.418
R14        35.000    21050971.439 6 112213629.55906      1627.554 6        40.732                                                                    21050980.796 6  87277313.50506      1265.762 6        37.130
R23        36.000    20733659.420 7 110911094.46307      1117.262 7        47.296
C26        37.000                                                                                                                                    23600258.635 6 122892836.49706     -3009.878 6        37.089                                                                    23600263.776 6  99860439.28006     -2445.712 6        41.788
S21        38.000    38619588.027 5 202947310.63605      -839.770 5        34.638
C44        39.000                                                                                                                                    22931474.180 7 119410296.36107      1299.373 7        45.342                                                                    22931477.460 7  97030658.62307      1055.891 7        45.109
C35        40.000                                                                                                                                    23278378.899 8 121216615.21608     -1485.837 8        48.194                                                                    23278382.892 7  98498586.51907     -1207.373 7        47.244
R05        42.000    22993847.171 5 122915245.19505      1531.734 5        30.747                                                                    22993892.319 5                      1191.594 5        34.014
C12        43.000                                                                                                                                    24550869.216 5 127842824.73205      2365.843 5        31.721    24550879.139 6  98856243.93306      1829.574 6        40.420    24550872.672 7 103882838.46807      1922.595 7        42.131
C40        44.000                                                                                                                                    40894406.912 4                     -2041.346 4        26.790
C33        46.000                                                                                                                                    25808280.807 5 134390366.22005     -3487.143 5        32.162                                                                    25808308.575 5 109203266.14105     -2833.625 5        32.886
C41        50.000                                                                                                                                    25594496.962 5 133277307.05405     -1343.232 5        35.567                                                                    25594511.194 5 108298794.70505     -1091.617 5        32.719
C07        53.000                                                                                                                                                                                                    40367183.814 5                     -1366.878 5        31.811
I06        58.000    38634183.448 6 151608786.49006      -734.323 6        39.751
I02        60.000    37168926.255 6 145858852.09306      -781.179 6        39.943
> 2025 01 01 12 46 55.0000000  0 35
G19         1.000    22200003.902 5 116661748.59305     -3386.015 5        32.760                                    22199983.403 1  90905265.16201     -2638.492 1         5.429
G06         2.000    23058160.181 4                       473.357 4        25.759                                                                                                    23058128.297 4                       368.951 4        29.422
G25         3.000    21482117.735 7 112889337.40507      1790.663 7        45.800                                    21482124.120 5  87965662.08405      1395.316 5        35.662    21482124.362 6  87965819.09306      1395.358 6        37.898
G12         7.000    20063850.569 8 105436249.93108      -464.212 8        49.417                                    20063851.881 6  82158132.73106      -361.724 6        41.626    20063851.254 6  82158145.74106      -361.719 6        40.570
E30         9.000    23637615.984 7 124216536.32107      -195.314 7        47.369                                                                    23637622.570 8  92759126.13008      -145.819 8        49.120    23637621.149 7  95178933.59007      -149.605 7        46.996
G32        11.000    23098263.086 7 121382213.44907       727.655 7        43.640                                    23098269.711 6  94583589.07306       567.003 6        36.537    23098271.375 6  94583606.06606       566.987 6        38.583
E02        13.000    24330431.828 6 127857281.73506     -2550.936 6        38.883                                                                    24330440.150 6  95477921.51906     -1904.909 6        41.673    24330440.163 7  97968656.30507     -1954.461 7        44.999
E27        15.000    26744341.396 4                      1488.872 4        29.735                                                                    26744348.343 4 104950544.90904      1111.476 4        29.327    26744323.436 6 107688375.29706      1140.584 6        41.340
G24        16.000    20746213.264 8 109022086.21008     -2990.207 8        48.068                                    20746217.280 7  84952313.52507     -2330.031 7        47.891    20746217.801 7  84952270.52307     -2329.973 7        45.272
E08        17.000    26353601.963 7 138489098.39207     -3924.611 7        42.246                                                                    26353614.085 6 103417189.77006     -2930.573 6        37.939    26353612.502 7 106114951.49907     -3007.149 7        42.383
E07        18.000    24440747.904 6 128437072.39106     -1902.913 6        36.922                                                                    24440770.967 6  95910839.23806     -1420.996 6        39.441    24440760.842 7  98412807.76907     -1458.161 7        43.820
E36        19.000                                                                                                                                    26351622.423 4 103409473.82904       504.011 4        29.175    26351630.546 4 106107067.43404       517.078 4        28.227
R22        22.000    21415915.462 7 114319729.57407     -2619.837 7        42.590                                                                    21415925.249 5  88915409.98205     -2037.866 5        31.924
S36        23.000    38092654.985 5 200178151.81705      -840.472 5        35.310
S23        24.000    38031665.948 5 199857736.58405      -844.583 5        34.605
R04        25.000    21102888.511 6 113005164.06606     -1993.292 6        39.934                                                                    21102884.928 5  87892760.95805     -1550.394 5        35.748
E29        26.000    26334370.659 7 138388099.10307       900.755 7        42.508                                                                    26334384.384 7 103341876.17107       672.574 7        42.730    26334385.071 7 106037662.41307       690.182 7        46.652
R13        29.000    19595470.635 7 104638711.22407     -1905.744 7        45.287
R12        31.000    22443334.360 4                     -3925.039 4        26.395                                                                    22443365.526 3                     -3053.059 3        21.857
C10        32.000                                                                                                                                    39095499.021 4 203580467.82804     -1524.371 4        29.118    39095491.479 6 157421307.42006     -1178.462 6        37.845    39095486.172 5 165425747.94805     -1237.985 5        31.962
R03        33.000                                                                                                                                    22421463.903 5  93351879.20215     -3739.601 5        32.862
C24        34.000                                                                                                                                    21209768.974 8 110445034.49408      -523.917 8        49.849                                                                    21209768.862 6  89745526.67306      -425.670 6        41.240
R14        35.000    20749652.762 6 110607431.05106      1626.212 6        40.307                                                                    20749660.347 5  86028047.98505      1264.661 5        33.719
R23        36.000    20432825.276 7 109301830.19007      1112.830 7        46.797
C26        37.000                                                                                                                                    23303355.485 5 121346793.60505     -3011.125 5        34.324                                                                    23303362.566 6  98604152.72706     -2446.561 6        41.945
S21        38.000    38320599.384 5 201376090.86805      -839.970 5        34.109
C44        39.000                                                                                                                                    22630434.200 7 117842706.01107      1297.038 7        45.892                                                                    22630438.118 7  95756863.08007      1054.007 7        44.698
C35        40.000                                                                                                                                    22980015.276 8 119662954.89508     -1488.780 8        48.620                                                                    22980018.494 7  97236110.24807     -1209.651 7        46.967
C12        43.000                                                                                                                                    24248801.460 5 126269897.01605      2364.496 5        30.181    24248814.536 6  97639956.45006      1828.591 6        40.417    24248808.292 7 102604705.83107      1921.706 7        42.064
C40        44.000                                                                                                                                    40596575.261 4                     -2039.915 4        26.335
C33        46.000                                                                                                                                    25511835.738 5 132846709.46705     -3488.562 5        33.102                                                                    25511866.059 5 107948918.50505     -2834.060 5        31.140
C41        50.000                                                                                                                                    25295999.639 6 131722932.92506     -1346.099 6        36.476                                                                    25296009.579 5 107035738.39805     -1093.543 5        32.796
C07        53.000                                                                                                                                                                                                    40069089.880 5                     -1367.031 5        31.924
I06        58.000    38335325.909 6 150436008.85706      -734.406 6        39.865
I02        60.000    36870129.513 6 144686309.33606      -781.264 6        39.766
> 2025 01 01 12 47  0.0000000  0 37
G19         1.000    22203222.026 5 116678682.91305     -3388.244 5        33.485                                    22203205.864 1  90918460.60701     -2640.253 1         3.800
G06         2.000                                                                                                                                                                    23057683.518 4                       366.396 4        28.863
G25         3.000    21480414.289 7 112880386.86807      1789.129 7        45.610                                    21480421.178 5  87958687.67205      1394.119 5        35.533    21480421.524 6  87958844.69406      1394.105 6        38.336
G12         7.000    20064293.321 8 105438575.95908      -466.533 8        49.153                                    20064294.107 6  82159945.23106      -363.538 6        41.921    20064293.677 6  82159958.22406      -363.463 6        39.796
E30         9.000    23637801.756 7 124217514.78107      -196.466 7        47.354                                                                    23637808.771 8  92759856.79608      -146.715 8        48.915    23637807.336 7  95179683.30507      -150.437 7        46.827
G32        11.000    23097572.456 7 121378581.99907       724.652 7        45.452                                    23097578.483 6  94580759.40306       564.652 6        36.533    23097580.099 6  94580776.40006       564.604 6        39.282
E02        13.000    24332858.079 6 127870036.77106     -2551.492 6        37.297                                                                    24332866.700 6  95487446.40206     -1905.285 6        41.497    24332867.376 7  97978429.66407     -1955.004 7        45.148
E27        15.000    26742923.932 4                      1487.789 4        29.100                                                                    26742934.051 4 104944987.37804      1111.251 4        29.810    26742907.225 6 107682672.81006      1140.081 6        40.965
G24        16.000    20749059.186 7 109037042.49307     -2992.631 7        47.706                                    20749063.481 7  84963967.76407     -2331.920 7        47.423    20749064.323 7  84963924.76207     -2331.860 7        45.451
E08        17.000    26357336.412 7 138508722.19407     -3925.216 7        42.292                                                                    26357348.387 6 103431843.88006     -2931.373 6        37.724    26357346.839 7 106129987.87607     -3007.775 7        42.470
E07        18.000    24442559.629 6 128446592.42906     -1905.300 6        38.658                                                                    24442582.236 6  95917948.35506     -1422.852 6        39.288    24442571.376 7  98420102.34207     -1459.983 7        43.564
E36        19.000    26351053.946 4                       672.533 4        26.551                                                                    26350982.330 4 103406957.69704       501.891 4        26.168    26350990.412 4 106104485.58604       515.269 4        26.587
R22        22.000    21418372.192 7 114332838.87807     -2624.017 7        42.955                                                                    21418379.605 4  88925606.05804     -2040.528 4        28.900
S36        23.000    38093457.784 5 200182353.65905      -840.629 5        35.624
S23        24.000    38032471.954 5 199861959.84005      -844.708 5        34.762
R04        25.000    21104749.480 7 113015141.24907     -1997.815 7        42.582                                                                    21104750.440 6  87900520.93006     -1553.669 6        36.246
E29        26.000    26333514.628 7 138383599.17407       898.838 7        43.312                                                                    26333528.202 7 103338515.86107       671.180 7        43.202    26333528.692 7 106034214.43807       688.747 7        46.858
R13        29.000    19597256.416 7 104648244.06407     -1907.765 7        46.335
R12        31.000    22447010.955 4                     -3926.712 4        26.611                                                                    22447052.271 3                     -3052.427 3        19.463
C10        32.000                                                                                                                                    39096966.144 4 203588087.83804     -1523.812 4        29.175    39096955.153 6 157427199.71206     -1178.589 6        37.856    39096949.661 5 165431939.86205     -1238.878 5        31.570
R03        33.000    22425982.338 4                     -4809.438 4        27.305                                                                    22425952.725 5  93370579.67105     -3740.388 5        31.789
C24        34.000                                                                                                                                    21210272.488 8 110447657.29508      -525.531 8        50.069                                                                    21210272.622 6  89747657.92906      -427.142 6        41.039
R14        35.000    20748126.547 6 110599302.44106      1624.972 6        40.069                                                                    20748132.557 4  86021725.70104      1263.821 4        29.355
R23        36.000    20431786.620 7 109296275.39807      1108.693 7        45.892
C26        37.000                                                                                                                                    23306244.310 5 121361851.03205     -3012.189 5        32.922                                                                    23306254.347 6  98616388.06306     -2447.792 6        41.976
S21        38.000    38321393.799 5 201380290.01105      -840.044 5        34.729
C44        39.000                                                                                                                                    22629189.461 7 117836225.64607      1294.791 7        45.956                                                                    22629193.521 7  95751597.27307      1052.010 7        44.533
C35        40.000                                                                                                                                    22981445.351 8 119670404.91808     -1491.536 8        48.509                                                                    22981448.922 7  97242164.00507     -1212.173 7        46.519
R05        42.000                                                                                                                                    22691216.809 5  94342644.81415      1185.376 5        33.353
C12        43.000                                                                                                                                    24246530.496 5 126258074.81005      2363.765 5        31.728    24246543.574 6  97630814.80406      1827.702 6        40.462    24246537.757 6 102595099.36906      1920.525 6        41.733
C40        44.000                                                                                                                                    40598535.741 4                     -2039.289 4        25.113
C33        46.000                                                                                                                                    25515188.693 5 132864153.01305     -3489.512 5        33.491                                                                    25515216.098 4 107963092.83204     -2835.759 4        29.602
C14        48.000                                                                                                                                                                                                    26328306.023 3                     -3053.430 3        22.514
C41        50.000                                                                                                                                    25297296.068 6 131729668.81306     -1348.781 6        36.994                                                                    25297303.283 5 107041211.91205     -1096.163 5        33.132
C07        53.000                                                                                                                                    40070758.195 3                     -1768.424 3        21.310    40070787.585 5                     -1367.288 5        31.834
I06        58.000    38336261.535 6 150439680.18206      -734.212 6        39.655
I02        60.000    36871124.997 6 144690216.44406      -781.659 6        39.679
> 2025 01 01 12 47  5.0000000  0 35
G19         1.000    22206442.714 5 116695628.53705     -3390.406 5        33.449                                    22206430.405 1  90931664.92101     -2641.887 1         5.143
G06         2.000                                                                                                                                                                    23057241.399 4                       363.829 4        27.689
G25         3.000    21478712.435 7 112871443.83907      1787.983 7        44.564                                    21478719.677 5  87951719.11705      1393.225 5        35.529    21478719.074 6  87951876.14206      1393.145 6        38.135
G12         7.000    20064738.165 8 105440913.71908      -468.586 8        48.955                                    20064738.532 7  82161766.87107      -365.131 7        42.383    20064738.823 6  82161779.87906      -365.230 6        39.498
E30         9.000    23637989.159 7 124218499.37607      -197.272 7        47.381                                                                    23637996.175 8  92760592.05008      -147.324 8        48.710    23637994.656 7  95180437.74507      -151.256 7        46.776
G32        11.000    23096883.812 7 121374965.35007       722.019 7        46.060                                    23096890.269 6  94577941.27106       562.601 6        37.051    23096891.908 6  94577958.27406       562.458 6        39.616
E02        13.000    24335285.798 5 127882795.69505     -2551.942 5        35.590                                                                    24335294.247 6  95496974.16906     -1905.884 6        41.220    24335295.121 7  97988205.99107     -1955.577 7        45.315
E27        15.000    26741509.231 4                      1487.612 4        28.967                                                                    26741515.917 4 104939431.97004      1110.644 4        29.611    26741491.291 6 107676972.46506      1139.952 6        40.307
G24        16.000    20751907.580 7 109052011.25807     -2994.841 7        47.167                                    20751912.043 7  84975631.73507     -2333.641 7        47.278    20751912.620 7  84975588.73807     -2333.676 7        45.529
E08        17.000    26361071.488 7 138528349.68607     -3925.736 7        42.063                                                                    26361083.238 6 103446500.70906     -2931.392 6        37.565    26361081.907 7 106145027.07107     -3007.976 7        42.538
E07        18.000    24444373.249 6 128456124.27206     -1907.536 6        39.538                                                                    24444396.446 6  95925066.30506     -1424.526 6        39.000    24444384.404 7  98427405.94207     -1461.426 7        43.355
E36        19.000    26350410.573 4                       672.247 4        25.278                                                                    26350345.601 3 103404449.73403       499.992 3        22.762    26350352.971 4 106101912.03704       513.941 4        24.797
R22        22.000    21420834.146 7 114345969.09907     -2627.961 7        43.481                                                                    21420835.722 4  88935818.41604     -2043.850 4        25.654
S36        23.000    38094251.184 5 200186555.58205      -839.985 5        35.033
S23        24.000    38033272.312 5 199866183.45305      -844.672 5        34.448
R04        25.000    21106614.160 7 113025140.73307     -2001.980 7        42.986                                                                    21106615.938 6  87908298.28106     -1557.036 6        37.153
E29        26.000    26332660.495 7 138379109.11307       897.240 7        43.456                                                                    26332673.841 7 103335162.92907       669.973 7        43.376    26332674.262 7 106030774.03007       687.479 7        47.022
R13        29.000    19599043.626 7 104657787.41607     -1909.526 7        46.227
R12        31.000    22450680.485 3                     -3923.322 3        19.552
C10        32.000                                                                                                                                    39098430.276 4 203595708.80704     -1523.475 4        28.711    39098418.270 6 157433092.76706     -1178.702 6        37.701    39098413.572 5 165438132.55905     -1238.432 5        31.940
R03        33.000                                                                                                                                    22430444.420 5  93389286.37415     -3741.611 5        31.336
C24        34.000                                                                                                                                    21210777.720 8 110450288.46708      -526.884 8        50.305                                                                    21210777.934 6  89749795.97006      -428.226 6        41.535
R14        35.000    20746604.503 7 110591180.16007      1623.775 7        42.034
R23        36.000    20430750.965 7 109290741.95307      1104.687 7        45.070
C26        37.000                                                                                                                                    23309140.876 5 121376914.22905     -3013.180 5        32.934                                                                    23309147.469 7  98628628.12307     -2448.362 7        42.260
S21        38.000    38322194.461 5 201384489.50005      -839.839 5        34.195
C44        39.000                                                                                                                                    22627946.899 7 117829756.49007      1292.875 7        45.747                                                                    22627951.112 7  95746340.54707      1050.510 7        44.397
C35        40.000                                                                                                                                    22982878.848 8 119677869.26908     -1494.112 8        48.839                                                                    22982882.281 7  97248229.39207     -1214.123 7        46.393
C12        43.000                                                                                                                                    24244264.689 5 126246258.40205      2362.617 5        33.204    24244274.689 6  97621677.58006      1827.081 6        40.269    24244268.396 6 102585497.52706      1919.994 6        41.785
C40        44.000                                                                                                                                    40600490.654 4                     -2040.535 4        25.113
C33        46.000                                                                                                                                    25518539.612 5 132881602.84005     -3490.294 5        32.545                                                                    25518567.122 4 107977272.23404     -2836.232 4        28.114
C41        50.000                                                                                                                                    25298598.575 6 131736418.62706     -1351.308 6        36.775                                                                    25298599.954 5 107046696.67705     -1098.082 5        34.133
C07        53.000                                                                                                                                    40072452.516 3                     -1768.402 3        22.229    40072487.741 5                     -1367.082 5        31.909
I06        58.000    38337197.425 6 150443351.69206      -734.254 6        39.715
I02        60.000    36872120.837 6 144694124.35006      -781.723 6        39.547
> 2025 01 01 12 47 10.0000000  0 33
G19         1.000    22209665.798 5 116712585.27505     -3392.371 5        32.880                                    22209657.204 1  90944877.95201     -2643.322 1         8.000
G06         2.000    23056785.273 5                       464.305 5        30.770                                                                                                    23056800.775 4                       361.870 4        25.308
G25         3.000    21477012.383 7 112862508.18207      1786.502 7        44.045                                    21477019.463 5  87944756.30505      1392.068 5        35.214    21477018.280 6  87944913.33706      1391.974 6        37.739
G12         7.000    20065185.607 8 105443263.00208      -470.976 8        49.085                                    20065185.225 7  82163597.49007      -366.994 7        42.593    20065186.965 6  82163610.48906      -366.972 6        40.050
E30         9.000    23638177.808 7 124219489.96807      -198.615 7        47.182                                                                    23638184.834 8  92761331.78808      -148.299 8        48.366    23638183.081 7  95181196.77107      -152.162 7        46.793
G32        11.000    23096197.660 7 121371363.31207       719.018 7        46.236                                    23096204.881 6  94575134.51806       560.268 6        37.301    23096206.271 6  94575151.51106       560.357 6        39.381
E02        13.000    24337715.269 5 127895558.29305     -2552.768 5        34.167                                                                    24337722.606 6  95506504.68106     -1906.402 6        40.613    24337723.674 7  97997985.14107     -1956.113 7        45.440
E27        15.000    26740095.326 4                      1487.071 4        29.526                                                                    26740096.405 4 104933878.49404      1110.647 4        28.825    26740075.153 6 107671274.16106      1139.547 6        39.297
G24        16.000    20754758.486 7 109066992.36607     -2997.382 7        46.781                                    20754762.917 7  84987305.32007     -2335.623 7        47.051    20754763.567 7  84987262.31907     -2335.589 7        45.573
E08        17.000    26364807.028 6 138547980.68206     -3926.491 6        41.423                                                                    26364818.968 6 103461160.16606     -2932.173 6        37.267    26364817.609 7 106160068.95807     -3008.585 7        42.842
E07        18.000    24446189.303 6 128465667.77306     -1909.835 6        40.160                                                                    24446213.304 6  95932192.94906     -1426.124 6        38.646    24446200.208 7  98434718.49907     -1463.375 7        43.439
E36        19.000                                                                                                                                    26349709.232 3                       496.750 3        18.418    26349717.880 4 106099346.70304       511.513 4        24.902
R22        22.000    21423300.323 7 114359120.13107     -2632.150 7        42.595                                                                    21423301.088 5  88946047.03605     -2047.209 5        30.581
S36        23.000    38095051.922 5 200190756.00705      -839.991 5        35.033
S23        24.000    38034076.300 5 199870407.18505      -844.329 5        34.400
R04        25.000    21108480.321 7 113035162.32107     -2006.400 7        42.322                                                                    21108487.590 6  87916092.86506     -1560.742 6        38.504
E29        26.000    26331808.025 7 138374628.74507       895.128 7        44.126                                                                    26331821.352 7 103331817.22707       668.486 7        43.659    26331821.554 7 106027341.05307       685.832 7        47.290
R13        29.000    19600831.284 7 104667341.25207     -1911.715 7        45.491
C10        32.000                                                                                                                                    39099896.465 4 203603330.59804     -1524.143 4        28.190    39099881.641 6 157438986.34406     -1178.555 6        37.312    39099877.036 5 165444325.81905     -1238.387 5        32.006
R03        33.000    22434949.073 4                     -4812.506 4        26.407                                                                    22434936.817 5  93407999.13515     -3743.051 5        30.815
C24        34.000                                                                                                                                    21211284.420 8 110452927.83408      -528.640 8        50.295                                                                    21211284.775 6  89751940.68306      -429.573 6        41.754
R14        35.000    20745083.696 7 110583064.05807      1622.674 7        44.638
R23        36.000    20429719.845 7 109285229.76907      1100.390 7        43.354
C26        37.000                                                                                                                                                                                                                                                                    23312041.645 7  98640872.79207     -2449.346 7        42.275
S21        38.000    38322993.987 5 201388689.06905      -839.900 5        34.333
C44        39.000                                                                                                                                    22626707.002 7 117823298.40107      1290.537 7        45.050                                                                    22626710.832 7  95741092.81807      1048.714 7        44.045
C35        40.000                                                                                                                                    22984315.836 8 119685347.78108     -1497.035 8        49.257                                                                    22984318.441 7  97254306.30207     -1216.508 7        46.112
C12        43.000                                                                                                                                    24241998.027 5 126234447.53205      2361.459 5        34.157    24242006.638 6  97612544.68006      1826.183 6        40.005    24241999.985 6 102575900.24206      1919.088 6        41.440
C33        46.000                                                                                                                                                                                                                                                                    25521919.655 4 107991456.67304     -2837.412 4        26.036
C41        50.000                                                                                                                                    25299904.133 6 131743182.15806     -1353.983 6        36.514                                                                    25299898.980 5 107052192.62005     -1100.424 5        34.938
C07        53.000                                                                                                                                    40074150.444 3                     -1767.695 3        21.881    40074185.996 5                     -1367.173 5        31.977
I06        58.000    38338133.090 6 150447023.19406      -734.184 6        39.751
I02        60.000    36873116.457 6 144698032.98506      -781.678 6        39.324
> 2025 01 01 12 47 15.0000000  0 34
G19         1.000    22212893.122 5 116729553.15405     -3394.550 5        33.856                                    22212886.131 1  90958099.60301     -2645.088 1         8.381
G06         2.000    23056341.966 5                       461.455 5        30.702
G25         3.000    21475313.700 7 112853579.84607      1784.846 7        43.718                                    21475320.389 5  87937799.19605      1390.777 5        35.019    21475319.340 6  87937956.22606      1390.679 6        37.323
G12         7.000    20065634.751 8 105445623.81208      -473.498 8        48.827                                    20065634.274 7  82165437.08607      -368.957 7        42.986    20065636.167 6  82165450.08106      -368.940 6        40.253
E30         9.000    23638367.207 7 124220486.51907      -200.029 7        47.207                                                                    23638374.580 8  92762075.96508      -149.388 8        48.234    23638372.543 7  95181960.35307      -153.253 7        46.677
G32        11.000    23095514.549 7 121367775.89007       715.910 7        45.309                                    23095522.409 6  94572339.14606       557.846 6        37.573    23095523.297 6  94572356.14706       557.869 6        39.324
E02        13.000    24340146.178 5 127908324.54805     -2553.715 5        33.778                                                                    24340151.700 6  95516037.92906     -1906.940 6        40.358    24340152.932 7  98007767.09507     -1956.842 7        45.613
E27        15.000                                                                                                                                                                                                    26738659.049 6 107665577.85206      1139.165 6        37.626
G24        16.000    20757611.925 7 109081985.73107     -3000.038 7        46.368                                    20757616.045 7  84998988.46107     -2337.692 7        47.065    20757616.480 7  84998945.46307     -2337.707 7        45.707
E08        17.000    26368543.236 6 138567615.13206     -3927.381 6        41.259                                                                    26368555.560 6 103475822.20206     -2932.930 6        37.085    26368553.985 7 106175113.49307     -3009.310 7        42.851
E07        18.000    24448007.968 6 128475222.87206     -1912.352 6        40.984                                                                    24448033.203 6  95939328.29106     -1428.119 6        38.607    24448018.433 7  98442039.93707     -1465.220 7        43.695
R22        22.000    21425762.541 6 114372291.80406     -2636.490 6        40.505                                                                    21425770.027 5  88956291.74705     -2050.581 5        33.347
S36        23.000    38095848.350 5 200194955.24805      -840.143 5        35.295
S23        24.000    38034883.558 5 199874631.09705      -844.828 5        34.752
R04        25.000    21110353.993 7 113045205.87707     -2010.965 7        43.378                                                                    21110363.683 6  87923904.52406     -1564.223 6        39.306
E29        26.000    26330957.396 7 138370158.01007       893.124 7        44.880                                                                    26330970.948 7 103328478.72407       666.964 7        43.941    26330970.684 7 106023915.44307       684.273 7        47.305
R13        29.000    19602621.795 7 104676905.27507     -1914.033 7        45.515
R12        31.000    22458070.092 4                     -3929.178 4        26.263
C10        32.000                                                                                                                                    39101362.286 4 203610953.06604     -1525.106 4        28.209    39101345.330 6 157444880.52706     -1178.928 6        36.726    39101340.714 5 165450519.68705     -1239.117 5        31.608
R03        33.000    22439447.414 4                     -4814.537 4        24.195                                                                    22439432.862 5  93426718.08705     -3744.630 5        30.174
C24        34.000                                                                                                                                    21211792.852 8 110455575.37708      -530.460 8        50.434                                                                    21211793.489 7  89754092.02907      -430.981 7        42.178
R14        35.000    20743562.623 7 110574954.01007      1621.286 7        44.462
R23        36.000    20428692.675 6 109279738.75206      1095.919 6        41.070
C26        37.000                                                                                                                                    23314943.639 5 121407057.66905     -3015.374 5        32.623                                                                    23314936.719 7  98653122.01807     -2450.326 7        42.298
S21        38.000    38323797.631 5 201392888.40005      -840.133 5        34.500
C44        39.000                                                                                                                                    22625469.071 7 117816851.31907      1288.235 7        44.653                                                                    22625472.691 7  95735854.03707      1046.823 7        43.716
C35        40.000                                                                                                                                    22985754.265 8 119692840.41908     -1500.060 8        49.474                                                                    22985757.454 7  97260394.69207     -1218.919 7        46.010
R05        42.000                                                                                                                                    22686919.490 4  94324923.94104      1176.403 4        28.929
C12        43.000                                                                                                                                    24239729.191 5 126222642.20305      2360.375 5        34.771    24239739.246 6  97603416.06506      1825.241 6        39.718    24239732.897 6 102566307.46606      1918.043 6        41.137
C33        46.000                                                                                                                                                                                                                                                                    25525271.889 4 108005645.99604     -2838.715 4        25.699
C41        50.000                                                                                                                                    25301211.854 6 131749959.38506     -1357.001 6        36.197                                                                    25301201.318 5 107057699.64905     -1102.491 5        35.895
C07        53.000                                                                                                                                    40075847.953 3                     -1766.955 3        23.257    40075885.673 5                     -1367.397 5        32.036
I06        58.000    38339068.534 6 150450694.66606      -734.298 6        39.643
I02        60.000    36874113.152 6 144701942.56306      -782.163 6        39.201
> 2025 01 01 12 47 20.0000000  0 35
G19         1.000    22216122.546 5 116746532.48505     -3396.902 5        35.019                                    22216117.200 1  90971330.21701     -2646.985 1         8.095
G06         2.000    23055904.440 5                       458.339 5        32.198                                                                                                    23055939.446 4                       357.154 4        24.436
G25         3.000    21473616.463 7 112844659.20607      1783.443 7        43.647                                    21473622.398 5  87930848.08705      1389.685 5        34.629    21473621.359 6  87931005.08006      1389.682 6        36.019
G12         7.000    20066086.182 8 105447996.40008      -475.588 8        48.402                                    20066085.694 7  82167285.86207      -370.591 7        43.067    20066088.127 6  82167298.86106      -370.654 6        41.080
E30         9.000    23638557.635 7 124221489.38407      -201.099 7        46.663                                                                    23638565.310 8  92762824.85708      -150.201 8        48.125    23638563.247 7  95182728.78107      -154.136 7        46.832
G32        11.000    23094834.516 7 121364203.41907       713.156 7        44.611                                    23094842.834 6  94569555.42906       555.700 6        37.611    23094844.599 6  94569572.42006       555.697 6        39.312
E02        13.000    24342576.706 5 127921094.83705     -2554.475 5        33.940                                                                    24342581.703 6  95525574.18106     -1907.389 6        40.269    24342583.146 7  98017552.12907     -1957.199 7        45.874
E27        15.000                                                                                                                                    26737250.865 4 104922777.67304      1109.856 4        29.877    26737243.501 5 107659883.83905      1138.341 5        35.700
G24        16.000    20760467.430 7 109096991.70807     -3002.363 7        46.444                                    20760471.525 7  85010681.43007     -2339.503 7        46.978    20760471.945 7  85010638.43607     -2339.502 7        45.684
E08        17.000    26372280.278 6 138587253.40406     -3927.978 6        40.508                                                                    26372292.390 6 103490487.06106     -2933.335 6        37.021    26372291.165 7 106190160.93907     -3009.687 7        43.043
E07        18.000    24449828.783 6 128484789.95406     -1914.526 6        40.853                                                                    24449854.916 6  95946472.54406     -1429.689 6        38.793    24449839.001 7  98449370.54707     -1467.001 7        44.009
E36        19.000                                                                                                                                                                                                    26348430.892 4 106094240.80704       509.261 4        29.223
R22        22.000    21428230.624 6 114385484.52306     -2640.623 6        39.282                                                                    21428241.014 5  88966552.76805     -2053.766 5        33.952
S36        23.000    38096651.350 5 200199155.47605      -839.960 5        35.200
S23        24.000    38035685.843 5 199878855.33805      -844.862 5        34.876
R04        25.000    21112235.463 7 113055271.79707     -2015.300 7        43.691                                                                    21112243.061 6  87931733.56106     -1567.517 6        39.784
E29        26.000    26330108.561 7 138365697.33307       891.226 7        45.327                                                                    26330122.081 7 103325147.70407       665.537 7        44.334    26330121.669 7 106020497.53007       682.929 7        47.537
R13        29.000    19604415.972 7 104686480.05207     -1915.876 7        46.536
R12        31.000    22461748.641 3                     -3932.497 3        22.552                                                                    22461738.993 3                     -3053.703 3        21.833
C10        32.000                                                                                                                                    39102830.576 4 203618576.62004     -1525.190 4        27.162    39102810.160 6 157450775.51406     -1179.175 6        36.730    39102804.243 5 165456714.41105     -1238.998 5        31.336
R03        33.000    22443944.265 3                     -4815.749 3        23.600                                                                    22443929.843 4                     -3745.430 4        29.289
C24        34.000                                                                                                                                    21212302.924 8 110458231.45008      -531.939 8        50.261                                                                    21212303.706 7  89756250.30107      -432.164 7        42.692
R14        35.000    20742040.628 7                      1620.177 7        42.747                                                                    20742081.292 4                      1260.456 4        24.346
R23        36.000    20427667.314 6 109274269.38306      1091.738 6        36.858
C26        37.000                                                                                                                                    23317830.583 5 121422138.16005     -3016.331 5        32.587                                                                    23317833.049 7  98665376.12407     -2451.260 7        42.580
S21        38.000    38324589.918 5 201397087.86505      -839.677 5        34.371
C44        39.000                                                                                                                                    22624233.334 7 117810415.62907      1286.057 7        44.423                                                                    22624236.645 7  95730624.51807      1045.004 7        43.445
C35        40.000                                                                                                                                    22987194.820 8 119700347.54808     -1502.781 8        49.164                                                                    22987199.237 7  97266494.84307     -1221.087 7        46.116
R05        42.000    22685524.310 5                      1509.325 5        33.186                                                                    22685509.427 5  94319046.31315      1174.415 5        30.996
C12        43.000                                                                                                                                    24237461.954 5 126210842.81005      2359.529 5        35.314    24237473.747 6  97594292.04106      1824.328 6        39.544    24237467.126 6 102556719.49906      1917.221 6        41.075
C33        46.000                                                                                                                                                                                                                                                                    25528625.477 4 108019840.59704     -2839.387 4        25.308
C41        50.000                                                                                                                                    25302516.441 5 131756750.65205     -1359.541 5        35.076                                                                    25302505.938 6 107063218.11506     -1104.781 6        36.673
C07        53.000                                                                                                                                    40077546.163 3                     -1767.876 3        22.990    40077586.316 5                     -1367.267 5        31.751
I06        58.000    38340004.188 6 150454366.40906      -734.411 6        39.841
I02        60.000    36875109.790 6 144705853.10406      -782.252 6        38.928
> 2025 01 01 12 47 25.0000000  0 36
G19         1.000    22219357.377 5 116763522.85905     -3399.235 5        35.367                                    22219350.389 1  90984569.40001     -2648.757 1         8.952
G06         2.000    23055469.722 5                       455.276 5        33.551                                                                                                    23055500.959 4                       355.160 4        24.962
G25         3.000    21471920.718 7 112835745.93007      1781.896 7        44.554                                    21471925.632 5  87923902.70805      1388.490 5        34.429    21471925.646 5  87924059.72405      1388.476 5        34.971
G12         7.000    20066540.004 8 105450380.45408      -478.033 8        48.105                                    20066539.434 7  82169143.57307      -372.495 7        43.130    20066541.997 6  82169156.56306      -372.490 6        41.497
E30         9.000    23638749.409 7 124222498.22307      -202.411 7        45.714                                                                    23638757.177 8  92763578.21108      -151.188 8        48.077    23638755.034 7  95183501.78207      -155.107 7        46.686
G32        11.000    23094157.975 7 121360645.59807       710.099 7        43.613                                    23094166.117 6  94566783.11706       553.320 6        37.860    23094167.788 6  94566800.10106       553.339 6        40.141
E02        13.000    24345006.680 5 127933868.78205     -2555.366 5        33.886                                                                    24345012.535 6  95535113.18706     -1908.157 6        40.186    24345014.080 7  98027339.98107     -1957.924 7        45.958
E27        15.000    26735812.228 4                      1485.499 4        29.640                                                                    26735840.256 4 104917230.37204      1109.047 4        29.687    26735828.538 5 107654191.84405      1137.845 5        32.952
G24        16.000    20763325.461 7 109112009.98407     -3004.834 7        47.589                                    20763329.294 7  85022383.98207     -2341.431 7        47.040    20763330.088 7  85022340.98907     -2341.517 7        45.684
E08        17.000    26376017.631 6 138606895.13706     -3928.774 6        39.646                                                                    26376030.355 6 103505154.55906     -2934.085 6        37.036    26376028.962 7 106205211.05407     -3010.330 7        43.156
E07        18.000    24451651.155 6 128494368.66906     -1917.089 6        40.927                                                                    24451677.698 6  95953625.49806     -1431.498 6        38.754    24451661.750 7  98456710.08107     -1468.938 7        44.337
E36        19.000    26347789.666 3                       662.010 3        23.010                                                                                                                                    26347799.980 4 106091700.45904       507.505 4        29.194
R22        22.000    21430707.107 5 114398697.93305     -2644.765 5        35.605                                                                    21430717.159 5  88976829.85905     -2056.936 5        33.820
S36        23.000    38097456.368 5 200203356.09905      -840.426 5        35.500
S23        24.000    38036488.280 5 199883079.58805      -845.110 5        34.443
R04        25.000    21114121.225 7 113065359.84507     -2019.890 7        44.096                                                                    21114126.661 6  87939579.76506     -1571.123 6        39.895
E29        26.000    26329261.467 7 138361246.40207       889.101 7        45.153                                                                    26329275.128 7 103321824.01907       664.069 7        44.459    26329274.522 7 106017087.12807       681.309 7        47.531
R13        29.000    19606211.584 7 104696065.16407     -1918.096 7        46.359
R12        31.000    22465427.923 3                     -3929.189 3        21.548                                                                    22465424.062 4                     -3057.001 4        26.395
C10        32.000                                                                                                                                    39104294.418 4 203626200.80704     -1525.075 4        28.209    39104273.724 6 157456671.06106     -1179.257 6        36.147    39104268.686 5 165462909.76405     -1239.656 5        31.328
R03        33.000    22448439.457 4                     -4817.598 4        26.431                                                                    22448427.446 4  93464174.59314     -3746.885 4        26.311
C24        34.000                                                                                                                                    21212814.458 8 110460895.72808      -533.757 8        50.097                                                                    21212815.455 7  89758415.27207      -433.854 7        43.465
R14        35.000    20740521.695 7 110558753.15417      1618.804 7        44.415                                                                    20740559.568 3                      1260.515 3        21.310
R23        36.000    20426644.318 5 109268821.19005      1087.523 5        33.934
C26        37.000                                                                                                                                    23320716.014 5 121437224.33505     -3017.844 5        33.383                                                                    23320730.269 7  98677634.82807     -2452.350 7        42.832
S21        38.000    38325390.893 5 201401287.43705      -839.850 5        34.533
C44        39.000                                                                                                                                    22622999.818 7 117803991.01007      1283.764 7        44.166                                                                    22623002.681 7  95725403.99507      1043.059 7        43.386
C35        40.000                                                                                                                                    22988637.614 8 119707868.81808     -1505.824 8        48.651                                                                    22988643.707 7  97272606.51107     -1223.683 7        46.365
R05        42.000    22684110.236 5                      1506.078 5        30.113                                                                    22684102.054 5  94313182.98305      1171.513 5        32.629
C12        43.000                                                                                                                                    24235198.069 6 126199049.01406      2358.040 6        36.132    24235208.544 6  97585172.35706      1823.353 6        38.985    24235202.378 6 102547136.11106      1916.138 6        41.175
C40        44.000                                                                                                                                    40608293.653 4                     -2040.357 4        24.556
C33        46.000                                                                                                                                                                                                                                                                    25531981.535 4 108034040.16504     -2840.368 4        25.038
C41        50.000                                                                                                                                                                                                                                                                    25303813.248 6 107068747.72706     -1107.202 6        37.860
C07        53.000                                                                                                                                                                                                    40079288.466 5                     -1367.435 5        31.577
I06        58.000    38340940.026 6 150458038.11906      -734.406 6        39.850
I02        60.000    36876106.161 6 144709764.49306      -782.407 6        38.976
> 2025 01 01 12 47 30.0000000  0 35
G19         1.000    22222593.655 5 116780524.59705     -3401.465 5        33.701                                    22222585.796 1  90997817.46901     -2650.519 1         8.571
G06         2.000    23055037.151 5                       452.252 5        32.647                                                                                                    23055070.217 4                       352.567 4        27.234
G25         3.000    21470226.022 7 112826840.33307      1780.298 7        44.554                                    21470230.328 5  87916963.30705      1387.243 5        34.576    21470232.030 5  87917120.29405      1387.300 5        33.593
G12         7.000    20066996.077 8 105452776.28008      -480.460 8        48.460                                    20066995.477 7  82171010.45307      -374.384 7        43.344    20066996.864 6  82171023.44506      -374.364 6        41.011
E30         9.000    23638942.327 7 124223513.35807      -203.687 7        44.932                                                                    23638950.170 7  92764336.27007      -152.183 7        47.878    23638947.976 7  95184279.61207      -156.156 7        46.446
G32        11.000    23093483.838 7 121357102.72807       707.000 7        42.461                                    23093492.319 6  94564022.45406       550.906 6        38.309    23093494.323 6  94564039.43206       550.995 6        40.594
E02        13.000    24347437.890 5 127946646.69405     -2555.974 5        33.186                                                                    24347444.319 6  95544655.13206     -1908.712 6        40.191    24347445.718 7  98037130.86307     -1958.527 7        45.940
E27        15.000    26734405.455 4                      1485.044 4        29.365                                                                    26734426.989 4 104911685.23704      1108.482 4        28.720    26734414.940 5 107648502.07505      1137.979 5        30.498
G24        16.000    20766186.059 8 109127040.85308     -3007.537 8        48.312                                    20766189.469 7  85034096.35007     -2343.540 7        47.425    20766190.289 7  85034053.35907     -2343.552 7        45.533
E08        17.000    26379756.070 6 138626540.62106     -3929.510 6        39.081                                                                    26379768.588 6 103519824.81506     -2934.229 6        36.888    26379767.613 7 106220264.04207     -3010.965 7        42.971
E07        18.000    24453477.225 6 128503959.30506     -1919.417 6        41.859                                                                    24453501.658 6  95960787.34606     -1433.417 6        38.378    24453486.638 7  98464058.74407     -1470.728 7        44.485
E36        19.000    26347166.335 4                       659.658 4        24.992                                                                                                                                    26347171.143 4 106089168.56904       505.464 4        28.341
R22        22.000    21433184.360 5 114411932.35405     -2649.020 5        35.129                                                                    21433194.063 5  88987123.34505     -2060.463 5        32.880
S36        23.000    38098250.259 5 200207558.58005      -840.712 5        35.443
S23        24.000    38037291.276 5 199887304.15205      -845.039 5        34.395
R04        25.000    21116010.364 7 113075470.07607     -2024.364 7        43.719                                                                    21116014.354 6  87947443.28006     -1574.443 6        40.255
E29        26.000    26328416.023 7 138356805.44407       887.158 7        45.257                                                                    26328430.041 7 103318507.76107       662.450 7        44.766    26328429.196 7 106013684.34407       679.724 7        47.605
R13        29.000    19608007.952 7 104705660.95507     -1920.353 7        45.658
R12        31.000                                                                                                                                    22469099.950 4                     -3056.944 4        24.511
C10        32.000                                                                                                                                    39105760.694 4 203633826.16304     -1525.612 4        28.294    39105737.292 5 157462567.40105     -1179.361 5        35.943    39105733.146 5 165469105.92405     -1239.299 5        31.192
R03        33.000                                                                                                                                    22452925.675 3                     -3748.494 3        21.214
C24        34.000                                                                                                                                    21213327.889 8 110463568.49708      -535.465 8        49.443                                                                    21213329.021 7  89760587.10407      -435.047 7        44.132
R14        35.000    20739005.923 7 110550662.08507      1617.398 7        44.160
R23        36.000    20425630.361 5 109263394.58805      1082.853 5        33.742
C26        37.000                                                                                                                                    23323615.389 5 121452316.41105     -3019.131 5        34.286                                                                    23323628.744 7  98689898.34907     -2453.213 7        42.988
S21        38.000    38326195.230 5 201405487.25205      -839.951 5        34.338
C44        39.000                                                                                                                                    22621768.161 7 117797577.75207      1281.421 7        44.179                                                                    22621770.941 7  95720192.69307      1041.327 7        43.264
C35        40.000                                                                                                                                    22990083.660 7 119715404.51807     -1508.687 7        47.925                                                                    22990090.816 7  97278729.87407     -1225.899 7        46.649
R05        42.000                                                                                                                                    22682694.507 5  94307334.44815      1168.441 5        33.677
C12        43.000                                                                                                                                    24232935.223 6 126187261.12406      2356.773 6        36.786    24232944.405 6  97576057.24406      1822.486 6        38.853    24232938.744 6 102537557.50806      1915.240 6        41.311
C33        46.000                                                                                                                                    25535321.160 4                     -3497.440 4        25.248                                                                    25535337.121 4 108048244.83904     -2841.024 4        26.024
C41        50.000                                                                                                                                                                                                                                                                    25305122.693 6 107074288.70006     -1109.372 6        38.553
C07        53.000                                                                                                                                    40080951.527 4                     -1767.308 4        25.083    40080989.055 5                     -1367.223 5        30.755
I06        58.000    38341875.954 6 150461710.06906      -734.500 6        40.200
I02        60.000    36877103.218 6 144713676.86806      -782.752 6        38.976
> 2025 01 01 12 47 35.0000000  0 36
G19         1.000    22225829.961 5 116797537.35805     -3403.710 5        31.381                                    22225823.192 1  91011074.12601     -2652.201 1         7.125
G06         2.000    23054604.476 4                       449.159 4        29.772                                                                                                    23054645.994 4                       350.036 4        29.441
G25         3.000    21468531.784 7 112817942.00607      1778.851 7        44.272                                    21468536.652 5  87910029.56805      1386.111 5        34.652    21468539.371 5  87910186.54405      1386.337 5        33.659
G12         7.000    20067454.492 8 105455183.53408      -482.703 8        48.881                                    20067453.693 7  82172886.23607      -376.132 7        43.433    20067454.907 6  82172899.22406      -375.967 6        40.982
E30         9.000    23639136.161 7 124224534.39707      -204.829 7        44.358                                                                    23639144.238 7  92765098.73007      -152.974 7        47.701    23639142.020 7  95185061.96007      -156.976 7        46.094
G32        11.000    23092812.303 7 121353574.42007       704.112 7        43.048                                    23092821.401 6  94561273.14206       548.656 6        38.718    23092821.976 6  94561290.14306       548.645 6        40.877
E02        13.000    24349869.814 5 127959428.23405     -2556.883 5        32.497                                                                    24349876.794 6  95554199.76906     -1909.199 6        40.293    24349878.076 7  98046924.50107     -1959.043 7        45.690
E27        15.000    26733000.386 5                      1484.386 5        31.660                                                                    26733005.732 4 104906141.99904      1108.353 4        29.848
G24        16.000    20769048.380 8 109142083.91208     -3009.827 8        48.179                                    20769052.046 7  85045818.21707     -2345.319 7        47.605    20769053.088 7  85045775.21707     -2345.353 7        45.594
E08        17.000    26383494.936 6 138646189.50006     -3930.201 6        39.048                                                                    26383507.591 6 103534497.61306     -2934.691 6        36.798    26383506.737 7 106235319.61907     -3011.467 7        42.690
E07        18.000    24455305.056 7 128513561.49107     -1921.764 7        42.734                                                                    24455327.462 6  95967957.82606     -1434.957 6        37.251    24455313.812 7  98471416.25807     -1472.347 7        44.412
E36        19.000    26346543.170 4                       657.550 4        27.545                                                                    26346571.302 4                       491.986 4        24.812    26346543.020 4 106086644.83004       503.911 4        27.485
R22        22.000    21435668.098 6 114425187.54206     -2653.123 6        39.195                                                                    21435678.167 5  88997432.89005     -2063.619 5        34.890
S36        23.000    38099047.362 5 200211761.14305      -840.621 5        35.462
S23        24.000    38038095.484 5 199891528.80605      -845.016 5        34.819
R04        25.000    21117901.416 7 113085602.32207     -2028.809 7        44.242                                                                    21117905.685 6  87955323.89606     -1577.889 6        40.834
E29        26.000    26327572.815 7 138352374.10907       885.218 7        45.433                                                                    26327586.729 7 103315198.66907       660.998 7        44.924    26327585.744 7 106010288.92107       678.360 7        47.417
R13        29.000    19609806.971 7 104715267.02507     -1922.310 7        45.716
R12        31.000                                                                                                                                    22472782.747 3                     -3052.604 3        21.833
C10        32.000                                                                                                                                    39107226.731 4 203641452.05804     -1524.880 4        27.964    39107202.306 5 157468464.26305     -1179.555 5        35.595    39107197.700 5 165475302.63305     -1239.646 5        30.672
R03        33.000    22457415.140 6 120216271.38516     -4820.688 6        38.526
C24        34.000                                                                                                                                    21213843.033 8 110466249.41108      -537.080 8        48.604                                                                    21213843.874 7  89762765.56107      -436.588 7        44.460
R14        35.000    20737488.677 7 110542577.19707      1616.300 7        44.402
R23        36.000    20424620.028 5 109257989.12005      1079.245 5        31.147
C26        37.000                                                                                                                                    23326521.845 5 121467414.07105     -3020.270 5        34.824                                                                    23326527.939 7  98702166.41407     -2454.292 7        42.669
S21        38.000    38326986.886 5 201409686.97405      -839.876 5        34.738
C44        39.000                                                                                                                                    22620538.478 7 117791175.51307      1279.235 7        43.700                                                                    22620541.510 7  95714990.34607      1039.417 7        42.914
C35        40.000                                                                                                                                    22991533.760 7 119722954.28907     -1511.517 7        47.369                                                                    22991540.743 7  97284864.67007     -1228.250 7        46.641
R05        42.000    22681270.357 5                      1498.125 5        34.148                                                                    22681289.743 5  94301500.18605      1165.523 5        34.652
C12        43.000                                                                                                                                    24230672.679 6 126175478.74406      2355.941 6        36.843    24230681.403 6  97566946.39906      1821.813 6        38.895    24230676.345 6 102527983.40106      1914.250 6        41.459
C40        44.000                                                                                                                                    40612228.887 4                     -2040.786 4        24.632
C33        46.000                                                                                                                                    25538671.613 4                     -3497.893 4        24.286                                                                    25538693.049 4 108062454.38804     -2842.218 4        26.623
C41        50.000                                                                                                                                    25306415.048 6 131777207.16406     -1368.029 6        38.147                                                                    25306434.784 6 107079840.72406     -1111.573 6        38.538
C07        53.000                                                                                                                                    40082647.296 4                     -1768.296 4        25.759    40082686.877 5                     -1367.537 5        30.936
I06        58.000    38342811.682 6 150465381.97906      -734.492 6        40.164
I02        60.000    36878100.347 6 144717589.89706      -782.534 6        38.883
> 2025 01 01 12 47 40.0000000  0 35
G19         1.000    22229072.089 4 116814560.97504     -3406.128 4        29.213                                    22229062.695 1  91024339.27201     -2654.130 1         6.000
G06         2.000    23054171.154 4                       446.268 4        29.943                                                                                                    23054221.878 4                       347.952 4        29.810
G25         3.000    21466839.460 7 112809050.87507      1777.485 7        44.482                                    21466844.679 5  87903101.44905      1385.049 5        34.619    21466848.535 5  87903258.44005      1385.093 5        35.986
G12         7.000    20067914.551 8 105457602.08708      -484.976 8        48.749                                    20067913.979 7  82174770.82307      -377.902 7        43.450    20067915.420 6  82174783.82006      -377.948 6        40.794
E30         9.000    23639331.257 7 124225561.22907      -206.025 7        43.314                                                                    23639339.524 7  92765865.51007      -153.858 7        47.548    23639337.396 7  95185848.74107      -157.873 7        45.941
G32        11.000    23092144.896 7 121350060.58907       701.210 7        44.328                                    23092153.287 6  94558535.10906       546.389 6        39.279    23092153.775 6  94558552.11706       546.418 6        41.082
E02        13.000    24352302.111 5 127972213.20405     -2557.199 5        32.742                                                                    24352309.939 6  95563746.99706     -1909.724 6        40.751    24352311.144 7  98056720.79507     -1959.549 7        45.529
E27        15.000    26731594.732 5                      1483.866 5        33.383                                                                    26731592.190 5 104900600.68805      1108.148 5        31.328    26731609.182 5 107637128.14505      1136.912 5        31.751
G24        16.000    20771913.156 8 109157139.05808     -3012.315 8        48.205                                    20771917.019 7  85057549.49607     -2347.255 7        47.906    20771918.304 7  85057506.48607     -2347.191 7        46.002
E08        17.000    26387235.191 6 138665841.63306     -3931.050 6        38.754                                                                    26387247.412 6 103549172.85906     -2935.435 6        37.100    26387246.585 7 106250377.68207     -3011.970 7        42.569
E07        18.000    24457134.037 7 128523175.10507     -1923.928 7        43.035                                                                    24457155.431 6  95975136.85406     -1436.749 6        36.873    24457142.959 7  98478782.55007     -1474.249 7        44.460
E36        19.000    26345919.490 4                       655.728 4        28.332                                                                    26345946.550 4                       489.578 4        26.000    26345916.564 4 106084129.23604       501.954 4        26.539
R22        22.000    21438163.787 7 114438463.19907     -2657.270 7        42.880                                                                    21438166.074 5  89007758.36305     -2066.712 5        35.943
S36        23.000    38099849.674 5 200215964.38405      -840.960 5        35.495
S23        24.000    38038899.701 5 199895753.38005      -844.910 5        34.729
R04        25.000    21119796.733 7 113095756.37507     -2033.094 7        44.611                                                                    21119800.071 6  87963221.46406     -1581.219 6        40.186
E29        26.000    26326731.574 7 138347952.31807       883.319 7        45.702                                                                    26326745.261 7 103311896.70107       659.647 7        44.927    26326744.278 7 106006900.82307       676.822 7        47.478
R13        29.000    19611608.105 7 104724883.33307     -1924.359 7        46.240
R12        31.000    22476423.934 5                     -3932.590 5        30.332
C10        32.000                                                                                                                                    39108697.618 4 203649078.60904     -1525.941 4        27.365    39108667.215 5 157474361.56005     -1179.685 5        34.995    39108662.326 5 165481499.76705     -1239.418 5        31.034
R03        33.000    22461924.811 7 120240377.92807     -4822.271 7        42.273                                                                    22461941.584 4                     -3750.120 4        25.774
C24        34.000                                                                                                                                    21214359.854 7 110468938.35307      -538.739 7        47.598                                                                    21214360.340 7  89764950.54007      -437.807 7        44.859
R14        35.000    20735972.428 6 110534498.30906      1615.034 6        41.373                                                                    20735983.604 3                      1256.098 3        22.876
C26        37.000                                                                                                                                    23329431.431 5 121482517.25905     -3021.265 5        34.629                                                                    23329428.026 7  98714438.91507     -2455.158 7        42.459
S21        38.000    38327788.385 5 201413886.27205      -839.971 5        34.738
C44        39.000                                                                                                                                    22619310.925 7 117784784.17007      1276.996 7        43.638                                                                    22619314.140 7  95709796.86507      1037.699 7        42.698
C35        40.000                                                                                                                                    22992987.104 7 119730517.99107     -1514.244 7        46.812                                                                    22992993.263 7  97291010.80607     -1230.509 7        46.868
R05        42.000    22679872.470 6 121236904.87116      1494.483 6        36.359                                                                    22679892.984 5  94295680.44705      1162.554 5        35.686
C12        43.000                                                                                                                                    24228412.044 6 126163701.85906      2354.657 6        36.329    24228418.459 6  97557839.81006      1820.694 6        38.730    24228414.818 6 102518413.75106      1913.296 6        41.816
C40        44.000                                                                                                                                    40614192.881 4                     -2040.211 4        24.812
C33        46.000                                                                                                                                                                                                                                                                    25542047.482 4 108076668.84604     -2843.308 4        27.078
C41        50.000                                                                                                                                                                                                                                                                    25307749.566 6 107085403.75306     -1113.876 6        38.952
C07        53.000                                                                                                                                    40084342.882 4                     -1768.191 4        25.774    40084385.964 5                     -1367.174 5        30.717
I06        58.000    38343747.321 6 150469053.71906      -734.451 6        40.076
I02        60.000    36879097.851 6 144721503.68206      -782.990 6        38.694
> 2025 01 01 12 47 45.0000000  0 34
G19         1.000    22232319.978 4 116831596.40304     -3408.463 4        28.995                                    22232304.510 1  91037613.49001     -2656.020 1         6.000
G06         2.000    23053751.908 5                       443.077 5        31.592                                                                                                    23053800.124 4                       345.366 4        28.047
G25         3.000    21465149.228 7 112800167.77107      1775.681 7        44.006                                    21465154.460 5  87896179.58205      1383.638 5        34.743    21465158.459 6  87896336.60906      1383.449 6        38.357
G12         7.000    20068377.013 8 105460032.74608      -487.467 8        49.258                                    20068376.524 7  82176664.84207      -379.843 7        43.651    20068377.683 6  82176677.85106      -379.887 6        39.733
E30         9.000    23639528.004 7 124226594.67107      -207.372 7        42.544                                                                    23639536.047 7  92766637.23907      -154.925 7        47.381    23639534.040 7  95186640.59807      -158.955 7        45.849
G32        11.000    23091479.262 7 121346562.09307       698.112 7        44.447                                    23091488.089 6  94555809.02906       543.975 6        39.895    23091487.897 6  94555826.04706       543.896 6        41.502
E02        13.000    24354735.941 5 127985002.51305     -2558.438 5        33.737                                                                    24354744.025 6  95573297.45906     -1910.531 6        41.206    24354745.204 7  98066520.41207     -1960.446 7        45.255
E27        15.000    26730182.468 5 140468063.66815      1482.978 5        34.105                                                                    26730183.184 5 104895061.79305      1107.532 5        33.234    26730196.613 5 107631444.75705      1136.176 5        32.054
G24        16.000    20774780.876 8 109172207.11508     -3015.066 8        48.341                                    20774784.576 8  85069290.83708     -2349.400 8        48.503    20774785.889 7  85069247.82507     -2349.390 7        46.226
E08        17.000    26390976.000 6 138685497.81306     -3931.722 6        38.598                                                                    26390987.884 6 103563851.13506     -2936.233 6        37.059    26390987.024 7 106265438.86607     -3012.522 7        42.269
E07        18.000    24458965.306 7 128532800.99307     -1926.501 7        42.576                                                                    24458985.774 6  95982325.03506     -1438.517 6        36.582    24458974.492 7  98486158.23107     -1476.202 7        44.409
E36        19.000    26345294.898 4                       652.870 4        28.900                                                                    26345328.540 4                       488.180 4        26.096    26345293.303 4 106081622.30704       499.622 4        25.459
R22        22.000    21440661.048 7 114451760.11507     -2661.645 7        44.418                                                                    21440657.302 6  89018100.44506     -2070.214 6        38.270
S36        23.000    38100650.117 5 200220168.00905      -841.043 5        35.876
S23        24.000    38039705.747 5 199899978.58405      -845.211 5        34.824
R04        25.000    21121696.437 7 113105933.19007     -2037.704 7        44.274                                                                    21121699.863 6  87971136.76106     -1584.969 6        39.312
E29        26.000    26325892.289 7 138343540.86707       881.147 7        45.866                                                                    26325905.749 7 103308602.46507       657.874 7        44.932    26325904.603 7 106003520.63907       675.140 7        47.405
R13        29.000    19613410.794 7 104734510.53307     -1926.689 7        46.372
C10        32.000                                                                                                                                    39110167.279 4 203656706.44004     -1525.314 4        27.473    39110131.637 5 157480259.89405     -1179.786 5        34.624    39110127.148 5 165487698.04305     -1240.030 5        30.536
R03        33.000    22466437.227 7 120264492.96417     -4823.891 7        44.003                                                                    22466445.961 4                     -3752.122 4        29.251
C24        34.000                                                                                                                                    21214877.939 7 110471636.12907      -540.590 7        46.866                                                                    21214878.499 7  89767142.67607      -439.280 7        45.223
R14        35.000    20734455.422 6 110526426.16506      1613.682 6        39.294                                                                    20734467.930 4                      1255.011 4        27.329
C26        37.000                                                                                                                                    23332333.388 5 121497626.66905     -3022.513 5        33.844                                                                    23332329.233 7  98726716.49107     -2455.986 7        42.176
S21        38.000    38328592.892 5 201418086.08005      -840.082 5        34.748
C44        39.000                                                                                                                                    22618085.544 7 117778404.55407      1274.616 7        43.886                                                                    22618088.795 7  95704612.90807      1035.624 7        42.417
C35        40.000                                                                                                                                    22994442.684 7 119738096.45707     -1517.331 7        46.644                                                                    22994448.536 7  97297168.92007     -1232.916 7        46.938
R05        42.000    22678477.747 6 121229441.51106      1490.726 6        36.060                                                                    22678497.422 5  94289875.58705      1159.425 5        35.052
C12        43.000                                                                                                                                    24226152.173 5 126151931.26205      2353.359 5        35.333    24226157.520 6  97548738.09106      1819.657 6        38.036    24226154.476 7 102508849.19707      1912.321 7        42.009
C40        44.000                                                                                                                                    40616152.373 3                     -2040.718 3        23.848
C33        46.000                                                                                                                                    25545367.470 3                     -3500.272 3        20.524                                                                    25545404.667 4 108090888.58304     -2844.558 4        27.269
C41        50.000                                                                                                                                    25309069.904 6 131790913.66306     -1373.706 6        39.027                                                                    25309067.012 6 107090978.39806     -1116.251 6        39.393
C07        53.000                                                                                                                                    40086041.651 4                     -1769.047 4        25.985    40086085.068 5                     -1367.602 5        30.347
I06        58.000    38344683.024 6 150472725.98206      -734.665 6        40.188
I02        60.000    36880095.608 6 144725418.78906      -783.335 6        38.565
> 2025 01 01 12 47 50.0000000  0 36
G19         1.000    22235570.127 4 116848643.83504     -3410.553 4        28.227                                    22235548.569 1  91050897.23001     -2657.859 1         3.200
G06         2.000    23053333.261 5                       440.010 5        30.543
G25         3.000    21463459.912 7 112791292.89007      1774.194 7        43.920                                    21463465.939 5  87889264.12505      1382.484 5        34.871    21463469.373 6  87889421.11906      1382.501 6        39.631
G12         7.000    20068841.988 8 105462475.75608      -489.713 8        49.359                                    20068841.380 7  82178568.48307      -381.591 7        43.733    20068843.363 6  82178581.47206      -381.434 6        39.640
E30         9.000    23639726.015 6 124227634.94106      -208.655 6        41.728                                                                    23639733.932 7  92767414.06007      -155.845 7        47.332    23639732.023 7  95187437.67307      -159.880 7        45.685
G32        11.000    23090815.728 7 121343079.11007       695.165 7        44.051                                    23090825.806 6  94553095.04406       541.685 6        40.257    23090825.147 6  94553112.04406       541.699 6        41.499
E02        13.000    24357170.435 5 127997796.28705     -2559.365 5        34.662                                                                    24357178.966 6  95582851.27806     -1910.974 6        41.909    24357180.007 7  98076323.45707     -1960.832 7        44.847
E27        15.000    26728769.353 5 140460649.67705      1482.569 5        34.357                                                                    26728773.964 5 104889525.53705      1106.822 5        34.514    26728785.771 5 107625763.98805      1135.846 5        31.321
G24        16.000    20777650.630 8 109187288.26308     -3017.433 8        48.658                                    20777654.705 8  85081042.37508     -2351.246 8        49.158    20777655.418 7  85080999.36307     -2351.194 7        46.208
E08        17.000    26394717.400 6 138705158.28506     -3932.432 6        38.538                                                                    26394729.119 6 103578532.58706     -2936.519 6        37.191    26394728.231 7 106280503.34007     -3013.188 7        42.072
E07        18.000    24460798.816 6 128542439.34406     -1928.819 6        41.511                                                                    24460818.573 6  95989522.51706     -1440.333 6        36.745    24460808.509 7  98493543.44907     -1477.819 7        44.397
E36        19.000    26344671.979 4                       651.062 4        27.581                                                                    26344714.488 4                       487.014 4        25.774
R22        22.000    21443150.679 7 114465078.57907     -2665.725 7        44.739                                                                    21443151.517 6  89028459.22606     -2073.409 6        39.523
S36        23.000    38101446.790 5 200224371.34505      -841.115 5        35.743
S23        24.000    38040512.141 5 199904204.71705      -845.238 5        35.095
R04        25.000    21123599.817 7 113116132.75107     -2042.289 7        42.341                                                                    21123604.817 6  87979069.73406     -1588.341 6        38.892
E29        26.000    26325055.085 7 138339139.99107       879.200 7        46.202                                                                    26325068.318 7 103305316.10207       656.556 7        45.159    26325066.993 7 106000148.54907       673.693 7        47.543
R13        29.000    19615215.381 7 104744149.08307     -1928.749 7        46.453
R12        31.000    22483810.088 5                     -3934.510 5        33.665
C10        32.000                                                                                                                                    39111635.104 4 203664335.89604     -1525.609 4        27.713    39111596.615 5 157486159.43305     -1179.994 5        34.262    39111592.385 5 165493897.51205     -1239.861 5        30.355
R03        33.000    22470950.562 7                     -4825.463 7        44.531                                                                    22470952.091 5                     -3753.364 5        31.434
C24        34.000                                                                                                                                    21215397.546 7 110474342.92107      -542.111 7        46.962                                                                    21215398.450 7  89769342.16607      -440.494 7        45.351
R14        35.000    20732941.144 5                      1612.534 5        35.871                                                                    20732954.661 4                      1253.787 4        29.716
R23        36.000    20421614.164 4                      1065.557 4        28.521
C26        37.000                                                                                                                                    23335235.541 5 121512742.52205     -3023.532 5        30.891                                                                    23335231.787 7  98738999.35707     -2457.190 7        42.030
S21        38.000    38329389.132 5 201422286.77305      -840.255 5        34.886
C44        39.000                                                                                                                                    22616861.902 7 117772036.86907      1272.409 7        43.826                                                                    22616865.642 6  95699438.64906      1033.922 6        41.940
C35        40.000                                                                                                                                    22995901.090 7 119745689.89007     -1520.072 7        46.427                                                                    22995906.647 7  97303339.19807     -1235.247 7        46.879
R05        42.000    22677082.823 6 121221997.85406      1486.918 6        37.217                                                                    22677098.304 5  94284086.09405      1156.410 5        32.467
C12        43.000                                                                                                                                    24223892.573 5 126140167.18605      2352.362 5        34.067    24223898.163 6  97539641.37906      1818.814 6        37.055    24223895.165 7 102499289.93007      1911.351 7        42.038
C33        46.000                                                                                                                                    25548725.766 3                     -3501.888 3        23.543                                                                    25548767.100 4 108105113.91504     -2845.930 4        27.940
C14        48.000                                                                                                                                                                                                    26366090.416 4                     -3051.499 4        27.581
C41        50.000                                                                                                                                    25310389.674 6 131797788.58306     -1376.395 6        39.045                                                                    25310387.467 6 107096564.83506     -1118.403 6        39.135
C07        53.000                                                                                                                                    40087739.687 4                     -1768.990 4        26.012    40087784.558 4                     -1368.265 4        29.962
I06        58.000    38345619.308 6 150476398.84406      -734.554 6        40.086
I02        60.000    36881093.585 6 144729335.34406      -783.281 6        38.625
