     3.04           OBSERVATION DATA    M                   RINEX VERSION / TYPE
ssrcrin-15.6.1x                         20250101 203000 UTC PGM / RUN BY / DATE 
(00000000023479385599111004) Septentrio proprietary         COMMENT             
ract                                                        MARKER NAME         
01                                                          MARKER NUMBER       
geodetic                                                    MARKER TYPE         
NFB                 CLIMERS@TUW                             OBSERVER / AGENCY   
3296359             SEPT ASTERX SB3 PROB4.14.4              REC # / TYPE / VERS 
Unknown             Unknown                                 ANT # / TYPE        
  4127446.1421  1206915.4130  4695543.0642                  APPROX POSITION XYZ 
        0.0000        0.0000        0.0000                  ANTENNA: DELTA H/E/N
G   23 X1  C1C L1C D1C S1C C1W S1W C2W L2W D2W S2W C2L L2L  SYS / # / OBS TYPES 
       D2L S2L C5Q L5Q D5Q S5Q C1L L1L D1L S1L              SYS / # / OBS TYPES 
E   21 X1  C1C L1C D1C S1C C6C L6C D6C S6C C5Q L5Q D5Q S5Q  SYS / # / OBS TYPES 
       C7Q L7Q D7Q S7Q C8Q L8Q D8Q S8Q                      SYS / # / OBS TYPES 
S    9 X1  C1C L1C D1C S1C C5I L5I D5I S5I                  SYS / # / OBS TYPES 
R   17 X1  C1C L1C D1C S1C C2P L2P D2P S2P C2C L2C D2C S2C  SYS / # / OBS TYPES 
       C3Q L3Q D3Q S3Q                                      SYS / # / OBS TYPES 
C   25 X1  C1P L1P D1P S1P C5P L5P D5P S5P C2I L2I D2I S2I  SYS / # / OBS TYPES 
       C7I L7I D7I S7I C6I L6I D6I S6I C7D L7D D7D S7D      SYS / # / OBS TYPES 
J   17 X1  C1C L1C D1C S1C C2L L2L D2L S2L C5Q L5Q D5Q S5Q  SYS / # / OBS TYPES 
       C1L L1L D1L S1L                                      SYS / # / OBS TYPES 
I    5 X1  C5A L5A D5A S5A                                  SYS / # / OBS TYPES 
SEPTENTRIO RECEIVERS OUTPUT ALIGNED CARRIER PHASES.         COMMENT             
NO FURTHER PHASE SHIFT APPLIED IN THE RINEX ENCODER.        COMMENT             
G L1C                                                       SYS / PHASE SHIFT   
G L2W                                                       SYS / PHASE SHIFT   
G L2L  0.00000                                              SYS / PHASE SHIFT   
G L5Q  0.00000                                              SYS / PHASE SHIFT   
G L1L  0.00000                                              SYS / PHASE SHIFT   
E L1C  0.00000                                              SYS / PHASE SHIFT   
E L6C  0.00000                                              SYS / PHASE SHIFT   
E L5Q  0.00000                                              SYS / PHASE SHIFT   
E L7Q  0.00000                                              SYS / PHASE SHIFT   
E L8Q  0.00000                                              SYS / PHASE SHIFT   
S L1C                                                       SYS / PHASE SHIFT   
S L5I                                                       SYS / PHASE SHIFT   
R L1C                                                       SYS / PHASE SHIFT   
R L2P  0.00000                                              SYS / PHASE SHIFT   
R L2C                                                       SYS / PHASE SHIFT   
R L3Q  0.00000                                              SYS / PHASE SHIFT   
C L1P  0.00000                                              SYS / PHASE SHIFT   
C L5P  0.00000                                              SYS / PHASE SHIFT   
C L2I                                                       SYS / PHASE SHIFT   
C L7I                                                       SYS / PHASE SHIFT   
C L6I                                                       SYS / PHASE SHIFT   
C L7D                                                       SYS / PHASE SHIFT   
J L1C                                                       SYS / PHASE SHIFT   
J L2L  0.00000                                              SYS / PHASE SHIFT   
J L5Q  0.00000                                              SYS / PHASE SHIFT   
J L1L  0.00000                                              SYS / PHASE SHIFT   
I L5A                                                       SYS / PHASE SHIFT   
  2025     1     1    20    30    0.0000000     GPS         TIME OF FIRST OBS   
 C1C    0.000 C2C    0.000 C2P    0.000                     GLONASS COD/PHS/BIS 
DBHZ                                                        SIGNAL STRENGTH UNIT
    18                                                      LEAP SECONDS        
 24 R01  1 R02 -4 R03  5 R04  6 R05  1 R06 -4 R07  5 R08  6 GLONASS SLOT / FRQ #
    R09 -2 R10 -7 R11  0 R12 -1 R13 -2 R14 -7 R15  0 R16 -1 GLONASS SLOT / FRQ #
    R17  4 R18 -3 R19  3 R20  2 R21  4 R22 -3 R23  3 R24  2 GLONASS SLOT / FRQ #
                                                            END OF HEADER       
> 2025 01 01 20 30  0.0000000  0 39
G18         1.000                                                                                                                                                                    23919091.379 4                     -3049.808 4        29.810
G10         2.000    20741263.954 8 108996323.71408       100.964 8        48.899                                    20741261.736 6  84931975.38806        78.677 6        40.934    20741260.096 6  84932007.36106        78.683 6        39.312
G07         3.000                                                                                                                                                                    25442261.455 4                     -1787.762 4        29.886
G23         4.000    21295401.191 7 111908062.81807     -2698.332 7        43.994                                    21295395.463 4  87201052.37004     -2102.601 4        27.988    21295396.518 7  87201131.35107     -2102.650 7        44.072
G15         5.000    24031173.242 3                     -2684.353 3        19.164
G08         6.000    21102492.412 7 110894289.19007      1324.260 7        45.058                                    21102524.023 2  86411285.32602      1031.922 2        15.762    21102490.017 5  86411178.67305      1031.866 5        34.781
G27         7.000    19948243.231 8 104828757.81208      -867.408 8        51.289                                    19948241.038 8  81684682.70108      -675.901 8        49.635    19948240.293 7  81684741.69407      -675.873 7        42.809
G21         8.000    22900319.307 5 120342049.88705      1807.441 5        33.569                                    22900316.945 1  93772973.93401      1408.437 1         4.857
E13        16.000    23778928.325 7 124959196.59607     -2126.812 7        42.722                                                                    23778928.909 7  93313682.97107     -1588.195 7        47.745    23778929.380 7  95747907.17307     -1629.624 7        47.490
E31        17.000    27091628.009 6 142367415.14106      1437.758 6        37.142                                                                    27091623.038 5 106313457.85305      1073.686 5        32.916    27091623.027 6 109086745.34806      1101.742 6        37.429
G16        18.000    22354895.045 7 117475855.59907     -4081.396 7        45.335                                    22354896.335 3  91539514.35703     -3180.314 3        22.152
E26        19.000    23851466.333 6 125340319.16106       310.127 6        40.026                                                                    23851465.616 8  93598346.84308       231.567 8        48.856    23851465.396 8  96040035.64008       237.597 8        50.966
E03        21.000    27280239.236 4                     -1065.006 4        28.009
E21        22.000    25392668.842 5 133439354.78505     -3514.643 5        31.230                                                                    25392672.308 6  99646317.97806     -2624.441 6        39.703    25392670.269 4 102245762.83704     -2693.483 4        26.575
S36        23.000    38101120.607 6 200222609.35406      -852.066 6        36.507
S23        24.000    38056643.640 6 199988978.63206      -852.370 6        40.627
G26        25.000    24694533.892 4                     -4490.744 4        25.203                                                                                                    24694540.160 4                     -3498.605 4        24.647
R20        26.000    21143488.566 4                      1646.911 4        28.806                                                                    21143486.711 5  87938506.32605      1280.669 5        33.880
R02        27.000                                                                                                                                    24143729.225 3                     -3578.301 3        20.548
E33        28.000                                                                                                                                    27512766.408 5 107966026.69305      1192.374 5        32.605    27512763.785 5 110782501.54205      1223.535 5        31.585
R19        29.000    19789809.849 7 105862045.81907     -1964.580 7        42.586                                                                    19789806.398 6  82337203.13606     -1528.024 6        38.793
R18        30.000    22113684.155 5 118044472.64305     -3796.702 5        35.829                                                                    22113687.050 4                     -2952.511 4        29.479
R04        31.000    20830313.897 6 111545262.31106      2040.586 6        37.028
R03        32.000    20978028.777 7 112297495.26907     -1764.227 7        44.483                                                                    20978028.390 6  87342120.99306     -1372.379 6        40.744
R09        34.000    21984904.889 6 117398132.58306     -4497.461 6        39.880
C37        36.000                                                                                                                                    25603606.933 5 133324737.65305     -3649.503 5        32.617                                                                    25603583.182 5                     -2965.285 5        30.445
C33        37.000                                                                                                                                    23180327.956 5 120706115.13405      1095.215 5        32.695                                                                    23180341.219 5  98083645.07205       889.807 5        34.524
C28        40.000                                                                                                                                    21381273.628 8 111338164.24108      -483.602 8        52.110                                                                    21381271.205 8  90471158.01508      -392.853 8        48.566
R11        41.000    23013415.091 5 122976576.32405      1846.078 5        33.611                                                                    23013378.895 5  95648427.22205      1435.946 5        32.401
C43        42.000                                                                                                                                    24003347.429 6 124991704.71206     -3308.799 6        39.679                                                                    24003342.394 5 101566066.76305     -2689.198 5        32.192
C13        45.000                                                                                                                                    38541265.025 6 200694500.29706     -1839.500 6        38.655    38541262.916 6 155189723.83906     -1422.575 6        39.231    38541247.727 3                     -1494.771 3        22.343
C08        46.000                                                                                                                                    39066646.529 4                     -2066.586 4        29.052    39066674.568 6 157305163.75406     -1598.140 6        36.442    39066629.046 4                     -1679.658 4        24.767
C14        47.000                                                                                                                                    23014114.435 5                      -496.765 5        34.619    23014115.846 6  92668594.04006      -384.120 6        40.248    23014116.038 6  97380267.58306      -403.595 6        40.524
C42        48.000                                                                                                                                    23979003.489 6 124864982.86206     -2120.554 6        39.544                                                                    23979007.105 6 101463060.29406     -1723.114 6        41.661
C41        49.000                                                                                                                                    25698256.576 4 133817640.83904      2660.785 4        29.261
C38        50.000                                                                                                                                    40549482.028 4                     -2111.919 4        24.105
C27        52.000                                                                                                                                    23453658.511 6 122129354.53906      1518.662 6        41.521                                                                    23453655.607 6  99240123.60006      1234.078 6        36.930
C36        56.000                                                                                                                                    26494270.452 5                       785.377 5        31.215                                                                    26494283.600 4                       638.099 4        29.972
I06        58.000    38498404.147 6 151076173.00506      -557.536 6        37.323
> 2025 01 01 20 30  5.0000000  0 37
G18         1.000                                                                                                                                                                    23922815.981 4                     -3050.078 4        29.592
G10         2.000    20741169.239 8 108995824.86208        98.098 8        48.957                                    20741166.737 6  84931586.66106        76.442 6        40.827    20741165.048 6  84931618.64206        76.444 6        38.913
G07         3.000                                                                                                                                                                    25444443.357 4                     -1789.428 4        28.218
G23         4.000    21297970.141 7 111921559.86607     -2700.968 7        43.706                                    21297964.012 4  87211569.55004     -2104.648 4        28.370    21297965.065 7  87211648.53807     -2104.621 7        44.971
G08         6.000    21101232.707 7 110887670.95907      1322.525 7        44.739                                    21101266.969 2  86406128.26902      1030.524 2        17.774    21101231.207 5  86406021.60605      1030.538 5        35.810
G27         7.000    19949069.652 8 104833100.24708      -870.140 8        52.093                                    19949066.920 8  81688066.41708      -678.033 8        49.762    19949067.171 7  81688125.40307      -677.896 7        42.626
G21         8.000    22898600.653 5 120333012.83205      1806.620 5        34.762                                    22898597.096 1  93765932.04501      1407.675 1         4.429
E13        16.000    23780951.996 7 124969831.17407     -2127.604 7        43.024                                                                    23780952.563 7  93321624.37107     -1588.722 7        47.535    23780952.835 7  95756055.73807     -1630.157 7        46.672
E31        17.000    27090260.276 6 142360228.21906      1436.245 6        37.429                                                                    27090255.196 5 106308090.97605      1072.812 5        33.323    27090255.475 6 109081238.44906      1100.760 6        37.149
G16        18.000    22358778.772 7 117496265.31207     -4083.009 7        43.628                                    22358780.713 3  91555418.03603     -3181.557 3        20.667
E26        19.000    23851172.232 6 125338770.12206       309.061 6        39.571                                                                    23851170.712 8  93597190.08608       230.768 8        48.683    23851170.670 8  96038848.70608       236.802 8        50.823
E03        21.000    27281252.948 4                     -1067.023 4        28.370                                                                                                                                    27281246.503 3                      -817.673 3        22.781
E21        22.000    25396013.191 5 133456929.43505     -3515.587 5        31.547                                                                    25396016.907 6  99659441.91506     -2625.527 6        39.547    25396014.884 4 102259229.14804     -2694.656 4        26.539
S36        23.000    38101932.685 6 200226869.68006      -852.466 6        36.730
S23        24.000    38057454.238 6 199993238.19506      -851.890 6        40.570
G26        25.000    24698805.602 4                     -4490.217 4        24.316                                                                                                    24698812.165 3                     -3498.878 3        23.029
R20        26.000    21141944.895 4                      1645.562 4        25.459                                                                    21141947.485 5  87932103.59805      1279.699 5        34.752
E33        28.000                                                                                                                                    27511248.391 5 107960064.91405      1192.546 5        31.019    27511245.557 5 110776384.27305      1223.227 5        32.281
R19        29.000    19791647.760 7 105871871.19107     -1966.244 7        42.622                                                                    19791643.026 6  82344845.06706     -1529.287 6        38.420
R18        30.000    22117243.775 6 118063456.97506     -3797.296 6        37.013                                                                    22117235.395 4                     -2953.983 4        24.857
R04        31.000    20828412.789 5 111535065.90805      2037.590 5        32.617
R03        32.000    20979677.797 7 112306326.68007     -1768.766 7        44.117                                                                    20979678.266 6  87348989.88506     -1375.597 6        40.970
R09        34.000    21989117.933 6 117420623.85516     -4499.452 6        40.439                                                                    21989132.580 4                     -3499.631 4        29.327
C37        36.000                                                                                                                                    25607106.770 5 133342985.49505     -3649.894 5        30.000                                                                    25607087.262 4                     -2965.661 4        28.739
C33        37.000                                                                                                                                    23179282.165 6 120700644.12206      1092.692 6        36.287                                                                    23179288.094 5  98079199.52005       887.756 5        32.617
C28        40.000                                                                                                                                    21381738.311 8 111340584.62908      -485.068 8        52.034                                                                    21381736.215 8  90473124.79708      -394.243 8        48.394
R11        41.000    23011685.156 5 122967351.50305      1842.860 5        30.453                                                                    23011650.691 5  95641252.35905      1433.578 5        31.743
C43        42.000                                                                                                                                    24006524.253 6 125008249.56506     -3309.509 6        40.133                                                                    24006519.777 5 101579510.81005     -2689.410 5        31.283
C13        45.000                                                                                                                                    38543030.761 6 200703697.11706     -1839.900 6        38.390    38543028.748 6 155196835.38606     -1422.540 6        39.018    38543011.465 3                     -1495.520 3        20.262
C08        46.000                                                                                                                                    39068629.792 4                     -2066.710 4        28.815    39068658.077 6 157313153.28706     -1598.146 6        36.246    39068613.490 3                     -1678.972 3        23.619
C14        47.000                                                                                                                                    23014594.177 6 119843020.56016      -499.592 6        37.259    23014594.499 6  92670519.11006      -386.365 6        39.880    23014595.164 6  97382290.58006      -406.133 6        40.586
C42        48.000                                                                                                                                    23981040.452 6 124875591.45606     -2123.213 6        40.887                                                                    23981044.403 6 101471680.67406     -1725.348 6        41.380
C41        49.000                                                                                                                                                                                                                                                                    25695732.545 4                      2161.882 4        28.863
C38        50.000                                                                                                                                    40551506.904 3                     -2111.668 3        23.238
C27        52.000                                                                                                                                    23452199.224 6 122121761.59106      1518.029 6        41.082                                                                    23452197.243 6  99233953.70406      1233.442 6        36.416
C36        56.000                                                                                                                                    26493520.404 5                       783.508 5        30.762                                                                    26493530.561 4                       636.325 4        28.796
I06        58.000    38499114.890 6 151078960.26706      -557.577 6        37.100
> 2025 01 01 20 30 10.0000000  0 38
G18         1.000                                                                                                                                                                    23926542.117 4                     -3050.345 4        29.308
G10         2.000    20741077.030 8 108995341.22108        95.443 8        48.307                                    20741074.509 6  84931209.78406        74.373 6        40.524    20741072.914 6  84931241.76206        74.487 6        37.796
G07         3.000    25446633.988 3                     -2298.036 3        22.819                                                                                                    25446623.125 4                     -1790.843 4        27.892
G23         4.000    21300541.902 7 111935070.37407     -2703.325 7        42.442                                    21300535.217 4  87222097.21504     -2106.489 4        28.445    21300536.437 7  87222176.19807     -2106.409 7        45.846
G08         6.000    21099975.137 7 110881062.68507      1320.899 7        44.203                                    21100012.697 3  86400978.97903      1029.275 3        18.567    21099974.158 6  86400872.31506      1029.163 6        36.389
G27         7.000    19949898.392 8 104837456.93708      -872.578 8        52.062                                    19949895.507 8  81691461.23808      -679.930 8        49.872    19949896.536 7  81691520.23107      -679.937 7        42.573
G21         8.000    22896883.277 5 120323982.06505      1805.807 5        35.400                                    22896878.396 1  93758894.90301      1407.000 1         4.000
E13        16.000    23782976.444 7 124980470.69007     -2128.179 7        42.764                                                                    23782977.145 7  93329569.46807     -1589.215 7        47.334    23782977.382 7  95764208.09507     -1630.713 7        46.074
E31        17.000    27088893.633 6 142353049.12006      1435.320 6        37.482                                                                    27088890.341 5 106302729.92805      1071.481 5        34.024    27088889.478 6 109075737.55806      1099.513 6        36.896
G16        18.000    22362663.227 6 117516683.80106     -4084.400 6        41.161                                    22362666.754 3  91571328.54203     -3182.617 3        18.567
E26        19.000    23850878.463 6 125337227.07206       308.319 6        39.297                                                                    23850877.033 8  93596037.79808       230.161 8        48.730    23850877.030 8  96037666.36308       236.192 8        50.883
E03        21.000    27282269.733 4                     -1069.630 4        27.281                                                                                                                                    27282265.640 3                      -819.102 3        23.562
E21        22.000    25399360.053 5 133474511.01405     -3516.478 5        32.635                                                                    25399362.661 6  99672571.02906     -2626.128 6        39.189    25399359.456 4 102272700.75804     -2694.697 4        25.970
S36        23.000    38102742.706 6 200231129.77906      -852.438 6        36.155
S23        24.000    38058262.269 6 199997498.12406      -852.099 6        40.281
G26        25.000    24703078.855 4                     -4490.131 4        24.632                                                                                                    24703081.263 3                     -3498.736 3        21.238
R20        26.000                                                                                                                                    21140410.589 6  87925705.59306      1279.185 6        37.278
E33        28.000                                                                                                                                    27509733.257 4 107954104.99704      1192.127 4        29.469    27509727.500 5 110770268.88405      1222.955 5        33.126
R19        29.000    19793485.402 7 105881706.31907     -1967.728 7        42.339                                                                    19793482.121 6  82352494.62206     -1530.561 6        38.868
R18        30.000    22120804.551 6 118082445.56116     -3797.851 6        36.866                                                                    22120782.295 3                     -2953.756 3        21.738
R04        31.000                                                                                                                                    20826489.099 6  86741614.17316      1582.269 6        40.467
R03        32.000    20981331.932 7 112315181.05107     -1772.906 7        45.071                                                                    20981333.153 6  87355876.60506     -1378.909 6        40.269
R09        34.000    21993331.458 7                     -4501.207 7        42.163                                                                    21993343.463 5                     -3501.195 5        31.238
R10        35.000    21218950.843 4                     -1807.024 4        29.697
C37        36.000                                                                                                                                    25610608.178 4 133361237.62204     -3650.720 4        25.609                                                                    25610590.210 4                     -2966.024 4        26.575
C33        37.000                                                                                                                                    23178235.712 6 120695185.55506      1090.652 6        36.639                                                                    23178239.271 5  98074763.99005       886.304 5        31.638
C28        40.000                                                                                                                                    21382204.477 8 111343013.08008      -486.346 8        52.286                                                                    21382202.574 8  90475098.08408      -395.203 8        48.390
R11        41.000    23009963.265 4 122958143.83704      1839.757 4        29.573                                                                    23009926.847 5  95634090.85505      1431.108 5        30.755
C43        42.000                                                                                                                                    24009701.143 6 125024799.02906     -3310.153 6        40.334                                                                    24009697.636 5 101592958.58405     -2689.926 5        30.777
C13        45.000                                                                                                                                    38544796.369 6 200712895.27606     -1839.616 6        38.628    38544794.990 6 155203947.98906     -1422.399 6        38.808    38544778.427 3                     -1495.657 3        21.310
C08        46.000                                                                                                                                    39070613.672 4                     -2066.852 4        28.256    39070640.515 6 157321143.64106     -1598.063 6        36.367    39070598.282 3                     -1679.397 3        23.524
C14        47.000                                                                                                                                    23015076.060 6 119845525.39806      -502.183 6        39.501    23015075.112 6  92672455.99506      -388.297 6        39.225    23015076.608 6  97384325.92206      -408.106 6        40.303
C42        48.000                                                                                                                                    23983079.726 6 124886213.84606     -2125.635 6        41.707                                                                    23983084.147 6 101480312.21206     -1727.264 6        41.056
C41        49.000                                                                                                                                    25693133.031 4 133791034.09404      2661.095 4        27.653                                                                    25693175.613 4                      2161.683 4        28.104
C38        50.000                                                                                                                                    40553533.426 3                     -2111.896 3        22.705
C27        52.000                                                                                                                                    23450741.911 6 122114172.55006      1517.675 6        40.484                                                                    23450739.699 5  99227786.97105      1233.214 5        35.824
C36        56.000                                                                                                                                    26492776.621 5                       780.711 5        31.366                                                                    26492779.878 4                       634.962 4        28.739
I06        58.000    38499825.390 6 151081747.66606      -557.325 6        37.138
> 2025 01 01 20 30 15.0000000  0 40
G18         1.000    23930364.842 4                     -3914.736 4        28.948                                                                                                    23930270.042 4                     -3050.814 4        28.663
G10         2.000    20740987.442 8 108994871.84608        92.354 8        48.397                                    20740984.759 6  84930844.02506        71.968 6        40.043    20740983.577 6  84930875.99206        72.076 6        36.306
G07         3.000    25448820.451 4                     -2300.545 4        26.731                                                                                                    25448807.763 4                     -1792.653 4        26.886
G23         4.000    21303115.136 6 111948593.35006     -2705.872 6        40.932                                    21303108.837 4  87232634.60404     -2108.475 4        28.142    21303109.574 7  87232713.57807     -2108.400 7        45.920
G08         6.000    21098719.985 7 110874463.42507      1318.893 7        44.974                                    21098760.880 3  86395836.71403      1027.710 3        19.940    21098718.585 6  86395730.04306      1027.714 6        36.129
G27         7.000    19950729.726 8 104841826.91808      -875.367 8        51.955                                    19950726.705 8  81694866.41608      -682.103 8        50.162    19950727.901 7  81694925.41007      -682.135 7        43.281
G21         8.000    22895164.417 6 120314956.68006      1804.538 6        36.238
G30        10.000    25629449.877 3                     -1191.571 3        19.612
E13        16.000    23785001.649 7 124991114.17607     -2129.096 7        42.652                                                                    23785002.550 7  93337517.53607     -1590.013 7        47.111    23785002.764 7  95772363.49007     -1631.385 7        45.478
E31        17.000    27087528.215 6 142345876.88806      1433.656 6        37.217                                                                    27087528.194 5 106297374.00505      1070.554 5        34.367    27087524.553 6 109070241.90906      1098.616 6        36.790
G16        18.000    22366549.630 6 117537110.06106     -4085.885 6        36.922                                    22366553.958 2  91587245.12602     -3183.808 2        15.952
E26        19.000    23850585.646 6 125335689.07706       307.001 6        39.742                                                                    23850584.364 8  93594889.28908       229.344 8        48.669    23850584.381 8  96036487.89508       235.288 8        50.907
E03        21.000    27283286.799 4                     -1071.890 4        24.105                                                                                                                                    27283286.905 3                      -821.503 3        22.971
E21        22.000    25402707.326 5 133492098.62605     -3518.234 5        33.551                                                                    25402709.606 6  99685704.62106     -2627.188 6        38.486    25402706.558 4 102286176.96604     -2696.070 4        28.161
S36        23.000    38103551.829 5 200235389.18905      -852.127 5        35.857
S23        24.000    38059073.654 6 200001757.47406      -852.099 6        40.505
G26        25.000    24707352.456 4                     -4489.122 4        26.132                                                                                                    24707355.119 3                     -3498.864 3        21.786
R20        26.000    21138862.413 3                      1644.645 3        21.810                                                                    21138874.576 6  87919311.57506      1278.201 6        38.018
R02        27.000                                                                                                                                    24156659.682 3                     -3581.005 3        22.286
E33        28.000                                                                                                                                    27508220.960 4 107948146.21804      1191.308 4        28.569    27508209.571 5 110764154.65605      1222.956 5        34.271
R19        29.000    19795325.510 7 105891550.21907     -1969.743 7        42.076                                                                    19795322.393 6  82360150.98506     -1532.135 6        39.550
R18        30.000    22124371.293 6 118101437.54006     -3798.787 6        36.439                                                                    22124339.435 4                     -2954.356 4        27.820
R04        31.000    20824593.548 6 111514724.06406      2030.800 6        36.095                                                                    20824595.016 6  86733709.87106      1579.448 6        40.594
R03        32.000    20982990.072 7 112324057.17507     -1777.447 7        44.938                                                                    20982991.826 6  87362780.25206     -1382.563 6        39.132
R09        34.000    21997548.568 6 117465637.48716     -4503.370 6        41.781                                                                    21997558.392 5                     -3502.597 5        32.018
R10        35.000    21220655.404 4                     -1811.153 4        28.019
C37        36.000                                                                                                                                                                                                                                                                    25614093.565 3                     -2968.763 3        23.067
C33        37.000                                                                                                                                    23177190.059 5 120689738.51805      1088.331 5        35.638                                                                    23177194.498 5  98070337.89805       884.327 5        30.913
C28        40.000                                                                                                                                    21382672.247 8 111345448.65108      -487.869 8        52.188                                                                    21382670.478 8  90477077.20408      -396.446 8        48.346
R11        41.000                                                                                                                                    23008210.353 5  95626942.01605      1428.224 5        31.275
C43        42.000                                                                                                                                    24012877.639 6 125041352.09906     -3310.887 6        39.760                                                                    24012876.885 4 101606409.35804     -2690.924 4        29.763
C13        45.000                                                                                                                                    38546562.900 6 200722093.83906     -1839.942 6        38.321    38546562.046 6 155211060.87506     -1422.530 6        38.526    38546543.532 3                     -1495.096 3        20.881
C08        46.000                                                                                                                                    39072598.603 4                     -2067.557 4        27.198    39072621.946 5 157329133.98005     -1598.046 5        35.467    39072582.909 3                     -1679.906 3        23.714
C14        47.000                                                                                                                                    23015561.343 6 119848044.51906      -505.209 6        41.712    23015557.257 6  92674403.93806      -390.650 6        38.763    23015560.734 6  97386372.92106      -410.696 6        39.550
C42        48.000                                                                                                                                    23985121.121 7 124896849.10307     -2128.459 7        42.311                                                                    23985126.541 6 101488954.26006     -1729.568 6        41.085
C41        49.000                                                                                                                                    25690582.599 4 133777732.59004      2660.471 4        25.263
C38        50.000                                                                                                                                    40555564.387 3                     -2112.882 3        21.071
C27        52.000                                                                                                                                    23449285.378 6 122106586.47506      1516.814 6        39.583                                                                    23449282.733 5  99221622.63605      1232.767 5        35.257
C36        56.000                                                                                                                                                                                                                                                                    26492032.147 4                       632.659 4        27.581
I06        58.000    38500535.081 6 151084534.53106      -557.469 6        37.331
> 2025 01 01 20 30 20.0000000  0 38
G18         1.000                                                                                                                                                                    23933999.048 4                     -3050.683 4        27.665
G10         2.000    20740901.257 8 108994417.54508        89.368 8        48.008                                    20740897.545 6  84930490.01206        69.642 6        39.300    20740897.675 5  84930521.99205        69.745 5        33.144
G07         3.000    25451010.334 4                     -2302.125 4        29.536                                                                                                    25450996.739 4                     -1793.664 4        25.714
G23         4.000    21305692.257 6 111962129.62106     -2708.571 6        38.471                                    21305684.908 4  87243182.35204     -2110.575 4        27.234    21305685.288 7  87243261.33707     -2110.558 7        45.512
G08         6.000    21097466.756 7 110867874.02907      1316.969 7        45.369                                    21097511.177 3  86390702.17503      1026.197 3        20.024    21097462.941 5  86390595.46705      1026.200 5        35.871
G27         7.000    19951563.859 8 104846211.05308      -878.148 8        51.415                                    19951560.717 8  81698282.62008      -684.271 8        50.315    19951562.563 7  81698341.62007      -684.299 7        44.054
G21         8.000    22893449.095 6 120305937.40206      1803.168 6        38.114
G30        10.000    25630589.000 3                     -1188.887 3        20.310
E13        16.000    23787027.475 7 125001762.47507     -2130.062 7        42.726                                                                    23787028.925 7  93345469.18407     -1590.659 7        46.984    23787028.966 7  95780522.56507     -1632.068 7        44.901
E31        17.000    27086164.970 6 142338712.44906      1432.135 6        37.301                                                                    27086165.757 5 106292023.92305      1069.385 5        34.738    27086161.710 6 109064752.25406      1097.342 6        37.062
G16        18.000    22370435.681 4 117557544.97204     -4087.877 4        28.825                                    22370442.740 2  91603168.40702     -3185.372 2        13.030
E26        19.000    23850294.702 6 125334156.93506       305.901 6        40.675                                                                    23850292.767 8  93593745.16608       228.423 8        48.699    23850292.740 8  96035313.92208       234.394 8        50.936
E03        21.000    27284303.033 3                     -1074.489 3        23.429                                                                                                                                    27284308.313 3                      -823.014 3        19.701
E21        22.000    25406054.815 5 133509693.02105     -3519.424 5        35.124                                                                    25406058.199 6  99698843.30706     -2628.345 6        38.024    25406055.308 4 102299658.40404     -2696.852 4        29.393
S36        23.000    38104367.148 6 200239648.63806      -851.970 6        36.594
S23        24.000    38059883.586 6 200006017.11106      -852.047 6        40.417
G26        25.000    24711624.492 4                     -4489.524 4        25.038                                                                                                    24711635.200 3                     -3498.791 3        22.438
R20        26.000                                                                                                                                    21137336.184 6  87912922.11506      1277.484 6        36.771
R02        27.000                                                                                                                                    24160967.728 3                     -3582.612 3        23.771
E33        28.000                                                                                                                                                                                                    27506692.439 5 110758042.23005      1222.539 5        34.748
R19        29.000    19797167.296 6 105901403.68906     -1971.622 6        41.726                                                                    19797165.005 6  82367814.76106     -1533.389 6        39.631
R04        31.000    20822700.009 6 111504578.62406      2027.489 6        38.021                                                                    20822705.192 6  86725818.94006      1576.880 6        40.000
R03        32.000    20984652.810 7 112332956.16707     -1782.011 7        45.679                                                                    20984652.570 6  87369701.66306     -1385.941 6        37.792
R09        34.000    22001766.047 7 117488159.58617     -4505.513 7        42.004                                                                    22001772.574 5                     -3504.164 5        32.383
C37        36.000                                                                                                                                                                                                                                                                    25617598.150 3                     -2968.674 3        22.438
C33        37.000                                                                                                                                    23176149.267 6 120684303.84006      1085.542 6        36.060                                                                    23176154.840 5  98065921.73905       882.364 5        31.683
C28        40.000                                                                                                                                    21383141.642 8 111347892.16508      -489.416 8        52.102                                                                    21383139.810 8  90479062.74608      -397.682 8        48.635
R11        41.000    23006549.773 5 122939778.10605      1833.835 5        30.106                                                                    23006493.476 5  95619806.37805      1426.085 5        30.732
C43        42.000                                                                                                                                    24016055.761 6 125057909.66306     -3311.938 6        38.805                                                                    24016055.957 4 101619863.70304     -2691.454 4        29.716
C13        45.000                                                                                                                                    38548329.882 6 200731293.63206     -1840.018 6        38.616    38548328.587 6 155218174.75806     -1422.976 6        38.165    38548311.943 3                     -1498.161 3        20.500
C08        46.000                                                                                                                                    39074580.144 4                     -2066.482 4        26.982    39074603.980 5 157337125.00205     -1598.246 5        35.200    39074566.869 4                     -1679.426 4        24.571
C14        47.000                                                                                                                                    23016050.254 7 119850578.78207      -508.362 7        43.289    23016044.155 6  92676363.56406      -393.120 6        38.486    23016047.718 6  97388432.17406      -412.936 6        38.468
C42        48.000                                                                                                                                    23987165.938 7 124907498.02407     -2131.095 7        42.597                                                                    23987171.539 6 101497607.37706     -1731.642 6        41.282
C41        49.000                                                                                                                                    25688025.197 3                      2659.629 3        22.438
C38        50.000                                                                                                                                    40557590.010 3                     -2110.657 3        21.024
C27        52.000                                                                                                                                    23447829.329 6 122099004.18006      1516.246 6        38.721                                                                    23447826.763 5  99215461.40805      1231.768 5        35.414
C36        56.000                                                                                                                                                                                                                                                                    26491285.932 4                       631.542 4        27.760
I06        58.000    38501244.535 6 151087321.46306      -557.277 6        36.964
> 2025 01 01 20 30 25.0000000  0 38
G18         1.000                                                                                                                                                                    23937721.983 4                     -3051.380 4        27.713
G10         2.000    20740817.193 7 108993977.53107        86.392 7        47.438                                    20740812.767 6  84930147.13806        67.317 6        38.447    20740812.709 5  84930179.12205        67.415 5        30.347
G07         3.000    25453208.208 5                     -2304.035 5        32.521
G23         4.000    21308271.610 5 111975678.37505     -2711.086 5        35.262                                    21308263.111 4  87253739.83604     -2112.523 4        25.489    21308263.736 7  87253818.83207     -2112.503 7        44.789
G08         6.000    21096214.083 7 110861293.69107      1315.054 7        44.424                                    21096262.419 3  86385574.70803      1024.708 3        18.478    21096210.776 5  86385467.91705      1024.882 5        35.833
G27         7.000    19952400.714 8 104850608.52908      -880.926 8        51.098                                    19952397.371 8  81701709.22208      -686.436 8        50.484    19952398.428 7  81701768.23007      -686.549 7        44.047
G21         8.000    22891735.070 6 120296923.46406      1802.305 6        39.003
G30        10.000    25631729.975 3                     -1191.972 3        23.524
E13        16.000    23789054.522 7 125012414.78707     -2131.046 7        42.347                                                                    23789056.031 7  93353423.81807     -1591.233 7        46.643    23789055.852 7  95788684.72007     -1632.787 7        44.507
E31        17.000    27084802.297 6 142331554.96106      1430.829 6        37.285                                                                    27084802.911 5 106286679.00905      1068.492 5        34.776    27084799.886 6 109059267.94106      1096.292 6        36.949
G16        18.000    22374316.822 3                     -4090.157 3        19.910
E26        19.000    23850004.357 6 125332629.90006       304.890 6        41.447                                                                    23850002.281 8  93592604.83908       227.660 8        48.697    23850002.083 8  96034143.84508       233.547 8        50.954
E03        21.000    27285310.776 3                     -1076.578 3        22.057                                                                                                                                    27285334.809 3                      -821.457 3        18.776
E21        22.000    25409404.243 5 133527293.43105     -3520.707 5        35.652                                                                    25409407.681 6  99711986.48606     -2629.280 6        37.025    25409404.442 5 102313144.38605     -2697.686 5        30.747
S36        23.000    38105173.230 5 200243907.63405      -851.461 5        35.981
S23        24.000    38060692.502 6 200010276.39406      -851.906 6        40.522
G26        25.000    24715892.937 3                     -4489.344 3        23.105
R20        26.000    21135800.948 5                      1641.469 5        32.054                                                                    21135800.630 6  87906536.62506      1276.502 6        36.427
R02        27.000    24165244.599 3                     -4605.229 3        21.619
E33        28.000                                                                                                                                    27505208.411 4 107936233.33004      1191.192 4        28.322    27505174.580 5 110751930.97505      1222.056 5        35.300
R19        29.000    19799011.678 6 105911265.95506     -1973.535 6        41.194                                                                    19799007.713 6  82375485.42206     -1534.888 6        39.559
R18        30.000    22131503.828 3                     -3800.476 3        22.629                                                                    22131477.785 5                     -2954.816 5        34.152
R04        31.000                                                                                                                                    20820816.879 6  86717940.78206      1574.300 6        39.961
R03        32.000    20986321.150 7 112341877.08207     -1786.447 7        46.569                                                                    20986318.303 6  87376640.13506     -1389.467 6        38.562
R09        34.000    22005983.892 7 117510691.31007     -4507.422 7        42.563                                                                    22005989.149 5                     -3505.658 5        30.241
C37        36.000                                                                                                                                                                                                                                                                    25621104.470 3                     -2973.335 3        20.143
C33        37.000                                                                                                                                    23175110.147 5 120678880.64805      1083.269 5        35.019
C28        40.000                                                                                                                                    21383612.385 8 111350342.84608      -490.907 8        51.599                                                                    21383610.429 8  90481054.13008      -398.945 8        48.634
R11        41.000    23004833.096 5 122930620.13105      1829.732 5        35.376                                                                    23004778.557 5  95612683.51905      1423.439 5        31.879
C43        42.000                                                                                                                                    24019235.247 6 125074470.87306     -3312.735 6        37.459                                                                    24019237.157 5 101633321.05005     -2692.190 5        30.121
C13        45.000                                                                                                                                    38550096.637 6 200740493.79406     -1840.169 6        38.393    38550095.022 6 155225288.90806     -1422.959 6        38.024    38550079.790 3                     -1504.330 3        18.627
C08        46.000                                                                                                                                    39076566.108 4                     -2066.947 4        27.126    39076585.064 5 157345116.08605     -1598.273 5        35.243    39076551.554 3                     -1679.698 3        23.295
C14        47.000                                                                                                                                    23016540.694 7 119853127.36007      -511.259 7        44.539    23016533.609 6  92678334.27306      -395.449 6        37.614    23016535.538 6  97390503.04206      -415.159 6        37.350
C42        48.000                                                                                                                                    23989213.363 7 124918159.84007     -2133.697 7        42.961                                                                    23989218.939 6 101506270.97206     -1733.776 6        41.569
C41        49.000                                                                                                                                    25685469.132 3                      2658.764 3        21.714                                                                    25685484.494 5                      2161.024 5        32.850
C27        52.000                                                                                                                                    23446372.871 6 122091424.91106      1515.211 6        38.703                                                                    23446371.064 5  99209302.61005      1231.418 5        34.952
C36        56.000                                                                                                                                    26490572.371 4                       774.344 4        28.133                                                                    26490541.178 4                       629.466 4        25.820
I06        58.000    38501955.209 6 151090107.84706      -557.258 6        37.108
> 2025 01 01 20 30 30.0000000  0 37
G18         1.000                                                                                                                                                                    23941447.332 4                     -3051.691 4        28.701
G10         2.000    20740736.203 7 108993553.16507        83.166 7        47.316                                    20740730.950 6  84929816.45906        64.807 6        37.773    20740732.855 5  84929848.48705        64.865 5        31.253
G07         3.000                                                                                                                                                                    25455389.446 3                     -1796.842 3        22.457
G23         4.000    21310850.246 5 111989240.95405     -2714.365 5        30.362                                    21310844.217 3  87264308.15803     -2115.096 3        22.781    21310845.030 7  87264387.14907     -2114.877 7        44.629
G08         6.000    21094962.838 7 110854723.79707      1312.766 7        43.532                                    21095015.028 2  86380455.47502      1022.882 2        14.571    21094960.643 5  86380348.52205      1022.966 5        35.657
G27         7.000    19953240.393 8 104855020.72508      -884.059 8        51.322                                    19953236.918 8  81705147.29808      -688.876 8        50.659    19953238.310 7  81705206.29307      -688.836 7        44.245
G21         8.000    22890020.626 6 120287916.25806      1800.555 6        38.495
G30        10.000    25632870.105 3                     -1194.074 3        23.429
E08        12.000    26792354.913 5 140794777.87305      1172.014 5        32.689                                                                                                                                    26792360.210 5 107881733.28915       897.739 5        32.329
E13        16.000    23791082.620 6 125023072.47106     -2132.280 6        41.321                                                                    23791084.202 7  93361382.48407     -1592.250 7        46.537    23791083.575 7  95796851.00107     -1633.885 7        44.266
E31        17.000    27083441.909 6 142324405.75006      1428.918 6        36.771                                                                    27083440.376 5 106281340.31305      1066.881 5        35.481    27083439.462 6 109053789.94806      1094.734 6        37.512
E26        19.000    23849714.301 6 125331109.32106       303.331 6        41.950                                                                    23849713.027 8  93591469.33208       226.474 8        48.742    23849712.532 8  96032978.71108       232.373 8        50.828
E03        21.000    27286340.108 3                     -1079.403 3        21.286
E21        22.000    25412754.135 6 133544901.21206     -3522.407 6        36.370                                                                    25412758.736 6  99725135.14506     -2630.328 6        36.321    25412755.093 5 102326636.04505     -2698.617 5        31.570
S36        23.000    38105984.083 6 200248167.33906      -852.182 6        36.076
S23        24.000    38061500.533 6 200014536.64906      -852.224 6        40.477
G26        25.000    24720164.513 3                     -4490.651 3        23.067
R20        26.000    21134270.902 6 113014432.77516      1639.777 6        36.083                                                                    21134266.123 6  87900156.20816      1275.413 6        36.926
E33        28.000                                                                                                                                    27503687.635 4 107930279.56304      1190.472 4        26.958    27503658.022 5 110745821.95305      1221.418 5        35.871
R19        29.000    19800857.788 6 105921138.30006     -1975.705 6        40.980                                                                    19800853.221 6  82383163.90606     -1536.599 6        39.844
R18        30.000                                                                                                                                    22135037.271 5  91900927.25815     -2956.759 5        35.205
R04        31.000                                                                                                                                    20818929.886 6  86710076.47006      1571.311 6        39.312
R03        32.000    20987994.693 7 112350821.27607     -1791.396 7        47.798                                                                    20987992.006 6  87383596.74706     -1393.281 6        39.709
R09        34.000    22010207.339 7 117533234.15017     -4509.923 7        42.601
R10        35.000    21225751.864 4                     -1824.602 4        28.180
C33        37.000                                                                                                                                    23174068.605 5 120673470.36505      1080.693 5        31.268                                                                    23174089.062 5  98057118.62905       877.741 5        33.132
C28        40.000                                                                                                                                    21384084.653 8 111352802.04708      -492.853 8        51.083                                                                    21384082.745 8  90483052.41608      -400.491 8        48.597
R11        41.000    23003113.809 6 122921479.86606      1825.996 6        39.126                                                                    23003069.089 5  95605574.39305      1420.139 5        33.485
C43        42.000                                                                                                                                    24022416.922 6 125091037.11406     -3314.181 6        36.556                                                                    24022418.967 4 101646782.43204     -2692.981 4        29.858
C13        45.000                                                                                                                                    38551862.328 6 200749695.86506     -1840.699 6        37.701    38551862.253 6 155232404.53206     -1423.387 6        37.724
C08        46.000                                                                                                                                    39078548.646 4                     -2066.916 4        26.479    39078566.955 5 157353108.34505     -1598.798 5        35.090    39078534.705 3                     -1678.640 3        23.238
C14        47.000                                                                                                                                    23017033.075 7 119855691.62707      -514.541 7        45.175    23017024.699 6  92680317.12406      -397.962 6        38.348    23017023.618 6  97392586.68706      -418.270 6        36.843
C42        48.000                                                                                                                                    23991263.624 7 124928835.88107     -2136.751 7        43.530                                                                    23991269.255 7 101514946.13707     -1736.334 7        42.009
C41        49.000                                                                                                                                    25682914.544 3                      2659.272 3        20.238                                                                    25682935.571 5                      2160.782 5        33.114
C27        52.000                                                                                                                                    23444917.129 6 122083849.97506      1514.404 6        38.574                                                                    23444916.275 5  99203147.37705      1230.600 5        34.371
C36        56.000                                                                                                                                    26489828.516 3                       772.728 3        23.676                                                                    26489799.600 4                       627.423 4        25.459
I06        58.000    38502665.952 6 151092894.74306      -557.476 6        37.108
> 2025 01 01 20 30 35.0000000  0 41
G18         1.000    23945176.282 5                     -3916.969 5        31.509                                                                                                    23945171.858 4                     -3052.055 4        28.834
G10         2.000    20740658.616 7 108993143.74707        80.424 7        47.377                                    20740652.232 6  84929497.42806        62.668 6        37.270    20740655.165 5  84929529.44005        62.588 5        32.317
G07         3.000    25457613.946 5                     -2308.081 5        31.434
G23         4.000    21313422.788 3                     -2709.745 3        21.548                                                                                                    21313428.622 7  87274965.66207     -2116.658 7        44.674
G08         6.000    21093714.406 7 110848163.63607      1311.077 7        43.877                                    21093768.313 1  86375343.89501      1021.530 1        11.185    21093712.443 5  86375236.72005      1021.713 5        35.881
G27         7.000    19954082.880 8 104859446.89608      -886.582 8        51.759                                    19954079.184 8  81708596.26508      -690.843 8        50.846    19954080.683 7  81708655.25707      -690.811 7        44.197
G21         8.000    22888305.687 6 120278915.04106      1799.725 6        37.724
G30        10.000    25633997.651 3                     -1196.954 3        23.829
E08        12.000    26791238.716 5 140788922.33005      1170.567 5        33.293                                                                                                                                    26791243.661 5 107877246.63005       896.430 5        32.557
E13        16.000    23793111.881 6 125033734.79306     -2132.879 6        40.005                                                                    23793113.178 7  93369344.60407     -1592.757 7        46.332    23793112.377 7  95805020.82207     -1634.266 7        43.915
E31        17.000    27082082.918 5 142317264.12905      1427.563 5        35.357                                                                    27082081.122 5 106276007.24105      1066.220 5        35.529    27082080.724 6 109048317.76606      1093.953 6        37.508
G16        18.000    22382111.687 4                     -4092.962 4        25.970
E26        19.000    23849425.484 6 125329594.42606       302.514 6        41.812                                                                    23849424.730 8  93590338.07808       225.903 8        48.668    23849423.997 8  96031817.94708       231.748 8        50.507
E03        21.000    27287368.576 3                     -1081.783 3        20.929                                                                                                                                    27287414.910 3                      -829.256 3        20.857
E21        22.000    25416104.645 5 133562515.62505     -3523.471 5        35.771                                                                    25416110.666 5  99738288.77105     -2631.231 5        35.638    25416106.027 5 102340132.78905     -2699.482 5        32.395
S36        23.000    38106794.730 6 200252426.86506      -851.905 6        36.125
S23        24.000    38062315.241 6 200018797.02906      -851.850 6        40.477
G26        25.000    24724438.682 3                     -4489.960 3        23.390
R20        26.000    21132736.798 6 113006235.24706      1638.955 6        36.287                                                                    21132733.814 6  87893780.33906      1274.809 6        36.843
R02        27.000    24173944.659 3                     -4612.178 3        23.143
E33        28.000                                                                                                                                    27502166.668 3 107924327.48903      1190.149 3        23.981    27502141.828 6 110739714.60306      1221.296 6        36.302
R19        29.000    19802705.236 6 105931019.88906     -1977.267 6        40.906                                                                    19802701.621 6  82390849.60306     -1537.961 6        41.025
R18        30.000                                                                                                                                    22138597.284 5  91915711.65605     -2957.224 5        35.767
R04        31.000                                                                                                                                    20817045.633 6  86702225.52806      1568.983 6        38.471
R03        32.000    20989671.959 7 112359788.03407     -1795.512 7        47.896                                                                    20989672.179 6  87390570.90206     -1396.385 6        40.653
R09        34.000    22014431.797 6 117555787.13606     -4511.558 6        41.554                                                                    22014411.977 4                     -3508.562 4        27.150
R10        35.000    21227472.397 5                     -1829.117 5        30.438
C37        36.000                                                                                                                                    25628120.981 4                     -3654.281 4        24.977
C33        37.000                                                                                                                                                                                                                                                                    23173047.745 5  98052732.37405       876.078 5        33.365
C28        40.000                                                                                                                                    21384558.465 8 111355269.02208      -494.092 8        50.980                                                                    21384556.562 8  90485057.03208      -401.544 8        48.506
R11        41.000    23001396.360 6 122912356.44506      1822.909 6        39.405                                                                    23001361.254 5  95598478.40305      1417.763 5        33.042
C43        42.000                                                                                                                                    24025598.976 5 125107607.63005     -3314.739 5        35.957                                                                    24025602.142 5 101660247.34505     -2693.326 5        30.166
C13        45.000                                                                                                                                    38553629.889 6 200758898.93306     -1840.517 6        37.709    38553629.570 6 155239520.94106     -1423.276 6        37.437
C08        46.000                                                                                                                                    39080529.320 4                     -2067.082 4        24.211    39080551.381 5 157361101.12505     -1598.523 5        34.071    39080521.483 3                     -1680.992 3        23.467
C14        47.000                                                                                                                                    23017527.747 7 119858270.87007      -517.270 7        45.225    23017521.717 6  92682311.54406      -400.082 6        40.238    23017518.710 6  97394682.51106      -420.270 6        36.733
C42        48.000                                                                                                                                    23993316.338 7 124939525.41507     -2139.195 7        44.298                                                                    23993322.183 7 101523632.24307     -1738.321 7        42.246
C41        49.000                                                                                                                                                                                                                                                                    25680383.137 5                      2160.516 5        33.042
C38        50.000                                                                                                                                    40563666.775 3                     -2109.300 3        19.104
C27        52.000                                                                                                                                    23443462.877 6 122076278.65006      1513.958 6        39.610                                                                    23443462.207 5  99196995.09505      1230.191 5        34.186
C36        56.000                                                                                                                                                                                                                                                                    26489054.901 3                       625.947 3        23.371
I06        58.000    38503376.168 6 151095681.58406      -557.436 6        36.794
> 2025 01 01 20 30 40.0000000  0 39
G18         1.000    23948907.377 5                     -3917.230 5        30.604                                                                                                    23948905.032 4                     -3052.063 4        29.100
G10         2.000    20740583.515 7 108992749.41407        77.558 7        47.798                                    20740576.733 6  84929190.15906        60.442 6        36.991    20740580.297 5  84929222.19805        60.385 5        33.695
G07         3.000    25459809.396 4                     -2310.118 4        26.659                                                                                                    25459793.355 4                     -1800.196 4        24.241
G23         4.000                                                                                                                                                                    21316014.503 7  87285554.53107     -2118.777 7        44.828
G08         6.000    21092468.299 7 110841613.35507      1309.239 7        44.093                                    21092523.230 1  86370239.85201      1020.151 1         8.381    21092466.288 6  86370132.66206      1020.025 6        36.336
G27         7.000    19954927.962 8 104863887.23008      -889.275 8        51.822                                    19954924.168 8  81712056.26308      -692.941 8        50.878    19954925.320 7  81712115.26307      -692.975 7        44.662
G21         8.000    22886593.615 6 120269919.97306      1798.531 6        36.578                                    22886589.555 1                      1401.453 1         7.750
E08        12.000    26790124.085 5 140783075.18005      1168.996 5        33.659                                                                                                                                    26790129.006 5 107872766.34305       895.576 5        32.210
E13        16.000    23795141.995 6 125044401.92106     -2133.610 6        38.961                                                                    23795143.138 7  93377310.32507     -1593.390 7        46.181    23795141.989 7  95813194.33207     -1634.927 7        43.714
E31        17.000    27080724.573 5 142310130.32705      1426.014 5        33.994                                                                    27080723.536 5 106270679.99105      1064.948 5        35.386    27080723.262 6 109042851.56506      1092.619 6        37.342
G16        18.000    22386006.788 5                     -4094.420 5        30.091
E26        19.000    23849138.327 6 125328085.42706       301.307 6        41.542                                                                    23849137.612 8  93589211.23308       225.066 8        48.852    23849136.702 8  96030661.69408       230.948 8        50.118
E03        21.000    27288399.469 3                     -1084.485 3        23.048                                                                                                                                    27288444.014 3                      -830.032 3        22.419
E21        22.000    25419457.225 5 133580136.86005     -3525.000 5        35.748                                                                    25419464.545 5  99751447.46705     -2631.933 5        34.705    25419458.349 5 102353634.75705     -2701.058 5        32.102
S36        23.000    38107602.707 6 200256686.71506      -851.678 6        36.234
S23        24.000    38063125.780 6 200023057.65206      -851.961 6        40.663
G26        25.000    24728708.639 4                     -4489.461 4        24.090                                                                                                    24728763.115 3                     -3498.080 3        22.190
R20        26.000    21131201.140 6 112998043.67006      1637.966 6        36.454                                                                    21131201.032 5  87887409.16605      1273.916 5        34.914
R02        27.000    24178269.711 4                     -4614.052 4        28.057                                                                    24178289.640 3                     -3588.183 3        23.505
E33        28.000                                                                                                                                                                                                    27500626.370 6 110733609.03306      1221.107 6        36.457
R19        29.000    19804553.810 6 105940911.08306     -1979.010 6        40.739                                                                    19804551.128 7  82398542.75307     -1539.179 7        42.119
R18        30.000    22142146.460 5                     -3802.998 5        30.060                                                                    22142157.441 5  91930499.30405     -2957.844 5        34.543
R04        31.000    20815165.888 4 111464167.32104      2013.448 4        28.085                                                                    20815162.979 6  86694387.98306      1566.457 6        37.183
R03        32.000    20991349.725 7 112368777.53007     -1800.095 7        46.642                                                                    20991357.034 6  87397562.72806     -1399.945 6        39.934
R09        34.000    22018657.161 6 117578350.58116     -4513.610 6        40.360                                                                    22018641.520 3                     -3509.485 3        22.438
R10        35.000    21229187.394 5                     -1833.200 5        30.106
C33        37.000                                                                                                                                    23171977.607 5 120662686.58205      1076.222 5        32.497                                                                    23172012.905 5  98048356.15805       874.492 5        33.000
C28        40.000                                                                                                                                    21385033.932 8 111357743.97308      -495.620 8        51.548                                                                    21385031.859 8  90487068.14108      -402.722 8        48.304
R11        41.000                                                                                                                                    22999657.324 5  95591395.67805      1415.210 5        31.932
C43        42.000                                                                                                                                    24028781.957 5 125124182.54805     -3315.072 5        34.100                                                                    24028788.400 5 101673715.84005     -2693.932 5        31.132
C13        45.000                                                                                                                                    38555396.975 6 200768103.24406     -1840.949 6        37.985    38555397.297 6 155246638.29506     -1423.739 6        37.081
C08        46.000                                                                                                                                    39082513.545 3                     -2066.757 3        22.724    39082534.487 5 157369094.62505     -1598.774 5        33.808    39082506.946 3                     -1680.184 3        23.486
C14        47.000                                                                                                                                    23018024.894 7 119860865.24107      -520.143 7        45.096    23018020.532 6  92684317.65106      -402.236 6        41.549    23018018.982 6  97396790.63206      -422.501 6        36.839
C42        48.000                                                                                                                                    23995371.297 7 124950228.60907     -2141.850 7        45.093                                                                    23995377.620 7 101532329.48207     -1740.413 7        42.518
C41        49.000                                                                                                                                                                                                                                                                    25677829.260 5                      2160.289 5        33.186
C38        50.000                                                                                                                                    40565693.592 3                     -2109.366 3        20.595
C27        52.000                                                                                                                                    23442010.083 6 122068711.16606      1513.230 6        40.994                                                                    23442008.837 5  99190845.92405      1229.692 5        34.148
C36        56.000                                                                                                                                    26488323.037 3                       765.399 3        20.690
I06        58.000    38504085.929 6 151098468.51706      -557.365 6        36.858
> 2025 01 01 20 30 45.0000000  0 40
G18         1.000    23952636.500 4                     -3917.252 4        28.910                                                                                                    23952637.795 4                     -3052.629 4        28.701
G10         2.000    20740511.511 7 108992369.77307        74.372 7        47.690                                    20740504.328 6  84928894.33106        57.953 6        36.998    20740509.252 5  84928926.35105        57.773 5        34.633
G07         3.000    25462010.378 3                     -2311.170 3        21.881                                                                                                    25461994.028 4                     -1801.617 4        24.962
G23         4.000    21318612.366 4                     -2721.479 4        27.257                                                                                                    21318602.656 7  87296153.40607     -2120.837 7        44.483
G08         6.000    21091223.378 7 110835072.56607      1307.121 7        43.920                                    21091279.962 1  86365143.14501      1018.532 1         9.905    21091221.696 6  86365035.91706      1018.659 6        36.503
G27         7.000    19955775.154 8 104868341.29808      -892.266 8        51.291                                    19955771.782 8  81715526.96608      -695.276 8        51.009    19955772.935 7  81715585.96507      -695.265 7        45.363
G21         8.000    22884883.239 5 120260930.66805      1797.372 5        35.843                                    22884880.094 1  93709753.26311      1400.560 1         8.095
E08        12.000    26789012.377 5 140777235.91805      1166.894 5        34.595                                                                                                                                    26789015.326 5 107868292.01405       894.434 5        32.509
E13        16.000    23797173.499 6 125055073.46206     -2134.918 6        38.712                                                                    23797174.059 7  93385279.31907     -1594.169 7        46.355    23797172.445 7  95821371.20407     -1635.753 7        44.030
E31        17.000    27079367.497 5 142303003.88305      1424.443 5        32.108                                                                    27079367.173 6 106265358.27806      1063.778 6        36.234    27079367.395 6 109037390.99606      1091.613 6        37.645
G16        18.000    22389906.020 5                     -4096.191 5        33.281
E26        19.000    23848853.135 7 125326581.86907       300.112 7        42.290                                                                    23848851.556 8  93588088.44708       224.040 8        49.191    23848850.501 8  96029509.61608       229.954 8        49.885
E03        21.000    27289431.524 3                     -1085.968 3        23.371                                                                                                                                    27289475.483 3                      -832.669 3        23.810
E21        22.000    25422810.967 5 133597764.45105     -3526.269 5        34.410                                                                    25422820.631 5  99764610.92905     -2633.361 5        33.892    25422812.715 5 102367141.59305     -2702.086 5        32.689
S36        23.000    38108418.899 5 200260946.70005      -851.956 5        35.990
S23        24.000    38063936.879 6 200027318.16006      -852.011 6        40.532
G26        25.000    24732980.912 3                     -4488.112 3        23.486                                                                                                    24733026.700 3                     -3497.341 3        21.619
R20        26.000    21129668.505 6 112989857.66006      1636.746 6        36.824                                                                    21129669.122 5  87881042.25505      1273.123 5        33.305
R02        27.000    24182599.565 4                     -4615.596 4        28.142                                                                    24182608.722 3                     -3589.891 3        22.114
E33        28.000                                                                                                                                                                                                    27499110.703 6 110727504.95006      1220.675 6        36.336
R19        29.000    19806403.564 6 105950811.40106     -1980.926 6        39.577                                                                    19806402.045 6  82406242.99706     -1540.808 6        41.747
R18        30.000    22145711.090 4                     -3803.466 4        28.427                                                                    22145718.945 5  91945289.87405     -2958.620 5        32.701
R04        31.000    20813289.363 5 111454107.42905      2010.601 5        30.777                                                                    20813280.530 6  86686563.63106      1563.667 6        36.200
R03        32.000    20993030.011 7 112377789.35107     -1804.622 7        44.932                                                                    20993038.327 6  87404571.97506     -1403.594 6        37.561
R09        34.000    22022884.743 6 117600924.07206     -4515.755 6        37.146                                                                    22022871.040 3                     -3511.801 3        22.057
R10        35.000    21230911.969 5                     -1837.433 5        31.819
C37        36.000                                                                                                                                    25635159.945 3                     -3656.015 3        23.029
C33        37.000                                                                                                                                                                                                                                                                    23170984.201 5  98043989.57305       872.290 5        32.114
C28        40.000                                                                                                                                    21385510.804 8 111360226.46008      -497.293 8        51.882                                                                    21385508.472 8  90489085.33408      -403.889 8        48.334
R11        41.000    22997967.630 5 122894160.48805      1815.865 5        31.660                                                                    22997955.739 5  95584325.94205      1412.374 5        33.281
C43        42.000                                                                                                                                    24031965.500 5 125140761.55705     -3316.196 5        31.192                                                                    24031978.778 5 101687187.59105     -2694.569 5        32.659
C13        45.000                                                                                                                                    38557163.731 6 200777308.39806     -1841.233 6        37.732    38557164.708 6 155253756.28806     -1423.709 6        37.009
C08        46.000                                                                                                                                    39084494.983 3                     -2068.341 3        22.267    39084517.916 5 157377088.49805     -1598.638 5        32.814    39084492.195 3                     -1682.782 3        21.786
C14        47.000                                                                                                                                    23018525.423 7 119863474.30407      -523.341 7        44.694    23018521.715 7  92686335.13807      -404.736 7        42.148    23018520.770 6  97398910.68206      -425.215 6        37.335
C42        48.000                                                                                                                                    23997428.868 7 124960945.03107     -2144.683 7        45.723                                                                    23997435.535 7 101541037.41707     -1742.477 7        42.682
C41        49.000                                                                                                                                                                                                                                                                    25675276.969 5                      2160.171 5        33.245
C38        50.000                                                                                                                                    40567720.744 3                     -2104.250 3        19.075
C27        52.000                                                                                                                                    23440558.892 6 122061147.05106      1512.400 6        41.430                                                                    23440556.071 5  99184699.47805      1229.099 5        33.748
C36        56.000                                                                                                                                    26487587.438 4                       765.866 4        25.624                                                                    26487565.153 4                       621.902 4        27.102
I06        58.000    38504795.701 6 151101255.18406      -557.275 6        36.575
> 2025 01 01 20 30 50.0000000  0 39
G18         1.000    23956366.240 4                     -3918.084 4        29.156                                                                                                    23956374.355 4                     -3053.007 4        28.209
G10         2.000    20740441.884 7 108992005.18907        71.418 7        46.840                                    20740435.099 6  84928610.23506        55.649 6        36.858    20740440.541 6  84928642.23606        55.764 6        36.257
G07         3.000                                                                                                                                                                    25464195.019 4                     -1803.022 4        26.635
G23         4.000    21321205.053 4                     -2723.382 4        24.586                                                                                                    21321193.419 7  87306762.57507     -2122.858 7        44.134
G08         6.000    21089979.907 7 110828541.64907      1305.218 7        43.240                                    21090038.475 2  86360054.08002      1017.065 2        12.121    21089977.716 6  86359946.89706      1017.033 6        36.820
G27         7.000    19956625.209 8 104872809.48708      -894.966 8        51.083                                    19956622.075 8  81719008.67208      -697.379 8        51.076    19956623.022 7  81719067.67207      -697.332 7        45.893
G21         8.000    22883174.359 5 120251947.48005      1796.144 5        34.548                                    22883171.442 1  93702753.40601      1399.627 1         8.286
G30        10.000    25637393.290 4                     -1205.261 4        25.053
E08        12.000    26787904.045 5 140771404.86405      1165.396 5        34.086                                                                                                                                    26787905.219 5 107863824.08505       893.115 5        32.180
E13        16.000    23799205.801 6 125065749.71906     -2135.577 6        39.282                                                                    23799205.648 7  93393251.85107     -1594.826 7        46.359    23799203.921 7  95829551.71707     -1636.408 7        44.160
E31        17.000    27078011.133 5 142295885.18905      1422.947 5        30.000                                                                    27078012.626 6 106260042.33406      1062.541 6        36.076    27078012.646 6 109031936.37406      1090.465 6        37.493
G16        18.000    22393805.092 5 117680238.50415     -4097.983 5        34.033
E26        19.000    23848568.826 7 125325084.15407       299.043 7        43.141                                                                    23848566.612 8  93586970.02308       223.283 8        49.498    23848565.474 8  96028362.01308       229.115 8        49.443
E03        21.000    27290466.512 3                     -1089.746 3        23.257                                                                                                                                    27290508.115 3                      -833.651 3        22.819
E21        22.000    25426166.979 5 133615398.75505     -3527.681 5        31.728                                                                    25426178.509 5  99777779.47605     -2634.441 5        32.617    25426167.905 5 102380653.57305     -2702.907 5        32.629
S36        23.000    38109230.660 5 200265206.89405      -851.865 5        35.990
S23        24.000    38064744.790 6 200031578.78706      -852.049 6        40.646
G26        25.000    24737251.705 3                     -4489.917 3        22.533                                                                                                    24737296.187 3                     -3498.254 3        22.476
R20        26.000    21128141.086 6 112981677.58506      1635.352 6        36.862                                                                    21128137.456 4  87874679.94004      1272.224 4        28.578
R02        27.000    24186930.425 4                     -4617.732 4        28.825
E33        28.000                                                                                                                                                                                                    27497595.157 6 110721402.64206      1220.269 6        36.132
R19        29.000    19808254.867 6 105960721.12906     -1983.043 6        38.147                                                                    19808254.413 6  82413950.55206     -1542.200 6        41.044
R18        30.000    22149274.087 4                     -3804.875 4        28.152                                                                    22149276.749 5                     -2959.283 5        30.913
R04        31.000    20811419.184 5 111444064.92905      2006.814 5        31.472                                                                    20811402.818 5  86678752.75305      1560.833 5        35.590
R03        32.000    20994715.533 7 112386823.83607     -1809.090 7        43.058                                                                    20994722.456 5  87411598.84605     -1407.185 5        35.067
R09        34.000    22027116.093 5 117623507.86905     -4517.588 5        34.081
R10        35.000    21232640.568 5                     -1842.217 5        32.659
C33        37.000                                                                                                                                    23169932.347 6 120651951.70406      1070.932 6        38.042                                                                    23169958.539 5  98039633.05405       870.340 5        31.623
C28        40.000                                                                                                                                    21385989.151 8 111362716.87908      -498.861 8        51.878                                                                    21385986.708 7  90491109.01807      -405.285 7        47.962
R11        41.000                                                                                                                                    22996260.935 5  95577269.54405      1409.874 5        35.467
C43        42.000                                                                                                                                    24035151.777 5 125157344.92005     -3316.819 5        31.449                                                                    24035171.126 5 101700662.93505     -2695.469 5        34.162
C13        45.000                                                                                                                                    38558931.846 6 200786514.71206     -1841.581 6        37.633    38558932.726 6 155260875.18806     -1423.919 6        36.563
C08        46.000                                                                                                                                    39086471.633 3                     -2068.889 3        21.595    39086499.386 5 157385082.99805     -1598.932 5        33.036    39086478.073 3                     -1679.901 3        23.695
C14        47.000                                                                                                                                    23019028.046 7 119866098.49107      -526.277 7        44.077    23019024.602 7  92688364.32307      -407.080 7        42.542    23019024.953 6  97401043.03906      -427.531 6        37.410
C42        48.000                                                                                                                                    23999489.449 7 124971675.05707     -2147.306 7        46.130                                                                    23999496.128 7 101549756.46107     -1744.739 7        42.700
C41        49.000                                                                                                                                                                                                                                                                    25672725.157 5                      2159.717 5        32.790
C27        52.000                                                                                                                                    23439108.102 6 122053586.74206      1511.760 6        41.476                                                                    23439104.138 5  99178556.13305      1228.621 5        34.438
C36        56.000                                                                                                                                    26486850.917 4                       762.511 4        27.748                                                                    26486836.940 4                       619.611 4        27.533
I06        58.000    38505506.056 6 151104041.90806      -557.397 6        36.953
> 2025 01 01 20 30 55.0000000  0 40
G18         1.000    23960097.282 4                     -3918.303 4        29.678                                                                                                    23960107.972 4                     -3053.173 4        25.699
G10         2.000    20740374.407 7 108991656.14407        68.299 7        44.892                                    20740369.107 6  84928338.24206        53.223 6        36.465    20740373.676 6  84928370.25006        53.049 6        37.096
G07         3.000                                                                                                                                                                    25466403.437 4                     -1804.562 4        27.713
G23         4.000    21323798.021 3                     -2726.739 3        22.667                                                                                                    21323786.644 7  87317382.39007     -2125.003 7        43.810
G08         6.000    21088738.391 6 110822021.07106      1303.056 6        41.449                                    21088798.892 1  86354973.05401      1015.389 1        11.407    21088738.037 6  86354865.93106      1015.342 6        36.722
G27         7.000    19957478.579 8 104877292.24608      -898.002 8        51.138                                    19957475.117 8  81722501.73308      -699.746 8        51.082    19957475.826 7  81722560.73707      -699.752 7        45.770
G21         8.000    22881466.280 5 120242970.87405      1794.768 5        32.904                                    22881462.880 1  93695758.64801      1398.523 1         8.381
G30        10.000    25638546.083 4                     -1208.936 4        25.308
E08        12.000    26786796.401 5 140765582.56505      1163.356 5        33.737                                                                                                                                    26786797.437 5 107859362.79505       891.620 5        32.311
E13        16.000    23801239.145 6 125076431.19406     -2136.771 6        40.615                                                                    23801238.344 7  93401228.27007     -1595.669 7        46.305    23801236.502 7  95837736.20707     -1637.260 7        44.548
E31        17.000    27076658.762 4 142288774.65504      1421.325 4        29.062                                                                    27076659.422 6 106254732.56206      1061.040 6        36.234    27076659.727 6 109026488.05606      1089.409 6        37.459
G16        18.000    22397700.152 5 117700732.78505     -4099.383 5        30.015
E26        19.000    23848285.333 7 125323592.72307       297.746 7        44.567                                                                    23848282.810 8  93585856.28208       222.356 8        49.596    23848281.495 8  96027219.22208       228.101 8        49.155
E03        21.000    27291498.598 4                     -1091.099 4        24.932                                                                                                                                    27291547.959 3                      -836.609 3        23.276
E21        22.000    25429525.605 4 133633040.23904     -3529.343 4        29.905                                                                    25429537.960 5  99790953.31105     -2635.093 5        31.441    25429524.742 5 102394171.05305     -2703.875 5        32.251
S36        23.000    38110042.711 6 200269467.50506      -852.152 6        36.087
S23        24.000    38065557.172 6 200035839.98606      -852.112 6        40.732
G26        25.000    24741523.093 3                     -4488.444 3        22.495                                                                                                    24741574.081 3                     -3499.502 3        22.171
R20        26.000    21126611.981 6                      1633.974 6        36.631                                                                    21126609.023 3                      1270.533 3        23.905
R02        27.000    24191264.237 4                     -4619.617 4        29.299                                                                    24191252.592 4                     -3591.241 4        24.932
E33        28.000                                                                                                                                                                                                    27496080.168 6 110715302.40906      1219.875 6        36.310
R19        29.000    19810109.125 6 105970640.82906     -1984.941 6        36.915                                                                    19810108.703 7  82421665.87107     -1543.723 7        42.006
R18        30.000    22152835.234 4                     -3805.174 4        27.245
R04        31.000    20809551.247 5 111434040.33005      2003.149 5        33.629                                                                    20809528.065 6  86670955.73006      1558.129 6        36.042
R03        32.000    20996407.520 7 112395881.74807     -1813.893 7        43.263                                                                    20996407.496 5  87418643.87805     -1410.714 5        32.377
R09        34.000    22031353.048 4 117646102.46014     -4520.135 4        29.905
R10        35.000    21234373.179 5                     -1846.593 5        31.275
C37        36.000                                                                                                                                    25642216.998 4                     -3657.884 4        27.114
C33        37.000                                                                                                                                    23168902.391 6 120646603.23106      1068.400 6        39.381                                                                    23168932.664 5  98035286.93705       868.217 5        31.011
C28        40.000                                                                                                                                    21386468.756 8 111365215.66608      -500.557 8        51.415                                                                    21386466.489 7  90493139.48407      -406.546 7        47.847
R11        41.000                                                                                                                                    22994567.690 6  95570226.81906      1406.915 6        36.185
C43        42.000                                                                                                                                                                                                                                                                    24038357.888 5 101714142.26305     -2696.283 5        35.157
C13        45.000                                                                                                                                    38560699.278 6 200795722.60706     -1841.690 6        37.679    38560700.787 6 155267995.32906     -1424.215 6        36.499
C08        46.000                                                                                                                                    39088457.091 3                     -2063.157 3        20.071    39088484.679 5 157393078.51205     -1599.518 5        32.216    39088462.727 3                     -1681.183 3        22.495
C14        47.000                                                                                                                                    23019533.996 7 119868738.20307      -529.565 7        43.304    23019531.317 7  92690405.50407      -409.355 7        42.756    23019532.082 6  97403188.04606      -429.988 6        37.384
C42        48.000                                                                                                                                    24001553.008 7 124982419.11707     -2150.115 7        46.186                                                                    24001559.561 7 101558486.90507     -1747.068 7        42.859
C41        49.000                                                                                                                                                                                                                                                                    25670173.359 5                      2159.539 5        32.443
C27        52.000                                                                                                                                    23437656.272 6 122046030.63806      1510.996 6        41.478                                                                    23437653.842 5  99172416.20505      1228.111 5        34.986
C36        56.000                                                                                                                                    26486120.866 4                       760.291 4        27.856                                                                    26486110.364 4                       618.094 4        26.862
I06        58.000    38506216.428 6 151106828.99706      -557.207 6        36.975
> 2025 01 01 20 31  0.0000000  0 41
G18         1.000    23963826.083 5                     -3919.152 5        30.385                                                                                                    23963834.215 4                     -3053.797 4        24.271
G10         2.000    20740309.281 7 108991321.34007        65.439 7        42.317                                    20740305.940 5  84928077.33705        50.996 5        35.457    20740309.844 6  84928109.32506        51.005 6        37.762
G07         3.000                                                                                                                                                                    25468612.070 4                     -1805.994 4        25.293
G23         4.000    21326394.017 3                     -2729.676 3        22.952                                                                                                    21326381.779 7  87328011.84007     -2126.857 7        43.132
G15         5.000    24062036.332 4                     -2721.442 4        27.593
G08         6.000    21087499.516 6 110815509.56406      1301.388 6        37.607                                    21087561.392 1  86349898.96201      1014.054 1         9.524    21087497.748 6  86349792.02506      1013.910 6        36.828
G27         7.000    19958334.164 8 104881788.31808      -900.610 8        51.195                                    19958330.628 8  81726005.17208      -701.776 8        50.994    19958331.140 7  81726064.16807      -701.770 7        44.928
G21         8.000    22879757.785 5 120233999.59805      1793.360 5        32.030                                    22879755.431 1  93688767.99901      1397.338 1         8.190
G30        10.000    25639695.674 4                     -1211.084 4        27.689
E08        12.000    26785690.148 5 140759767.63905      1162.614 5        32.228                                                                                                                                    26785690.471 5 107854907.20905       890.914 5        31.962
E13        16.000    23803272.222 7 125087116.58407     -2137.399 7        42.341                                                                    23803271.736 7  93409207.62007     -1596.205 7        46.387    23803269.837 7  95845923.71107     -1637.849 7        44.784
E31        17.000    27075308.317 4 142281671.05904      1420.059 4        28.379                                                                    27075307.232 6 106249427.92006      1060.519 6        36.348    27075307.851 6 109021045.06006      1088.150 6        37.516
G16        18.000    22401598.285 3                     -4101.312 3        22.305
E26        19.000    23848002.069 7 125322106.31007       296.723 7        45.536                                                                    23848000.083 8  93584746.29608       221.602 8        49.865    23847998.585 8  96026080.27608       227.343 8        48.760
E03        21.000    27292535.635 4                     -1094.050 4        27.042                                                                                                                                    27292589.874 4                      -837.289 4        24.211
E21        22.000    25432883.119 4 133650687.54004     -3529.749 4        28.948                                                                    25432899.062 5  99804131.61905     -2636.007 5        30.287    25432882.693 5 102407693.02605     -2704.322 5        32.144
S36        23.000    38110848.475 6 200273727.34406      -851.690 6        36.488
S23        24.000    38066366.271 6 200040100.58006      -852.078 6        40.775
G26        25.000    24745794.651 3                     -4488.563 3        22.267                                                                                                    24745847.682 3                     -3496.919 3        22.229
R20        26.000    21125083.295 5 112965335.15315      1633.226 5        35.729
R02        27.000    24195596.636 4                     -4621.714 4        28.768
E33        28.000                                                                                                                                                                                                    27494566.051 6 110709203.35406      1219.498 6        36.435
R19        29.000    19811966.277 5 105980569.21205     -1986.418 5        35.976                                                                    19811965.071 7  82429387.93507     -1545.094 7        42.514
R18        30.000    22156402.556 4                     -3805.716 4        26.551
R04        31.000    20807682.103 5 111424032.20505      1999.562 5        32.114                                                                    20807656.801 5  86663171.54205      1555.372 5        35.762
R03        32.000    20998105.845 7 112404961.30507     -1818.161 7        44.271                                                                    20998100.491 5  87425705.65505     -1413.972 5        30.453
R09        34.000    22035589.087 4 117668706.61004     -4521.294 4        28.995                                                                    22035561.509 5                     -3516.928 5        31.298
R10        35.000    21236103.469 4                     -1850.427 4        28.294
C37        36.000                                                                                                                                    25645735.199 4                     -3658.385 4        29.232
C33        37.000                                                                                                                                    23167876.063 6 120641266.31906      1066.304 6        40.627                                                                    23167906.989 5  98030950.23305       866.461 5        30.815
C28        40.000                                                                                                                                    21386949.461 8 111367721.56008      -501.958 8        51.166                                                                    21386947.730 7  90495175.74107      -407.894 7        47.441
R11        41.000                                                                                                                                    22992873.237 6  95563196.80206      1404.594 6        36.117
C43        42.000                                                                                                                                    24041537.005 6 125190525.02706     -3318.853 6        36.147                                                                    24041542.472 5 101727624.50105     -2696.803 5        35.700
C13        45.000                                                                                                                                    38562467.238 6 200804930.91706     -1841.724 6        37.471    38562469.032 6 155275115.75506     -1424.029 6        36.155
C08        46.000                                                                                                                                                                                                    39090472.016 5 157401074.04605     -1599.313 5        31.366    39090449.031 3                     -1679.001 3        23.714
C14        47.000                                                                                                                                    23020044.608 7 119871392.16207      -532.154 7        42.635    23020041.479 7  92692457.70407      -411.555 7        42.083    23020041.738 6  97405344.60706      -432.581 6        37.168
C42        48.000                                                                                                                                    24003618.476 7 124993175.95207     -2152.681 7        46.555                                                                    24003625.581 7 101567227.71407     -1749.213 7        42.897
C41        49.000                                                                                                                                                                                                                                                                    25667621.314 5                      2159.244 5        31.811
C27        52.000                                                                                                                                    23436203.252 6 122038477.53606      1510.228 6        40.648                                                                    23436204.033 5  99166278.72205      1227.103 5        35.771
C36        56.000                                                                                                                                    26485386.666 3                       759.067 3        23.371                                                                    26485383.819 4                       616.405 4        27.054
I06        58.000    38506926.606 6 151109615.54106      -557.568 6        36.794
> 2025 01 01 20 31  5.0000000  0 40
G18         1.000    23967553.864 5                     -3919.377 5        31.336                                                                                                    23967555.361 3                     -3054.417 3        23.029
G10         2.000    20740248.943 6 108991001.47506        62.516 6        39.775                                    20740245.627 5  84927828.07605        48.719 5        34.481    20740248.610 6  84927860.08906        48.610 6        38.057
G07         3.000                                                                                                                                                                    25470826.578 3                     -1807.550 3        22.324
G23         4.000                                                                                                                                                                    21328979.842 7  87338651.47107     -2128.937 7        42.491
G15         5.000    24064619.101 4                     -2724.331 4        28.445
G08         6.000    21086260.961 5 110809007.83305      1299.484 5        34.619                                    21086325.713 1  86344832.60001      1012.594 1         7.375    21086260.328 6  86344725.76106      1012.271 6        36.314
G27         7.000    19959192.352 8 104886298.38408      -903.358 8        51.524                                    19959188.777 8  81729519.51108      -703.916 8        51.037    19959189.756 7  81729578.50507      -703.915 7        44.972
G21         8.000    22878053.006 5 120225034.25305      1792.630 5        32.120                                    22878049.235 1  93681782.02001      1396.907 1         7.375
G30        10.000    25640852.912 4                     -1213.275 4        29.137
E08        12.000    26784585.875 4 140753960.91904      1160.735 4        28.578                                                                                                                                    26784584.680 5 107850457.87205       889.183 5        32.174
E13        16.000    23805306.158 7 125097806.61207     -2138.319 7        43.843                                                                    23805305.910 7  93417190.43107     -1596.850 7        46.453    23805304.288 7  95854114.75207     -1638.455 7        45.260
E31        17.000    27073960.091 4 142274575.03504      1418.597 4        29.280                                                                    27073956.850 6 106244129.02506      1059.337 6        36.374    27073957.668 6 109015607.93106      1086.917 6        37.478
E26        19.000    23847720.319 7 125320625.61607       295.559 7        45.967                                                                    23847718.375 8  93583640.58608       220.692 8        49.960    23847716.630 8  96024945.71308       226.473 8        48.497
E03        21.000    27293577.648 4                     -1096.153 4        27.904                                                                                                                                    27293633.935 4                      -841.160 4        24.692
E21        22.000    25436242.072 4 133668341.58304     -3532.087 4        29.033                                                                    25436260.574 5  99817314.85405     -2636.606 5        30.023    25436241.872 5 102421220.13305     -2706.001 5        31.924
S36        23.000    38111661.384 6 200277987.31506      -851.915 6        36.318
S23        24.000    38067179.293 6 200044361.02606      -852.014 6        40.789
G26        25.000    24750064.223 3                     -4489.410 3        23.067                                                                                                    24750120.349 3                     -3496.968 3        21.024
R20        26.000    21123555.306 5 112957172.26415      1632.150 5        34.890
R02        27.000    24199931.614 5                     -4623.790 5        30.068                                                                    24199943.276 4                     -3596.031 4        25.008
E33        28.000                                                                                                                                                                                                    27493053.090 5 110703105.96505      1219.326 5        35.924
R19        29.000    19813823.889 6 105990507.04206     -1988.561 6        36.023                                                                    19813822.875 7  82437117.37707     -1546.646 7        43.029
R18        30.000    22159967.924 4                     -3807.216 4        29.592                                                                    22159959.723 3                     -2961.098 3        22.362
R04        31.000    20805810.272 5 111414041.33605      1996.564 5        32.407                                                                    20805791.329 5  86655400.79905      1552.867 5        34.014
R03        32.000    20999807.832 7 112414063.44807     -1822.648 7        42.940                                                                    20999800.649 4  87432785.11404     -1417.443 4        29.592
R09        34.000                                                                                                                                    22039801.184 5                     -3518.417 5        34.700
R10        35.000    21237831.277 3                     -1855.503 3        23.562
C37        36.000                                                                                                                                    25649252.300 4                     -3659.536 4        28.246
C33        37.000                                                                                                                                    23166853.186 6 120635941.65806      1063.957 6        40.415                                                                    23166886.133 5  98026623.49605       864.623 5        31.087
C28        40.000                                                                                                                                    21387431.994 8 111370235.26808      -503.544 8        51.072                                                                    21387430.431 7  90497218.32507      -409.101 7        47.221
R11        41.000    22991241.329 4                      1802.564 4        28.995                                                                    22991185.770 6                      1402.181 6        37.051
C43        42.000                                                                                                                                    24044726.368 6 125207121.13406     -3319.592 6        37.372                                                                    24044729.033 5 101741110.23005     -2697.338 5        35.167
C13        45.000                                                                                                                                    38564236.333 6 200814140.25806     -1841.990 6        37.085    38564237.495 6 155282236.98906     -1424.535 6        36.087
C08        46.000                                                                                                                                                                                                    39092460.449 5 157409070.19905     -1599.361 5        31.419    39092434.892 3                     -1680.262 3        22.838
C14        47.000                                                                                                                                    23020557.359 6 119874061.14206      -535.264 6        41.220    23020553.739 6  92694521.50206      -413.861 6        40.348    23020553.880 6  97407513.37506      -434.884 6        37.074
C42        48.000                                                                                                                                    24005687.133 7 125003946.25507     -2155.376 7        46.457                                                                    24005694.285 7 101575979.45807     -1751.346 7        42.961
C41        49.000                                                                                                                                                                                                                                                                    25665070.021 5                      2159.067 5        30.634
C27        52.000                                                                                                                                    23434753.848 6 122030928.07906      1509.477 6        39.667                                                                    23434754.712 6  99160144.15706      1226.629 6        36.348
C36        56.000                                                                                                                                    26484661.619 3                       753.402 3        20.238                                                                    26484656.179 4                       614.348 4        26.395
I06        58.000    38507636.389 6 151112401.99806      -557.310 6        36.801
> 2025 01 01 20 31 10.0000000  0 41
G18         1.000    23971283.256 5                     -3919.443 5        31.275                                                                                                    23971276.368 3                     -3054.032 3        21.452
G10         2.000    20740192.558 6 108990695.91106        59.696 6        39.087                                    20740187.970 5  84927589.95305        46.525 5        33.820    20740189.936 6  84927621.93506        46.412 6        37.974
G23         4.000                                                                                                                                                                    21331580.309 6  87349300.77206     -2130.952 6        41.988
G15         5.000    24067213.711 4                     -2727.075 4        29.280
G08         6.000    21085025.251 5 110802515.22805      1297.465 5        30.785                                    21085091.863 1  86339773.27001      1011.190 1         4.571    21085024.841 5  86339666.59205      1011.022 5        35.205
G27         7.000    19960053.264 8 104890821.81108      -906.118 8        51.509                                    19960049.475 8  81733044.26408      -706.065 8        51.213    19960051.063 7  81733103.25307      -706.099 7        45.571
G21         8.000    22876347.109 5 120216074.33405      1791.356 5        32.102                                    22876343.995 1  93674800.25101      1395.875 1         8.190
G30        10.000    25642008.711 4                     -1216.000 4        26.275
E08        12.000    26783480.589 4 140748161.66904      1158.801 4        24.647                                                                                                                                    26783481.272 5 107846014.28005       887.947 5        31.494
E13        16.000    23807341.278 7 125108500.61407     -2139.235 7        45.058                                                                    23807340.813 7  93425176.20707     -1597.506 7        46.325    23807339.370 7  95862308.86207     -1639.269 7        45.275
E31        17.000    27072610.207 5 142267486.06305      1416.832 5        30.951                                                                    27072607.935 6 106238835.21306      1058.168 6        36.359    27072608.562 6 109010176.04306      1085.555 6        37.629
G16        18.000    22409427.899 5                     -4104.425 5        32.257
E26        19.000    23847439.810 7 125319149.97507       294.507 7        46.457                                                                    23847437.586 8  93582538.65208       219.913 8        49.831    23847435.623 8  96023815.03108       225.667 8        48.309
E03        21.000    27294624.012 4                     -1098.711 4        28.967                                                                                                                                    27294680.143 4                      -842.098 4        25.699
E21        22.000    25439603.619 5 133686001.44905     -3532.492 5        30.543                                                                    25439620.911 5  99830502.49205     -2638.179 5        30.045    25439602.417 5 102434751.72905     -2706.673 5        32.018
S36        23.000    38112470.493 6 200282247.72006      -852.159 6        36.594
S23        24.000    38067988.831 6 200048620.92106      -851.972 6        40.636
G26        25.000    24754334.560 3                     -4486.484 3        21.690
R20        26.000    21122029.806 5                      1630.987 5        33.222
R02        27.000    24204265.909 5                     -4625.302 5        30.574                                                                    24204283.017 3                     -3599.055 3        21.976
E33        28.000                                                                                                                                                                                                    27491539.815 5 110697009.75505      1219.203 5        35.095
R19        29.000    19815683.143 6 106000453.55206     -1990.465 6        36.915                                                                    19815682.634 7  82444853.53807     -1547.978 7        43.134
R18        30.000    22163536.994 5                     -3807.517 5        31.117
R04        31.000    20803939.793 5 111404066.96105      1993.132 5        33.940                                                                    20803928.741 5  86647642.96805      1550.470 5        30.506
R03        32.000    21001510.783 6 112423187.53206     -1827.226 6        39.742                                                                    21001508.070 4  87439881.69104     -1420.930 4        28.000
R09        34.000    22044042.378 6 117713944.30606     -4525.752 6        37.043                                                                    22044037.347 6  91555277.52916     -3520.014 6        37.853
R10        35.000    21239575.648 4                     -1860.058 4        25.489
C37        36.000                                                                                                                                    25652765.971 4                     -3660.250 4        25.248
C33        37.000                                                                                                                                    23165831.996 6 120630628.60306      1061.422 6        39.997                                                                    23165872.421 5  98022306.17805       862.768 5        31.849
C28        40.000                                                                                                                                    21387916.094 8 111372756.13008      -504.983 8        51.186                                                                    21387914.536 7  90499266.74107      -410.238 7        46.973
R11        41.000                                                                                                                                    22989501.180 6  95549176.07216      1399.372 6        36.949
C43        42.000                                                                                                                                    24047910.430 6 125223720.83206     -3320.227 6        37.127                                                                    24047918.065 5 101754598.89505     -2697.937 5        34.429
C13        45.000                                                                                                                                    38566004.810 6 200823350.03806     -1842.096 6        37.353    38566005.412 5 155289358.54805     -1424.320 5        35.248
C08        46.000                                                                                                                                                                                                    39094447.065 5 157417066.31505     -1599.519 5        30.521    39094421.951 3                     -1679.520 3        23.067
C14        47.000                                                                                                                                    23021071.758 6 119876744.40306      -538.240 6        40.000    23021067.839 6  92696596.32806      -416.258 6        38.501    23021069.065 6  97409693.73206      -436.948 6        36.446
C42        48.000                                                                                                                                    24007757.880 7 125014729.34707     -2157.904 7        46.286                                                                    24007765.230 7 101584741.62707     -1753.456 7        43.283
C41        49.000                                                                                                                                                                                                                                                                    25662518.804 5                      2158.887 5        30.151
C38        50.000                                                                                                                                    40577870.205 3                     -2112.729 3        19.821
C27        52.000                                                                                                                                    23433305.816 6 122023381.64506      1508.907 6        38.691                                                                    23433306.247 6  99154012.05906      1226.241 6        37.161
C36        56.000                                                                                                                                                                                                                                                                    26483927.474 4                       612.546 4        26.120
I06        58.000    38508346.181 6 151115187.92606      -557.034 6        36.813
> 2025 01 01 20 31 15.0000000  0 41
G18         1.000    23975015.164 4                     -3919.744 4        29.649
G10         2.000    20740137.352 6 108990404.94006        56.677 6        41.559                                    20740132.974 5  84927363.21505        44.169 5        33.731    20740135.234 6  84927395.22106        44.253 6        38.318
G23         4.000    21334210.776 5                     -2737.152 5        31.253                                                                                                    21334183.186 6  87359959.99506     -2132.731 6        40.887
G15         5.000    24069812.385 5                     -2730.278 5        30.234
G08         6.000    21083788.990 4 110796032.12404      1295.770 4        28.436                                    21083859.998 1  86334721.34001      1009.750 1         7.125    21083792.029 5  86334614.76705      1009.802 5        34.081
G27         7.000    19960916.573 8 104895358.92108      -908.811 8        51.175                                    19960912.829 8  81736579.68008      -708.166 8        51.397    19960914.483 7  81736638.66007      -708.115 7        45.926
G21         8.000    22874645.012 5 120207120.07805      1790.103 5        33.545                                    22874640.168 1  93667822.92501      1394.829 1         6.500
G30        10.000    25643163.775 3                     -1215.406 3        22.419
E08        12.000                                                                                                                                                                                                    26782378.972 5 107841576.70905       886.953 5        31.147
E13        16.000    23809376.816 7 125119198.92007     -2140.113 7        45.678                                                                    23809376.435 7  93433165.20307     -1598.193 7        46.142    23809375.194 7  95870506.26207     -1639.869 7        45.400
E31        17.000    27071261.624 5 142260404.47505      1415.473 5        31.766                                                                    27071260.193 6 106233547.03906      1057.168 6        36.389    27071260.787 6 109004749.90306      1084.519 6        37.856
G16        18.000    22413333.137 5                     -4105.817 5        32.222
E26        19.000    23847160.109 7 125317679.73507       293.470 7        46.695                                                                    23847157.890 8  93581440.74808       219.135 8        49.892    23847155.586 8  96022688.48308       224.850 8        48.006
E03        21.000    27295670.958 5                     -1100.878 5        30.143                                                                                                                                    27295727.003 4                      -844.039 4        26.754
E21        22.000    25442968.126 5 133703667.61605     -3533.826 5        32.042                                                                    25442983.290 5  99843694.81305     -2639.441 5        30.513    25442963.759 5 102448288.14505     -2708.313 5        31.706
S36        23.000    38113278.292 6 200286508.31106      -852.040 6        36.643
S23        24.000    38068800.967 6 200052880.74306      -852.013 6        40.665
G26        25.000    24758603.202 3                     -4490.379 3        22.419
R20        26.000    21120505.421 5 112940862.63515      1629.727 5        32.419
R02        27.000    24208595.124 5                     -4627.506 5        30.619
E33        28.000                                                                                                                                                                                                    27490025.613 5 110690914.98405      1218.705 5        34.067
R19        29.000    19817546.064 6 106010409.17106     -1992.152 6        37.592                                                                    19817543.354 7  82452596.79707     -1549.414 7        43.227
R18        30.000    22167104.244 5                     -3808.245 5        30.204                                                                    22167115.195 3                     -2962.696 3        22.019
R04        31.000    20802078.975 5 111394109.49305      1989.834 5        34.167                                                                    20802070.599 4  86639898.34004      1547.290 4        29.355
R03        32.000    21003220.717 6 112432333.73906     -1831.340 6        36.745                                                                    21003217.731 4  87446995.44804     -1424.258 4        26.539
R09        34.000    22048278.719 6 117736577.59206     -4527.589 6        37.705                                                                    22048276.393 6  91572881.13906     -3521.477 6        39.369
R10        35.000    21241330.474 4                     -1863.621 4        25.504
C37        36.000                                                                                                                                    25656281.798 3                     -3665.320 3        19.791
C33        37.000                                                                                                                                    23164814.748 6 120625327.52106      1059.047 6        40.141                                                                    23164857.978 4  98017998.62504       860.955 4        29.194
C28        40.000                                                                                                                                    21388401.318 8 111375284.48708      -506.439 8        51.294                                                                    21388400.084 7  90501321.25607      -411.590 7        46.685
R11        41.000                                                                                                                                    22987818.767 6  95542185.07516      1396.968 6        37.694
C43        42.000                                                                                                                                    24051094.889 6 125240324.51706     -3321.061 6        36.121                                                                    24051108.591 5 101768090.81405     -2698.835 5        32.204
C13        45.000                                                                                                                                    38567773.266 6 200832560.50806     -1842.319 6        37.297    38567773.961 5 155296480.65405     -1424.409 5        34.871
C08        46.000                                                                                                                                                                                                    39096433.474 5 157425062.71805     -1599.181 5        30.143    39096408.201 3                     -1678.829 3        22.629
C14        47.000                                                                                                                                    23021588.268 6 119879442.35406      -541.214 6        38.309    23021584.439 6  92698682.54606      -418.489 6        38.360    23021587.362 6  97411886.07106      -439.580 6        36.408
C42        48.000                                                                                                                                    24009831.053 7 125025525.62107     -2160.579 7        46.035                                                                    24009838.814 7 101593514.49707     -1755.766 7        43.437
C41        49.000                                                                                                                                                                                                                                                                    25659967.502 4                      2158.562 4        28.995
C38        50.000                                                                                                                                    40579901.059 3                     -2107.180 3        18.418
C27        52.000                                                                                                                                    23431857.717 6 122015838.60706      1508.190 6        38.321                                                                    23431857.975 6  99147882.73106      1225.420 6        38.000
C36        56.000                                                                                                                                                                                                                                                                    26483202.240 4                       610.648 4        26.000
I06        58.000    38509056.299 6 151117973.60806      -557.241 6        36.854
> 2025 01 01 20 31 20.0000000  0 39
G18         1.000    23978744.019 4                     -3920.840 4        27.257                                                                                                    23978746.307 3                     -3054.861 3        20.071
G10         2.000    20740085.014 7 108990129.22007        53.666 7        43.685                                    20740080.736 5  84927148.35905        41.826 5        33.862    20740082.744 6  84927180.34606        41.806 6        37.853
G23         4.000    21336814.825 5                     -2740.146 5        34.029                                                                                                    21336788.774 6  87370629.58906     -2134.869 6        39.784
G15         5.000    24072416.028 5                     -2733.200 5        30.317
G08         6.000    21082559.826 5 110789558.99905      1293.794 5        33.096                                    21082629.971 1  86329677.27501      1008.152 1         7.250    21082561.349 5  86329570.81005      1007.965 5        34.557
G27         7.000    19961782.573 8 104899910.31308      -911.697 8        50.487                                    19961778.969 8  81740126.21508      -710.413 8        51.614    19961780.446 7  81740185.19807      -710.390 7        46.368
G21         8.000    22872941.161 5 120198172.09105      1789.113 5        34.490                                    22872937.517 1  93660850.49701      1394.107 1         8.000
G30        10.000    25644330.288 3                     -1221.785 3        21.429
E08        12.000                                                                                                                                                                                                    26781278.093 5 107837145.64305       885.513 5        30.566
E13        16.000    23811412.931 7 125129902.09907     -2141.089 7        46.082                                                                    23811413.088 7  93441157.84207     -1598.871 7        46.016    23811411.945 7  95878707.39607     -1640.653 7        45.424
E31        17.000    27069914.009 5 142253330.86205      1413.918 5        32.389                                                                    27069914.447 5 106228264.74305      1055.906 5        35.910    27069914.226 6 108999329.80506      1083.658 6        37.675
G16        18.000    22417238.804 5                     -4107.817 5        31.057
E26        19.000    23846881.316 7 125316215.46307       292.289 7        47.486                                                                    23846879.238 8  93580347.30308       218.271 8        49.954    23846876.781 7  96021566.51207       223.945 7        47.781
E03        21.000    27296717.545 5                     -1103.575 5        31.034                                                                                                                                    27296781.850 4                      -845.307 4        27.497
E21        22.000    25446332.419 5 133721340.59005     -3535.063 5        33.850                                                                    25446345.304 4  99856892.17104     -2640.095 4        28.938    25446326.836 5 102461829.78605     -2708.908 5        32.443
S36        23.000    38114093.907 6 200290769.15106      -852.099 6        36.771
S23        24.000    38069611.900 6 200057140.86306      -851.977 6        40.696
G26        25.000    24762880.653 3                     -4487.277 3        22.190
R20        26.000    21118983.458 5 112932716.76005      1628.540 5        31.811
R02        27.000    24212930.429 4                     -4629.280 4        29.365
E33        28.000                                                                                                                                                                                                    27488512.332 5 110684822.08805      1218.220 5        32.263
R19        29.000    19819408.233 6 106020374.36406     -1993.963 6        38.598                                                                    19819406.120 7  82460347.49107     -1550.914 7        43.232
R18        30.000    22170671.731 4                     -3808.995 4        29.450                                                                    22170683.130 4                     -2961.645 4        25.143
R04        31.000    20800225.692 5 111384169.59205      1986.361 5        35.252                                                                    20800218.215 5  86632167.30405      1544.842 5        32.168
R03        32.000    21004934.926 5 112441502.77005     -1836.159 5        35.705                                                                    21004928.089 3                     -1426.707 3        19.224
R09        34.000    22052519.694 6 117759221.18806     -4529.812 6        37.887                                                                    22052517.614 6  91590492.80506     -3523.239 6        39.399
C33        37.000                                                                                                                                    23163801.037 6 120620038.96706      1056.609 6        41.480                                                                    23163846.102 3                       859.838 3        22.362
C28        40.000                                                                                                                                    21388888.075 8 111377820.93908      -508.150 8        51.247                                                                    21388887.139 7  90503382.31507      -413.061 7        46.579
R11        41.000    22986143.371 5                      1792.378 5        33.467                                                                    22986143.018 6  95535207.67306      1393.927 6        38.123
C43        42.000                                                                                                                                                                                                                                                                    24054301.136 4 101781586.36904     -2699.473 4        28.521
C13        45.000                                                                                                                                    38569542.551 6 200841772.31106     -1842.411 6        37.508    38569542.633 5 155303603.78705     -1424.591 5        33.910
C08        46.000                                                                                                                                    39098402.892 3                     -2069.954 3        20.476    39098419.509 4 157433059.92104     -1599.858 4        29.488    39098395.341 3                     -1681.181 3        23.390
C14        47.000                                                                                                                                    23022109.874 6 119882155.54906      -544.097 6        37.025    23022105.897 6  92700780.57606      -420.676 6        40.417    23022107.927 5  97414090.76305      -442.233 5        35.848
C42        48.000                                                                                                                                    24011906.569 7 125036335.58007     -2163.285 7        45.065                                                                    24011915.180 7 101602298.45607     -1757.879 7        43.869
C41        49.000                                                                                                                                                                                                                                                                    25657416.799 4                      2158.057 4        27.293
C38        50.000                                                                                                                                    40581924.965 3                     -2115.397 3        20.690
C27        52.000                                                                                                                                    23430409.607 6 122008299.48606      1507.509 6        38.366                                                                    23430410.140 6  99141756.56606      1224.709 6        38.264
C36        56.000                                                                                                                                                                                                                                                                    26482482.604 4                       607.294 4        26.275
I06        58.000    38509766.449 6 151120759.39406      -557.006 6        36.983
> 2025 01 01 20 31 25.0000000  0 39
G18         1.000    23982473.540 4                     -3920.351 4        26.958                                                                                                    23982475.193 3                     -3055.334 3        21.190
G10         2.000    20740034.951 7 108989868.28307        50.546 7        44.360                                    20740031.226 5  84926945.02305        39.392 5        34.524    20740032.998 6  84926977.00006        39.651 6        38.012
G23         4.000                                                                                                                                                                    21339396.993 6  87381309.19106     -2136.778 6        39.000
G15         5.000    24075021.790 5                     -2736.526 5        30.536
G08         6.000    21081331.279 5 110783095.62205      1291.782 5        35.243                                    21081401.679 1  86324640.75201      1006.630 1         3.600    21081331.582 5  86324534.40305      1006.572 5        35.719
G27         7.000    19962651.264 8 104904475.58008      -914.549 8        50.777                                    19962647.832 8  81743683.56508      -712.634 8        51.938    19962649.406 7  81743742.55207      -712.645 7        46.783
G21         8.000    22871238.979 5 120189229.97905      1787.711 5        34.386                                    22871235.627 1  93653882.56501      1393.084 1         7.875
E08        12.000    26780197.322 3                      1153.109 3        22.686                                                                                                                                    26780179.494 4 107832720.69204       884.594 4        29.517
E13        16.000    23813450.009 7 125140609.76607     -2142.053 7        46.406                                                                    23813450.528 7  93449153.82207     -1599.537 7        45.521    23813449.542 7  95886911.96607     -1641.315 7        45.216
E31        17.000    27068568.500 5 142246264.80305      1412.263 5        32.784                                                                    27068569.724 5 106222988.13505      1054.647 5        35.819    27068569.254 6 108993915.55806      1082.184 6        37.134
G16        18.000    22421149.019 4                     -4109.344 4        29.261
E26        19.000    23846603.439 7 125314756.75407       291.115 7        47.986                                                                    23846601.642 8  93579258.01408       217.391 8        49.613    23846599.017 7  96020448.80407       223.075 7        47.366
E03        21.000    27297767.496 5                     -1105.880 5        30.906                                                                                                                                    27297837.404 4                      -846.909 4        26.766
E21        22.000    25449696.493 5 133739019.97105     -3536.607 5        35.595                                                                                                                                    25449691.835 5 102475376.30805     -2710.001 5        32.868
S36        23.000    38114904.205 6 200295030.61606      -852.608 6        36.870
S23        24.000    38070422.275 6 200061401.00506      -852.220 6        40.801
G26        25.000    24767150.548 3                     -4490.561 3        21.262
R20        26.000    21117461.673 5 112924576.47215      1627.101 5        31.253                                                                    21117513.439 5                      1265.805 5        30.309
R02        27.000    24217267.120 4                     -4631.376 4        28.929
E33        28.000                                                                                                                                                                                                    27487003.431 5 110678730.70805      1218.332 5        30.785
R19        29.000    19821272.548 6 106030348.76406     -1996.063 6        39.213                                                                    19821270.800 7  82468105.34607     -1552.365 7        43.319
R18        30.000    22174239.787 4                     -3810.147 4        29.488                                                                    22174248.909 4                     -2963.163 4        24.120
R04        31.000    20798378.878 5 111374246.95205      1982.789 5        34.190                                                                    20798369.388 5  86624449.60605      1542.167 5        34.814
R03        32.000    21006650.044 6 112450694.11806     -1840.481 6        36.722
R09        34.000    22056762.615 5 117781874.75305     -4531.883 5        35.590                                                                    22056758.422 6  91608112.22206     -3524.636 6        38.751
R10        35.000    21244867.572 4                     -1872.311 4        26.275
C33        37.000                                                                                                                                    23162787.928 7 120614762.56407      1053.927 7        43.227                                                                    23162835.050 4                       856.175 4        27.964
C28        40.000                                                                                                                                    21389376.850 8 111380365.06408      -509.689 8        51.393                                                                    21389375.603 7  90505449.63407      -414.095 7        46.173
R11        41.000                                                                                                                                    22984468.527 6  95528243.41806      1391.507 6        39.868
C43        42.000                                                                                                                                    24057464.810 5 125273545.26605     -3322.977 5        31.087
C13        45.000                                                                                                                                    38571311.808 6 200850985.01906     -1842.818 6        37.350    38571312.396 5 155310727.65705     -1424.758 5        33.701
C08        46.000                                                                                                                                    39100386.191 3                     -2072.589 3        19.493    39100404.331 5 157441057.58005     -1599.664 5        30.468    39100381.743 3                     -1681.154 3        22.476
C14        47.000                                                                                                                                    23022635.395 5 119884883.55405      -547.116 5        34.843    23022633.608 7  92702890.04707      -423.114 7        42.366    23022630.989 5  97416307.55005      -444.875 5        35.062
C42        48.000                                                                                                                                    24013984.073 7 125047158.84607     -2166.141 7        43.939                                                                    24013994.091 7 101611093.26007     -1760.096 7        43.953
C41        49.000                                                                                                                                                                                                                                                                    25654866.476 4                      2157.899 4        25.429
C38        50.000                                                                                                                                    40583949.152 3                     -2106.951 3        21.952
C27        52.000                                                                                                                                    23428962.076 6 122000763.87306      1506.755 6        39.027                                                                    23428962.704 6  99135633.27306      1224.250 6        37.981
C36        56.000                                                                                                                                    26481828.730 5                       746.847 5        31.630                                                                    26481762.315 4                       607.146 4        26.012
I06        58.000    38510476.180 6 151123545.04606      -557.092 6        36.941
> 2025 01 01 20 31 30.0000000  0 41
G18         1.000                                                                                                                                                                    23986204.267 3                     -3055.381 3        20.333
G10         2.000    20739987.714 7 108989622.46407        47.809 7        43.098                                    20739984.561 5  84926753.46305        37.262 5        35.419    20739985.721 6  84926785.45906        37.221 6        38.297
G07         3.000    25481902.722 3                     -2329.862 3        20.714
G23         4.000    21342018.636 5 112153145.56115     -2744.834 5        33.006                                    21342015.415 1  87391986.15511     -2138.818 1        10.815    21342007.251 6  87391999.09706     -2138.853 6        37.887
G15         5.000    24077626.568 4                     -2739.311 4        29.223
G08         6.000    21080102.446 5 110776642.25405      1289.850 5        35.643                                    21080175.211 1  86319611.87801      1005.161 1         4.857    21080103.701 6  86319505.75906      1004.939 6        36.563
G27         7.000    19963522.931 8 104909055.02508      -917.230 8        50.773                                    19963519.459 8  81747251.96608      -714.723 8        52.092    19963520.983 7  81747310.96107      -714.737 7        46.674
G21         8.000    22869538.322 5 120180294.08905      1786.859 5        33.725                                    22869534.617 1  93646919.56201      1392.317 1         5.286
E08        12.000                                                                                                                                                                                                    26779081.913 4 107828302.18504       883.308 4        29.583
E13        16.000    23815488.657 7 125151322.19707     -2142.911 7        46.377                                                                    23815488.766 7  93457153.37107     -1600.289 7        45.258    23815488.056 7  95895120.19707     -1641.985 7        45.096
E31        17.000    27067224.038 5 142239206.56705      1410.943 5        32.407                                                                    27067226.609 6 106217717.39806      1053.603 6        36.106    27067225.375 6 108988507.32006      1081.011 6        37.123
G16        18.000    22425063.048 4                     -4110.839 4        26.850
E26        19.000    23846327.164 8 125313303.94108       290.073 8        48.219                                                                    23846325.240 8  93578173.12008       216.605 8        49.540    23846322.579 7  96019335.60707       222.244 7        46.991
E03        21.000    27298818.962 5                     -1108.492 5        30.068                                                                                                                                    27298888.673 4                      -849.191 4        26.048
E21        22.000    25453061.559 6 133756706.06106     -3537.608 6        36.718                                                                    25453057.774 4  99883301.81004     -2642.019 4        29.981    25453058.354 5 102488928.02405     -2710.759 5        34.619
S36        23.000    38115713.077 6 200299292.74406      -852.453 6        36.544
S23        24.000    38071234.482 6 200065661.55306      -852.032 6        40.698
G26        25.000    24771415.130 3                     -4488.815 3        22.476
R20        26.000    21115941.372 5                      1626.026 5        32.754                                                                    21115989.559 5                      1264.943 5        31.894
R02        27.000    24221602.792 4                     -4633.358 4        27.437
E33        28.000                                                                                                                                                                                                    27485498.102 5 110672641.13605      1217.704 5        30.815
R19        29.000    19823138.861 6 106040332.73706     -1997.711 6        39.345                                                                    19823137.366 7  82475870.68307     -1553.792 7        43.490
R18        30.000    22177807.256 4                     -3811.237 4        27.641                                                                    22177820.049 4                     -2963.217 4        24.722
R04        31.000    20796531.347 5 111364341.77605      1979.497 5        33.874                                                                    20796516.516 5  86616745.64005      1539.432 5        35.886
R03        32.000    21008374.709 6 112459908.39706     -1845.098 6        38.718                                                                    21008402.039 5                     -1434.963 5        34.167
R09        34.000    22061006.985 4 117804538.38004     -4533.826 4        29.545                                                                    22061003.307 6  91625739.50706     -3526.269 6        38.718
R10        35.000    21246619.107 3                     -1875.300 3        22.571
C37        36.000                                                                                                                                    25666812.420 3                     -3660.952 3        19.015
C33        37.000                                                                                                                                    23161777.575 7 120609498.62607      1051.606 7        44.233                                                                    23161808.267 5                       854.640 5        34.252
C28        40.000                                                                                                                                    21389867.136 8 111382917.17808      -511.145 8        51.372                                                                    21389865.686 7  90507523.43807      -415.321 7        45.667
R11        41.000    22982813.801 5 122813096.10515      1785.453 5        32.485                                                                    22982798.874 6  95521292.67606      1388.914 6        40.696
C43        42.000                                                                                                                                    24060661.431 5 125290162.21905     -3323.826 5        31.079                                                                    24060686.371 3                     -2699.416 3        20.476
C13        45.000                                                                                                                                    38573080.932 6 200860198.98306     -1842.889 6        37.486    38573081.920 5 155317852.48705     -1425.023 5        33.359
C08        46.000                                                                                                                                    39102374.712 3                     -2066.537 3        20.619    39102391.856 5 157449055.88205     -1599.957 5        30.151    39102370.743 3                     -1683.814 3        23.181
C14        47.000                                                                                                                                    23023161.063 5 119887626.66805      -549.904 5        34.033    23023165.874 7  92705011.21507      -425.232 7        43.594    23023156.307 5  97418536.57105      -446.753 5        33.665
C42        48.000                                                                                                                                    24016063.910 7 125057995.71307     -2168.623 7        43.092                                                                    24016075.509 7 101619899.11207     -1762.333 7        44.077
C41        49.000                                                                                                                                                                                                                                                                    25652317.468 4                      2157.355 4        24.165
C38        50.000                                                                                                                                    40585976.693 3                     -2109.875 3        22.210
C27        52.000                                                                                                                                    23427516.523 6 121993232.12206      1506.124 6        40.205                                                                    23427516.265 6  99129513.10706      1223.962 6        38.081
C36        56.000                                                                                                                                                                                                                                                                    26481046.748 4                       604.913 4        26.599
I06        58.000    38511186.023 6 151126330.78906      -557.059 6        37.119
> 2025 01 01 20 31 35.0000000  0 39
G18         1.000    23989908.986 4                     -3918.846 4        25.940                                                                                                    23989936.471 3                     -3056.753 3        22.248
G10         2.000    20739943.699 7 108989391.47307        44.969 7        44.009                                    20739940.604 6  84926573.44406        35.044 6        36.121    20739941.523 6  84926605.45106        34.978 6        38.288
G23         4.000    21344629.712 5 112166877.20005     -2747.366 5        35.881                                    21344624.991 2  87402686.03602     -2140.802 2        14.143    21344620.281 6  87402699.01106     -2140.858 6        36.491
G15         5.000    24080229.321 4                     -2742.148 4        28.360
G08         6.000    21078879.614 6 110770198.51906      1288.034 6        39.258                                    21078951.082 1  86314590.53701      1003.646 1         5.857    21078876.210 6  86314484.70406      1003.404 6        36.631
G27         7.000    19964397.157 8 104913648.35708      -919.837 8        51.177                                    19964393.764 8  81750831.18408      -716.756 8        52.418    19964395.167 7  81750890.17407      -716.700 7        46.540
G21         8.000    22867838.948 5 120171364.11705      1785.540 5        33.419                                    22867834.832 1  93639961.21101      1391.282 1         5.857
G30        10.000    25647880.814 4                     -1229.243 4        24.271
E08        12.000    26777988.833 4                      1151.816 4        26.275                                                                                                                                    26777986.000 4 107823889.89004       882.284 4        29.735
E13        16.000    23817528.216 7 125162039.10007     -2143.521 7        46.603                                                                    23817528.009 7  93465156.26007     -1600.759 7        45.004    23817527.429 7  95903331.85307     -1642.553 7        44.764
E31        17.000    27065881.496 5 142232155.84905      1409.675 5        32.389                                                                    27065884.847 5 106212452.24905      1052.518 5        35.814    27065883.322 6 108983104.80706      1080.169 6        36.824
G16        18.000    22428974.797 3                     -4113.985 3        18.716
E26        19.000    23846051.891 8 125311856.68508       289.144 8        48.683                                                                    23846049.759 8  93577092.38108       215.939 8        49.354    23846047.234 7  96018226.66907       221.578 7        46.689
E03        21.000    27299872.865 5                     -1110.658 5        30.000
E21        22.000    25456426.963 6 133774398.56006     -3538.963 6        37.028                                                                    25456424.563 5  99896513.71305     -2642.694 5        31.841    25456425.474 6 102502484.63506     -2711.731 6        36.181
S36        23.000    38116516.699 6 200303553.97206      -852.056 6        36.151
S23        24.000    38072042.285 6 200069922.15606      -851.852 6        40.892
G26        25.000    24775688.579 3                     -4485.318 3        22.171
R20        26.000    21114422.521 5 112908313.57915      1625.183 5        30.657                                                                    21114457.255 5                      1264.424 5        34.129
R02        27.000    24225946.092 4                     -4634.666 4        26.742
E33        28.000                                                                                                                                                                                                    27483990.265 5 110666553.12505      1217.489 5        30.958
R19        29.000    19825007.784 6 106050325.95506     -1999.438 6        39.399                                                                    19825004.875 7  82483643.19107     -1555.085 7        43.528
R18        30.000    22181377.350 4                     -3811.357 4        28.303                                                                    22181390.618 4                     -2964.174 4        24.872
R04        31.000    20794686.691 5 111354453.91505      1975.836 5        32.228                                                                    20794665.195 5  86609055.03105      1537.043 5        35.852
R03        32.000    21010099.289 6 112469144.97706     -1849.519 6        39.501                                                                    21010120.076 5  87475779.19915     -1438.483 5        35.852
R09        34.000                                                                                                                                    22065250.040 6  91643374.49506     -3527.714 6        38.495
C33        37.000                                                                                                                                    23160769.192 7 120604246.85607      1049.240 7        44.164                                                                    23160789.142 6                       852.723 6        37.395
C28        40.000                                                                                                                                    21390358.971 8 111385476.96408      -512.446 8        51.125                                                                    21390357.162 7  90509603.47307      -416.418 7        45.564
R11        41.000    22981142.293 5 122804176.27405      1782.595 5        33.030                                                                    22981129.890 6  95514355.07206      1386.406 6        40.756
C43        42.000                                                                                                                                    24063855.561 5 125306783.15405     -3324.219 5        32.287
C13        45.000                                                                                                                                    38574849.877 6 200869413.82306     -1842.780 6        37.323    38574851.300 5 155324977.94105     -1424.693 5        32.766
C08        46.000                                                                                                                                                                                                    39104376.311 5 157457054.62905     -1599.818 5        30.672    39104357.324 3                     -1680.500 3        22.571
C14        47.000                                                                                                                                    23023692.097 5 119890384.65605      -552.968 5        34.781    23023698.506 7  92707143.86307      -427.525 7        43.966    23023684.212 5  97420777.70605      -448.966 5        32.437
C42        48.000                                                                                                                                    24018147.683 7 125068845.86107     -2171.062 7        42.197                                                                    24018158.802 7 101628715.74607     -1764.269 7        43.915
C41        49.000                                                                                                                                                                                                                                                                    25649766.438 3                      2159.754 3        23.105
C38        50.000                                                                                                                                    40588006.711 3                     -2110.807 3        23.143
C27        52.000                                                                                                                                    23426071.573 6 121985703.90406      1505.414 6        41.509                                                                    23426070.178 6  99123395.79406      1223.428 6        37.841
C36        56.000                                                                                                                                                                                                                                                                    26480332.321 4                       603.604 4        26.551
I06        58.000    38511896.055 6 151129116.35506      -556.865 6        36.983
> 2025 01 01 20 31 40.0000000  0 39
G18         1.000                                                                                                                                                                    23993672.337 4                     -3056.104 4        24.346
G10         2.000    20739904.071 7 108989175.37007        42.015 7        46.056                                    20739899.385 6  84926405.03406        32.746 6        36.892    20739899.448 6  84926437.03306        32.795 6        37.762
G07         3.000    25486367.476 4                     -2333.313 4        25.233                                                                                                    25486272.484 3                     -1815.051 3        20.643
G23         4.000    21347246.020 6 112180621.75506     -2749.852 6        38.048                                    21347237.805 2  87413396.04802     -2142.767 2        15.857    21347236.239 6  87413409.03206     -2142.936 6        36.083
G15         5.000    24082834.725 4                     -2745.439 4        26.539
G08         6.000    21077656.337 6 110763764.56206      1286.229 6        40.641                                    21077728.831 1  86309576.92001      1002.292 1        11.481    21077651.704 6  86309471.25606      1002.142 6        36.953
G27         7.000    19965273.961 8 104918255.66708      -922.491 8        51.298                                    19965270.739 8  81754421.29408      -718.825 8        52.788    19965271.968 7  81754480.28207      -718.886 7        46.913
G21         8.000    22866143.754 5 120162440.10305      1784.749 5        31.411                                    22866136.474 1  93633007.46501      1390.742 1         6.250
E08        12.000    26776895.230 3                      1149.446 3        23.257                                                                                                                                    26776890.914 4 107819483.85004       880.903 4        29.735
E13        16.000    23819568.564 7 125172760.57407     -2144.446 7        46.765                                                                    23819568.112 7  93473162.55107     -1601.358 7        44.936    23819567.516 7  95911547.00507     -1643.181 7        44.491
E31        17.000    27064541.957 5 142225112.79305      1408.332 5        32.377                                                                    27064544.775 5 106207192.85405      1051.625 5        35.981    27064542.835 6 108977708.23606      1078.795 6        36.435
E26        19.000    23845777.738 8 125310415.10008       288.077 8        48.896                                                                    23845775.389 8  93576015.87408       215.110 8        49.311    23845773.077 7  96017122.08307       220.687 7        46.610
E03        21.000    27300930.967 4                     -1113.546 4        28.787                                                                    27300949.070 5 107134788.47515      -831.094 5        30.808    27300982.730 4                      -853.490 4        25.053
E21        22.000    25459793.560 6 133792097.55106     -3540.102 6        36.318                                                                    25459794.510 5  99909730.49105     -2643.383 5        32.802    25459793.368 6 102516046.20206     -2712.571 6        37.803
S36        23.000    38117333.061 5 200307814.70505      -851.818 5        35.424
S23        24.000    38072853.232 6 200074182.93706      -851.739 6        40.775
G26        25.000    24779955.168 3                     -4487.975 3        21.262
R20        26.000    21112900.542 4 112900190.81304      1624.328 4        29.488
R02        27.000    24230298.036 4                     -4637.021 4        26.335
E33        28.000                                                                                                                                                                                                    27482479.438 5 110660466.81005      1217.471 5        31.525
R19        29.000    19826876.811 6 106060328.53206     -2001.072 6        40.069                                                                    19826874.948 7  82491422.97507     -1556.380 7        44.345
R18        30.000    22184951.000 5                     -3812.578 5        30.045
R04        31.000                                                                                                                                    20792823.284 6  86601377.82906      1534.270 6        36.008
R03        32.000    21011827.596 6 112478403.92706     -1853.947 6        38.838                                                                    21011846.520 5  87482980.67005     -1441.830 5        35.886
R09        34.000    22069518.054 5 117849895.50305     -4537.100 5        34.486                                                                    22069498.642 6  91661017.18006     -3529.153 6        39.279
R10        35.000    21250110.451 5                     -1885.667 5        30.249
C33        37.000                                                                                                                                    23159761.592 7 120599007.36607      1047.020 7        42.952                                                                    23159776.358 6  97996666.05916       850.805 6        38.006
C28        40.000                                                                                                                                    21390851.919 8 111388044.54408      -513.994 8        51.311                                                                    21390850.167 7  90511689.84107      -417.754 7        45.234
R11        41.000    22979471.358 6 122795273.73206      1778.974 6        38.045                                                                    22979462.087 6  95507430.86206      1383.769 6        40.048
C43        42.000                                                                                                                                    24067048.854 5 125323408.38605     -3325.068 5        34.152                                                                    24067044.992 5                     -2702.149 5        35.567
C13        45.000                                                                                                                                    38576619.472 6 200878629.66806     -1842.920 6        37.384    38576620.587 5 155332104.23705     -1424.873 5        31.932
C08        46.000                                                                                                                                                                                                    39106362.532 5 157465053.92305     -1599.546 5        31.819    39106344.460 3                     -1681.692 3        23.600
C14        47.000                                                                                                                                    23024226.033 5 119893157.55405      -555.712 5        33.551    23024230.684 7  92709288.08507      -429.760 7        43.915    23024215.433 5  97423030.97805      -451.440 5        30.875
C42        48.000                                                                                                                                    24020234.434 6 125079709.40306     -2173.720 6        41.805                                                                    24020244.410 7 101637543.24507     -1766.452 7        43.509
C41        49.000                                                                                                                                                                                                                                                                    25647217.667 3                      2158.250 3        23.352
C38        50.000                                                                                                                                    40590032.231 3                     -2112.093 3        23.200
C27        52.000                                                                                                                                    23424626.109 7 121978179.34607      1504.854 7        42.438                                                                    23424625.128 6  99117281.48906      1222.778 6        37.229
C36        56.000                                                                                                                                    26479640.443 5 137886456.01115       740.519 5        33.952                                                                    26479621.020 4                       601.483 4        26.754
I06        58.000    38512606.224 6 151131901.83306      -556.685 6        37.077
> 2025 01 01 20 31 45.0000000  0 40
G18         1.000                                                                                                                                                                    23997402.413 4                     -3056.497 4        24.812
G10         2.000    20739866.386 7 108988974.16507        38.738 7        46.635                                    20739860.925 6  84926248.23806        30.186 6        37.561    20739860.749 6  84926280.25306        30.135 6        36.684
G07         3.000    25488585.553 4                     -2335.192 4        26.228                                                                                                    25488491.750 3                     -1820.320 3        18.985
G23         4.000    21349864.764 6 112194379.19906     -2752.728 6        38.811                                    21349853.664 2  87424116.09702     -2144.984 2        17.283    21349854.841 6  87424129.08406     -2144.957 6        36.159
G15         5.000    24085452.949 4                     -2748.162 4        26.922
G08         6.000    21076432.652 6 110757340.44906      1283.715 6        40.329                                    21076508.297 2  86304571.08502      1000.307 2        14.714    21076429.348 6  86304465.42206      1000.318 6        38.126
G27         7.000    19966153.407 8 104922876.93608      -925.617 8        51.121                                    19966150.338 8  81758022.28508      -721.259 8        53.045    19966151.549 7  81758081.27607      -721.270 7        47.482
G21         8.000    22864445.661 5 120153521.97905      1782.425 5        31.638                                    22864439.176 1  93626058.30801      1388.954 1         5.286
E08        12.000    26775806.220 3                      1146.925 3        21.548                                                                                                                                    26775797.447 4 107815084.06504       879.146 4        28.626
E13        16.000    23821609.409 7 125183486.57107     -2145.662 7        47.146                                                                    23821609.152 7  93481172.20907     -1602.259 7        44.799    23821608.504 7  95919765.62307     -1644.194 7        44.212
E31        17.000    27063203.440 5 142218077.39005      1406.254 5        33.311                                                                    27063206.174 5 106201939.16005      1050.223 5        35.657    27063204.053 6 108972317.46206      1077.553 6        36.476
G16        18.000    22436781.011 3                     -4115.853 3        23.943
E26        19.000    23845504.486 8 125308979.16208       286.605 8        48.993                                                                    23845502.099 8  93574943.58308       214.025 8        49.377    23845500.148 7  96016021.82507       219.534 7        46.669
E03        21.000    27301991.695 4                     -1115.662 4        26.479                                                                    27302007.825 5 107138949.46805      -833.057 5        30.174    27302044.852 4                      -854.627 4        24.812
E21        22.000    25463161.657 5 133809803.03405     -3541.847 5        35.405                                                                    25463164.072 5  99922952.14405     -2644.775 5        33.886    25463162.715 6 102529612.72806     -2713.862 6        38.757
S36        23.000    38118142.053 5 200312075.16005      -851.908 5        35.914
S23        24.000    38073663.114 6 200078443.85306      -852.104 6        40.734
G26        25.000    24784225.801 3                     -4487.330 3        22.343
R20        26.000    21111379.150 5 112892073.72605      1622.694 5        31.057
R02        27.000    24234648.885 4                     -4638.577 4        26.623
E33        28.000                                                                                                                                                                                                    27480967.895 5 110654382.12405      1217.022 5        31.955
R19        29.000    19828747.886 6 106070340.34406     -2003.280 6        40.682                                                                    19828747.164 7  82499209.94907     -1558.159 7        44.816
R18        30.000    22188520.217 4                     -3813.453 4        28.294
R04        31.000    20790982.007 5 111334729.87105      1968.955 5        32.198                                                                    20790983.222 5  86593714.14505      1531.104 5        35.395
R03        32.000    21013560.291 6 112487685.38006     -1858.656 6        38.012                                                                    21013579.605 5  87490199.59805     -1445.851 5        34.967
R09        34.000    22073765.885 5 117872588.98905     -4539.965 5        33.850                                                                    22073749.159 6  91678667.61806     -3530.936 6        39.802
R10        35.000    21251888.977 5                     -1890.051 5        30.694
C33        37.000                                                                                                                                    23158755.652 6 120593780.16306      1044.247 6        41.349                                                                    23158765.863 6  97992418.58106       848.409 6        38.183
C28        40.000                                                                                                                                    21391346.493 8 111390619.87708      -515.836 8        51.326                                                                    21391344.819 7  90513782.51407      -419.200 7        44.922
R11        41.000                                                                                                                                    22977798.790 6  95500519.97606      1380.699 6        39.943
C43        42.000                                                                                                                                    24070241.901 5 125340037.76505     -3326.273 5        35.395                                                                    24070239.454 6 101849038.48816     -2702.852 6        36.537
C13        45.000                                                                                                                                    38578390.170 6 200887846.52206     -1843.400 6        37.645    38578390.890 5 155339231.33505     -1425.836 5        31.449
C08        46.000                                                                                                                                                                                                    39108349.289 5 157473053.65505     -1600.257 5        31.487    39108331.658 3                     -1679.013 3        23.714
C14        47.000                                                                                                                                    23024759.088 5 119895945.40105      -558.868 5        32.647    23024764.039 7  92711443.84407      -432.424 7        43.319    23024750.268 5  97425296.37405      -454.158 5        30.008
C42        48.000                                                                                                                                    24022323.203 6 125090586.27606     -2176.721 6        40.684                                                                    24022332.570 7 101646381.61007     -1768.735 7        42.999
C41        49.000                                                                                                                                                                                                                                                                    25644668.355 3                      2155.515 3        21.929
C38        50.000                                                                                                                                    40592060.434 4                     -2110.818 4        24.541
C27        52.000                                                                                                                                    23423181.807 7 121970658.42207      1503.724 7        43.530                                                                    23423180.444 6  99111170.13506      1221.791 6        36.726
C36        56.000                                                                                                                                    26478934.356 5 137882761.48805       737.626 5        33.994                                                                    26478911.418 4                       599.206 4        27.820
I06        58.000    38513315.317 6 151134687.23606      -556.881 6        37.267
> 2025 01 01 20 31 50.0000000  0 39
G18         1.000                                                                                                                                                                    24001132.336 3                     -3058.135 3        22.590
G10         2.000    20739830.330 8 108988787.14908        36.156 8        48.183                                    20739825.259 6  84926102.48906        28.171 6        38.495    20739824.578 5  84926134.51705        28.037 5        35.505
G23         4.000    21352485.509 6 112208148.84406     -2755.168 6        37.497                                    21352472.957 2  87434845.66702     -2146.865 2        17.132    21352475.474 6  87434858.69606     -2146.808 6        36.571
G15         5.000    24088073.606 4                     -2751.214 4        26.419
G08         6.000    21075210.460 6 110750925.38806      1282.243 6        39.982                                    21075289.525 2  86299572.30402       999.107 2        15.762    21075209.474 6  86299466.69106       999.024 6        40.031
G27         7.000    19967035.240 8 104927511.45308      -928.128 8        51.069                                    19967032.410 8  81761633.59908      -723.214 8        53.412    19967033.367 7  81761692.59007      -723.202 7        47.485
G21         8.000    22862749.198 5 120144609.33605      1782.254 5        31.177                                    22862742.947 1  93619113.26401      1388.839 1         7.500
G30        10.000    25651371.743 4                     -1237.238 4        24.887
E08        12.000                                                                                                                                                                                                    26774704.517 4 107810689.97104       878.133 4        28.057
E13        16.000    23823651.306 7 125194216.38807     -2146.203 7        47.194                                                                    23823651.139 7  93489184.74207     -1602.729 7        44.716    23823650.446 7  95927987.16207     -1644.493 7        44.111
E31        17.000    27061867.914 5 142211048.77105      1405.065 5        33.383                                                                    27061868.581 5 106196690.51205      1049.312 5        35.938    27061866.869 6 108966931.90106      1076.531 6        36.208
G16        18.000    22440700.795 4                     -4117.250 4        29.062
E26        19.000    23845231.679 8 125307548.15308       285.805 8        48.879                                                                    23845229.721 8  93573874.97308       213.427 8        49.410    23845228.008 7  96014925.33407       218.961 7        46.695
E03        21.000    27303055.592 4                     -1118.490 4        24.271                                                                    27303069.538 4 107143119.03004      -834.650 4        29.915    27303101.952 4                      -856.357 4        24.030
E21        22.000    25466532.483 5 133827514.25505     -3542.921 5        34.595                                                                    25466533.747 5  99936178.03705     -2645.684 5        35.252    25466533.194 6 102543183.65306     -2714.539 6        39.808
S36        23.000    38118952.092 5 200316334.36505      -851.611 5        35.867
S23        24.000    38074474.683 6 200082704.15306      -851.817 6        40.882
G26        25.000    24788501.548 3                     -4486.946 3        22.590
R20        26.000    21109867.026 5 112883961.67505      1621.623 5        31.358                                                                    21109866.259 6  87798779.75916      1261.624 6        39.931
E33        28.000                                                                                                                                                                                                    27479458.014 5 110648298.53205      1216.600 5        32.347
R19        29.000    19830621.896 6 106080360.74106     -2004.943 6        41.671                                                                    19830620.092 7  82507003.56807     -1559.321 7        44.852
R18        30.000    22192093.589 4                     -3813.753 4        29.460
R04        31.000    20789148.313 6 111324893.11406      1965.613 6        36.030                                                                    20789143.686 5  86586063.34105      1529.033 5        34.433
R03        32.000    21015296.653 6 112496988.67606     -1862.734 6        37.622                                                                    21015316.084 5  87497435.56205     -1449.282 5        30.377
R09        34.000    22078019.378 5 117895291.73205     -4541.353 5        32.778                                                                    22078000.640 6  91696325.19906     -3532.133 6        40.153
R10        35.000    21253667.234 5                     -1894.178 5        34.571
C33        37.000                                                                                                                                    23157754.771 6 120588564.52306      1042.111 6        38.465                                                                    23157763.876 6  97988180.45106       846.631 6        38.616
C28        40.000                                                                                                                                    21391842.664 8 111393202.27708      -517.070 8        51.065                                                                    21391840.722 7  90515880.93907      -420.332 7        44.783
R11        41.000                                                                                                                                    22976140.534 6  95493621.79006      1378.366 6        39.598
C43        42.000                                                                                                                                    24073437.099 6 125356670.67006     -3327.094 6        37.089                                                                    24073433.986 6 101862554.10606     -2703.210 6        36.998
C13        45.000                                                                                                                                    38580160.673 6 200897063.58906     -1843.286 6        37.361    38580161.134 5 155346358.47005     -1425.361 5        30.875
C08        46.000                                                                                                                                                                                                    39110333.860 5 157481053.25905     -1599.550 5        31.660    39110322.719 3                     -1681.641 3        22.933
C14        47.000                                                                                                                                    23025299.587 5 119898747.53105      -561.999 5        34.990    23025300.133 7  92713610.61907      -434.423 7        42.385    23025289.779 5  97427573.40105      -456.878 5        30.453
C42        48.000                                                                                                                                    24024414.087 6 125101475.82106     -2179.162 6        38.874                                                                    24024423.484 7 101655230.26807     -1770.852 7        42.609
C41        49.000                                                                                                                                                                                                                                                                    25642119.226 3                      2156.294 3        23.695
C38        50.000                                                                                                                                    40594090.117 4                     -2109.633 4        24.722
C27        52.000                                                                                                                                    23421739.529 7 121963140.39707      1503.402 7        44.289                                                                    23421735.920 5  99105061.15505      1221.589 5        35.943
C36        56.000                                                                                                                                    26478233.112 5 137879077.61905       735.862 5        31.789                                                                    26478203.838 4                       597.763 4        28.265
I06        58.000    38514024.942 6 151137472.02506      -556.868 6        37.051
> 2025 01 01 20 31 55.0000000  0 38
G18         1.000                                                                                                                                                                    24004872.178 3                     -3056.294 3        22.324
G10         2.000    20739797.899 8 108988615.34408        32.611 8        49.989                                    20739792.670 6  84925968.60706        25.410 6        39.288    20739793.712 6  84926000.64706        25.515 6        36.121
G23         4.000    21355106.880 5 112221931.62105     -2757.997 5        33.245                                    21355095.850 2  87445585.54702     -2149.066 2        15.476    21355097.127 6  87445598.58706     -2148.947 6        36.386
G08         6.000    21073992.272 6 110744520.44506      1279.924 6        41.077                                    21074073.002 2  86294581.40202       997.362 2        12.061    21073991.189 6  86294475.82606       997.384 6        41.213
G27         7.000    19967919.774 8 104932160.25608      -931.394 8        50.990                                    19967917.179 8  81765256.03908      -725.759 8        53.468    19967917.848 7  81765315.02707      -725.695 7        47.501
G21         8.000    22861055.077 5 120135702.91305      1780.428 5        30.891                                    22861048.135 1  93612173.22601      1387.338 1         6.750
G30        10.000    25652547.833 4                     -1239.470 4        26.168
E08        12.000    26773642.818 4                      1143.848 4        27.641                                                                                                                                    26773612.969 4 107806302.29904       876.750 4        27.305
E13        16.000    23825694.274 7 125204951.06607     -2147.555 7        47.247                                                                    23825693.901 7  93497200.88507     -1603.705 7        44.524    23825693.128 7  95936212.43507     -1645.631 7        44.235
E31        17.000    27060531.867 5 142204028.14405      1402.915 5        33.485                                                                    27060532.773 5 106191447.79305      1047.710 5        35.395    27060531.311 5 108961552.40205      1074.968 5        35.986
G16        18.000    22444624.828 5                     -4119.071 5        33.096
E26        19.000    23844960.093 8 125306123.10808       284.296 8        48.260                                                                    23844958.526 8  93572810.81308       212.252 8        49.283    23844957.031 7  96013833.41207       217.805 7        47.059
E03        21.000    27304120.263 3                     -1121.156 3        21.714                                                                    27304134.255 4 107147297.92604      -836.829 4        28.550
E21        22.000    25469905.433 5 133845232.20305     -3544.182 5        34.033                                                                    25469905.567 6  99949409.02106     -2646.983 6        36.548    25469904.736 6 102556759.75406     -2715.781 6        40.613
S36        23.000    38119763.513 5 200320593.97205      -852.266 5        35.824
S23        24.000    38075286.242 6 200086964.67606      -852.238 6        40.598
G26        25.000    24792767.065 3                     -4486.406 3        22.590
R20        26.000    21108348.498 5 112875855.66605      1620.429 5        30.015                                                                    21108351.683 6  87792475.08406      1260.322 6        39.619
E33        28.000                                                                                                                                                                                                    27477949.050 5 110642216.81305      1216.424 5        31.758
R19        29.000    19832498.546 6 106090390.73806     -2007.060 6        41.707                                                                    19832495.293 7  82514804.68107     -1561.087 7        45.097
R18        30.000    22195672.452 5                     -3814.632 5        32.623                                                                    22195685.335 5                     -2966.862 5        30.951
R04        31.000    20787315.866 6 111315074.17506      1961.924 6        40.095                                                                    20787310.766 5  86578426.44105      1525.812 5        33.132
R03        32.000    21017035.702 6 112506314.50416     -1867.611 6        36.314                                                                    21017048.297 3                     -1451.561 3        22.667
R09        34.000    22082273.293 5 117918004.77505     -4543.918 5        30.936                                                                    22082252.375 6  91713990.68106     -3533.911 6        39.153
R10        35.000    21255446.322 6 113303489.26416     -1898.885 6        36.556
C33        37.000                                                                                                                                    23156755.361 5 120583361.51105      1039.158 5        35.081                                                                    23156766.041 6  97983952.53406       844.478 6        38.772
C28        40.000                                                                                                                                    21392340.420 8 111395792.75808      -519.022 8        50.960                                                                    21392338.236 7  90517985.91007      -421.743 7        44.689
R11        41.000    22974524.495 6 122768667.44006      1768.302 6        36.129                                                                    22974484.411 6  95486737.18006      1375.510 6        36.817
C43        42.000                                                                                                                                    24076632.994 6 125373308.08406     -3328.022 6        38.871                                                                    24076628.544 6 101876073.38406     -2704.095 6        36.677
C13        45.000                                                                                                                                    38581930.301 6 200906281.96606     -1843.650 6        36.975    38581931.481 5 155353486.71105     -1425.892 5        30.460
C08        46.000                                                                                                                                                                                                    39112318.659 5 157489053.62105     -1600.249 5        31.947    39112316.633 4                     -1682.097 4        24.722
C14        47.000                                                                                                                                    23025842.073 5 119901564.82605      -565.048 5        35.633    23025839.014 6  92715789.16806      -436.956 6        40.968    23025834.775 5  97429862.72305      -459.452 5        31.970
C42        48.000                                                                                                                                    24026506.671 6 125112379.06306     -2182.234 6        36.885                                                                    24026517.068 7 101664089.99307     -1773.132 7        42.345
C41        49.000                                                                                                                                                                                                                                                                    25639570.120 4                      2156.270 4        24.226
C38        50.000                                                                                                                                    40596123.176 4                     -2110.467 4        26.527
C27        52.000                                                                                                                                    23420297.816 7 121955626.36207      1502.233 7        44.849                                                                    23420292.517 5  99098955.35105      1220.729 5        35.424
C36        56.000                                                                                                                                    26477526.708 4 137875405.41904       732.899 4        28.332                                                                    26477498.587 4                       596.063 4        28.057
I06        58.000    38514734.280 6 151140256.93506      -557.035 6        36.703
> 2025 01 01 20 32  0.0000000  0 40
G18         1.000                                                                                                                                                                    24008602.924 3                     -3056.611 3        19.910
G10         2.000    20739768.234 8 108988458.82108        29.885 8        50.672                                    20739763.130 6  84925846.63106        23.287 6        40.222    20739764.810 6  84925878.70706        23.269 6        36.711
G07         3.000    25495202.638 4                     -2340.788 4        26.299
G23         4.000    21357728.564 4 112235727.53904     -2760.217 4        26.551                                    21357720.947 2  87456335.70502     -2150.835 2        14.810    21357722.068 6  87456348.82606     -2150.983 6        37.051
G08         6.000    21072776.047 6 110738125.71506      1278.012 6        41.054                                    21072857.705 1  86289598.32601       995.893 1        11.037    21072774.062 6  86289492.91106       995.711 6        41.466
G27         7.000    19968807.009 8 104936823.40708      -933.908 8        51.000                                    19968804.631 8  81768889.66108      -727.723 8        53.652    19968805.138 7  81768948.66707      -727.767 7        47.676
G21         8.000    22859362.843 5 120126802.76105      1779.373 5        34.148                                    22859354.499 1  93605238.07301      1386.550 1         8.190
E08        12.000    26772550.691 4                      1142.967 4        28.237                                                                                                                                    26772523.963 4 107801921.28804       876.523 4        27.437
E13        16.000    23827738.115 7 125215690.65207     -2148.232 7        47.162                                                                    23827737.539 7  93505220.71107     -1604.268 7        44.492    23827736.899 7  95944441.47007     -1646.108 7        44.451
E31        17.000    27059197.953 5 142197015.70005      1401.897 5        34.343                                                                    27059198.618 5 106186211.28105      1046.649 5        35.410    27059197.299 5 108956179.27205      1074.190 5        35.857
G16        18.000    22448547.093 5                     -4120.843 5        34.867
E26        19.000    23844690.127 8 125304704.09108       283.308 8        48.156                                                                    23844688.488 8  93571751.15408       211.628 8        49.282    23844687.228 7  96012746.11807       217.088 7        47.432
E03        21.000    27305186.499 3                     -1125.999 3        19.791                                                                    27305201.472 4 107151486.27304      -838.203 4        26.347    27305214.244 4                      -860.572 4        25.113
E21        22.000    25473280.166 5 133862956.98205     -3545.571 5        32.575                                                                    25473278.519 6  99962645.05806     -2647.512 6        37.414    25473277.961 6 102570341.10506     -2716.759 6        41.175
S36        23.000    38120576.570 5 200324854.22105      -852.117 5        35.867
S23        24.000    38076097.765 6 200091225.61906      -852.218 6        40.584
G26        25.000    24797039.481 4                     -4485.816 4        24.376
R20        26.000    21106834.891 5 112867755.86305      1619.166 5        30.498                                                                    21106839.009 6  87786175.21106      1259.573 6        39.799
R02        27.000    24247746.572 3                     -4643.840 3        23.238                                                                    24247683.454 3                     -3612.614 3        22.248
E33        28.000                                                                                                                                                                                                    27476439.638 5 110636137.02205      1216.154 5        30.921
R19        29.000    19834374.340 6 106100430.29606     -2008.630 6        40.067                                                                    19834372.050 7  82522613.26007     -1562.375 7        45.180
R18        30.000    22199249.634 5                     -3815.658 5        34.724                                                                    22199252.125 5                     -2967.546 5        32.647
R04        31.000    20785487.425 7 111305272.99207      1958.526 7        42.565                                                                    20785480.709 5  86570803.27905      1523.714 5        30.936
R03        32.000    21018781.732 6 112515663.30406     -1871.806 6        38.372
R09        34.000    22086520.688 5 117940727.75505     -4545.650 5        34.876                                                                    22086508.636 6  91731664.04006     -3535.293 6        38.336
R10        35.000    21257233.066 5 113312994.07905     -1903.080 5        35.338
C37        36.000                                                                                                                                    25687899.890 5                     -3667.338 5        30.589
C33        37.000                                                                                                                                    23155756.639 5 120578171.16005      1036.921 5        32.898                                                                    23155770.040 6  97979734.94206       842.589 6        39.294
C28        40.000                                                                                                                                    21392839.676 8 111398391.38308      -520.393 8        50.977                                                                    21392837.382 7  90520097.52707      -422.976 7        44.655
R11        41.000    22972872.522 5 122759833.36105      1765.133 5        33.347                                                                    22972827.018 5  95479866.21105      1372.827 5        32.341
C43        42.000                                                                                                                                    24079828.081 6 125389950.11706     -3328.841 6        40.389                                                                    24079823.658 6 101889596.42506     -2704.794 6        36.234
C13        45.000                                                                                                                                    38583701.325 6 200915501.68406     -1843.833 6        37.093    38583701.875 5 155360615.95705     -1425.612 5        30.951
C08        46.000                                                                                                                                                                                                    39114307.605 5 157497054.80805     -1600.011 5        32.323
C14        47.000                                                                                                                                    23026383.095 6 119904397.47706      -567.799 6        36.544    23026378.556 6  92717979.58006      -439.303 6        39.222    23026381.427 5  97432164.54505      -461.542 5        32.928
C42        48.000                                                                                                                                    24028603.530 5 125123295.97705     -2184.579 5        34.762                                                                    24028613.427 6 101672960.87406     -1775.212 6        41.774
C41        49.000                                                                                                                                                                                                                                                                    25637021.563 4                      2155.673 4        25.173
C38        50.000                                                                                                                                    40598157.200 4                     -2110.610 4        27.006
C27        52.000                                                                                                                                    23418854.991 7 121948116.34407      1501.705 7        44.877                                                                    23418849.884 5  99092852.86005      1220.214 5        34.967
C36        56.000                                                                                                                                                                                                                                                                    26476795.652 4                       594.174 4        28.275
I06        58.000    38515444.613 6 151143042.04606      -557.042 6        36.730
> 2025 01 01 20 32  5.0000000  0 41
G18         1.000                                                                                                                                                                    24012346.620 4                     -3058.071 4        25.398
G10         2.000    20739740.924 8 108988317.16708        26.739 8        50.296                                    20739736.462 6  84925736.25306        20.837 6        40.479    20739737.244 6  84925768.31006        20.918 6        36.930
G07         3.000    25497437.510 4                     -2342.679 4        25.609                                                                                                    25497426.231 4                     -1825.555 4        24.406
G23         4.000    21360350.947 4 112249536.72304     -2763.198 4        26.251                                    21360348.549 2  87467096.05302     -2153.148 2        13.212    21360349.502 6  87467109.09606     -2153.260 6        37.191
G08         6.000    21071560.532 6 110731740.72006      1275.918 6        40.739                                    21071644.196 1  86284622.86101       994.243 1        11.852    21071558.011 6  86284517.59506       994.177 6        41.723
G27         7.000    19969697.294 8 104941500.47508      -936.888 8        51.166                                    19969694.707 8  81772534.13408      -730.045 8        53.687    19969695.058 7  81772593.13207      -729.993 7        47.754
G21         8.000    22857676.213 6 120117908.62006      1778.115 6        36.514                                    22857661.967 1  93598307.54901      1385.558 1         9.048
G30        10.000    25654897.318 4                     -1245.712 4        29.545
E08        12.000    26771462.423 4                      1141.146 4        27.605                                                                                                                                    26771438.225 4 107797546.46304       874.529 4        25.789
E13        16.000    23829782.664 7 125226434.72707     -2149.357 7        46.667                                                                    23829782.248 7  93513243.87407     -1605.099 7        44.445    23829781.574 7  95952673.93107     -1646.983 7        44.724
E31        17.000    27057866.128 5 142190010.91105      1399.955 5        33.737                                                                    27057865.163 5 106180980.50605      1045.254 5        35.143    27057864.811 5 108950812.02505      1072.714 5        35.957
G16        18.000    22452464.691 5 117988514.40315     -4122.585 5        35.533                                    22452474.656 1  91939137.27211     -3212.457 1         8.667
E26        19.000    23844421.111 7 125303290.67307       281.994 7        47.396                                                                    23844419.570 8  93570695.67708       210.595 8        49.266    23844418.363 7  96011663.11107       215.988 7        47.682
E03        21.000    27306257.913 3                     -1122.231 3        19.134                                                                    27306269.631 3 107155683.48503      -838.722 3        22.781    27306275.020 4                      -862.454 4        26.287
E21        22.000    25476654.482 5 133880688.14905     -3546.549 5        31.494                                                                    25476652.624 6  99975885.87306     -2648.737 6        38.393    25476651.881 6 102583927.33106     -2717.762 6        41.404
S36        23.000    38121388.787 5 200329115.08205      -852.090 5        35.848
S23        24.000    38076909.530 6 200095486.53106      -852.222 6        41.006
G26        25.000    24801310.484 4                     -4486.505 4        25.489
R20        26.000    21105325.197 5 112859661.79205      1618.094 5        31.645                                                                    21105325.230 6  87779879.78406      1258.617 6        39.988
R02        27.000    24252095.886 3                     -4647.108 3        22.914
E33        28.000                                                                                                                                                                                                    27474930.470 4 110630058.83604      1215.753 4        29.536
R19        29.000    19836250.977 6 106110479.14606     -2010.971 6        38.480                                                                    19836250.633 7  82530429.03507     -1563.895 7        45.323
R18        30.000    22202824.312 5 118520178.31815     -3816.360 5        35.333                                                                    22202821.839 5                     -2968.325 5        32.204
R04        31.000    20783662.938 7 111295489.04807      1954.974 7        43.596                                                                    20783656.175 5  86563193.64505      1520.578 5        32.521
R03        32.000    21020537.186 6 112525034.46406     -1876.377 6        36.847
R09        34.000    22090773.831 6 117963460.52406     -4547.725 6        37.350                                                                    22090766.136 6  91749345.06506     -3537.161 6        37.743
R10        35.000    21259023.203 5 113322520.55305     -1907.524 5        33.707
C37        36.000                                                                                                                                    25691423.586 5                     -3668.207 5        32.778
C33        37.000                                                                                                                                    23154760.473 5 120572993.00005      1034.491 5        33.772                                                                    23154776.307 6  97975527.24806       840.460 6        39.787
C28        40.000                                                                                                                                    21393340.356 8 111400997.73508      -522.131 8        51.025                                                                    21393337.999 7  90522215.39407      -424.331 7        44.685
R11        41.000                                                                                                                                    22971175.361 4  95473008.60004      1370.285 4        29.043
C43        42.000                                                                                                                                    24083024.931 6 125406596.27106     -3329.759 6        41.516                                                                    24083019.758 5 101903122.79605     -2705.710 5        35.000
C13        45.000                                                                                                                                    38585471.732 6 200924722.30306     -1844.457 6        36.412    38585472.804 5 155367745.90605     -1426.331 5        30.709
C08        46.000                                                                                                                                                                                                    39116294.395 5 157505056.44505     -1600.575 5        33.401    39116304.547 4                     -1681.659 4        25.173
C14        47.000                                                                                                                                    23026930.030 6 119907245.03106      -571.229 6        38.000    23026919.857 6  92720181.43806      -441.792 6        37.429    23026928.171 5  97434478.38505      -464.077 5        33.138
C42        48.000                                                                                                                                    24030701.478 5 125134226.16905     -2187.489 5        32.012                                                                    24030712.295 6 101681842.52106     -1777.445 6        41.106
C41        49.000                                                                                                                                                                                                                                                                    25634473.100 4                      2156.117 4        25.459
C38        50.000                                                                                                                                    40600188.095 4                     -2111.089 4        26.431
C27        52.000                                                                                                                                    23417412.273 7 121940609.92107      1500.816 7        44.623                                                                    23417408.197 5  99086753.26805      1219.428 5        34.710
C36        56.000                                                                                                                                    26476111.493 3                       728.417 3        23.371                                                                    26476095.039 4                       591.818 4        27.401
I06        58.000    38516154.050 6 151145827.00106      -556.982 6        37.146
> 2025 01 01 20 32 10.0000000  0 40
G18         1.000                                                                                                                                                                    24016076.128 4                     -3058.036 4        27.784
G10         2.000    20739716.376 8 108988190.43008        24.114 8        49.426                                    20739712.610 6  84925637.49406        18.788 6        40.672    20739713.421 6  84925669.57406        18.814 6        36.737
G23         4.000    21362985.819 5 112263358.51305     -2764.656 5        30.468                                    21362979.164 2  87477866.29302     -2154.368 2        12.909    21362979.573 6  87477879.39706     -2154.920 6        37.425
G15         5.000    24098565.017 3                     -2762.787 3        22.495
G08         6.000    21070347.591 6 110725365.57306      1274.321 6        40.389                                    21070432.780 2  86279655.09002       992.997 2        12.848    21070344.924 6  86279549.95406       993.046 6        41.955
G27         7.000    19970590.105 8 104946191.54808      -939.373 8        51.171                                    19970587.444 8  81776189.52008      -731.985 8        53.636    19970587.914 7  81776248.51707      -731.989 7        47.999
G21         8.000    22855989.020 6 120109020.45506      1777.250 6        38.327                                    22855970.576 1  93591381.64301      1384.826 1         9.810
G30        10.000    25656090.056 5                     -1248.352 5        32.024
E08        12.000    26770371.571 4                      1139.453 4        26.790                                                                                                                                    26770352.356 4 107793177.91404       874.079 4        25.353
E13        16.000    23831828.056 7 125237183.34207     -2149.904 7        47.078                                                                    23831827.411 7  93521270.43007     -1605.508 7        44.360    23831826.977 7  95960909.87907     -1647.327 7        44.936
E31        17.000    27056534.524 5 142183013.83605      1398.985 5        34.476                                                                    27056533.950 5 106175755.45005      1044.839 5        34.810    27056533.507 6 108945450.68206      1071.797 6        36.132
G16        18.000    22456385.897 6 118009130.33806     -4123.808 6        36.654                                    22456395.031 1  91955201.60201     -3213.375 1         8.381
E26        19.000    23844153.266 7 125301882.91607       281.209 7        47.311                                                                    23844151.651 8  93569644.42508       210.012 8        49.132    23844150.486 8  96010584.43308       215.536 8        48.033
E03        21.000                                                                                                                                                                                                    27307343.434 4                      -864.172 4        28.284
E21        22.000    25480029.056 5 133898425.78805     -3547.777 5        30.491                                                                    25480028.349 6  99989131.50006     -2649.315 6        39.517    25480027.319 6 102597518.50106     -2718.515 6        41.311
S36        23.000    38122200.095 5 200333375.68505      -851.773 5        35.976
S23        24.000    38077719.600 6 200099747.46606      -851.959 6        40.727
G26        25.000    24805576.193 3                     -4485.760 3        23.924
R20        26.000    21103814.179 5 112851573.50505      1617.262 5        32.437                                                                    21103812.504 6  87773588.84106      1258.022 6        40.930
R02        27.000    24256444.508 3                     -4645.236 3        21.976
E33        28.000                                                                                                                                    27473425.008 5 107811619.66415      1183.875 5        31.743    27473421.489 4 110623982.31304      1215.109 4        29.991
R19        29.000    19838131.950 6 106120537.30106     -2012.200 6        38.123                                                                    19838130.988 7  82538252.04907     -1565.208 7        45.156
R18        30.000    22206396.713 5 118539261.90705     -3816.758 5        35.076                                                                    22206399.084 5                     -2968.658 5        31.094
R04        31.000    20781841.869 6 111285722.65206      1951.774 6        41.633                                                                    20781837.126 6  86555597.56606      1517.972 6        37.127
R03        32.000    21022295.635 6 112534428.05416     -1880.610 6        36.987
R09        34.000    22095034.686 6 117986203.11606     -4549.303 6        38.141                                                                    22095025.624 6  91767033.74706     -3538.150 6        38.336
C37        36.000                                                                                                                                    25694947.681 5                     -3668.603 5        33.521
C33        37.000                                                                                                                                    23153767.831 5 120567827.13305      1032.181 5        34.676                                                                    23153785.292 6  97971329.58906       838.797 6        40.381
C28        40.000                                                                                                                                    21393842.584 8 111403611.87808      -523.319 8        50.916                                                                    21393840.180 7  90524339.61707      -425.255 7        44.674
R11        41.000                                                                                                                                    22969533.619 4  95466164.30904      1367.735 4        28.398
C43        42.000                                                                                                                                    24086223.425 7 125423246.65607     -3330.288 7        42.110                                                                    24086216.485 5 101916652.62905     -2706.392 5        33.545
C13        45.000                                                                                                                                    38587242.385 6 200933943.90806     -1844.192 6        36.284    38587242.723 5 155374876.65505     -1425.726 5        30.981
C08        46.000                                                                                                                                                                                                    39118280.040 5 157513058.57105     -1600.284 5        33.994    39118289.952 4                     -1681.006 4        26.647
C14        47.000                                                                                                                                    23027480.400 6 119910107.50006      -573.673 6        38.568    23027469.919 6  92722394.86606      -443.553 6        36.926    23027474.782 5  97436804.39105      -466.228 5        32.581
C42        48.000                                                                                                                                    24032801.518 4 125145169.65404     -2189.423 4        27.078                                                                    24032813.980 6 101690735.04006     -1779.469 6        40.372
C41        49.000                                                                                                                                                                                                                                                                    25631925.778 4                      2155.703 4        26.731
C38        50.000                                                                                                                                    40602215.860 4                     -2110.754 4        27.449
C27        52.000                                                                                                                                    23415971.009 7 121933107.18307      1500.459 7        44.283                                                                    23415967.101 5  99080656.67605      1219.138 5        34.348
C36        56.000                                                                                                                                    26475424.589 4                       726.170 4        27.042                                                                    26475396.571 4                       590.432 4        28.038
I06        58.000    38516863.866 6 151148611.91006      -557.013 6        37.006
> 2025 01 01 20 32 15.0000000  0 41
G18         1.000                                                                                                                                                                    24019801.508 4                     -3057.992 4        28.445
G10         2.000    20739695.148 8 108988078.14808        20.879 8        49.328                                    20739691.441 6  84925550.02006        16.264 6        40.942    20739690.741 5  84925582.09005        16.213 5        35.619
G07         3.000    25501895.651 4                     -2346.165 4        28.455                                                                                                    25501867.845 3                     -1829.285 3        21.762
G23         4.000    21365618.554 5 112277192.82005     -2767.931 5        32.581                                    21365612.189 2  87488646.31002     -2156.838 2        14.476    21365612.529 6  87488659.39306     -2156.947 6        37.607
G15         5.000    24101202.626 3                     -2767.759 3        22.933
G08         6.000    21069135.866 6 110718999.84306      1272.158 6        41.311                                    21069223.242 2  86274694.70902       991.296 2        14.619    21069133.762 6  86274589.64806       991.234 6        41.061
G27         7.000    19971485.366 8 104950896.14308      -942.381 8        50.910                                    19971482.775 8  81779855.44708      -734.327 8        53.756    19971482.983 7  81779914.43907      -734.299 7        47.982
G21         8.000    22854298.787 6 120100137.80106      1775.930 6        39.309                                    22854280.294 1  93584460.10401      1383.846 1        11.407
G30        10.000    25657279.208 5                     -1250.992 5        32.557
E08        12.000    26769284.386 4                      1137.825 4        25.865                                                                                                                                    26769268.703 4 107788815.43904       871.726 4        24.812
E13        16.000    23833874.260 7 125247936.04207     -2151.066 7        47.100                                                                    23833873.581 7  93529300.03107     -1606.317 7        44.208    23833873.226 7  95969148.95607     -1648.165 7        45.204
E31        17.000    27055204.502 5 142176024.01405      1397.062 5        34.486                                                                    27055204.367 5 106170535.84905      1043.203 5        34.914    27055203.669 6 108940094.88406      1070.572 6        36.699
G16        18.000    22460311.697 6 118029753.95706     -4125.621 6        37.040                                    22460318.003 1  91971272.00401     -3214.855 1         9.143
E26        19.000    23843886.462 7 125300480.37207       279.800 7        46.962                                                                    23843884.695 8  93568597.07208       208.934 8        48.935    23843883.596 8  96009509.76908       214.402 8        48.214
E03        21.000                                                                                                                                                                                                    27308418.609 4                      -865.858 4        27.916
E21        22.000    25483404.504 5 133916169.43205     -3549.735 5        30.015                                                                    25483405.162 6 100002381.59306     -2650.638 6        40.067    25483404.132 6 102611114.26006     -2719.688 6        41.621
S36        23.000    38123009.745 6 200337636.42306      -852.432 6        36.881
S23        24.000    38078532.032 6 200104008.00506      -852.144 6        40.706
G26        25.000    24809844.196 4                     -4485.958 4        26.347
R20        26.000    21102309.338 5 112843490.67905      1615.582 5        35.181                                                                    21102301.171 6  87767302.19406      1256.760 6        41.645
E33        28.000                                                                                                                                    27471914.946 5 107805698.88105      1183.964 5        31.653    27471913.348 4 110617907.05104      1214.541 4        29.943
R19        29.000    19840014.618 6 106130604.24406     -2014.290 6        37.989                                                                    19840012.375 7  82546081.87407     -1566.759 7        44.880
R18        30.000    22209971.390 5 118558348.94505     -3817.754 5        33.988                                                                    22209976.467 4                     -2969.817 4        28.322
R04        31.000                                                                                                                                    20780016.940 6  86548014.61906      1515.119 6        38.510
R03        32.000    21024061.013 6 112543843.47316     -1885.514 6        37.580
R09        34.000    22099296.811 6 118008955.06906     -4551.333 6        37.365                                                                    22099288.310 6  91784729.69506     -3540.096 6        37.716
R10        35.000    21262597.746 5 113341638.13505     -1916.162 5        34.443
C37        36.000                                                                                                                                    25698470.157 5 133818681.28015     -3669.508 5        32.790
C33        37.000                                                                                                                                    23152779.993 5 120562673.15905      1029.460 5        35.567                                                                    23152796.266 6  97967141.59106       836.458 6        40.482
C28        40.000                                                                                                                                    21394345.980 8 111406233.37708      -525.178 8        50.530                                                                    21394343.571 7  90526469.81307      -426.775 7        44.913
R11        41.000    22967868.087 5 122733433.42905      1754.929 5        32.551                                                                    22967890.144 4  95459333.11104      1364.565 4        28.199
C43        42.000                                                                                                                                    24089423.265 7 125439900.81807     -3331.425 7        42.307                                                                    24089414.333 5 101930185.49505     -2706.997 5        32.605
C13        45.000                                                                                                                                    38589013.589 6 200943166.09606     -1844.719 6        36.484    38589013.707 5 155382007.81105     -1426.031 5        31.275
C08        46.000                                                                                                                                                                                                    39120267.750 5 157521060.80105     -1600.425 5        34.462    39120277.959 4                     -1682.634 4        26.886
C14        47.000                                                                                                                                    23028032.304 6 119912984.48806      -576.853 6        38.105    23028025.946 6  92724619.56806      -446.261 6        37.766    23028026.098 5  97439142.19805      -469.059 5        32.629
C42        48.000                                                                                                                                    24034908.944 5 125156126.09805     -2192.872 5        30.423                                                                    24034917.935 6 101699638.02106     -1781.706 6        39.664
C41        49.000                                                                                                                                                                                                                                                                    25629378.120 4                      2155.236 4        26.814
C38        50.000                                                                                                                                    40604240.230 4                     -2110.465 4        26.802
C27        52.000                                                                                                                                    23414531.497 7 121925607.66707      1499.352 7        44.001                                                                    23414526.826 5  99074562.70605      1218.319 5        34.900
C36        56.000                                                                                                                                    26474728.159 4 137860832.32014       723.724 4        28.682                                                                    26474700.393 4                       588.203 4        27.222
I06        58.000    38517573.179 6 151151396.37206      -556.940 6        36.922
> 2025 01 01 20 32 20.0000000  0 38
G18         1.000                                                                                                                                                                    24023535.134 4                     -3058.271 4        29.772
G10         2.000    20739676.746 8 108987980.47708        18.202 8        49.669                                    20739672.884 6  84925473.93206        14.177 6        41.290    20739671.062 5  84925505.99505        13.867 5        35.614
G23         4.000    21368256.557 6 112291039.68506     -2770.449 6        36.140                                    21368247.473 2  87499436.11402     -2158.806 2        16.340    21368246.231 6  87499449.14806     -2158.874 6        37.206
G08         6.000    21067927.546 6 110712643.64706      1270.364 6        41.406                                    21068015.304 2  86269741.77002       989.844 2        13.818    21067922.384 6  86269636.78006       989.873 6        38.468
G27         7.000    19972382.925 8 104955614.43108      -944.941 8        50.738                                    19972380.739 8  81783532.04308      -736.319 8        53.913    19972380.839 7  81783591.04007      -736.318 7        47.713
G21         8.000    22852606.966 6 120091260.82306      1774.886 6        39.477                                    22852591.120 2  93577542.99502      1383.050 2        12.061
G30        10.000    25658471.195 5                     -1253.597 5        32.222
E08        12.000    26768203.290 4                      1136.232 4        27.281                                                                                                                                    26768188.002 4 107784458.99304       870.521 4        25.609
E13        16.000    23835921.256 7 125258692.96007     -2151.679 7        47.582                                                                    23835920.664 7  93537332.79907     -1606.783 7        44.421    23835920.297 7  95977391.28607     -1648.802 7        45.460
E31        17.000    27053875.382 5 142169041.57805      1395.956 5        34.662                                                                    27053875.504 5 106165321.76805      1042.219 5        34.705    27053875.009 6 108934744.77806      1069.420 6        36.892
G16        18.000    22464238.311 6 118050385.28906     -4127.010 6        38.075                                    22464242.688 1  91987348.35601     -3215.878 1        10.518
E26        19.000    23843620.821 7 125299083.16207       279.010 7        46.904                                                                    23843618.808 8  93567553.70208       208.351 8        48.794    23843617.770 8  96008439.19208       213.784 8        48.369
E03        21.000                                                                                                                                    27309488.061 3 107168328.86503      -846.043 3        23.410    27309494.284 4                      -867.578 4        28.512
E21        22.000    25486782.424 4 133933919.18204     -3550.497 4        28.284                                                                    25486783.057 6 100015636.24506     -2651.236 6        40.698    25486782.262 6 102624714.69006     -2720.431 6        41.886
S36        23.000    38123820.911 6 200341896.56506      -851.907 6        36.321
S23        24.000    38079340.394 6 200108268.20206      -851.886 6        40.541
G26        25.000    24814114.993 4                     -4485.943 4        26.599
R20        26.000    21100805.818 5 112835413.36505      1614.966 5        34.629                                                                    21100791.107 6  87761019.86506      1255.993 6        41.700
E33        28.000                                                                                                                                    27470406.355 5 107799779.48505      1184.103 5        32.467    27470402.337 5 110611833.21605      1214.224 5        30.128
R19        29.000    19841898.568 6 106140680.30506     -2015.907 6        38.096                                                                    19841896.184 7  82553918.81407     -1568.023 7        44.612
R18        30.000    22213543.575 5 118577439.69215     -3818.405 5        34.562                                                                    22213549.414 4                     -2969.276 4        24.827
R04        31.000    20778189.526 5 111266240.70305      1944.871 5        33.838                                                                    20778197.593 6  86540445.04706      1512.725 6        39.129
R09        34.000    22103560.090 6 118031716.52306     -4553.196 6        36.370                                                                    22103549.537 5  91802433.01405     -3541.246 5        35.171
R10        35.000    21264404.580 6 113351229.12406     -1920.329 6        36.212
C37        36.000                                                                                                                                    25701995.026 5 133837030.44405     -3670.301 5        31.464
C33        37.000                                                                                                                                    23151795.605 5 120557531.25605      1027.250 5        34.938                                                                    23151809.055 6  97962963.31806       834.712 6        40.570
C28        40.000                                                                                                                                    21394850.908 8 111408862.36108      -526.451 8        50.115                                                                    21394848.546 7  90528606.06207      -427.774 7        45.087
R11        41.000    22966239.930 5 122724667.36105      1751.409 5        32.754                                                                    22966250.203 4  95452514.98204      1362.445 4        28.872
C43        42.000                                                                                                                                    24092623.978 6 125456558.90006     -3332.054 6        41.886                                                                    24092613.145 5 101943721.49905     -2707.287 5        30.913
C13        45.000                                                                                                                                    38590784.845 6 200952388.96506     -1844.573 6        36.144    38590784.663 5 155389139.50805     -1426.210 5        31.238
C08        46.000                                                                                                                                                                                                    39122256.571 5 157529063.28605     -1600.673 5        34.886    39122265.354 4                     -1681.955 4        26.826
C14        47.000                                                                                                                                    23028586.457 6 119915876.06906      -579.740 6        38.210    23028583.124 6  92726855.54006      -448.413 6        39.766    23028579.877 5  97441491.78805      -471.028 5        31.615
C42        48.000                                                                                                                                    24037020.364 5 125167095.51705     -2195.017 5        35.538                                                                    24037024.212 6 101708551.55106     -1783.616 6        39.099
C41        49.000                                                                                                                                                                                                                                                                    25626829.340 4                      2155.283 4        26.790
C38        50.000                                                                                                                                    40606264.024 4                     -2110.058 4        27.162
C27        52.000                                                                                                                                    23413092.785 7 121918111.50407      1498.979 7        43.168                                                                    23413087.335 5  99068471.43905      1217.956 5        34.757
C36        56.000                                                                                                                                    26474030.798 5 137857217.04705       722.157 5        31.366                                                                    26474006.979 4                       586.617 4        27.880
I06        58.000    38518282.597 6 151154180.53906      -556.882 6        37.176
> 2025 01 01 20 32 25.0000000  0 39
G18         1.000    24027471.635 3                     -3925.023 3        22.114                                                                                                    24027273.518 4                     -3058.536 4        29.943
G10         2.000    20739660.546 8 108987897.09708        15.321 8        50.114                                    20739656.947 6  84925408.98606        11.935 6        41.611    20739655.411 6  84925441.01706        11.861 6        36.336
G23         4.000    21370893.256 6 112304898.77006     -2773.019 6        39.120                                    21370885.091 2  87510235.42702     -2160.798 2        17.698    21370883.909 6  87510248.45306     -2160.799 6        37.841
G08         6.000    21066719.656 6 110706296.68906      1268.564 6        40.453                                    21066809.008 1  86264795.93901       988.607 1         8.476    21066712.650 5  86264691.10305       988.169 5        34.619
G27         7.000    19973283.542 8 104960346.06908      -947.555 8        51.309                                    19973281.257 8  81787219.03808      -738.353 8        53.811    19973281.028 7  81787278.03507      -738.396 7        47.711
G21         8.000    22850915.056 6 120082389.20906      1773.806 6        38.294                                    22850902.940 2  93570630.06602      1382.190 2        13.212
G30        10.000    25659664.939 5                     -1256.105 5        30.657
E08        12.000    26767123.161 4                      1135.219 4        27.174                                                                                                                                    26767107.194 4 107780108.29904       870.270 4        26.551
E13        16.000    23837969.058 7 125269453.77407     -2152.475 7        47.898                                                                    23837968.355 7  93545368.46107     -1607.384 7        44.572    23837968.076 7  95985636.57707     -1649.340 7        45.943
E31        17.000    27052547.852 5 142162066.21205      1394.509 5        34.414                                                                    27052548.611 5 106160112.95305      1041.051 5        34.695    27052547.601 6 108929400.05106      1068.462 6        37.198
G16        18.000    22468165.844 6 118071024.01706     -4128.448 6        38.444                                    22468169.269 1  92003430.53201     -3217.014 1         9.810
E26        19.000    23843356.181 7 125297690.97207       278.000 7        46.965                                                                    23843353.798 8  93566514.07108       207.588 8        48.689    23843352.874 8  96007372.44508       213.014 8        48.531
E03        21.000                                                                                                                                    27310565.275 4 107172561.32204      -847.114 4        25.158    27310572.196 4                      -869.426 4        29.100
E21        22.000    25490160.776 4 133951674.66404     -3551.154 4        26.455                                                                    25490161.704 6 100028895.21906     -2652.101 6        40.994    25490161.524 7 102638319.57207     -2721.449 7        42.099
S36        23.000    38124630.252 6 200346156.27406      -851.857 6        36.446
S23        24.000    38080150.495 6 200112527.67206      -851.887 6        40.348
G26        25.000    24818382.853 4                     -4485.705 4        26.731
R20        26.000    21099296.913 5 112827341.27605      1614.189 5        34.586                                                                    21099280.877 6  87754741.56506      1255.337 6        41.454
E33        28.000                                                                                                                                    27468899.921 5 107793861.23105      1183.580 5        32.192
R19        29.000    19843783.147 6 106150765.16006     -2017.678 6        38.520                                                                    19843781.033 7  82561762.57607     -1569.328 7        44.399
R18        30.000    22217116.345 5                     -3819.137 5        35.329                                                                    22217121.426 4                     -2970.996 4        24.872
R04        31.000    20776379.642 5 111256525.19305      1941.487 5        35.214                                                                    20776381.948 6  86532888.56006      1510.038 6        38.991
R03        32.000    21027618.955 4 112562740.28604     -1894.435 4        27.856                                                                    21027578.115 6  87548341.41916     -1473.190 6        37.871
R09        34.000    22107826.544 5 118054487.11805     -4555.068 5        33.868                                                                    22107814.606 4  91820143.39704     -3543.136 4        28.796
R10        35.000    21266211.472 5 113360841.24805     -1924.514 5        35.943
C37        36.000                                                                                                                                    25705519.503 5 133855382.64305     -3670.844 5        30.113
C33        37.000                                                                                                                                    23150805.978 5 120552401.03005      1024.686 5        33.192                                                                    23150823.488 6  97958794.55806       832.969 6        40.043
C28        40.000                                                                                                                                    21395357.431 8 111411498.50208      -527.925 8        49.706                                                                    21395354.843 7  90530748.14307      -428.885 7        45.172
R11        41.000                                                                                                                                    22964607.598 4  95445709.81704      1359.788 4        25.940
C43        42.000                                                                                                                                    24095823.854 6 125473220.52606     -3332.647 6        40.501                                                                    24095812.961 5 101957260.46905     -2708.464 5        30.151
C13        45.000                                                                                                                                    38592556.171 6 200961612.14906     -1844.652 6        36.129    38592555.593 5 155396271.44505     -1426.135 5        31.291
C08        46.000                                                                                                                                                                                                    39124244.192 5 157537065.75605     -1600.332 5        34.957    39124252.369 4                     -1681.766 4        26.695
C14        47.000                                                                                                                                    23029145.388 6 119918781.95106      -582.496 6        38.462    23029142.036 6  92729102.57506      -450.516 6        41.509    23029136.717 5  97443853.03705      -472.778 5        30.038
C42        48.000                                                                                                                                    24039131.006 6 125178077.58106     -2197.694 6        38.658                                                                    24039133.297 6 101717475.41106     -1785.709 6        38.619
C41        49.000                                                                                                                                                                                                                                                                    25624282.532 4                      2154.817 4        26.970
C38        50.000                                                                                                                                    40608289.244 4                     -2110.370 4        26.275
C27        52.000                                                                                                                                    23411654.186 6 121910618.41706      1498.221 6        41.802                                                                    23411648.559 5  99062382.64705      1217.371 5        35.152
C36        56.000                                                                                                                                    26473338.707 5 137853612.67805       720.163 5        32.192                                                                    26473314.561 4                       585.042 4        27.880
I06        58.000    38518992.207 6 151156964.12806      -556.550 6        37.051
> 2025 01 01 20 32 30.0000000  0 39
G18         1.000    24031209.111 3                     -3951.617 3        21.786                                                                                                    24031013.534 4                     -3059.024 4        29.754
G10         2.000    20739647.461 8 108987828.42708        12.470 8        50.456                                    20739643.823 7  84925355.50107         9.713 7        42.051    20739643.260 6  84925387.52706         9.847 6        37.255
G07         3.000                                                                                                                                                                    25508587.553 3                     -1832.598 3        23.581
G23         4.000    21373531.735 6 112318770.50206     -2775.310 6        40.443                                    21373525.289 3  87521044.59103     -2162.591 3        18.776    21373524.131 6  87521057.61506     -2162.727 6        38.393
G08         6.000    21065513.111 6 110699959.42806      1266.754 6        40.012                                    21065604.662 1  86259857.53001       987.091 1         7.000    21065508.481 5  86259752.98905       987.025 5        31.502
G27         7.000    19974186.762 8 104965091.49208      -950.241 8        51.581                                    19974184.395 8  81790916.77608      -740.449 8        53.561    19974184.224 7  81790975.77007      -740.430 7        47.957
G21         8.000    22849224.670 6 120073523.41006      1772.783 6        37.565                                    22849215.967 2  93563721.69102      1381.393 2        13.091
G30        10.000    25660854.945 4                     -1258.730 4        27.940
E08        12.000    26766040.693 4                      1133.068 4        27.892                                                                                                                                    26766027.977 4 107775763.81804       868.438 4        25.820
E13        16.000    23840017.679 8 125280218.90108     -2153.281 8        48.214                                                                    23840016.964 7  93553407.34607     -1607.933 7        44.606    23840016.602 7  95993885.17907     -1649.843 7        46.446
E31        17.000    27051221.388 5 142155098.28505      1393.173 5        34.152                                                                    27051223.272 5 106154909.63305      1040.387 5        34.429    27051221.716 6 108924061.02206      1067.304 6        37.758
G16        18.000    22472095.573 6 118091670.63306     -4130.007 6        38.315                                    22472097.057 1  92019518.83401     -3218.179 1        10.370
E26        19.000    23843092.342 7 125296304.23607       277.100 7        46.735                                                                    23843089.960 8  93565478.51708       206.874 8        48.420    23843089.115 8  96006309.87408       212.327 8        48.614
E03        21.000    27311650.757 3                     -1136.252 3        23.981                                                                    27311645.863 4 107176802.72904      -848.961 4        25.684    27311650.063 4                      -871.285 4        29.640
E21        22.000    25493541.439 4 133969436.39204     -3553.022 4        28.123                                                                    25493541.554 6 100042158.81706     -2653.028 6        41.197    25493541.424 7 102651929.17507     -2722.288 7        42.140
S36        23.000    38125437.912 5 200350415.84305      -851.748 5        35.800
S23        24.000    38080962.560 6 200116786.85806      -851.612 6        40.279
G26        25.000    24822651.119 4                     -4485.660 4        28.493
R20        26.000    21097779.019 5 112819274.72505      1612.992 5        32.000                                                                    21097771.355 6  87748467.57906      1254.558 6        41.011
E33        28.000                                                                                                                                    27467394.564 5 107787944.42405      1183.212 5        31.540    27467369.353 5 110599689.32505      1214.482 5        30.189
R19        29.000    19845669.938 6 106160859.04006     -2019.456 6        39.072                                                                    19845667.449 7  82569613.36007     -1570.625 7        43.890
R18        30.000    22220696.327 5                     -3819.614 5        35.986                                                                    22220697.437 4                     -2971.148 4        26.766
R04        31.000    20774570.226 6 111246826.98006      1938.261 6        37.811                                                                    20774570.978 6  86525345.50106      1507.370 6        39.661
R03        32.000                                                                                                                                    21029351.310 6  87555716.00706     -1476.606 6        39.012
R10        35.000    21268022.070 5 113370474.76305     -1928.448 5        35.762
C37        36.000                                                                                                                                    25709043.276 4 133873738.23404     -3671.406 4        29.014
C33        37.000                                                                                                                                    23149821.832 5 120547282.89805      1022.381 5        35.024                                                                    23149839.498 6  97954635.65506       830.916 6        39.246
C28        40.000                                                                                                                                    21395865.257 8 111414142.23408      -529.237 8        49.653                                                                    21395862.721 7  90532896.41407      -430.111 7        45.701
R11        41.000                                                                                                                                    22962978.396 3                      1357.049 3        23.124
C43        42.000                                                                                                                                    24099022.761 6 125489886.13006     -3333.254 6        38.679                                                                    24099013.692 5 101970802.67205     -2708.876 5        30.083
C13        45.000                                                                                                                                    38594327.818 5 200970836.07905     -1844.705 5        35.710    38594326.237 5 155403403.98305     -1426.472 5        31.751
C08        46.000                                                                                                                                                                                                    39126232.001 5 157545068.54805     -1600.567 5        35.086    39126240.537 4                     -1681.539 4        26.359
C14        47.000                                                                                                                                    23029709.142 6 119921702.63006      -585.356 6        38.480    23029703.605 7  92731361.02907      -452.592 7        42.705    23029695.982 4  97446226.35004      -475.437 4        29.545
C42        48.000                                                                                                                                    24041239.176 6 125189072.74106     -2200.002 6        40.501                                                                    24041244.709 6 101726409.92606     -1787.860 6        38.832
C41        49.000                                                                                                                                                                                                                                                                    25621735.540 4                      2155.457 4        26.132
C38        50.000                                                                                                                                    40610319.920 4                     -2109.927 4        27.090
C27        52.000                                                                                                                                    23410215.371 6 121903128.81406      1497.794 6        39.751                                                                    23410210.271 5  99056296.72905      1217.041 5        35.724
C36        56.000                                                                                                                                    26472648.401 5 137850019.59605       717.364 5        32.365                                                                    26472625.118 4                       583.046 4        28.180
I06        58.000    38519701.519 6 151159747.46906      -556.560 6        36.949
> 2025 01 01 20 32 35.0000000  0 40
G18         1.000                                                                                                                                                                    24034751.260 4                     -3059.515 4        29.640
G10         2.000    20739636.965 8 108987774.61408         9.424 8        50.021                                    20739633.610 7  84925313.58907         7.338 7        42.480    20739633.757 6  84925345.60306         7.358 6        38.580
G07         3.000                                                                                                                                                                    25510822.018 3                     -1834.030 3        23.981
G23         4.000    21376173.411 6 112332655.01806     -2778.045 6        40.489                                    21376167.812 3  87531863.72903     -2164.731 3        19.224    21376167.578 6  87531876.69406     -2164.565 6        38.159
G08         6.000    21064309.577 6 110693631.94706      1264.708 6        40.126                                    21064402.359 1  86254926.86601       985.537 1         5.714    21064303.446 5  86254822.46805       985.299 5        31.087
G27         7.000    19975092.161 8 104969850.85308      -953.164 8        50.840                                    19975090.113 8  81794625.36708      -742.725 8        53.250    19975089.567 7  81794684.35507      -742.679 7        47.610
G21         8.000    22847537.263 6 120064663.55506      1771.604 6        36.491                                    22847530.111 2  93556817.88402      1380.439 2        12.303
G30        10.000    25662052.763 4                     -1261.452 4        28.028
E08        12.000    26764963.926 4                      1131.488 4        28.398                                                                                                                                    26764951.494 4 107771425.60104       867.563 4        26.826
E13        16.000    23842067.240 8 125290988.46408     -2154.222 8        48.655                                                                    23842066.429 7  93561449.55607     -1608.635 7        44.773    23842066.096 7  96002137.19007     -1650.596 7        46.930
E31        17.000    27049896.551 5 142148138.04805      1391.447 5        33.880                                                                    27049899.056 5 106149712.14305      1038.981 5        34.562    27049897.230 6 108918727.91806      1066.166 6        38.321
G16        18.000    22476025.951 6 118112325.20006     -4131.628 6        38.333                                    22476026.451 1  92035613.34601     -3219.462 1        10.296
E26        19.000    23842829.327 7 125294923.07507       275.871 7        46.591                                                                    23842827.135 8  93564447.12108       206.004 8        48.367    23842826.377 8  96005251.57708       211.406 8        48.705
E03        21.000                                                                                                                                    27312727.991 4 107181053.11904      -851.201 4        26.168    27312732.352 5                      -873.201 5        30.098
E21        22.000    25496924.293 4 133987204.40904     -3554.316 4        29.725                                                                    25496922.625 6 100055427.14006     -2653.936 6        40.965    25496922.688 7 102665543.63307     -2723.384 7        42.108
S36        23.000    38126253.697 5 200354675.70705      -852.007 5        35.800
S23        24.000    38081773.748 6 200121046.23406      -851.769 6        40.396
G26        25.000    24826919.954 4                     -4485.480 4        26.982
R20        26.000                                                                                                                                    21096262.067 6  87742197.95806      1253.677 6        39.384
E33        28.000                                                                                                                                    27465889.436 5 107782029.14905      1182.737 5        30.823    27465859.642 4 110593619.82304      1213.068 4        29.962
R19        29.000    19847558.676 6 106170962.03406     -2021.426 6        39.153                                                                    19847556.555 7  82577471.25107     -1572.191 7        43.598
R18        30.000    22224280.000 6 118634733.01416     -3820.534 6        37.127
R04        31.000    20772761.125 6 111237146.29406      1934.449 6        40.029                                                                    20772764.778 6  86517816.08406      1504.438 6        39.225
R03        32.000    21031108.514 5 112581725.93205     -1902.756 5        34.200                                                                    21031126.247 6  87563107.90906     -1479.884 6        39.144
R09        34.000                                                                                                                                    22116388.372 4                     -3545.772 4        25.594
R10        35.000    21269835.486 5 113380129.99905     -1933.293 5        34.738
C37        36.000                                                                                                                                    25712567.390 4 133892097.36504     -3672.161 4        28.663
C33        37.000                                                                                                                                    23148847.328 6 120542177.04606      1020.115 6        37.641                                                                    23148857.925 6  97950486.72506       828.870 6        38.631
C28        40.000                                                                                                                                    21396374.198 8 111416793.68908      -530.925 8        49.481                                                                    21396372.009 7  90535050.93407      -431.479 7        45.804
R11        41.000    22961370.850 6 122698470.02316      1741.432 6        38.384
C43        42.000                                                                                                                                    24102220.721 5 125506555.82805     -3334.155 5        34.371                                                                    24102214.314 4 101984348.18904     -2709.216 4        29.583
C13        45.000                                                                                                                                    38596099.044 5 200980060.91205     -1844.876 5        35.057    38596098.026 5 155410537.18905     -1426.785 5        31.894
C08        46.000                                                                                                                                    39128215.978 3                     -2069.052 3        19.642    39128218.511 5 157553071.73805     -1600.400 5        35.386    39128228.451 4                     -1682.300 4        26.635
C14        47.000                                                                                                                                    23030274.390 6 119924638.19706      -588.572 6        39.309    23030266.239 7  92733630.98707      -454.975 7        42.819    23030258.347 4  97448611.72004      -478.416 4        28.569
C42        48.000                                                                                                                                    24043351.041 6 125200081.16206     -2202.851 6        40.331                                                                    24043359.025 6 101735355.18306     -1790.089 6        38.913
C41        49.000                                                                                                                                                                                                                                                                    25619188.611 4                      2154.307 4        26.084
C38        50.000                                                                                                                                    40612347.671 4                     -2109.945 4        26.802
C27        52.000                                                                                                                                    23408775.897 6 121895642.80306      1496.869 6        37.301                                                                    23408773.183 5  99050213.71405      1216.069 5        35.743
C36        56.000                                                                                                                                                                                                                                                                    26471938.308 4                       580.850 4        29.128
I06        58.000    38520410.094 6 151162530.67606      -556.467 6        36.968
