     3.04           OBSERVATION DATA    M                   RINEX VERSION / TYPE
ssrcrin-15.6.1x                         20250102 063000 UTC PGM / RUN BY / DATE 
(00000000023479385599111004) Septentrio proprietary         COMMENT             
ract                                                        MARKER NAME         
01                                                          MARKER NUMBER       
geodetic                                                    MARKER TYPE         
NFB                 CLIMERS@TUW                             OBSERVER / AGENCY   
3296359             SEPT ASTERX SB3 PROB4.14.4              REC # / TYPE / VERS 
Unknown             Unknown                                 ANT # / TYPE        
  4127446.2844  1206914.1396  4695545.4062                  APPROX POSITION XYZ 
        0.0000        0.0000        0.0000                  ANTENNA: DELTA H/E/N
G   23 X1  C1C L1C D1C S1C C1W S1W C2W L2W D2W S2W C2L L2L  SYS / # / OBS TYPES 
       D2L S2L C5Q L5Q D5Q S5Q C1L L1L D1L S1L              SYS / # / OBS TYPES 
E   21 X1  C1C L1C D1C S1C C6C L6C D6C S6C C5Q L5Q D5Q S5Q  SYS / # / OBS TYPES 
       C7Q L7Q D7Q S7Q C8Q L8Q D8Q S8Q                      SYS / # / OBS TYPES 
S    9 X1  C1C L1C D1C S1C C5I L5I D5I S5I                  SYS / # / OBS TYPES 
R   17 X1  C1C L1C D1C S1C C2P L2P D2P S2P C2C L2C D2C S2C  SYS / # / OBS TYPES 
       C3Q L3Q D3Q S3Q                                      SYS / # / OBS TYPES 
C   25 X1  C1P L1P D1P S1P C5P L5P D5P S5P C2I L2I D2I S2I  SYS / # / OBS TYPES 
       C7I L7I D7I S7I C6I L6I D6I S6I C7D L7D D7D S7D      SYS / # / OBS TYPES 
J   17 X1  C1C L1C D1C S1C C2L L2L D2L S2L C5Q L5Q D5Q S5Q  SYS / # / OBS TYPES 
       C1L L1L D1L S1L                                      SYS / # / OBS TYPES 
I    5 X1  C5A L5A D5A S5A                                  SYS / # / OBS TYPES 
SEPTENTRIO RECEIVERS OUTPUT ALIGNED CARRIER PHASES.         COMMENT             
NO FURTHER PHASE SHIFT APPLIED IN THE RINEX ENCODER.        COMMENT             
G L1C                                                       SYS / PHASE SHIFT   
G L2W                                                       SYS / PHASE SHIFT   
G L2L  0.00000                                              SYS / PHASE SHIFT   
G L5Q  0.00000                                              SYS / PHASE SHIFT   
G L1L  0.00000                                              SYS / PHASE SHIFT   
E L1C  0.00000                                              SYS / PHASE SHIFT   
E L6C  0.00000                                              SYS / PHASE SHIFT   
E L5Q  0.00000                                              SYS / PHASE SHIFT   
E L7Q  0.00000                                              SYS / PHASE SHIFT   
E L8Q  0.00000                                              SYS / PHASE SHIFT   
S L1C                                                       SYS / PHASE SHIFT   
S L5I                                                       SYS / PHASE SHIFT   
R L1C                                                       SYS / PHASE SHIFT   
R L2P  0.00000                                              SYS / PHASE SHIFT   
R L2C                                                       SYS / PHASE SHIFT   
R L3Q  0.00000                                              SYS / PHASE SHIFT   
C L1P  0.00000                                              SYS / PHASE SHIFT   
C L5P  0.00000                                              SYS / PHASE SHIFT   
C L2I                                                       SYS / PHASE SHIFT   
C L7I                                                       SYS / PHASE SHIFT   
C L6I                                                       SYS / PHASE SHIFT   
C L7D                                                       SYS / PHASE SHIFT   
J L1C                                                       SYS / PHASE SHIFT   
J L2L  0.00000                                              SYS / PHASE SHIFT   
J L5Q  0.00000                                              SYS / PHASE SHIFT   
J L1L  0.00000                                              SYS / PHASE SHIFT   
I L5A                                                       SYS / PHASE SHIFT   
  2025     1     2     6    30    0.0000000     GPS         TIME OF FIRST OBS   
 C1C    0.000 C2C    0.000 C2P    0.000                     GLONASS COD/PHS/BIS 
DBHZ                                                        SIGNAL STRENGTH UNIT
    18                                                      LEAP SECONDS        
 24 R01  1 R02 -4 R03  5 R04  6 R05  1 R06 -4 R07  5 R08  6 GLONASS SLOT / FRQ #
    R09 -2 R10 -7 R11  0 R12 -1 R13 -2 R14 -7 R15  0 R16 -1 GLONASS SLOT / FRQ #
    R17  4 R18 -3 R19  3 R20  2 R21  4 R22 -3 R23  3 R24  2 GLONASS SLOT / FRQ #
                                                            END OF HEADER       
> 2025 01 02 06 30  0.0000000  0 36
G13         1.000    22757526.897 3 119591613.39103      2146.669 3        23.676                                    22757519.357 2  93188261.20202      1672.780 2        12.545
G20         4.000    20706068.136 7 108811186.20907     -1127.865 7        46.507                                    20706062.668 4  84787889.21204      -878.861 4        29.583
G07         5.000    21335200.630 7 112117255.85907     -2354.564 7        46.006                                    21335196.778 6  87364102.37906     -1834.721 6        38.967    21335194.686 6  87364048.39806     -1834.860 6        37.323
G09         6.000    22984789.744 5                     -3811.838 5        30.936
G30         7.000    20517074.423 8 107817972.85508      -205.444 8        50.601                                    20517072.420 8  84013926.01308      -160.085 8        49.032    20517073.834 7  84013973.98707      -160.086 7        45.034
G14         8.000    23445098.685 6 123204799.85006      2602.934 6        36.310                                    23445095.732 1  96003740.08201      2028.201 1         6.375    23445100.011 3                      2025.829 3        20.357
E21        10.000    25939802.087 5 136314599.70505     -1665.905 5        33.898                                                                    25939798.166 6 101793340.92706     -1244.188 6        39.336    25939799.099 7 104448836.13007     -1276.506 7        42.083
E06        11.000    23801453.205 7 125077453.68807       277.262 7        43.621                                                                    23801451.533 6  93402078.54506       207.088 6        41.855    23801451.208 6  95838595.29506       212.599 6        41.049
G05        14.000    21800591.245 7 114562877.59507      1319.799 7        45.096                                    21800583.959 5  89269722.49205      1028.407 5        35.324    21800588.342 6  89269770.51806      1028.355 6        38.150
E11        16.000                                                                                                                                    26567707.123 4                     -2676.535 4        25.188    26567704.146 3                     -2746.870 3        23.981
E04        17.000    23331211.974 7 122606332.46007      -917.945 7        44.998                                                                    23331210.916 7  91556741.39807      -685.450 7        45.339    23331209.417 7  93945108.21107      -703.340 7        43.816
R08        18.000    21764520.837 7 116548100.53007     -3914.921 7        42.341                                                                    21764513.086 6  90648424.71406     -3044.873 6        41.068
E19        20.000    25845026.920 5                     -3037.970 5        30.196
E09        21.000    25439180.398 6 133683979.14906      1102.243 6        37.890                                                                    25439179.942 5  99828812.98005       822.965 5        35.543    25439181.221 6 102433053.41006       844.529 6        41.313
E36        22.000    26168155.354 5 137514571.02705     -1501.515 5        34.452                                                                    26168154.248 7 102689537.67807     -1121.222 7        43.471    26168149.757 5 105368289.59005     -1150.089 5        34.086
S36        23.000    38241493.497 5 200960483.66405      -852.130 5        34.357
S23        24.000    38176753.171 6 200620108.03906      -849.200 6        41.242
G11        25.000    24098499.267 5                     -3868.896 5        32.623                                                                                                    24098510.132 4                     -3014.504 4        28.474
E34        26.000    28138492.113 5 147868841.98605       939.407 5        31.872                                                                    28138503.082 4                       701.868 4        27.593
R17        27.000    23098757.659 5 123606093.57205     -3388.243 5        35.852                                                                    23098787.072 4                     -2635.046 4        25.293
R18        28.000    23117111.553 5 123400855.38905      -471.709 5        35.362
E10        29.000    28006497.246 5 147175168.16605     -4018.135 5        30.611                                                                                                                                    28006497.537 4                     -3078.543 4        28.341
R11        30.000    19424655.578 8 103799466.70108      -499.424 8        50.458                                                                    19424654.520 7  80732908.46207      -388.523 7        44.995
C20        31.000                                                                                                                                    24338256.124 6 126735665.39306     -3560.593 6        37.679                                                                    24338254.195 6 102983131.78706     -2893.225 6        39.718
R10        32.000    21867965.393 5 116568526.44405     -4378.267 5        34.671
C36        34.000                                                                                                                                    23550440.358 4 122633463.25804      2047.244 4        28.389                                                                    23550458.682 5  99649683.62705      1663.481 5        32.976
R02        35.000    21559153.544 8 115043715.37108      2362.921 8        49.518                                                                    21559149.068 6  89478647.99606      1837.750 6        37.497
R12        38.000                                                                                                                                    21964925.838 5  91258923.23605      2586.616 5        33.868
C05        40.000                                                                                                                                                                                                    39299199.825 5 158241594.84805      -701.367 5        32.114
C37        42.000                                                                                                                                                                                                                                                                    24884157.585 5 105292978.97705     -2891.117 5        32.916
R01        44.000    19234544.653 6 102819647.90706      -527.984 6        39.709                                                                    19234546.008 5  79970841.08605      -410.469 5        35.281
C19        48.000                                                                                                                                    21881792.493 7 113944387.80407     -1265.532 7        45.064                                                                    21881781.358 5  92588998.84105     -1028.191 5        31.245
C34        49.000                                                                                                                                    26794523.833 4                     -1318.248 4        27.988
C22        51.000                                                                                                                                    23295297.816 7 121304709.14007      1561.481 7        45.059                                                                    23295289.768 7  98570015.47107      1268.966 7        42.762
C12        54.000                                                                                                                                    26711397.868 4                     -2286.698 4        24.977    26711356.973 5 107555740.54205     -1768.202 5        30.438    26711358.247 5                     -1858.018 5        30.536
I09        59.000    38846963.827 6 152443854.44106     -1198.575 6        38.057
> 2025 01 02 06 30  5.0000000  0 35
G20         4.000    20707143.125 7 108816834.10707     -1131.442 7        47.811                                    20707137.409 5  84792290.17005      -881.643 5        30.181
G07         5.000    21337441.376 7 112129032.54807     -2356.403 7        47.376                                    21337436.981 6  87373279.00806     -1836.149 6        38.459    21337436.443 6  87373225.00206     -1836.060 6        37.028
G09         6.000    22988415.018 5                     -3812.813 5        32.156
G30         7.000    20517270.939 8 107819005.36108      -207.981 8        50.000                                    20517268.988 8  84014730.54608      -162.061 8        49.006    20517269.923 7  84014778.52407      -162.050 7        44.755
G14         8.000    23442621.694 6 123191785.15906      2602.232 6        37.403                                    23442618.708 1  95993598.72601      2027.854 1         4.714
E21        10.000    25941385.913 5 136322935.84205     -1668.463 5        30.906                                                                    25941384.438 6 101799565.94106     -1246.032 6        39.168    25941385.472 7 104455223.54507     -1278.513 7        42.836
E06        11.000    23801190.040 7 125076069.11007       276.229 7        43.537                                                                    23801188.365 7  93401044.58607       206.197 7        42.290    23801187.230 6  95837534.36906       211.639 6        40.243
G05        14.000    21799337.382 7 114556284.81907      1316.974 7        45.458                                    21799329.923 6  89264585.27406      1026.214 6        36.994    21799333.832 6  89264633.28106      1026.139 6        39.462
E11        16.000                                                                                                                                    26571122.986 4                     -2677.712 4        26.120    26571110.776 4                     -2747.766 4        25.368
E04        17.000    23332085.827 7 122610924.28307      -919.055 7        44.382                                                                    23332084.522 7  91560170.34307      -686.383 7        45.389    23332083.043 7  93948626.60407      -704.222 7        43.810
R08        18.000    21768173.663 6 116567678.93706     -3916.770 6        41.089                                                                    21768169.158 6  90663652.37006     -3046.504 6        40.524
E19        20.000    25847920.583 5                     -3038.357 5        32.335
E09        21.000    25438131.677 6 133678469.23306      1101.283 6        36.646                                                                    25438130.332 5  99824698.42105       822.682 5        33.479    25438133.399 6 102428831.52506       843.941 6        40.725
E36        22.000    26169586.914 6 137522083.69706     -1503.902 6        36.302                                                                    26169584.053 7 102695147.73407     -1123.122 7        43.515    26169578.369 5 105374045.98705     -1152.383 5        33.731
S36        23.000    38242307.618 5 200964744.72905      -852.365 5        34.324
S23        24.000    38177553.345 6 200624354.34506      -849.565 6        40.779
G11        25.000    24102182.529 5                     -3870.224 5        32.934
E34        26.000    28137600.225 5 147864148.06605       937.251 5        34.714                                                                    28137613.533 4                       700.244 4        26.790    28137575.941 3 113298359.60813       718.159 3        23.810
R17        27.000    23101928.432 6 123623042.83506     -3391.612 6        37.164                                                                    23101956.325 4                     -2637.479 4        27.605
E10        29.000    28010321.009 5 147195257.74305     -4017.908 5        30.626                                                                                                                                    28010320.502 4                     -3078.759 4        29.488
R11        30.000    19425124.771 8 103801974.66508      -504.073 8        49.275                                                                    19425123.629 7  80734859.09607      -392.116 7        44.868
C20        31.000                                                                                                                                    24341675.443 6 126753470.75206     -3561.981 6        37.788                                                                    24341673.290 6 102997600.11906     -2894.519 6        40.689
R10        32.000    21872076.091 5 116590423.09105     -4380.989 5        32.778
C36        34.000                                                                                                                                                                                                                                                                    23548493.683 6  99641370.54006      1661.720 6        36.023
R02        35.000    21556939.426 8 115031902.70708      2361.907 8        48.394                                                                    21556936.321 6  89469460.37206      1836.971 6        36.095
R12        38.000                                                                                                                                    21961814.570 5  91245992.81105      2585.085 5        32.563
C05        40.000                                                                                                                                                                                                    39300071.907 5 158245101.82405      -702.105 5        32.826
C37        42.000                                                                                                                                                                                                                                                                    24887574.560 5 105307436.30505     -2892.648 5        30.415
R01        44.000    19235039.153 6 102822294.24006      -530.939 6        37.803                                                                    19235040.648 6  79972899.36306      -412.948 6        36.246
C09        47.000                                                                                                                                                                                                    39957646.228 4                     -1257.536 4        29.090
C19        48.000                                                                                                                                    21883010.206 7 113950720.57407     -1267.911 7        46.537                                                                    21882998.143 5  92594144.81505     -1030.109 5        33.054
C34        49.000                                                                                                                                    26795792.186 4                     -1320.439 4        29.706                                                                    26795795.770 4                     -1072.982 4        28.995
C22        51.000                                                                                                                                    23293797.393 7 121296904.12707      1560.182 7        44.144                                                                    23293790.836 7  98563673.29007      1267.790 7        42.844
C12        54.000                                                                                                                                                                                                    26713550.008 4 107564586.02804     -1770.764 4        26.024    26713557.833 5                     -1859.871 5        32.389
I09        59.000    38848490.418 6 152449847.64606     -1198.898 6        38.411
> 2025 01 02 06 30 10.0000000  0 35
G20         4.000    20708221.522 7 108822499.35207     -1134.821 7        46.601                                    20708215.155 4  84796704.65604      -884.275 4        29.659
G07         5.000    21339684.301 7 112140818.28507     -2358.106 7        46.979                                    21339678.887 6  87382462.68406     -1837.484 6        37.686    21339679.234 6  87382408.72806     -1837.452 6        36.450
G09         6.000    22992042.237 4                     -3813.830 4        27.760
G30         7.000    20517468.925 8 107820050.51408      -210.312 8        48.575                                    20517467.980 8  84015544.93808      -163.883 8        48.415    20517468.846 7  84015592.93407      -163.909 7        44.770
G14         8.000    23440147.044 6 123178774.89106      2601.784 6        37.028                                    23440142.766 1  95983460.87601      2027.275 1         4.000
E21        10.000                                                                                                                                    25942972.750 6 101805800.26306     -1247.728 6        39.568    25942974.254 7 104461620.49207     -1280.379 7        43.001
E06        11.000    23800927.828 7 125074689.81407       275.369 7        45.099                                                                    23800926.411 7  93400014.58207       205.558 7        43.236    23800924.306 6  95836477.49806       210.963 6        39.276
G05        14.000    21798085.253 7 114549705.98107      1314.342 7        44.498                                    21798078.933 6  89259458.90806      1024.166 6        37.792    21798082.533 6  89259506.89806      1024.134 6        40.191
E11        16.000    26574532.860 5 139650117.35515     -3587.385 5        32.701                                                                    26574537.066 4                     -2678.534 4        26.695    26574522.807 4                     -2748.257 4        26.898
E04        17.000    23332960.995 7 122615522.26507      -920.255 7        46.243                                                                    23332959.302 7  91563603.87807      -687.134 7        44.641    23332958.147 7  93952149.70907      -705.051 7        43.482
R08        18.000    21771830.541 6 116587266.71706     -3918.459 6        39.222                                                                    21771826.476 6  90678887.28206     -3047.831 6        40.377
E19        20.000    25850811.339 5                     -3038.862 5        32.880
E09        21.000    25437085.391 6 133672962.64706      1100.860 6        39.300                                                                    25437081.654 5  99820586.38405       822.349 5        32.581    25437086.388 6 102424612.15906       843.514 6        39.084
E36        22.000    26171020.114 6 137529609.35306     -1506.283 6        36.779                                                                    26171016.443 7 102700767.53707     -1124.916 7        44.691    26171010.720 5 105379812.43105     -1154.379 5        33.084
S36        23.000    38243117.831 5 200969006.10105      -852.574 5        32.413
S23        24.000    38178370.673 6 200628601.10706      -849.365 6        40.455
G11        25.000    24105866.238 5                     -3871.466 5        34.010                                                                                                    24105845.994 3                     -3016.723 3        22.857
E34        26.000    28136710.232 5 147859464.75105       935.831 5        34.824                                                                    28136722.424 4                       698.864 4        28.938
R17        27.000    23105095.973 6 123640008.19816     -3394.462 6        36.851
E10        29.000    28014144.628 5 147215347.64205     -4017.682 5        31.887                                                                                                                                    28014143.377 4                     -3078.466 4        29.346
R11        30.000    19425597.826 7 103804505.64407      -508.500 7        47.920                                                                    19425596.890 7  80736827.65307      -395.561 7        44.327
C20        31.000                                                                                                                                    24345095.908 6 126771282.71506     -3563.073 6        37.229                                                                    24345095.216 6 103012073.76906     -2895.288 6        40.698
R10        32.000    21876185.685 5 116612332.11005     -4382.984 5        32.096
C36        34.000                                                                                                                                    23546556.687 4                      2043.766 4        29.194                                                                    23546530.702 6  99633063.70506      1660.803 6        37.822
R02        35.000    21554724.916 7 115020095.03807      2361.011 7        47.296                                                                    21554723.238 5  89460276.63705      1836.365 5        34.100
R12        38.000    21958688.397 5 117299523.47015      3322.190 5        32.527                                                                    21958701.901 5  91233069.60805      2584.105 5        31.638
C05        40.000                                                                                                                                                                                                    39300941.629 5 158248609.23705      -701.672 5        32.605
C37        42.000                                                                                                                                    24890987.908 4                     -3560.842 4        26.000                                                                    24890988.840 4 105321899.37904     -2892.764 4        28.834
R01        44.000    19235537.656 6 102824955.51006      -533.742 6        39.847                                                                    19235538.281 6  79974969.25506      -415.126 6        36.310
C09        47.000                                                                                                                                    39959173.316 3                     -1627.237 3        20.619    39959198.673 4                     -1257.562 4        28.464
C19        48.000                                                                                                                                    21884228.157 7 113957064.64307     -1269.998 7        47.566                                                                    21884213.803 5  92599299.88205     -1032.028 5        32.431
C34        49.000                                                                                                                                                                                                                                                                    26797059.616 4                     -1075.435 4        28.597
C22        51.000                                                                                                                                    23292300.357 7 121289105.18307      1559.163 7        46.348                                                                    23292292.821 7  98557336.00507      1267.110 7        42.231
C12        54.000                                                                                                                                    26715759.757 4                     -2291.413 4        29.630    26715752.892 4 107573440.29204     -1771.965 4        29.062    26715756.311 5                     -1861.815 5        32.293
I09        59.000    38850018.720 6 152455841.78506     -1198.920 6        38.327
> 2025 01 02 06 30 15.0000000  0 37
G13         1.000    22751489.334 4 119559455.30904      2142.732 4        29.564                                    22751458.412 1  93163203.41201      1669.702 1         3.800
G20         4.000    20709302.229 7 108828181.68607     -1137.820 7        46.198                                    20709296.000 4  84801132.44904      -886.614 4        29.242
G07         5.000    21341928.440 7 112152612.89307     -2359.468 7        47.518                                    21341922.586 6  87391653.28406     -1838.548 6        37.376    21341923.605 6  87391599.30106     -1838.427 6        36.805
G09         6.000    22995669.796 4                     -3814.867 4        27.976                                                                                                    22995729.048 4                     -2972.597 4        27.892
G30         7.000    20517669.899 7 107821108.13807      -212.402 7        46.469                                    20517669.449 8  84016369.05108      -165.512 8        48.100    20517670.162 7  84016417.04207      -165.480 7        45.154
G14         8.000    23437671.786 6 123165768.84106      2601.014 6        37.066                                    23437667.437 1  95973326.37501      2026.715 1         1.556    23437692.201 4                      2026.521 4        25.038
E21        10.000                                                                                                                                    25944564.048 6 101812043.69206     -1249.352 6        39.817    25944565.122 7 104468026.80207     -1281.951 7        43.456
E06        11.000    23800666.415 7 125073315.55707       274.720 7        45.652                                                                    23800665.596 7  93398988.32607       205.212 7        44.035    23800663.031 6  95835424.48506       210.479 6        38.907
G05        14.000    21796835.994 7 114543140.85107      1312.028 7        43.263                                    21796830.769 6  89254343.22106      1022.361 6        38.444    21796833.011 6  89254391.22006      1022.253 6        40.608
E11        16.000    26577941.398 5 139668056.15505     -3587.921 5        30.392                                                                    26577951.606 4                     -2679.616 4        24.722    26577937.271 4                     -2749.460 4        25.534
E04        17.000    23333837.347 7 122620126.17207      -920.930 7        46.730                                                                    23333835.499 7  91567041.84907      -687.695 7        44.381    23333834.344 7  93955677.37207      -705.793 7        43.564
R08        18.000    21775487.313 6 116606863.54306     -3919.899 6        37.686                                                                    21775486.520 6  90694129.28706     -3048.901 6        38.802
E19        20.000    25853702.561 5                     -3039.379 5        31.955
E09        21.000    25436038.560 6 133667459.12906      1100.739 6        40.524                                                                    25436035.293 5  99816476.61105       821.962 5        32.964    25436037.329 6 102420395.15606       843.504 6        38.402
E36        22.000    26172452.628 6 137537147.84606     -1508.568 6        36.711                                                                    26172451.109 7 102706396.91007     -1126.519 7        44.414    26172446.880 5 105385588.63605     -1155.950 5        34.152
S36        23.000    38243929.959 5 200973268.49105      -852.216 5        34.090
S23        24.000    38179168.907 6 200632848.25606      -849.039 6        40.327
G11        25.000    24109551.302 5 126696540.02715     -3872.178 5        32.832                                                                                                    24109532.717 3                     -3017.437 3        22.743
E34        26.000    28135823.369 5 147854791.80405       934.024 5        34.995                                                                    28135832.441 4                       697.472 4        29.412    28135799.408 4 113291190.54004       715.141 4        25.474
R17        27.000    23108265.441 6 123656989.17606     -3397.436 6        40.136
R18        28.000    23118481.157 5                      -484.552 5        31.291
E10        29.000    28017966.371 5 147235437.72105     -4017.667 5        31.426                                                                                                                                    28017967.298 4                     -3078.513 4        28.332
R11        30.000    19426075.604 7 103807059.51007      -512.684 7        46.692                                                                    19426074.602 7  80738813.98807      -398.850 7        44.132
C20        31.000                                                                                                                                    24348517.340 6 126789101.05406     -3563.856 6        37.664                                                                    24348517.381 6 103026552.60606     -2896.037 6        40.665
R10        32.000    21880296.906 4 116634253.28904     -4384.547 4        28.777
C36        34.000                                                                                                                                    23544589.396 5                      2042.354 5        34.729                                                                    23544570.287 6  99624762.94806      1659.973 6        36.669
R02        35.000    21552510.973 7 115008292.31707      2360.459 7        43.945                                                                    21552510.831 5  89451096.74805      1835.912 5        33.275
R12        38.000    21955591.300 4 117282916.73004      3321.175 4        28.474                                                                    21955592.212 5  91220153.37305      2582.733 5        30.808
C05        40.000                                                                                                                                                                                                    39301813.063 5 158252116.94205      -701.159 5        32.533
C37        42.000                                                                                                                                    24894404.071 4                     -3561.211 4        25.549                                                                    24894407.931 4 105336368.27504     -2894.481 4        27.737
R01        44.000    19236039.639 6 102827631.56406      -536.276 6        41.037                                                                    19236039.501 6  79977050.57806      -417.180 6        36.268
C09        47.000                                                                                                                                                                                                    39960764.326 4                     -1257.425 4        27.174
C19        48.000                                                                                                                                    21885447.752 8 113963419.77308     -1271.767 8        48.518                                                                    21885435.890 5  92604463.88705     -1033.363 5        31.192
C34        49.000                                                                                                                                    26798294.032 4                     -1326.375 4        25.699                                                                    26798330.800 4                     -1076.725 4        26.719
C22        51.000                                                                                                                                    23290803.491 7 121281312.16707      1558.396 7        46.641                                                                    23290796.394 6  98551003.53006      1266.420 6        41.337
C12        54.000                                                                                                                                    26717963.677 4                     -2293.774 4        26.970                                                                    26717955.983 5                     -1863.408 5        31.011
I09        59.000    38851546.368 6 152461836.72106     -1198.758 6        38.141
> 2025 01 02 06 30 20.0000000  0 34
G20         4.000    20710386.994 7 108833880.31407     -1141.500 7        47.180                                    20710380.011 4  84805572.94804      -889.476 4        28.673
G07         5.000    21344174.693 7 112164415.53207     -2361.488 7        46.818                                    21344167.904 6  87400850.15006     -1840.122 6        37.293    21344169.327 6  87400796.16906     -1840.110 6        36.185
G09         6.000    22999303.222 4                     -3815.924 4        27.701
G30         7.000    20517874.239 7 107822177.37607      -215.102 7        46.677                                    20517873.167 7  84017202.21907      -167.610 7        47.664    20517873.459 7  84017250.21507      -167.744 7        45.499
G14         8.000    23435196.512 6 123152766.11806      2600.223 6        36.994                                    23435193.141 1  95963194.72501      2026.029 1         2.200    23435212.521 4                      2025.949 4        25.774
E21        10.000                                                                                                                                    25946157.756 6 101818295.60106     -1251.221 6        40.215    25946158.460 7 104474441.82207     -1284.022 7        43.632
E06        11.000    23800405.200 7 125071945.53007       273.420 7        45.475                                                                    23800405.234 7  93397965.25107       204.182 7        44.403    23800402.130 6  95834374.71706       209.488 6        39.655
G05        14.000    21795590.624 7 114536588.68707      1308.949 7        45.687                                    21795585.065 6  89249237.63506      1019.966 6        39.727    21795586.823 6  89249285.62006      1019.998 6        40.741
E11        16.000    26581355.624 5 139685999.84705     -3589.430 5        33.054                                                                    26581363.910 4                     -2679.899 4        26.156    26581350.165 4                     -2750.457 4        26.719
E04        17.000    23334714.584 7 122624735.19907      -922.542 7        47.352                                                                    23334712.443 7  91570483.64207      -688.891 7        44.798    23334711.564 7  93959208.96207      -706.898 7        43.740
R08        18.000    21779146.277 6 116626468.56306     -3922.222 6        36.560                                                                    21779148.289 6  90709377.65306     -3050.346 6        39.580
E19        20.000    25856593.876 5                     -3040.005 5        31.411
E09        21.000    25434991.301 6 133661957.88006      1099.857 6        38.994                                                                    25434988.554 5  99812368.51305       821.173 5        32.808    25434988.285 6 102416179.85306       842.922 6        38.520
E36        22.000    26173890.170 5 137544698.33205     -1511.443 5        35.814                                                                    26173888.033 7 102712035.25307     -1128.661 7        44.149    26173883.961 5 105391374.06405     -1158.040 5        35.843
S36        23.000    38244748.373 6 200977529.59506      -852.231 6        36.597
S23        24.000    38179979.697 6 200637095.21406      -849.335 6        40.684
G11        25.000    24113236.444 5 126715905.11305     -3874.131 5        32.371                                                                                                    24113218.899 4                     -3017.592 4        26.240
E34        26.000    28134936.945 5 147850128.36805       931.779 5        35.476                                                                    28134947.431 4                       695.550 4        28.408
R17        27.000    23111441.405 6 123673984.94306     -3400.548 6        38.712                                                                    23111434.613 5                     -2644.915 5        30.891
R18        28.000    23118937.508 4 123410476.65714      -489.016 4        27.976                                                                    23118905.974 3                      -379.577 3        23.352
E10        29.000    28021789.666 5 147255527.04705     -4017.685 5        31.419                                                                                                                                    28021791.658 4                     -3078.467 4        29.554
R11        30.000    19426557.846 7 103809635.35007      -517.539 7        46.280                                                                    19426556.988 7  80740817.43707      -402.455 7        44.045
C20        31.000                                                                                                                                    24351940.187 6 126806924.94506     -3565.376 6        37.720                                                                    24351940.138 6 103041035.95806     -2897.146 6        39.811
C36        34.000                                                                                                                                                                                                                                                                    23542611.226 5  99616467.73005      1658.339 5        35.990
R02        35.000    21550299.092 7 114996493.37307      2359.244 7        43.545                                                                    21550300.978 5  89441919.85705      1835.155 5        33.042
R12        38.000    21952483.257 4 117266318.09504      3318.562 4        26.683                                                                    21952484.559 4  91207243.38804      2581.176 4        24.677
C05        40.000                                                                                                                                                                                                    39302684.457 5 158255624.32305      -701.835 5        32.874
R01        44.000    19236542.935 7 102830321.63507      -539.476 7        42.758                                                                    19236543.856 6  79979142.87806      -419.738 6        36.083
C09        47.000                                                                                                                                                                                                    39962332.243 4                     -1256.929 4        27.485
C19        48.000                                                                                                                                    21886669.700 8 113969785.12808     -1274.236 8        48.753                                                                    21886661.064 5  92609636.28505     -1035.223 5        33.174
C34        49.000                                                                                                                                    26799570.283 4                     -1330.875 4        24.150                                                                    26799597.275 4                     -1078.624 4        25.143
C22        51.000                                                                                                                                    23289307.056 7 121273524.24307      1556.954 7        46.583                                                                    23289300.912 6  98544675.19406      1265.300 6        40.906
C12        54.000                                                                                                                                    26720166.979 3                     -2295.525 3        21.619    26720150.396 3                     -1775.532 3        22.057    26720158.266 5                     -1865.303 5        30.694
I09        59.000    38853073.142 6 152467831.84406     -1199.202 6        37.834
> 2025 01 02 06 30 25.0000000  0 34
G20         4.000    20711475.251 7 108839595.83607     -1144.769 7        47.010                                    20711467.277 4  84810026.60704      -892.022 4        28.313
G07         5.000    21346422.271 7 112176226.84607     -2363.042 7        47.040                                    21346415.060 6  87410053.77406     -1841.333 6        36.904    21346417.041 6  87409999.79906     -1841.481 6        36.703
G09         6.000    23002923.573 3                     -3817.901 3        18.866
G30         7.000    20518080.646 7 107823258.86307      -217.506 7        46.509                                    20518079.183 7  84018044.93307      -169.479 7        47.284    20518079.298 7  84018092.91007      -169.495 7        44.969
G14         8.000    23432725.982 6 123139767.42006      2599.296 6        37.146                                    23432719.528 1  95953065.80101      2025.388 1         4.143    23432736.015 5                      2025.357 5        30.241
E21        10.000    25947749.478 5 136356334.61515     -1678.164 5        34.348                                                                    25947753.370 6 101824556.48206     -1253.049 6        40.632    25947754.028 7 104480866.04907     -1285.738 7        44.229
E06        11.000    23800145.324 7 125070580.36407       272.519 7        45.932                                                                    23800145.520 7  93396945.79907       203.483 7        45.016    23800141.971 6  95833328.67206       208.748 6        39.150
G05        14.000    21794346.745 7 114530050.02707      1306.344 7        46.770                                    21794341.730 6  89244142.58106      1017.930 6        40.269    21794342.162 6  89244190.58406      1017.923 6        40.460
E11        16.000    26584770.638 5 139703948.86605     -3589.968 5        31.313                                                                    26584784.178 4                     -2681.610 4        25.624    26584763.909 4                     -2750.889 4        25.699
E04        17.000    23335592.550 8 122629349.95408      -923.470 8        48.111                                                                    23335590.124 7  91573929.71207      -689.618 7        43.363    23335590.021 7  93962744.92207      -707.558 7        43.729
R08        18.000    21782809.801 6 116646082.60306     -3923.879 6        37.406                                                                    21782810.476 6  90724632.96606     -3051.767 6        39.303
E19        20.000    25859482.916 4                     -3041.039 4        28.379
E09        21.000    25433945.358 6 133656459.54106      1099.284 6        39.742                                                                    25433941.815 5  99808262.60205       820.997 5        31.585    25433941.761 6 102411966.78906       842.395 6        38.069
E36        22.000    26175330.936 6 137552261.44706     -1513.844 6        37.588                                                                    26175326.975 7 102717682.99907     -1130.457 7        44.119    26175322.653 6 105397169.15906     -1160.014 6        37.025
S36        23.000    38245545.408 5 200981791.27505      -852.445 5        34.862
S23        24.000    38180783.788 6 200641342.19206      -849.443 6        40.000
G11        25.000    24116922.465 5 126735275.85805     -3874.851 5        31.879
E34        26.000    28134054.137 5 147845475.14805       929.763 5        34.243                                                                    28134062.796 4                       694.406 4        28.322    28134048.834 4 113284052.03604       712.495 4        27.042
R17        27.000    23114616.876 5 123690996.25205     -3403.885 5        34.805                                                                    23114616.920 5                     -2647.436 5        32.257
E10        29.000    28025613.164 5 147275616.29505     -4017.531 5        30.664                                                                                                                                    28025615.128 4                     -3078.617 4        28.502
R11        30.000    19427043.524 7 103812233.82307      -521.870 7        46.173                                                                    19427043.479 7  80742838.47807      -405.975 7        44.176
C20        31.000                                                                                                                                    24355363.890 6 126824754.95406     -3566.733 6        39.078                                                                    24355363.622 6 103055524.32306     -2898.045 6        39.973
C36        34.000                                                                                                                                    23540652.631 6 122582445.25216      2039.452 6        36.026                                                                    23540654.042 5  99608178.45305      1657.176 5        33.138
R02        35.000    21548091.600 7 114984699.30907      2358.357 7        44.087                                                                    21548092.783 5  89432746.68005      1834.342 5        35.305
R12        38.000    21949377.662 5 117249728.30015      3317.646 5        30.921                                                                    21949375.753 4                      2580.436 4        24.541
C05        40.000                                                                                                                                                                                                    39303554.479 5 158259131.80105      -701.706 5        32.030
C37        42.000                                                                                                                                    24901238.696 4                     -3564.823 4        26.766                                                                    24901243.332 4 105365321.25204     -2897.036 4        27.257
R01        44.000    19237048.609 7 102833026.22407      -542.392 7        43.604                                                                    19237048.277 5  79981246.41705      -421.833 5        34.319
C09        47.000                                                                                                                                    39963853.066 3                     -1626.304 3        22.743
C19        48.000                                                                                                                                    21887894.427 8 113976161.38808     -1276.314 8        48.951                                                                    21887887.230 5  92614817.50705     -1036.832 5        34.348
C34        49.000                                                                                                                                    26800845.451 3                     -1329.600 3        21.976                                                                    26800864.850 4                     -1081.220 4        25.218
C22        51.000                                                                                                                                    23287812.117 7 121265742.04107      1555.861 7        46.947                                                                    23287806.222 6  98538351.52906      1264.296 6        41.135
C12        54.000                                                                                                                                                                                                                                                                    26722364.283 4                     -1866.991 4        28.436
I09        59.000    38854601.558 6 152473827.59106     -1199.315 6        36.919
> 2025 01 02 06 30 30.0000000  0 36
G20         4.000    20712566.426 7 108845328.34807     -1148.250 7        46.714                                    20712558.004 4  84814493.48704      -894.730 4        28.171
G07         5.000    21348671.801 7 112188046.92207     -2364.926 7        46.867                                    21348664.268 6  87419264.21306     -1842.796 6        36.722    21348665.757 6  87419210.21706     -1842.820 6        37.713
G09         6.000                                                                                                                                                                    23006547.625 5                     -2974.652 5        31.064
G30         7.000    20518288.425 7 107824352.66107      -220.023 7        46.005                                    20518287.467 7  84018897.23007      -171.443 7        46.787    20518287.287 7  84018945.22607      -171.411 7        44.331
G14         8.000    23430257.936 5 123126772.85005      2598.470 5        35.152                                    23430246.685 1  95942940.17501      2024.818 1         4.571    23430260.252 5                      2024.707 5        31.396
E21        10.000    25949350.980 5 136364730.87605     -1680.566 5        34.733                                                                    25949350.922 6 101830826.41106     -1254.951 6        40.572    25949351.894 7 104487299.52807     -1287.660 7        44.685
E06        11.000    23799887.007 7 125069220.15507       271.559 7        46.290                                                                    23799886.858 7  93395930.04907       202.823 7        45.427    23799882.976 6  95832286.42606       208.000 6        38.282
G05        14.000    21793104.515 7 114523525.03007      1303.607 7        47.866                                    21793100.645 6  89239058.16706      1015.801 6        40.310    21793099.131 6  89239106.16606      1015.767 6        39.637
E11        16.000    26588188.237 4 139721903.47204     -3591.677 4        29.848                                                                                                                                    26588177.921 3                     -2750.754 3        23.219
E04        17.000    23336471.887 8 122633970.55908      -924.694 8        48.566                                                                    23336469.113 7  91577380.16107      -690.566 7        42.404    23336469.510 7  93966285.37507      -708.529 7        43.852
R08        18.000    21786474.936 6 116665705.63806     -3925.344 6        38.429                                                                    21786475.108 6  90739895.27706     -3053.232 6        37.769
E19        20.000    25862379.007 4                     -3041.126 4        26.982
E09        21.000    25432900.230 6 133650964.14206      1098.790 6        40.257                                                                    25432896.301 5  99804158.93905       820.368 5        31.660    25432897.525 6 102407756.05906       841.812 6        36.457
E36        22.000    26176773.829 6 137559837.28606     -1516.415 6        37.981                                                                    26176768.445 7 102723340.25107     -1132.360 7        44.342    26176764.538 6 105402973.98306     -1162.026 6        38.006
S36        23.000    38246339.743 5 200986053.26105      -852.332 5        31.819
S23        24.000    38181588.935 6 200645589.34206      -849.374 6        38.429
G11        25.000    24120604.890 5 126754652.33805     -3876.419 5        30.181
E34        26.000    28133172.300 5 147840832.17605       927.423 5        33.617                                                                    28133180.720 5                       692.568 5        30.943    28133172.746 4 113280494.53704       710.988 4        29.213
R17        27.000    23117798.552 6 123708023.18606     -3406.945 6        36.696                                                                    23117798.765 5                     -2649.837 5        33.245
R18        28.000    23119841.362 5 123415258.88515      -497.826 5        35.067
E10        29.000    28029435.411 5 147295705.54105     -4017.614 5        31.721                                                                                                                                    28029437.596 4                     -3078.953 4        27.976
R11        30.000    19427534.746 7 103814855.08207      -526.448 7        46.298                                                                    19427533.291 7  80744877.19607      -409.549 7        43.532
C20        31.000                                                                                                                                    24358791.064 6 126842591.17706     -3567.819 6        40.079                                                                    24358790.080 6 103070017.73106     -2899.169 6        40.117
R10        32.000    21892661.403 4                     -4392.034 4        28.114
C36        34.000                                                                                                                                    23538692.569 6 122572251.53306      2038.086 6        36.219                                                                    23538698.491 5  99599895.19705      1655.903 5        32.617
R02        35.000    21545883.970 7 114972909.98407      2357.316 7        45.762                                                                    21545883.350 6  89423577.19306      1833.424 6        36.631
R12        38.000    21946271.504 5 117233147.38215      3315.633 5        32.904
C05        40.000                                                                                                                                                                                                    39304425.193 5 158262639.47805      -701.326 5        31.117
C37        42.000                                                                                                                                    24904665.667 5                     -3565.796 5        30.158                                                                    24904662.826 4 105379806.18304     -2897.935 4        26.934
R01        44.000    19237557.037 7 102835745.43607      -545.342 7        42.548                                                                    19237553.944 5  79983361.32805      -423.899 5        32.174
C09        47.000                                                                                                                                    39965406.271 4                     -1626.059 4        24.977    39965471.809 3                     -1256.240 3        22.648
C19        48.000                                                                                                                                    21889120.875 8 113982548.62508     -1278.552 8        49.063                                                                    21889114.694 6  92620007.64606     -1038.923 6        36.159
C34        49.000                                                                                                                                    26802129.598 5                     -1333.316 5        30.762                                                                    26802149.964 4                     -1083.619 4        26.240
C22        51.000                                                                                                                                    23286318.495 7 121257965.65707      1554.629 7        46.693                                                                    23286312.827 6  98532032.55806      1263.349 6        40.660
C12        54.000                                                                                                                                                                                                                                                                    26724572.066 4                     -1868.785 4        28.645
I09        59.000    38856129.772 6 152479824.07306     -1199.362 6        36.730
> 2025 01 02 06 30 35.0000000  0 36
G20         4.000    20713660.662 7 108851077.40207     -1151.469 7        47.517                                    20713651.937 4  84818973.26604      -897.234 4        28.303
G07         5.000    21350923.137 7 112199875.31907     -2366.467 7        46.175                                    21350915.341 6  87428481.12906     -1843.998 6        37.085    21350916.873 6  87428427.14206     -1844.099 6        38.979
G09         6.000    23010203.419 4                     -3817.612 4        24.376
G30         7.000    20518498.673 7 107825458.40507      -222.416 7        45.366                                    20518497.915 7  84019758.83307      -173.311 7        46.204    20518497.596 7  84019806.82907      -173.215 7        44.615
G14         8.000    23427790.970 5 123113781.98205      2597.651 5        35.119                                    23427774.589 1  95932817.50401      2024.283 1         5.429    23427784.230 5                      2024.026 5        32.491
E21        10.000    25950952.168 5 136373138.80505     -1682.647 5        35.071                                                                    25950951.055 6 101837105.04106     -1256.572 6        40.820    25950951.940 7 104493741.96807     -1289.342 7        45.100
E06        11.000    23799629.065 7 125067864.49307       270.666 7        46.807                                                                    23799628.801 7  93394917.69307       202.143 7        45.704    23799624.825 6  95831247.66206       207.416 6        38.339
G05        14.000    21791864.976 8 114517013.33208      1300.992 8        48.122                                    21791861.679 6  89233984.11006      1013.762 6        40.036    21791859.800 6  89234032.11806      1013.903 6        38.934
E11        16.000    26591606.313 5 139739863.08805     -3592.120 5        30.649                                                                    26591634.476 4                     -2682.888 4        26.371    26591594.348 3                     -2752.892 3        22.210
E04        17.000    23337352.075 8 122638596.59308      -925.801 8        49.182                                                                    23337348.939 6  91580834.66206      -691.211 6        41.893    23337349.842 7  93969829.99207      -709.394 7        44.017
R08        18.000    21790141.822 6 116685337.28406     -3927.127 6        40.651                                                                    21790140.818 6  90755164.29506     -3054.583 6        36.333
E19        20.000    25865272.437 4                     -3041.985 4        27.054
E09        21.000    25431854.698 6 133645471.35206      1098.350 6        40.141                                                                    25431850.153 5  99800057.17505       819.978 5        31.441    25431851.566 6 102403547.27706       841.442 6        36.280
E36        22.000    26178218.602 6 137567425.38306     -1518.836 6        36.336                                                                    26178212.679 7 102729006.68907     -1134.257 7        44.361    26178210.668 6 105408788.21906     -1163.717 6        38.790
S36        23.000    38247166.014 5 200990314.56005      -852.134 5        32.192
S23        24.000    38182402.373 6 200649836.40306      -849.441 6        39.559
G11        25.000    24124289.454 5 126774034.26905     -3876.821 5        30.030
E34        26.000    28132291.903 5 147836199.02705       925.583 5        33.719                                                                    28132300.838 5                       691.222 5        31.306    28132292.912 5 113276944.54705       709.222 5        30.732
R17        27.000    23120981.529 5 123725065.17705     -3410.048 5        34.838                                                                    23120984.423 5  96230596.57815     -2652.254 5        34.881
R18        28.000    23120311.296 5 123417757.56015      -501.939 5        35.424
E10        29.000    28033258.324 5 147315794.34905     -4017.705 5        32.437                                                                                                                                    28033260.319 4                     -3078.250 4        28.180
R11        30.000    19428030.198 7 103817498.65007      -530.903 7        47.504                                                                    19428027.949 7  80746933.30507      -412.947 7        43.558
C20        31.000                                                                                                                                    24362221.067 6 126860433.23406     -3568.971 6        39.517                                                                    24362217.440 6 103084515.88306     -2900.083 6        39.904
R10        32.000    21896781.100 5                     -4394.819 5        31.894
C36        34.000                                                                                                                                    23536737.935 6 122562064.88606      2036.527 6        36.174                                                                    23536749.822 5  99591617.71805      1654.876 5        32.892
R02        35.000    21543675.694 7 114961124.74507      2356.645 7        46.302                                                                    21543674.664 6  89414410.89106      1832.986 6        37.989
R12        38.000    21943172.496 5 117216574.90305      3313.652 5        34.305                                                                    21943226.637 5                      2576.205 5        34.233
C05        40.000                                                                                                                                                                                                    39305297.267 5 158266147.09305      -701.693 5        31.396
C37        42.000                                                                                                                                    24908085.846 5                     -3567.138 5        33.629                                                                    24908089.824 4 105394296.28504     -2898.742 4        27.772
R01        44.000    19238067.934 7 102838478.87107      -548.207 7        42.809                                                                    19238065.895 5  79985487.41805      -426.694 5        31.457
C09        47.000                                                                                                                                    39966968.799 4                     -1626.157 4        24.586
C19        48.000                                                                                                                                    21890349.212 8 113988946.40508     -1280.630 8        49.954                                                                    21890343.508 6  92625206.36806     -1040.638 6        37.546
C34        49.000                                                                                                                                    26803418.825 5                     -1335.636 5        34.767                                                                    26803438.466 4                     -1084.936 4        27.868
C22        51.000                                                                                                                                    23284826.881 7 121250194.68107      1553.666 7        46.386                                                                    23284820.473 6  98525717.99706      1262.451 6        41.008
C12        54.000                                                                                                                                    26726788.603 4                     -2301.945 4        28.000    26726820.845 4                     -1779.956 4        27.677    26726782.519 4                     -1870.449 4        27.617
I09        59.000    38857657.795 6 152485820.96906     -1199.532 6        36.749
> 2025 01 02 06 30 40.0000000  0 36
G20         4.000    20714758.144 7 108856842.99007     -1154.823 7        47.689                                    20714748.951 4  84823465.92604      -899.860 4        28.578
G07         5.000    21353175.542 7 112211712.01707     -2368.249 7        47.057                                    21353168.315 6  87437704.51706     -1845.387 6        37.883    21353169.416 6  87437650.52106     -1845.252 6        39.252
G09         6.000    23013835.861 4                     -3819.414 4        26.024                                                                                                    23013836.861 5                     -2976.145 5        31.336
G30         7.000    20518712.045 7 107826576.05107      -224.761 7        46.459                                    20518710.563 7  84020629.70907      -175.135 7        46.102    20518710.381 7  84020677.71307      -175.132 7        44.837
G14         8.000    23425321.205 5 123100794.82205      2596.933 5        33.437                                    23425303.173 1  95922697.71201      2023.545 1         6.375    23425308.798 5  95922722.74615      2022.676 5        34.190
E21        10.000    25952554.149 6 136381558.38906     -1684.973 6        36.601                                                                    25952553.234 6 101843392.38606     -1258.363 6        41.137    25952554.251 7 104500193.33007     -1291.147 7        45.178
E06        11.000    23799372.181 7 125066513.36507       269.739 7        47.019                                                                    23799371.587 7  93393908.72907       201.468 7        46.036    23799367.512 6  95830212.38606       206.681 6        37.739
G05        14.000    21790628.044 8 114510514.87808      1298.307 8        48.484                                    21790624.859 6  89228920.37806      1011.666 6        39.544    21790622.777 6  89228968.39306      1011.673 6        38.444
E11        16.000    26595025.253 4 139757827.82104     -3593.302 4        29.251                                                                    26595051.913 4                     -2683.424 4        26.695    26595009.166 3                     -2752.019 3        21.262
E04        17.000    23338233.024 8 122643228.03108      -926.844 8        49.479                                                                    23338229.987 6  91584293.18506      -692.111 6        40.689    23338231.489 7  93973378.73807      -710.102 7        44.262
R08        18.000    21793810.720 6 116704977.35506     -3929.044 6        40.875                                                                    21793808.220 6  90770439.84406     -3055.731 6        37.369
E19        20.000    25868158.181 4                     -3041.965 4        24.301
E09        21.000    25430809.619 6 133639981.13706      1097.730 6        40.386                                                                    25430806.150 5  99795957.31805       819.623 5        31.185    25430806.089 5 102399340.42305       841.090 5        35.629
E36        22.000    26179664.749 5 137575025.74105     -1521.435 5        34.710                                                                    26179658.798 7 102734682.28407     -1136.129 7        43.858    26179657.736 6 105414611.87506     -1165.743 6        40.279
S36        23.000    38247967.190 5 200994576.51205      -852.519 5        32.539
S23        24.000    38183214.348 6 200654083.19306      -849.449 6        39.375
G11        25.000    24127981.888 5 126793421.55105     -3878.101 5        30.596
E34        26.000    28131411.428 5 147831575.74205       923.784 5        31.509                                                                    28131421.834 5                       689.866 5        31.253    28131412.313 5 113273402.11705       707.653 5        31.713
R17        27.000    23124170.917 6 123742122.31806     -3412.884 6        38.120                                                                    23124171.979 5  96243863.19105     -2654.735 5        34.705
R18        28.000    23120786.006 6 123420277.72406      -506.270 6        37.229
E10        29.000    28037081.662 5 147335882.67705     -4017.994 5        32.174                                                                                                                                    28037084.088 4                     -3078.216 4        27.126
R11        30.000    19428529.879 7 103820164.56707      -535.417 7        47.693                                                                    19428526.714 7  80749006.77707      -416.472 7        43.454
C20        31.000                                                                                                                                    24365647.067 6 126878281.12206     -3570.110 6        36.930                                                                    24365645.559 6 103099018.78106     -2901.104 6        40.117
R10        32.000    21900899.263 5                     -4397.190 5        33.210
C36        34.000                                                                                                                                    23534781.226 5 122551885.23905      2034.970 5        33.257                                                                    23534796.245 5  99583345.91705      1654.158 5        31.811
R02        35.000    21541468.113 7 114949344.10407      2355.706 7        47.206                                                                    21541468.556 6  89405248.18706      1832.292 6        40.386
R12        38.000    21940076.407 5 117200010.70405      3311.918 5        34.638
C05        40.000                                                                                                                                                                                                    39306167.646 5 158269654.58005      -701.202 5        30.664
C37        42.000                                                                                                                                    24911511.882 6                     -3568.253 6        36.019                                                                    24911516.554 4 105408791.66704     -2899.528 4        29.829
R01        44.000    19238582.855 7 102841226.73907      -551.032 7        42.351                                                                    19238578.906 4  79987624.59204      -428.269 4        29.526
C09        47.000                                                                                                                                    39968536.760 4                     -1625.873 4        26.479
C19        48.000                                                                                                                                    21891580.397 8 113995354.73008     -1282.743 8        50.571                                                                    21891574.043 6  92630413.65706     -1042.299 6        37.803
C34        49.000                                                                                                                                    26804708.056 6 139579105.34216     -1338.282 6        36.234                                                                    26804719.063 4                     -1087.394 4        28.938
C22        51.000                                                                                                                                    23283335.538 7 121242429.11007      1552.556 7        46.502                                                                    23283328.949 6  98519407.84406      1261.599 6        40.691
C12        54.000                                                                                                                                    26728999.923 4                     -2303.960 4        29.659    26729033.704 4                     -1781.816 4        28.256
I09        59.000    38859186.079 5 152491818.23705     -1199.236 5        35.371
> 2025 01 02 06 30 45.0000000  0 36
G13         1.000    22739202.778 6 119495248.09306      2137.531 6        39.450                                    22739184.729 1  93113161.18511      1665.609 1        10.518
G20         4.000    20715858.434 8 108862625.26208     -1158.370 8        48.816                                    20715849.324 4  84827971.58004      -902.624 4        28.645
G07         5.000    21355429.533 7 112223557.11307     -2370.142 7        47.634                                    21355422.911 6  87446934.44806     -1846.859 6        38.679    21355422.812 6  87446880.45006     -1846.765 6        39.252
G09         6.000    23017467.275 4                     -3820.805 4        25.534                                                                                                    23017467.783 5                     -2976.953 5        31.026
G30         7.000    20518926.858 7 107827705.73207      -227.539 7        46.883                                    20518925.447 7  84021509.96807      -177.296 7        46.118    20518925.113 7  84021557.96307      -177.297 7        44.605
G14         8.000    23422853.949 5 123087811.49305      2595.943 5        30.408                                    23422832.565 1  95912580.90701      2022.701 1         5.429    23422836.111 5  95912605.89805      2022.861 5        33.575
E21        10.000    25954158.594 6 136389989.71006     -1687.658 6        36.628                                                                    25954157.453 6 101849688.52006     -1260.362 6        40.934    25954158.615 7 104506653.72407     -1293.225 7        45.303
E06        11.000    23799116.001 7 125065166.88907       268.530 7        46.782                                                                    23799115.206 7  93392903.23507       200.539 7        46.222    23799110.905 6  95829180.65206       205.797 6        37.376
G05        14.000    21789393.761 8 114504029.75808      1295.408 8        48.496                                    21789390.222 6  89223867.03306      1009.407 6        38.742    21789388.141 6  89223915.05706      1009.276 6        37.372
E11        16.000    26598444.998 5 139775797.69005     -3594.972 5        30.204                                                                    26598469.708 4                     -2684.146 4        25.699    26598425.865 3                     -2756.550 3        20.857
E04        17.000    23339115.420 8 122647865.00008      -928.228 8        49.323                                                                    23339112.279 6  91587755.83306      -693.030 6        40.596    23339113.965 7  93976931.73207      -711.199 7        44.789
R08        18.000    21797480.609 7 116724626.12207     -3930.906 7        42.781                                                                    21797477.350 6  90785722.21406     -3057.365 6        38.114
E19        20.000    25871048.982 3                     -3041.670 3        22.629
E09        21.000    25429764.921 6 133634493.57006      1096.942 6        40.892                                                                    25429762.288 5  99791859.46805       819.180 5        32.647    25429761.583 5 102395135.66805       840.458 5        35.214
E36        22.000    26181111.688 5 137582638.47705     -1524.056 5        34.238                                                                    26181107.470 7 102740367.12707     -1138.115 7        43.845    26181106.569 6 105420445.02106     -1167.807 6        41.611
S36        23.000    38248779.643 5 200998838.15605      -852.747 5        33.677
S23        24.000    38184015.341 6 200658329.83206      -849.517 6        39.408
G11        25.000    24131669.360 5 126812814.36405     -3879.351 5        32.281
E34        26.000    28130535.031 4 147826962.43904       920.982 4        28.114                                                                    28130542.431 4                       688.050 4        29.924    28130532.423 5 113269867.26005       705.913 5        33.006
R17        27.000    23127358.237 5 123759194.58005     -3416.030 5        32.964                                                                    23127364.086 5  96257141.63105     -2657.120 5        34.048
R18        28.000    23121262.099 6                      -510.758 6        39.628                                                                    23121245.764 3                      -398.549 3        23.810
E10        29.000    28040903.945 5 147355970.64005     -4017.791 5        32.000                                                                                                                                    28040906.386 4                     -3077.232 4        26.299
R11        30.000    19429033.413 8 103822852.83808      -540.162 8        48.161                                                                    19429030.927 7  80751097.65607      -420.115 7        45.198
C20        31.000                                                                                                                                    24369067.936 5 126896135.02305     -3571.770 5        34.562                                                                    24369074.999 6 103113526.47406     -2902.190 6        39.661
R10        32.000    21905020.897 5                     -4399.674 5        32.299
R02        35.000    21539261.339 8 114937567.82208      2354.481 8        48.312                                                                    21539258.113 6  89396088.82806      1831.435 6        38.874
R12        38.000    21936977.425 6 117183455.18206      3309.902 6        36.276                                                                    21937005.938 6  91142844.68216      2574.503 6        36.715
C05        40.000                                                                                                                                                                                                    39307039.558 5 158273162.03905      -701.776 5        32.090
C37        42.000                                                                                                                                    24914940.271 6 129738622.79116     -3569.916 6        38.390                                                                    24914945.751 5 105423292.35005     -2900.913 5        30.838
R01        44.000    19239100.280 7 102843988.87407      -554.062 7        42.851                                                                    19239095.476 4  79989772.97304      -431.243 4        28.986
C09        47.000                                                                                                                                    39970098.564 4                     -1624.770 4        24.301
C19        48.000                                                                                                                                    21892813.565 8 114001773.72208     -1285.154 8        50.612                                                                    21892806.993 6  92635629.58806     -1044.189 6        38.952
C34        49.000                                                                                                                                    26805997.883 5 139585802.33005     -1340.879 5        35.838                                                                    26805998.005 4                     -1089.511 4        28.730
C22        51.000                                                                                                                                    23281845.497 7 121234669.07507      1551.104 7        46.341                                                                    23281838.702 6  98513102.15406      1260.574 6        40.193
C12        54.000                                                                                                                                    26731215.585 5                     -2306.374 5        31.170    26731243.191 4                     -1783.229 4        27.222
I09        59.000    38860714.291 5 152497816.02005     -1199.722 5        35.348
> 2025 01 02 06 30 50.0000000  0 37
G13         1.000    22737168.057 6 119484561.05506      2137.123 6        40.486                                    22737150.275 1  93104833.59001      1665.296 1        11.259
G20         4.000    20716962.315 8 108868424.65208     -1161.474 8        49.241                                    20716952.840 4  84832490.57404      -905.043 4        28.256
G07         5.000    21357685.388 8 112235411.04308     -2371.564 8        48.424                                    21357679.135 6  87456171.26406     -1847.969 6        39.733    21357678.608 6  87456117.25206     -1847.801 6        38.907
G09         6.000    23021103.996 4                     -3821.826 4        25.805                                                                                                    23021099.541 4                     -2977.615 4        27.114
G30         7.000    20519143.950 7 107828847.88007      -229.601 7        47.970                                    20519142.692 7  84022399.94207      -178.904 7        46.200    20519142.200 7  84022447.94707      -178.939 7        43.890
G14         8.000    23420388.781 4 123074832.46204      2595.728 4        28.493                                    23420362.638 1  95902467.40001      2022.730 1         4.857    23420364.316 5  95902492.46805      2022.385 5        33.162
E21        10.000    25955765.831 6 136398433.29406     -1689.752 6        36.771                                                                    25955764.158 6 101855993.78306     -1261.846 6        41.111    25955765.515 7 104513123.47807     -1294.823 7        45.479
E06        11.000    23798860.195 7 125063825.50307       267.919 7        46.301                                                                    23798859.966 7  93391901.55007       200.065 7        46.299    23798855.747 6  95828152.84006       205.352 6        37.176
G05        14.000    21788161.906 8 114497558.45808      1292.989 8        48.086                                    21788157.955 6  89218824.47106      1007.518 6        37.856    21788155.675 5  89218872.47705      1007.659 5        34.810
E11        16.000    26601866.502 5 139793773.11305     -3595.556 5        30.770                                                                    26601881.002 4                     -2685.393 4        26.922    26601846.822 3                     -2758.335 3        20.452
E04        17.000    23339998.879 8 122652507.95808      -929.118 8        49.172                                                                    23339995.803 6  91591222.98306      -693.917 6        39.949    23339997.557 7  93980489.31307      -711.971 7        45.090
R08        18.000    21801152.110 7 116744283.90507     -3932.360 7        43.306                                                                    21801148.874 6  90801011.53306     -3058.228 6        37.584
E19        20.000    25873945.672 3                     -3041.777 3        21.976
E09        21.000    25428720.690 6 133629009.15406      1096.716 6        39.994                                                                    25428719.170 5  99787763.96005       818.982 5        33.850    25428719.146 5 102390933.31205       840.286 5        35.229
E36        22.000    26182559.236 5 137590264.09205     -1526.237 5        34.719                                                                    26182558.162 7 102746061.56907     -1139.863 7        43.642    26182557.884 6 105426287.99306     -1169.597 6        41.411
S36        23.000    38249573.602 5 201003100.23905      -852.437 5        31.766
S23        24.000    38184820.376 6 200662576.89206      -849.080 6        39.532
G11        25.000    24135360.330 5 126832213.04005     -3880.457 5        33.174                                                                                                    24135477.406 4                     -3023.108 4        28.161
E34        26.000    28129661.910 4 147822359.48704       920.650 4        26.479                                                                    28129666.306 4                       686.555 4        29.602    28129655.117 5 113266340.36905       704.647 5        33.036
R17        27.000    23130554.067 6 123776282.56106     -3418.793 6        38.733                                                                    23130558.732 5  96270432.20505     -2659.414 5        32.575
R18        28.000    23121739.573 6 123425383.16716      -514.877 6        40.479                                                                    23121724.859 3                      -399.517 3        22.971
E10        29.000    28044726.511 5 147376058.68805     -4017.890 5        31.834                                                                                                                                    28044727.862 4                     -3078.221 4        25.850
R11        30.000    19429540.325 7 103825564.00007      -544.449 7        47.776                                                                    19429538.044 7  80753206.33207      -423.387 7        46.268
C20        31.000                                                                                                                                    24372498.563 5 126913995.18805     -3572.445 5        32.419                                                                    24372504.896 6 103128039.34306     -2902.865 6        38.402
R10        32.000    21909144.399 5                     -4401.965 5        31.283
C36        34.000                                                                                                                                    23530853.658 5 122531547.97905      2032.273 5        33.222
R02        35.000    21537055.588 8 114925796.31608      2353.912 8        48.699                                                                    21537050.673 6  89386933.18306      1830.868 6        37.698
R12        38.000    21933879.502 6 117166908.75506      3308.442 6        39.333
C05        40.000                                                                                                                                                                                                    39307911.431 5 158276669.81005      -701.619 5        32.293
C37        42.000                                                                                                                                    24918371.351 6 129756474.93706     -3571.030 6        40.021                                                                    24918376.376 5 105437798.61105     -2901.664 5        33.162
R01        44.000    19239618.984 7 102846765.88307      -556.719 7        43.778                                                                    19239616.371 4  79991932.87204      -433.378 4        28.370
C09        47.000                                                                                                                                    39971663.166 3                     -1625.400 3        23.867
C19        48.000                                                                                                                                    21894047.989 8 114008203.83508     -1286.993 8        50.725                                                                    21894041.984 6  92640854.56506     -1045.557 6        39.682
C34        49.000                                                                                                                                    26807288.599 5 139592512.21905     -1342.882 5        35.214                                                                    26807281.504 4                     -1091.524 4        27.509
C22        51.000                                                                                                                                    23280357.065 7 121226915.01407      1550.441 7        46.121                                                                    23280350.068 6  98506801.34406      1259.949 6        40.238
C12        54.000                                                                                                                                    26733433.819 5                     -2308.644 5        31.902    26733454.332 4                     -1785.562 4        25.940    26733449.247 4                     -1875.793 4        29.469
I09        59.000    38862242.715 5 152503814.58505     -1199.684 5        34.295
> 2025 01 02 06 30 55.0000000  0 36
G20         4.000    20718068.830 8 108874240.54708     -1164.706 8        48.675                                    20718059.624 4  84837022.42504      -907.561 4        28.114
G07         5.000    21359942.184 8 112247273.30108     -2373.151 8        48.665                                    21359936.746 6  87465414.56806     -1849.206 6        40.505    21359936.203 6  87465360.57406     -1849.136 6        39.486
G09         6.000    23024737.480 4                     -3821.946 4        28.246                                                                                                    23024737.313 4                     -2978.563 4        28.891
G30         7.000    20519363.562 7 107830001.93207      -231.849 7        46.648                                    20519362.222 7  84023299.19607      -180.658 7        46.495    20519361.818 7  84023347.20307      -180.722 7        43.992
G14         8.000                                                                                                                                                                    23417893.685 5  95892382.02705      2022.054 5        31.615
E21        10.000    25957374.164 6 136406888.56406     -1692.276 6        37.357                                                                    25957372.848 6 101862307.75506     -1263.496 6        40.749    25957374.402 7 104519602.17007     -1296.607 7        45.246
E06        11.000    23798604.980 7 125062488.69207       267.078 7        45.848                                                                    23798605.608 7  93390903.27407       199.381 7        46.286    23798601.515 6  95827128.52706       204.604 6        36.737
G05        14.000    21786933.138 7 114491100.49907      1290.397 7        46.610                                    21786928.030 6  89213792.30106      1005.505 6        36.938    21786927.082 5  89213840.32305      1005.509 5        34.719
E11        16.000    26605288.703 5 139811753.62105     -3596.692 5        30.853                                                                    26605289.393 4                     -2685.968 4        27.533    26605269.353 3                     -2753.335 3        18.597
E04        17.000    23340883.604 8 122657156.32908      -930.127 8        49.424                                                                    23340880.323 6  91594694.14706      -694.563 6        38.997    23340882.061 7  93984051.03907      -712.666 7        45.339
R08        18.000    21804824.994 7 116763950.28007     -3934.046 7        43.918                                                                    21804821.234 6  90816307.57306     -3059.950 6        37.686
E19        20.000    25876847.232 4                     -3043.406 4        26.707
E09        21.000    25427677.799 6 133623527.33306      1096.131 6        39.183                                                                    25427676.248 5  99783670.35505       818.592 5        33.228    25427677.803 5 102386732.93805       839.962 5        35.819
E36        22.000    26184015.630 5 137597901.98405     -1528.705 5        32.084                                                                    26184011.170 7 102751765.17207     -1141.535 7        43.003    26184011.076 7 105432140.38407     -1171.392 7        42.282
S36        23.000    38250390.841 5 201007361.84805      -852.393 5        31.079
S23        24.000    38185630.383 6 200666823.72506      -849.143 6        39.294
G11        25.000    24139053.740 5 126851617.05805     -3881.164 5        34.481                                                                                                    24139169.612 4                     -3024.036 4        27.952
E34        26.000    28128784.711 4 147817766.56004       917.447 4        26.144                                                                    28128790.847 4                       685.075 4        29.583    28128784.853 5 113262821.12505       703.112 5        32.455
R17        27.000    23133756.644 6 123793385.55306     -3421.954 6        39.679                                                                    23133753.359 5  96283734.45105     -2661.506 5        30.551
R18        28.000    23122222.199 6 123427968.26806      -519.061 6        38.063
E10        29.000    28048548.035 5 147396146.25805     -4017.321 5        30.596                                                                                                                                    28048551.631 4                     -3078.155 4        25.519
R11        30.000    19430050.625 7 103828297.44507      -548.898 7        46.891                                                                    19430049.412 7  80755332.32307      -426.864 7        46.567
C20        31.000                                                                                                                                    24375932.473 5 126931861.19605     -3573.253 5        31.774                                                                    24375935.428 6 103142556.95106     -2903.982 6        37.021
R10        32.000    21913276.683 5                     -4404.306 5        32.234
C36        34.000                                                                                                                                    23528907.980 5 122521390.27005      2031.003 5        34.862                                                                    23528915.575 6  99558566.08606      1650.308 6        38.405
R02        35.000    21534850.300 8 114914029.29008      2353.171 8        49.022                                                                    21534845.933 6  89377781.08206      1830.187 6        37.248
R12        38.000    21930783.945 6 117150370.82506      3306.707 6        38.856
C05        40.000                                                                                                                                                                                                    39308783.017 5 158280177.48805      -701.616 5        33.000
C37        42.000                                                                                                                                    24921805.696 6 129774333.51606     -3572.177 6        41.309                                                                    24921808.475 5 105452310.12705     -2902.681 5        33.126
R01        44.000    19240140.555 7 102849557.14707      -559.538 7        44.713                                                                    19240139.329 4  79994103.83704      -435.091 4        29.649
C09        47.000                                                                                                                                    39973225.305 4                     -1625.692 4        26.323
C19        48.000                                                                                                                                    21895284.501 8 114014644.54708     -1289.044 8        50.020                                                                    21895278.419 6  92646088.16906     -1047.445 6        40.193
C34        49.000                                                                                                                                    26808580.148 5 139599234.54405     -1345.710 5        33.952                                                                    26808571.223 4                     -1093.859 4        27.772
C22        51.000                                                                                                                                    23278869.766 7 121219166.42907      1549.274 7        46.377                                                                    23278861.920 6  98500504.97106      1259.027 6        40.474
C12        54.000                                                                                                                                    26735653.514 5                     -2310.667 5        30.536    26735677.301 4                     -1787.004 4        29.602
I09        59.000    38863771.098 5 152509813.55305     -1199.688 5        33.958
> 2025 01 02 06 31  0.0000000  0 35
G13         1.000    22733085.822 6 119463198.76906      2135.438 6        41.533                                    22733084.908 2  93088187.60402      1663.964 2        16.453
G20         4.000    20719178.546 8 108880073.16108     -1168.213 8        48.728                                    20719169.660 4  84841567.30304      -910.295 4        28.246
G07         5.000    21362201.532 8 112259144.02708     -2375.010 8        48.766                                    21362195.868 6  87474664.46806     -1850.657 6        41.061    21362195.297 6  87474610.48206     -1850.727 6        39.541
G09         6.000    23028375.727 5                     -3823.085 5        30.128                                                                                                    23028384.418 4                     -2979.130 4        28.237
G30         7.000    20519585.632 7 107831168.11207      -234.502 7        46.336                                    20519584.117 7  84024207.89807      -182.730 7        46.954    20519584.211 7  84024255.91007      -182.637 7        44.444
G14         8.000                                                                                                                                                                    23415425.457 5  95882274.64805      2021.141 5        31.396
E21        10.000    25958985.657 6 136415355.66506     -1694.508 6        37.157                                                                    25958983.978 6 101868630.59306     -1265.496 6        40.920    25958985.551 7 104526089.94807     -1298.464 7        45.231
E06        11.000    23798351.176 7 125061156.62807       265.918 7        45.112                                                                    23798351.961 7  93389908.53507       198.575 7        46.120    23798348.278 6  95826107.84506       203.745 6        36.541
G05        14.000    21785707.326 7 114484656.01207      1287.472 7        44.429                                    21785700.870 6  89208770.62006      1003.223 6        36.026    21785701.625 5  89208818.64305      1003.087 5        35.295
E11        16.000    26608712.231 5 139829739.34905     -3597.528 5        31.645                                                                    26608713.418 4                     -2686.000 4        28.085
E04        17.000    23341769.415 8 122661810.33008      -931.379 8        49.497                                                                    23341766.017 6  91598169.52906      -695.372 6        38.796    23341767.743 7  93987617.09507      -713.652 7        45.476
R08        18.000    21808499.346 7 116783625.28507     -3935.935 7        42.663                                                                    21808495.309 6  90831610.32906     -3061.228 6        38.120
E19        20.000    25879748.940 4                     -3044.069 4        29.678
E09        21.000    25426635.788 6 133618048.26906      1095.490 6        39.477                                                                    25426633.183 5  99779578.86605       817.897 5        33.641    25426639.430 5 102382534.66605       839.093 5        35.448
E36        22.000    26185475.410 4 137605552.34904     -1531.586 4        28.322                                                                    26185467.043 7 102757478.08607     -1143.536 7        42.095    26185467.038 7 105438002.32907     -1173.369 7        42.637
S36        23.000    38251218.587 5 201011623.56905      -852.357 5        33.479
S23        24.000    38186445.905 6 200671070.75506      -849.348 6        39.727
G11        25.000    24142746.218 5 126871026.60005     -3882.403 5        35.014                                                                                                    24142860.520 4                     -3025.343 4        28.294
E34        26.000                                                                                                                                    28127916.457 4                       683.882 4        29.024    28127914.487 5 113259309.58405       701.425 5        31.985
E10        29.000    28052371.427 5 147416233.57805     -4017.572 5        30.370                                                                                                                                    28052373.567 3                     -3077.077 3        23.333
R11        30.000    19430565.268 7 103831053.40207      -553.418 7        46.342                                                                    19430565.429 7  80757475.84107      -430.405 7        46.716
C20        31.000                                                                                                                                    24379368.305 5 126949733.17705     -3575.227 5        34.990                                                                    24379367.705 6 103157079.43206     -2905.084 6        36.079
R10        32.000    21917413.712 5                     -4406.746 5        30.928
C36        34.000                                                                                                                                    23526960.592 5 122511239.84705      2029.266 5        35.500                                                                    23526969.110 6  99550318.04806      1649.016 6        39.441
R02        35.000    21532646.213 8 114902266.81808      2352.082 8        49.626                                                                    21532643.105 6  89368632.46906      1829.175 6        37.089
R12        38.000    21927683.909 6 117133841.65406      3304.960 6        38.405                                                                    21927688.114 5  91104256.28205      2570.510 5        34.590
C05        40.000                                                                                                                                                                                                    39309652.421 5 158283685.16105      -701.468 5        31.811
C37        42.000                                                                                                                                    24925239.781 6 129792198.67006     -3573.762 6        41.101                                                                    24925236.254 5 105466827.03405     -2903.960 5        34.200
R01        44.000    19240665.359 7 102852362.83407      -562.579 7        45.333                                                                    19240662.365 4  79996286.02604      -437.578 4        28.635
C09        47.000                                                                                                                                    39974793.754 4                     -1625.149 4        26.611    39974794.596 3                     -1258.601 3        21.786
C19        48.000                                                                                                                                    21896522.718 8 114021096.01508     -1291.395 8        49.265                                                                    21896517.471 6  92651330.51706     -1049.351 6        40.350
C34        49.000                                                                                                                                    26809868.456 5 139605969.45105     -1348.113 5        34.829                                                                    26809861.567 4                     -1095.582 4        26.395
C22        51.000                                                                                                                                    23277382.724 7 121211423.46907      1548.001 7        46.630                                                                    23277374.867 6  98494213.19506      1257.854 6        40.291
C12        54.000                                                                                                                                    26737870.267 5                     -2312.680 5        30.023
I09        59.000    38865299.301 5 152515813.12805     -1200.189 5        33.257
> 2025 01 02 06 31  5.0000000  0 37
G13         1.000    22731057.754 6 119452523.36306      2134.774 6        41.082                                    22731053.048 2  93079869.12202      1663.461 2        16.491
G20         4.000    20720291.375 8 108885922.29708     -1171.361 8        48.961                                    20720283.184 4  84846125.05604      -912.747 4        28.152
G07         5.000    21364461.837 8 112271022.97408     -2376.447 8        48.581                                    21364456.443 6  87483920.78206     -1851.774 6        41.275    21364455.843 6  87483866.79206     -1851.827 6        39.997
G09         6.000    23032018.565 5                     -3823.942 5        30.385
G30         7.000    20519809.874 7 107832346.14807      -236.733 7        47.462                                    20519808.257 7  84025125.84807      -184.467 7        47.273    20519808.199 7  84025173.86407      -184.450 7        44.605
G14         8.000    23412956.219 4                      2593.660 4        29.223                                                                                                    23412959.936 5  95872170.21905      2020.730 5        33.371
E21        10.000    25960599.613 6 136423834.37006     -1696.688 6        38.643                                                                    25960597.401 6 101874962.08306     -1267.196 6        41.085    25960599.065 7 104532586.60907     -1300.122 7        45.082
E06        11.000    23798098.621 7 125059829.07707       265.027 7        44.442                                                                    23798099.171 7  93388917.16907       197.959 7        46.233    23798095.767 6  95825090.62706       202.969 6        36.405
G05        14.000    21784483.503 7 114478224.84407      1285.076 7        42.629                                    21784476.410 5  89203759.32005      1001.361 5        34.814    21784477.594 5  89203807.32105      1001.260 5        35.733
E11        16.000    26612139.700 5 139847730.03605     -3598.500 5        31.479                                                                    26612142.455 4                     -2687.130 4        29.147
E04        17.000    23342656.301 8 122666469.70208      -932.286 8        49.510                                                                    23342652.395 6  91601648.92806      -696.191 6        38.339    23342654.604 7  93991187.25407      -714.347 7        45.723
R08        18.000    21812173.311 6 116803308.83806     -3937.482 6        40.276                                                                    21812172.080 6  90846919.76006     -3062.448 6        38.658
E19        20.000    25882645.254 4                     -3044.573 4        29.678
E09        21.000    25425593.166 6 133612571.75406      1095.086 6        39.823                                                                    25425590.972 5  99775489.25305       817.614 5        34.167    25425600.921 5 102378338.34805       839.117 5        35.543
E36        22.000    26186938.733 5 137613214.89405     -1533.656 5        30.068                                                                    26186925.174 6 102763200.13006     -1145.379 6        41.757    26186925.098 7 105443873.62507     -1175.198 7        42.830
S36        23.000    38252028.993 5 201015885.02505      -852.212 5        33.713
S23        24.000    38187241.361 6 200675317.55106      -849.279 6        38.976
G11        25.000    24146438.791 5 126890441.30005     -3883.127 5        30.694
E34        26.000                                                                                                                                    28127045.247 4                       682.382 4        29.128    28127045.049 5 113255805.61505       700.311 5        30.347
R17        27.000    23140176.190 6 123827636.80306     -3428.093 6        40.174
R18        28.000    23123195.133 5 123433203.07605      -527.642 5        32.216
E10        29.000    28056193.880 4 147436320.29404     -4017.360 4        28.844                                                                                                                                    28056194.913 3                     -3078.902 3        22.629
R11        30.000    19431085.999 7 103833831.60407      -557.792 7        46.008                                                                    19431084.757 7  80759636.65407      -433.788 7        46.356
C20        31.000                                                                                                                                    24382800.601 5 126967610.85105     -3576.415 5        33.455                                                                    24382801.013 5 103171606.56205     -2905.892 5        35.348
R10        32.000    21921549.373 4                     -4408.871 4        29.412
C36        34.000                                                                                                                                    23525014.265 5 122501096.48205      2027.971 5        35.467                                                                    23525021.932 6  99542075.71006      1647.905 6        40.667
R02        35.000    21530442.924 8 114890508.59608      2351.336 8        50.056                                                                    21530440.172 6  89359487.16906      1828.770 6        39.093
R12        38.000    21924583.344 5 117117320.92305      3303.569 5        35.114                                                                    21924597.037 5  91091406.89605      2569.443 5        34.833
C05        40.000                                                                                                                                                                                                    39310523.373 5 158287192.65205      -700.975 5        30.551
C37        42.000                                                                                                                                    24928672.769 6 129810070.15106     -3574.869 6        41.194                                                                    24928666.461 5 105481349.08305     -2904.879 5        33.473
R01        44.000    19241193.600 7 102855182.77607      -565.315 7        46.362                                                                    19241190.145 4  79998479.32704      -440.134 4        27.916
C09        47.000                                                                                                                                                                                                    39976355.296 4                     -1256.446 4        26.216
C19        48.000                                                                                                                                    21897763.022 8 114027558.00208     -1293.339 8        48.569                                                                    21897758.845 6  92656581.40506     -1051.086 6        41.361
C34        49.000                                                                                                                                    26811170.123 5 139612716.74405     -1350.640 5        34.510                                                                    26811154.765 4                     -1097.641 4        28.957
C22        51.000                                                                                                                                    23275896.805 7 121203685.92707      1547.029 7        45.598                                                                    23275889.083 6  98487925.79106      1257.005 6        40.331
C12        54.000                                                                                                                                    26740092.404 4                     -2314.984 4        29.299                                                                    26740085.104 5                     -1880.945 5        32.036
I09        59.000    38866828.134 5 152521813.00405     -1199.959 5        32.395
> 2025 01 02 06 31 10.0000000  0 34
G13         1.000    22729028.482 6 119441852.06806      2133.672 6        40.451                                    22729022.726 2  93071553.79202      1662.606 2        16.755
G20         4.000    20721407.663 8 108891788.22208     -1174.912 8        48.792                                    20721399.949 4  84850695.89104      -915.522 4        28.436
G07         5.000    21366723.281 8 112282910.46708     -2378.437 8        48.618                                    21366718.637 6  87493183.75406     -1853.323 6        41.201    21366718.107 6  87493129.76206     -1853.310 6        40.717
G09         6.000    23035656.565 5                     -3824.882 5        30.060                                                                                                    23035686.971 4                     -2980.957 4        27.856
G30         7.000    20520036.660 8 107833536.33508      -239.328 8        48.467                                    20520034.705 7  84026053.27207      -186.489 7        47.452    20520034.418 7  84026101.28707      -186.531 7        44.144
G14         8.000    23410495.298 5                      2592.473 5        32.910                                                                                                    23410493.545 5  95862068.94705      2020.117 5        33.341
E21        10.000    25962214.466 6 136432324.97706     -1699.407 6        40.892                                                                    25962213.310 6 101881302.45306     -1268.941 6        40.772    25962214.826 7 104539092.38407     -1302.176 7        44.953
E06        11.000    23797847.078 7 125058506.30807       263.907 7        42.616                                                                    23797847.439 7  93387929.37707       197.187 7        45.962    23797843.973 6  95824077.07406       202.426 6        36.314
G05        14.000    21783262.406 7 114471807.29007      1282.072 7        42.256                                    21783254.780 5  89198758.63005       999.024 5        33.719    21783256.161 5  89198806.61805       998.978 5        35.348
E11        16.000    26615565.882 5 139865725.95105     -3599.570 5        30.257                                                                    26615568.880 4                     -2687.997 4        28.408
E04        17.000    23343544.163 8 122671134.75408      -933.674 8        49.589                                                                    23343540.083 6  91605132.55606      -697.098 6        37.894    23343542.528 7  93994761.75507      -715.389 7        45.946
R08        18.000    21815851.012 6 116823001.20606     -3939.427 6        40.222                                                                    21815849.657 6  90862236.03206     -3064.030 6        38.886
E19        20.000    25885540.317 4                     -3044.920 4        28.265
E09        21.000    25424550.725 6 133607098.07706      1094.299 6        40.291                                                                    25424549.423 5  99771401.79705       817.129 5        34.257    25424561.473 6 102374144.18606       838.575 6        37.055
E36        22.000    26188401.360 4 137620890.15004     -1536.400 4        28.891                                                                    26188385.911 6 102768931.51406     -1147.229 6        40.825    26188385.860 7 105449754.51607     -1177.120 7        43.209
S36        23.000    38252843.441 5 201020146.52505      -852.384 5        32.401
S23        24.000    38188056.816 6 200679564.29906      -849.319 6        38.685
G11        25.000    24150132.190 5 126909861.59505     -3884.724 5        32.916
E34        26.000                                                                                                                                    28126175.704 4                       680.872 4        27.796    28126179.278 5 113252309.42205       698.246 5        30.113
R17        27.000    23143377.580 6 123844785.02206     -3431.123 6        39.871                                                                    23143395.889 5  96323711.53505     -2668.921 5        35.333
R18        28.000    23123694.069 5 123435852.85605      -532.219 5        32.970
E10        29.000    28060016.758 4 147456406.74604     -4017.431 4        28.597                                                                                                                                    28060016.456 3                     -3078.810 3        23.257
R11        30.000    19431610.898 7 103836632.42207      -562.472 7        46.436                                                                    19431608.811 7  80761815.05107      -437.441 7        46.677
C20        31.000                                                                                                                                    24386232.911 4 126985494.66804     -3576.819 4        26.048                                                                    24386236.343 5 103186138.62005     -2906.776 5        34.752
C36        34.000                                                                                                                                    23523069.574 6 122490960.48806      2026.431 6        37.233                                                                    23523075.343 6  99533839.34406      1646.658 6        41.445
R02        35.000    21528240.375 8 114878755.06508      2350.194 8        49.737                                                                    21528237.712 6  89350345.51406      1828.012 6        40.992
R12        38.000    21921494.412 6 117100809.04106      3301.403 6        37.418                                                                    21921511.560 5  91078564.30405      2567.638 5        33.778
C37        42.000                                                                                                                                    24932105.833 6 129827948.27506     -3576.399 6        41.552                                                                    24932099.195 5 105495876.49605     -2906.042 5        33.545
R01        44.000    19241723.983 7 102858017.24007      -568.395 7        46.479                                                                    19241722.344 4  80000683.87804      -442.173 4        27.928
C19        48.000                                                                                                                                    21899005.725 8 114034030.79808     -1295.699 8        48.719                                                                    21899002.407 6  92661841.06306     -1052.899 6        41.523
C34        49.000                                                                                                                                    26812472.582 5 139619476.68405     -1353.246 5        34.814                                                                    26812453.226 5                     -1099.430 5        30.800
C22        51.000                                                                                                                                    23274411.971 7 121195954.09307      1545.638 7        45.401                                                                    23274404.281 6  98481643.02206      1256.185 6        40.317
C12        54.000                                                                                                                                    26742316.938 4                     -2316.876 4        26.778                                                                    26742312.236 5                     -1882.632 5        31.577
I09        59.000    38868355.503 4 152527813.50504     -1200.182 4        29.412
> 2025 01 02 06 31 15.0000000  0 35
G13         1.000    22726997.408 6 119431184.47406      2133.448 6        36.975                                    22726993.038 2  93063241.34502      1662.422 2        16.679
G20         4.000    20722526.691 8 108897670.59708     -1177.928 8        48.222                                    20722519.952 4  84855279.55504      -917.858 4        28.626
G07         5.000    21368986.854 8 112294806.11408     -2379.792 8        48.002                                    21368982.566 6  87502453.08206     -1854.377 6        40.813    21368981.897 6  87502399.08006     -1854.432 6        40.670
G09         6.000    23039298.045 4                     -3825.749 4        29.554                                                                                                    23039324.207 4                     -2981.337 4        24.075
G30         7.000    20520265.546 8 107834738.33008      -241.332 8        49.425                                    20520263.388 7  84026989.89507      -188.049 7        47.608    20520262.962 7  84027037.89407      -187.966 7        43.871
G14         8.000    23408026.609 5                      2591.539 5        33.162                                                                                                    23408027.674 6  95851970.56606      2019.430 6        36.363
E21        10.000    25963831.970 6 136440827.11206     -1701.408 6        40.324                                                                    25963831.679 6 101887651.44006     -1270.388 6        40.648    25963832.848 7 104545606.99607     -1303.591 7        44.602
E06        11.000    23797595.995 6 125057187.97806       263.368 6        41.552                                                                    23797596.613 7  93386944.91007       196.666 7        45.381    23797592.886 5  95823066.93805       201.805 5        35.295
G05        14.000    21782044.153 7 114465402.92207      1279.725 7        42.375                                    21782035.990 5  89193768.20205       997.181 5        33.078    21782036.866 5  89193816.18805       997.484 5        34.514
E11        16.000    26618990.771 3 139883726.75603     -3601.179 3        22.819                                                                    26618986.479 4                     -2688.712 4        28.341
E04        17.000    23344432.899 8 122675805.12508      -934.395 8        49.515                                                                    23344428.508 6  91608620.19706      -697.819 6        36.692    23344431.143 7  93998340.33907      -715.945 7        45.640
R08        18.000    21819531.364 6 116842701.93406     -3940.671 6        39.258                                                                    21819528.962 6  90877558.78606     -3065.016 6        38.477
E19        20.000    25888438.814 4                     -3045.053 4        26.982
E09        21.000    25423509.823 6 133601626.85106      1094.314 6        39.544                                                                    25423508.281 5  99767316.14505       817.188 5        33.874    25423521.720 6 102369951.95206       838.105 6        38.066
E36        22.000    26189871.359 4 137628577.60204     -1538.248 4        28.464                                                                    26189848.359 6 102774671.96106     -1148.873 6        38.303    26189848.760 7 105455644.72407     -1178.756 7        43.154
S36        23.000    38253663.939 6 201024408.83006      -852.149 6        36.276
S23        24.000    38188875.892 6 200683810.91806      -849.120 6        38.886
G11        25.000    24153836.629 5 126929287.06705     -3885.536 5        31.774
E34        26.000                                                                                                                                    28125311.402 4                       679.176 4        28.929    28125312.128 5 113248820.76205       696.781 5        30.581
R17        27.000    23146583.572 6 123861948.15006     -3433.893 6        41.275                                                                    23146601.618 5  96337060.54405     -2670.678 5        34.529
R18        28.000    23124195.244 5 123438524.13305      -535.956 5        35.505                                                                    23124187.971 4                      -416.793 4        28.408
E10        29.000    28063839.037 4 147476492.57104     -4017.001 4        29.829                                                                                                                                    28063841.938 3                     -3078.550 3        22.305
R11        30.000    19432140.159 8 103839455.36808      -566.686 8        48.167                                                                    19432137.332 7  80764010.66507      -440.734 7        46.610
C20        31.000                                                                                                                                    24389671.997 4 127003384.00404     -3578.099 4        29.336                                                                    24389675.588 5 103200675.27305     -2907.051 5        33.898
C36        34.000                                                                                                                                    23521124.543 6 122480831.46606      2025.235 6        39.877                                                                    23521129.577 6  99525608.70606      1645.760 6        41.178
R02        35.000    21526037.948 8 114867005.81108      2349.562 8        48.740                                                                    21526036.370 6  89341207.19806      1827.478 6        41.423
R12        38.000    21918408.709 6 117084305.61506      3299.975 6        39.150                                                                    21918420.688 5  91065728.34405      2566.066 5        30.468
C37        42.000                                                                                                                                    24935535.086 6 129845832.60906     -3577.110 6        38.375                                                                    24935534.744 5 105510408.99405     -2906.730 5        35.495
R01        44.000    19242256.880 7 102860865.94907      -570.984 7        46.504                                                                    19242255.330 4  80002899.54604      -444.390 4        29.953
C09        47.000                                                                                                                                    39979514.137 4                     -1624.421 4        25.789    39979479.685 4                     -1256.314 4        29.905
C19        48.000                                                                                                                                    21900251.856 8 114040514.05608     -1297.503 8        49.587                                                                    21900247.175 6  92667109.24906     -1054.292 6        41.385
C34        49.000                                                                                                                                    26813768.150 5 139626248.87605     -1355.476 5        34.205                                                                    26813755.944 4                     -1101.814 4        28.986
C22        51.000                                                                                                                                    23272927.648 7 121188227.59907      1544.933 7        44.906                                                                    23272920.539 6  98475364.62706      1255.336 6        39.090
C12        54.000                                                                                                                                                                                                    26744526.333 4                     -1793.299 4        25.188    26744538.031 4                     -1884.178 4        28.607
I09        59.000    38869885.162 4 152533814.33404     -1199.889 4        28.133
> 2025 01 02 06 31 20.0000000  0 35
G13         1.000    22724965.391 5 119420520.39105      2132.529 5        31.019                                    22724964.022 2  93054931.66202      1661.799 2        16.151
G20         4.000    20723649.548 7 108903569.16107     -1181.255 7        47.129                                    20723642.937 4  84859875.80604      -920.449 4        28.351
G07         5.000    21371251.559 7 112306709.63207     -2381.396 7        46.032                                    21371247.814 6  87511728.55606     -1855.630 6        39.976    21371246.925 6  87511674.56506     -1855.585 6        40.296
G09         6.000    23042942.211 4                     -3826.697 4        29.763
G30         7.000    20520496.249 8 107835951.89708      -243.796 8        49.381                                    20520494.132 7  84027935.51407      -189.969 7        47.753    20520493.685 7  84027983.50907      -189.926 7        43.583
G14         8.000    23405562.557 5 122997056.55015      2590.927 5        34.424                                                                                                    23405561.902 6  95841874.87506      2019.221 6        36.612
E21        10.000    25965451.012 6 136449340.57206     -1703.761 6        37.391                                                                    25965451.750 6 101894008.86406     -1272.325 6        40.808    25965453.109 7 104552130.26007     -1305.425 7        44.715
E06        11.000    23797346.230 6 125055873.86406       262.311 6        40.801                                                                    23797346.342 7  93385963.58307       195.914 7        45.251    23797343.163 5  95822060.01805       200.943 5        35.019
G05        14.000    21780828.629 7 114459011.55007      1277.083 7        42.609                                    21780819.785 5  89188787.92105       995.140 5        32.443    21780819.920 5  89188835.93405       994.847 5        34.405
E11        16.000                                                                                                                                    26622412.980 4                     -2689.404 4        29.583
E04        17.000    23345322.393 8 122680480.56208      -935.545 8        49.088                                                                    23345318.832 6  91612111.56406      -698.594 6        37.051    23345320.755 7  94001922.82507      -716.888 7        46.158
R08        18.000    21823213.677 6 116862410.81806     -3942.362 6        40.238                                                                    21823209.595 6  90892887.88206     -3066.161 6        38.709
E19        20.000    25891334.896 4                     -3045.937 4        26.275
E09        21.000    25422469.613 6 133596157.86006      1093.576 6        38.868                                                                    25422468.018 5  99763232.16905       816.577 5        33.982    25422479.584 6 102365761.42306       838.059 6        37.331
E36        22.000    26191340.054 4 137636276.71504     -1540.620 4        29.460                                                                    26191315.514 6 102780421.31806     -1150.707 6        39.090    26191313.769 7 105461544.04507     -1180.762 7        43.352
S36        23.000    38254473.718 6 201028669.92606      -851.962 6        36.125
S23        24.000    38189669.819 6 200688057.07606      -849.167 6        39.261
G11        25.000    24157533.561 4 126948717.29404     -3886.198 4        29.384
E34        26.000    28124443.691 4                       907.274 4        26.156                                                                    28124440.053 5                       677.882 5        30.211    28124447.738 4 113245339.33904       695.851 4        29.981
R17        27.000    23149796.076 6 123879125.70606     -3436.940 6        38.751
R18        28.000    23124701.154 6                      -540.644 6        38.255                                                                    23124699.498 5                      -420.405 5        32.299
E10        29.000    28067661.104 4 147496577.52404     -4016.665 4        29.687                                                                                                                                    28067655.100 3                     -3078.990 3        20.929
R11        30.000    19432673.257 8 103842300.25808      -571.152 8        48.517                                                                    19432669.122 7  80766223.36407      -444.215 7        45.762
C20        31.000                                                                                                                                    24393115.340 5 127021278.90505     -3579.485 5        35.786                                                                    24393119.351 5 103215216.43905     -2908.460 5        31.819
C36        34.000                                                                                                                                    23519180.047 6 122470709.19006      2023.804 6        39.988                                                                    23519185.051 6  99517383.52106      1644.509 6        40.029
R02        35.000    21523835.808 7 114855260.66307      2348.744 7        47.763                                                                    21523833.591 6  89332072.08006      1826.647 6        41.387
R12        38.000    21915319.764 6 117067810.42706      3298.185 6        38.982
C37        42.000                                                                                                                                    24938961.747 6 129863722.99706     -3578.707 6        36.355                                                                    24938972.198 5 105524946.34405     -2907.768 5        35.429
R01        44.000    19242792.030 7 102863728.53207      -573.897 7        47.206                                                                    19242791.961 5  80005125.93305      -446.101 5        33.928
C09        47.000                                                                                                                                    39981074.014 4                     -1624.542 4        27.952
C19        48.000                                                                                                                                    21901498.745 7 114047007.55507     -1299.634 7        47.926                                                                    21901494.383 7  92672385.73207     -1056.180 7        42.637
C34        49.000                                                                                                                                    26815066.382 5 139633033.17305     -1358.078 5        31.019                                                                    26815057.852 4                     -1104.127 4        28.408
C22        51.000                                                                                                                                    23271445.284 7 121180506.23507      1543.836 7        46.417                                                                    23271437.905 6  98469090.38506      1254.485 6        40.498
C12        54.000                                                                                                                                                                                                    26746757.955 5                     -1795.007 5        31.532    26746766.410 5                     -1885.946 5        30.317
I09        59.000    38871416.058 4 152539815.17404     -1198.831 4        25.053
> 2025 01 02 06 31 25.0000000  0 33
G13         1.000    22722938.888 5 119409860.22205      2131.623 5        32.599                                    22722935.412 2  93046625.00002      1660.992 2        14.667
G20         4.000    20724775.261 8 108909484.38508     -1184.551 8        48.497                                    20724768.829 4  84864485.04604      -923.022 4        28.066
G07         5.000    21373517.322 7 112318621.50607     -2383.052 7        45.109                                    21373514.443 6  87521010.51606     -1856.914 6        38.694    21373513.800 6  87520956.50806     -1856.824 6        40.391
G30         7.000    20520729.620 8 107837177.43208      -246.180 8        49.898                                    20520727.050 7  84028890.47207      -191.829 7        47.436    20520726.857 7  84028938.47007      -191.831 7        42.679
G14         8.000    23403098.329 5 122984104.34705      2590.045 5        35.786                                                                                                    23403097.106 6  95831782.28006      2018.462 6        36.798
E21        10.000    25967072.746 6 136457865.72106     -1706.073 6        37.493                                                                    25967074.021 6 101900375.02906     -1274.024 6        40.682    25967075.404 7 104558662.50107     -1307.225 7        44.807
E06        11.000    23797097.467 6 125054564.38906       261.548 6        40.582                                                                    23797097.409 7  93384985.70807       195.322 7        45.040    23797094.441 6  95821056.63506       200.534 6        36.454
G05        14.000    21779614.507 7 114452633.62507      1274.454 7        43.164                                    21779606.039 5  89183818.11105       993.081 5        31.291    21779608.242 6  89183866.07106       993.195 6        36.389
E11        16.000    26625846.276 3                     -3600.315 3        22.229                                                                    26625841.056 4                     -2689.900 4        26.311
E04        17.000    23346213.265 8 122685161.50208      -936.661 8        48.640                                                                    23346209.928 6  91615607.07706      -699.383 6        37.486    23346211.570 7  94005509.52007      -717.733 7        46.139
R08        18.000    21826892.445 6 116882128.29506     -3944.175 6        38.808                                                                    21826891.351 6  90908223.72206     -3067.711 6        36.117
E19        20.000    25894237.752 4                     -3046.579 4        24.707
E09        21.000    25421429.645 6 133590691.55306      1093.192 6        40.765                                                                    25421426.635 5  99759150.14605       815.969 5        32.689    25421439.617 6 102361572.96506       837.664 6        38.790
E36        22.000    26192809.566 5 137643988.18405     -1543.532 5        31.660                                                                    26192783.873 6 102786179.86906     -1152.421 6        39.393    26192781.539 7 105467452.83207     -1182.659 7        43.329
S36        23.000    38255297.230 6 201032930.92806      -851.847 6        36.200
S23        24.000    38190480.618 6 200692303.18106      -849.169 6        40.093
G11        25.000    24161231.468 5 126968153.03805     -3887.396 5        30.279
E34        26.000    28123575.659 4                       905.582 4        29.867                                                                    28123577.253 5                       676.216 5        30.392    28123585.907 4 113241865.67004       694.344 4        27.772
R18        28.000    23125212.515 5 123443930.18815      -544.647 5        35.924                                                                    23125205.243 5  96011946.79815      -423.848 5        34.105
E10        29.000    28071483.907 4 147516662.04604     -4016.497 4        28.047                                                                                                                                    28071475.954 3                     -3076.798 3        19.104
R11        30.000    19433209.068 8 103845167.56308      -575.554 8        48.872                                                                    19433206.121 7  80768453.47407      -447.647 7        45.412
C20        31.000                                                                                                                                    24396549.654 6 127039179.64206     -3580.614 6        36.106                                                                    24396561.416 4 103229762.29004     -2909.896 4        28.948
R10        32.000    21938117.839 4                     -4416.816 4        25.248
C36        34.000                                                                                                                                    23517236.369 7 122460594.13207      2022.406 7        42.076                                                                    23517242.160 6  99509164.17406      1643.243 6        38.814
R02        35.000    21521634.856 7 114843519.99607      2347.830 7        47.617                                                                    21521633.170 6  89322940.41806      1825.979 6        40.074
R12        38.000    21912232.467 6 117051323.88806      3296.721 6        37.017
C37        42.000                                                                                                                                    24942397.388 5 129881619.84205     -3579.799 5        35.729                                                                    24942410.554 5 105539488.92805     -2909.324 5        34.333
R01        44.000    19243330.300 7 102866605.66407      -576.710 7        47.492                                                                    19243330.992 5  80007363.76005      -448.657 5        35.857
C09        47.000                                                                                                                                    39982631.712 4                     -1624.785 4        28.502    39982582.736 5                     -1256.396 5        30.762
C19        48.000                                                                                                                                    21902747.547 7 114053511.70307     -1301.745 7        47.699                                                                    21902743.763 7  92677670.87307     -1057.932 7        42.840
C34        49.000                                                                                                                                                                                                                                                                    26816364.120 4                     -1105.703 4        28.796
C22        51.000                                                                                                                                    23269962.889 7 121172790.44007      1542.703 7        47.162                                                                    23269956.580 6  98462820.62806      1253.597 6        41.692
C12        54.000                                                                                                                                                                                                    26748993.095 5                     -1796.253 5        30.128    26748997.678 4                     -1888.020 4        26.479
> 2025 01 02 06 31 30.0000000  0 34
G13         1.000    22720909.697 5 119399204.14305      2130.709 5        32.162                                    22720907.764 2  93038321.57302      1660.296 2        14.619
G20         4.000    20725904.043 8 108915416.37508     -1188.096 8        48.689                                    20725897.444 4  84869107.35104      -925.789 4        28.284
G07         5.000    21375787.061 7 112330541.81307     -2384.921 7        43.517                                    21375782.602 6  87530299.05606     -1858.379 6        38.378    21375782.986 6  87530245.06806     -1858.384 6        39.991
G09         6.000                                                                                                                                                                    23050209.115 3                     -2982.114 3        20.619
G30         7.000    20520965.225 8 107838415.07408      -248.711 8        50.105                                    20520962.182 7  84029854.86407      -193.801 7        47.388    20520962.356 6  84029902.87006      -193.813 6        41.630
G14         8.000    23400634.532 5 122971156.22305      2589.493 5        31.721                                                                                                    23400633.252 6  95821692.81306      2017.691 6        38.099
E21        10.000    25968697.976 6 136466402.68606     -1708.574 6        37.754                                                                    25968698.935 6 101906750.03306     -1275.935 6        40.687    25968699.760 7 104565203.81107     -1309.156 7        44.796
E06        11.000    23796849.212 6 125053259.67506       260.450 6        39.646                                                                    23796849.380 7  93384011.37107       194.480 7        44.942    23796846.296 6  95820056.92806       199.416 6        37.391
G05        14.000    21778401.960 6 114446269.25306      1271.531 6        41.712                                    21778395.084 5  89178858.85605       990.815 5        30.506    21778396.991 6  89178906.81106       990.723 6        37.195
E11        16.000                                                                                                                                    26629270.303 4                     -2691.122 4        25.038
E04        17.000    23347105.174 8 122689848.07908      -937.848 8        49.124                                                                    23347102.728 6  91619106.79406      -700.391 6        38.808    23347103.695 7  94009100.53207      -718.648 7        46.194
R08        18.000    21830574.164 5 116901854.46505     -3946.138 5        35.271                                                                    21830575.811 5  90923566.24205     -3069.243 5        33.892
E19        20.000    25897139.701 3                     -3046.142 3        23.257                                                                    25897127.214 5 101625891.25815     -2275.563 5        34.271
E09        21.000    25420389.782 6 133585228.05106      1092.421 6        41.383                                                                    25420385.844 5  99755070.22305       815.950 5        32.425    25420401.243 6 102357386.65006       837.042 6        38.192
E36        22.000    26194272.730 3                     -1544.261 3        18.507                                                                    26194252.890 6 102791947.68906     -1154.436 6        38.390    26194251.575 7 105473371.10507     -1184.550 7        43.663
S36        23.000    38256094.386 5 201037191.34305      -851.845 5        34.010
S23        24.000    38191293.810 6 200696549.08206      -849.044 6        41.073
E34        26.000    28122709.220 4                       904.123 4        28.341                                                                    28122718.894 4                       674.813 4        29.507
R17        27.000                                                                                                                                    23156191.920 5  96377176.72605     -2678.021 5        33.940
R18        28.000    23125729.019 6 123446665.53306      -549.210 6        40.203                                                                    23125722.500 5  96014074.33105      -427.168 5        35.671
E10        29.000    28075305.777 4 147536746.12904     -4016.409 4        25.549                                                                                                                                    28075297.765 3                     -3074.710 3        20.119
R11        30.000    19433749.775 8 103848057.31208      -580.153 8        49.413                                                                    19433747.425 7  80770701.07307      -451.284 7        45.543
C20        31.000                                                                                                                                    24399987.835 6 127057086.43306     -3581.667 6        36.129                                                                    24400004.755 4 103244312.99904     -2911.002 4        28.445
R10        32.000    21942267.670 4                     -4419.930 4        29.640
C36        34.000                                                                                                                                    23515296.986 7 122450486.35307      2020.788 7        42.908                                                                    23515301.612 6  99500950.81106      1642.013 6        40.019
R02        35.000    21519435.723 7 114831783.89507      2346.813 7        46.349                                                                    21519433.599 6  89313812.32706      1825.282 6        39.901
R12        38.000    21909147.931 6 117034846.21216      3294.575 6        36.601                                                                    21909156.388 4                      2562.258 4        27.018
C37        42.000                                                                                                                                    24945840.417 5 129899523.14205     -3581.237 5        35.867                                                                    24945848.145 5 105554036.82105     -2910.057 5        32.581
R01        44.000    19243872.223 7 102869497.31607      -579.845 7        47.680                                                                    19243870.955 6  80009612.80506      -450.992 6        36.609
C09        47.000                                                                                                                                    39984188.378 4                     -1624.250 4        25.925    39984148.050 5                     -1256.506 5        31.577
C19        48.000                                                                                                                                    21903999.858 7 114060026.62307     -1304.088 7        47.741                                                                    21903994.423 7  92682964.76607     -1059.553 7        43.236
C34        49.000                                                                                                                                                                                                                                                                    26817675.231 4                     -1107.331 4        28.844
C22        51.000                                                                                                                                    23268482.212 8 121165080.30508      1541.468 8        48.026                                                                    23268476.156 6  98456555.53006      1252.526 6        40.610
C12        54.000                                                                                                                                                                                                    26751221.532 5 107716085.72115     -1798.267 5        31.366    26751234.728 4                     -1889.968 4        24.391
> 2025 01 02 06 31 35.0000000  0 34
G13         1.000    22718884.597 5 119388551.84405      2129.429 5        34.495                                    22718880.790 2  93030021.06002      1659.297 2        14.571
G20         4.000    20727035.580 8 108921364.84308     -1191.719 8        48.216                                    20727029.319 4  84873742.49804      -928.616 4        28.398
G07         5.000    21378057.180 7 112342470.25407     -2386.810 7        42.830                                    21378052.255 6  87539593.93606     -1859.854 6        38.165    21378053.238 6  87539539.96806     -1859.936 6        40.510
G30         7.000    20521202.973 8 107839664.53208      -251.388 8        50.054                                    20521199.558 7  84030828.46507      -195.884 7        47.414    20521200.913 6  84030876.45506      -195.808 6        41.862
G14         8.000    23398169.954 5 122958211.88205      2588.128 5        33.659                                                                                                    23398170.203 6  95811606.31906      2016.757 6        39.348
E21        10.000    25970325.275 6 136474951.17806     -1711.319 6        38.754                                                                    25970325.217 6 101913133.65106     -1277.888 6        40.744    25970326.166 7 104571753.94507     -1311.268 7        44.388
E06        11.000    23796601.202 6 125051959.41906       259.192 6        38.814                                                                    23796601.929 7  93383040.39007       193.588 7        45.017    23796598.924 6  95819060.61706       198.727 6        37.478
G05        14.000    21777193.042 7 114439918.12907      1268.472 7        44.650                                    21777186.699 5  89173909.89705       988.431 5        30.453    21777187.608 6  89173957.85506       988.418 6        37.977
E11        16.000    26632713.566 4                     -3604.165 4        27.557                                                                    26632702.076 4                     -2692.193 4        27.210
E04        17.000    23347998.006 8 122694539.99408      -939.264 8        49.693                                                                    23347995.472 6  91622610.49106      -701.409 6        38.898    23347996.422 7  94012695.63507      -719.764 7        45.949
R08        18.000    21834259.753 6 116921588.96506     -3948.245 6        36.355                                                                    21834260.763 5  90938915.24205     -3070.863 5        33.401
E19        20.000    25900044.637 3                     -3048.094 3        23.276                                                                    25900026.011 5 101637268.92305     -2276.224 5        34.124
E09        21.000    25419352.213 7 133579767.03507      1091.538 7        42.900                                                                    25419348.334 5  99750992.19005       815.270 5        33.072    25419362.349 5 102353202.25005       836.609 5        34.986
E36        22.000                                                                                                                                    26195724.789 5 102797724.62405     -1156.435 5        34.305    26195723.567 7 105479298.76307     -1186.744 7        43.725
S36        23.000    38256898.473 5 201041451.03305      -851.789 5        32.467
S23        24.000    38192096.453 6 200700794.78706      -849.666 6        40.234
G11        25.000    24168663.676 4                     -3889.352 4        25.895                                                                                                    24168620.071 5                     -3031.021 5        32.982
E34        26.000    28121850.020 4                       902.005 4        28.720                                                                    28121861.205 4                       673.063 4        29.289    28121863.451 3                       694.705 3        21.976
R17        27.000                                                                                                                                    23159414.992 4  96390572.07004     -2680.730 4        29.801
R18        28.000    23126252.163 6 123449422.32506      -553.802 6        38.523                                                                    23126246.009 6  96016218.49906      -430.779 6        37.214
E10        29.000                                                                                                                                                                                                    28079121.034 3                     -3078.210 3        20.690
R11        30.000    19434294.528 8 103850969.25408      -585.012 8        49.276                                                                    19434291.984 7  80772965.89807      -454.997 7        45.064
C20        31.000                                                                                                                                    24403426.012 6 127074998.88806     -3583.573 6        38.703                                                                    24403448.295 5 103258868.32705     -2911.752 5        30.257
R10        32.000    21946419.652 3                     -4422.982 3        23.676
C36        34.000                                                                                                                                    23513357.011 7 122440385.70107      2019.005 7        43.060                                                                    23513361.366 6  99492743.16106      1640.896 6        36.155
R02        35.000    21517235.975 7 114820052.21507      2345.562 7        45.055                                                                    21517235.701 6  89304687.67306      1824.339 6        40.021
R12        38.000    21906065.292 6                      3292.616 6        36.745
C37        42.000                                                                                                                                    24949281.049 5 129917432.68905     -3583.039 5        31.887                                                                    24949287.626 5 105568589.83105     -2911.241 5        31.615
R01        44.000    19244414.882 7 102872403.14407      -582.963 7        47.825                                                                    19244413.514 6  80011872.85106      -453.487 6        37.660
C09        47.000                                                                                                                                    39985746.510 4                     -1624.467 4        25.414    39985714.075 4                     -1256.725 4        27.509
C19        48.000                                                                                                                                    21905253.008 7 114066552.04407     -1306.490 7        47.353                                                                    21905247.113 7  92688267.18607     -1061.534 7        43.446
C34        49.000                                                                                                                                    26819005.068 5                     -1365.534 5        32.072                                                                    26818985.171 5                     -1109.613 5        30.596
C22        51.000                                                                                                                                    23267002.624 7 121157375.59907      1539.983 7        47.615                                                                    23266996.690 6  98450294.81006      1251.507 6        41.113
C12        54.000                                                                                                                                                                                                    26753453.420 4 107725080.35104     -1800.113 4        28.739    26753475.588 3                     -1890.558 3        22.229
> 2025 01 02 06 31 40.0000000  0 33
G13         1.000    22716860.030 5 119377904.35905      2129.005 5        35.324                                    22716854.640 2  93021724.28502      1658.975 2        15.381
G20         4.000    20728170.429 7 108927330.84607     -1195.043 7        47.180                                    20728164.401 4  84878391.30804      -931.196 4        27.725
G07         5.000    21380329.474 7 112354407.88507     -2388.671 7        42.971                                    21380323.799 6  87548895.97806     -1861.302 6        38.171    21380324.867 6  87548842.00206     -1861.111 6        40.360
G09         6.000    23057509.649 4                     -3829.878 4        25.323                                                                                                    23057498.754 3                     -2984.130 3        22.552
G30         7.000    20521443.327 8 107840926.86508      -253.867 8        50.649                                    20521439.411 7  84031812.08407      -197.822 7        47.452    20521441.130 7  84031860.09307      -197.886 7        42.191
G14         8.000    23395707.882 5 122945272.37605      2587.312 5        32.054                                                                                                    23395707.021 6  95801523.61106      2016.084 6        39.583
E21        10.000    25971954.140 6 136483512.29206     -1713.504 6        37.773                                                                    25971954.226 6 101919526.66206     -1279.594 6        40.467    25971955.371 7 104578313.73407     -1313.068 7        44.248
E06        11.000    23796354.920 6 125050664.69306       258.286 6        39.985                                                                    23796355.282 7  93382073.53907       192.890 7        45.386    23796353.075 6  95818068.55806       197.768 6        37.841
G05        14.000    21775987.689 7 114433581.44107      1265.767 7        45.138                                    21775981.177 5  89168972.21205       986.305 5        31.343    21775982.838 6  89169020.19106       986.516 6        38.733
E11        16.000                                                                                                                                    26636132.558 4                     -2692.613 4        29.147
E04        17.000    23348892.073 8 122699238.32208      -940.429 8        49.227                                                                    23348889.366 6  91626118.96506      -702.125 6        39.243    23348890.359 7  94016295.61307      -720.590 7        46.274
R08        18.000    21837949.047 5 116941332.93405     -3950.014 5        33.778                                                                    21837947.755 5  90954271.58605     -3072.018 5        30.257
E19        20.000    25902946.890 4                     -3048.351 4        25.248                                                                    25902926.710 5 101648649.02005     -2276.104 5        35.200
E09        21.000    25418313.395 7 133574309.59507      1090.964 7        42.840                                                                    25418309.025 5  99746916.79905       814.776 5        35.395    25418325.302 5 102349020.60805       836.056 5        34.733
E36        22.000    26197194.462 4                     -1551.020 4        28.322                                                                    26197195.520 6 102803511.37506     -1158.281 6        36.484    26197198.050 7 105485236.50607     -1188.624 7        43.137
S23        24.000    38192908.039 6 200705041.45306      -849.516 6        41.001
G11        25.000    24172355.778 5                     -3891.216 5        31.306                                                                                                    24172327.091 5                     -3031.972 5        32.671
E34        26.000    28120993.011 4                       899.548 4        29.991                                                                    28120997.042 5                       671.569 5        30.400    28121012.967 3                       687.828 3        20.690
R17        27.000                                                                                                                                    23162639.080 4  96403979.67404     -2683.029 4        28.000
R18        28.000    23126774.523 6 123452201.53006      -558.228 6        37.580                                                                    23126767.606 6  96018380.07606      -434.031 6        36.873
E10        29.000    28082947.340 3                     -4017.044 3        23.752                                                                                                                                    28082945.156 3                     -3079.778 3        22.476
R11        30.000    19434844.316 8 103853904.50508      -589.479 8        50.180                                                                    19434840.556 7  80775248.84707      -458.536 7        44.605
C20        31.000                                                                                                                                    24406864.680 6 127092918.05606     -3584.597 6        37.138                                                                    24406893.825 4 103273429.10204     -2912.566 4        26.000
C36        34.000                                                                                                                                    23511418.637 6 122430293.09706      2017.635 6        39.327                                                                    23511422.263 5  99484542.10705      1639.152 5        35.662
R02        35.000    21515038.009 7 114808325.87707      2344.502 7        43.740                                                                    21515038.496 6  89295567.18506      1823.748 6        38.631
R12        38.000    21902984.065 6                      3290.623 6        38.778                                                                    21903016.336 4                      2559.457 4        27.988
C37        42.000                                                                                                                                                                                                                                                                    24952727.700 4 105583148.65004     -2912.510 4        29.071
R01        44.000    19244961.527 8 102875324.29008      -585.883 8        48.306                                                                    19244961.363 6  80014144.86706      -455.883 6        37.887
C09        47.000                                                                                                                                    39987302.626 4                     -1625.644 4        25.579    39987272.185 4                     -1256.804 4        25.218
C19        48.000                                                                                                                                    21906508.870 7 114073088.96807     -1308.596 7        47.174                                                                    21906502.128 7  92693579.01707     -1063.422 7        43.253
C34        49.000                                                                                                                                    26820321.089 5                     -1368.603 5        34.357                                                                    26820297.686 4                     -1111.737 4        28.569
C22        51.000                                                                                                                                    23265524.497 8 121149677.34308      1538.838 8        48.424                                                                    23265518.205 6  98444039.38806      1250.314 6        41.097
C12        54.000                                                                                                                                                                                                    26755690.879 5 107734083.65305     -1801.711 5        34.557
> 2025 01 02 06 31 45.0000000  0 34
G13         1.000    22714835.711 6 119367260.88106      2128.453 6        37.819                                    22714829.183 2  93013430.66302      1658.532 2        14.714
G20         4.000    20729308.206 7 108933313.48807     -1197.987 7        45.196                                    20729302.424 4  84883053.10304      -933.498 4        27.018
G07         5.000    21382603.383 7 112366353.84307     -2389.792 7        42.718                                    21382596.908 6  87558204.52406     -1862.174 6        38.390    21382597.856 6  87558150.54606     -1862.252 6        39.685
G09         6.000    23061142.158 4                     -3831.262 4        27.545                                                                                                    23061141.812 4                     -2985.365 4        26.180
G30         7.000    20521685.957 8 107842201.19208      -255.870 8        50.970                                    20521681.581 7  84032805.05507      -199.379 7        47.358    20521683.191 6  84032853.06806      -199.453 6        41.897
G14         8.000    23393247.581 5 122932336.92105      2587.104 5        32.180                                                                                                    23393245.864 6  95791444.01406      2015.854 6        39.378
E21        10.000    25973585.710 6 136492085.11806     -1715.454 6        39.330                                                                    25973585.689 6 101925928.45306     -1281.146 6        40.946    25973586.921 7 104584882.52007     -1314.485 7        44.000
E06        11.000    23796109.908 6 125049374.65806       257.884 6        40.176                                                                    23796109.608 7  93381110.19007       192.461 7        44.570    23796108.350 6  95817080.05606       197.491 6        38.754
G05        14.000    21774782.664 7 114427258.19107      1263.475 7        42.123                                    21774778.538 5  89164044.97905       984.527 5        31.275    21774780.901 6  89164092.95906       984.536 6        38.688
E11        16.000    26639552.220 4                     -3606.406 4        27.329                                                                    26639561.205 4                     -2693.598 4        28.483
E04        17.000    23349787.384 8 122703942.16908      -941.093 8        49.783                                                                    23349784.422 6  91629631.56206      -702.749 6        39.661    23349785.713 7  94019899.85407      -721.133 7        46.458
R08        18.000    21841637.532 5 116961085.44005     -3951.105 5        34.057                                                                    21841635.610 5  90969634.68105     -3072.904 5        30.438
E19        20.000    25905836.462 4                     -3048.621 4        26.467                                                                    25905827.195 5 101660031.09805     -2276.521 5        35.305
E09        21.000    25417275.153 7 133568854.86707      1090.894 7        43.314                                                                    25417268.329 5  99742843.45305       814.643 5        33.737    25417282.462 6 102344841.08106       835.776 6        37.051
E36        22.000    26198670.361 4                     -1553.668 4        25.579                                                                    26198669.529 5 102809307.40305     -1159.930 5        34.286    26198675.539 7 105491183.74807     -1190.332 7        43.558
S23        24.000    38193720.966 6 200709288.07806      -849.058 6        39.375
G11        25.000    24176054.016 4                     -3891.942 4        28.957                                                                                                    24176029.559 5                     -3032.578 5        30.626
E34        26.000    28120138.882 5                       897.627 5        30.785                                                                    28120137.793 4                       670.388 4        29.678    28120156.481 3                       686.733 3        23.905
R17        27.000    23165881.244 6 123965240.33006     -3451.934 6        38.991                                                                    23165864.876 5  96417399.01205     -2685.035 5        31.894
R18        28.000    23127288.080 6 123455002.32406      -562.028 6        37.210                                                                    23127284.902 6  96020558.46806      -437.110 6        36.703
E10        29.000    28086768.694 3                     -4017.092 3        22.648                                                                                                                                    28086770.165 3                     -3078.821 3        23.733
R11        30.000    19435397.882 8 103856862.13308      -593.526 8        50.318                                                                    19435394.072 7  80777549.20307      -461.595 7        44.889
C20        31.000                                                                                                                                    24410305.697 6 127110843.05906     -3585.323 6        38.129                                                                    24410336.008 4 103287994.60504     -2913.878 4        25.880
R10        32.000    21954706.490 4                     -4427.675 4        29.081
C36        34.000                                                                                                                                    23509479.935 6 122420207.75906      2016.597 6        39.492                                                                    23509480.324 5  99476347.06005      1638.102 5        30.649
R02        35.000    21512843.146 7 114796604.14807      2344.127 7        45.538                                                                    21512843.281 6  89286450.29606      1823.114 6        39.081
R12        38.000    21899906.323 6 116985466.90416      3289.519 6        40.114
C37        42.000                                                                                                                                                                                                                                                                    24956170.610 5 105597712.79505     -2913.343 5        30.709
R01        44.000    19245510.996 8 102878259.92708      -588.274 8        48.618                                                                    19245510.363 6  80016428.11206      -457.485 6        38.060
C09        47.000                                                                                                                                    39988872.680 4                     -1624.721 4        24.165
C19        48.000                                                                                                                                    21907767.034 7 114079636.61507     -1310.454 7        45.694                                                                    21907759.480 7  92698899.50707     -1064.852 7        43.863
C34        49.000                                                                                                                                    26821636.693 4 139667299.43714     -1370.217 4        29.659                                                                    26821610.818 4                     -1113.492 4        26.072
C22        51.000                                                                                                                                    23264048.016 8 121141984.70908      1538.171 8        49.291                                                                    23264040.704 6  98437788.50206      1249.864 6        41.695
C12        54.000                                                                                                                                                                                                    26757942.335 5 107743095.16005     -1803.012 5        33.359
> 2025 01 02 06 31 50.0000000  0 34
G13         1.000    22712810.517 6 119356620.91506      2127.747 6        36.552                                    22712804.325 2  93005139.75902      1657.961 2        15.667
G20         4.000    20730449.747 7 108939312.37207     -1201.382 7        45.195                                    20730443.922 4  84887727.53804      -936.137 4        27.305
G07         5.000    21384878.049 7 112378307.68707     -2391.555 7        43.050                                    21384871.573 6  87567519.19806     -1863.547 6        38.288    21384872.969 6  87567465.21106     -1863.592 6        39.057
G09         6.000    23064790.260 4                     -3832.152 4        29.479                                                                                                    23064788.693 3                     -2986.931 3        23.200
G30         7.000    20521930.245 8 107843487.10908      -258.413 8        49.544                                    20521926.076 7  84033807.07107      -201.365 7        47.271    20521928.009 7  84033855.07307      -201.289 7        42.121
G14         8.000    23390777.687 4                      2586.173 4        25.880                                                                                                    23390785.110 6  95781367.19106      2015.080 6        40.779
E21        10.000    25975219.217 6 136500669.23106     -1717.953 6        40.148                                                                    25975219.302 6 101932338.64206     -1282.866 6        40.620    25975220.422 7 104591459.95007     -1316.327 7        44.057
E06        11.000    23795865.070 6 125048088.85406       256.694 6        40.799                                                                    23795864.992 7  93380149.99407       191.630 7        45.363    23795864.248 6  95816094.82506       196.674 6        39.378
G05        14.000    21773580.446 6 114420947.97106      1260.669 6        41.733                                    21773578.462 5  89159127.90305       982.338 5        31.766    21773579.336 6  89159175.89106       982.471 6        37.425
E11        16.000    26642987.495 5                     -3607.649 5        32.299                                                                    26642993.645 4                     -2694.169 4        27.629
E04        17.000    23350683.502 8 122708651.10808      -942.294 8        49.825                                                                    23350680.642 6  91633147.98506      -703.634 6        40.765    23350681.961 7  94023508.00007      -722.074 7        46.720
R08        18.000    21845327.640 5 116980846.19605     -3952.893 5        33.228                                                                    21845326.545 5  90985004.11805     -3074.652 5        33.299
E19        20.000    25908729.668 4                     -3049.043 4        28.370                                                                    25908727.644 5 101671414.68005     -2276.802 5        35.114
E09        21.000    25416237.083 7 133563402.38507      1090.186 7        43.145                                                                    25416232.488 5  99738771.77005       814.198 5        34.843
E36        22.000    26200144.458 4                     -1555.778 4        26.790                                                                    26200149.369 5 102815112.28305     -1161.981 5        32.677    26200154.269 7 105497140.06507     -1192.248 7        43.687
S23        24.000    38194530.084 6 200713534.14006      -849.167 6        40.517
G11        25.000    24179755.272 4                     -3893.248 4        28.777                                                                                                    24179732.143 5                     -3033.721 5        32.437
E34        26.000    28119287.163 5                       895.586 5        31.374                                                                    28119285.296 5                       668.814 5        31.011    28119305.509 3                       685.731 3        20.643
R17        27.000    23169099.372 6 123982508.08906     -3455.107 6        37.180                                                                    23169097.466 5  96430829.37805     -2687.100 5        32.868
R18        28.000    23127816.112 5 123457824.19205      -566.845 5        34.767                                                                    23127808.633 6  96022753.23806      -440.604 6        38.072
E10        29.000    28090591.985 3                     -4015.020 3        21.381                                                                                                                                    28090589.704 3                     -3077.707 3        22.724
R11        30.000    19435955.074 8 103859841.72608      -598.129 8        50.809                                                                    19435951.684 7  80779866.67807      -465.300 7        44.509
C20        31.000                                                                                                                                    24413752.280 6 127128773.51906     -3586.693 6        38.697                                                                    24413777.567 3                     -2915.373 3        21.667
R10        32.000    21958867.035 3                     -4431.196 3        22.648
C36        34.000                                                                                                                                    23507543.850 6 122410129.23506      2014.991 6        39.574                                                                    23507539.412 4  99468157.42504      1636.953 4        28.502
R02        35.000    21510646.827 7 114784886.58407      2343.107 7        44.796                                                                    21510647.370 6  89277336.61706      1822.392 6        40.124
R12        38.000    21896829.178 6 116969024.59616      3287.510 6        39.459                                                                    21896837.310 5                      2557.022 5        32.970
C37        42.000                                                                                                                                                                                                                                                                    24959614.247 5 105612281.68805     -2914.728 5        31.502
R01        44.000    19246062.337 8 102881209.50508      -591.381 8        48.651                                                                    19246062.900 6  80018722.20106      -459.896 6        38.553
C09        47.000                                                                                                                                    39990438.320 3                     -1627.077 3        21.595
C19        48.000                                                                                                                                    21909026.598 7 114086194.54307     -1312.681 7        45.124                                                                    21909019.406 7  92704228.33207     -1066.793 7        44.045
C34        49.000                                                                                                                                    26822950.792 5 139674158.71305     -1372.995 5        30.491                                                                    26822930.761 4                     -1115.877 4        28.512
C22        51.000                                                                                                                                    23262571.852 8 121134297.26708      1536.865 8        50.306                                                                    23262565.200 7  98431541.82207      1248.801 7        42.112
C12        54.000                                                                                                                                                                                                    26760187.379 5 107752114.55205     -1804.447 5        30.196    26760200.993 3                     -1897.355 3        23.010
> 2025 01 02 06 31 55.0000000  0 34
G13         1.000    22710784.409 5 119345985.36605      2126.425 5        35.776                                    22710780.312 2  92996852.30402      1656.959 2        13.939
G20         4.000    20731595.325 7 108945328.26107     -1205.011 7        45.263                                    20731588.715 4  84892415.22804      -938.963 4        27.401
G07         5.000    21387153.849 7 112390270.19207     -2393.416 7        42.916                                    21387147.790 6  87576840.64106     -1864.998 6        37.898    21387149.026 6  87576786.63906     -1864.938 6        39.459
G09         6.000    23068441.746 5                     -3833.130 5        30.581                                                                                                    23068437.586 4                     -2987.261 4        24.947
G30         7.000    20522177.179 8 107844785.37508      -260.942 8        49.491                                    20522173.213 7  84034818.69707      -203.335 7        47.386    20522175.192 7  84034866.71407      -203.400 7        42.730
G14         8.000    23388324.962 5                      2585.124 5        32.006                                                                                                    23388324.881 6  95771293.81006      2014.159 6        40.543
E21        10.000    25976855.175 6 136509265.41906     -1720.432 6        39.958                                                                    25976855.217 6 101938757.86006     -1284.767 6        40.498    25976856.350 7 104598046.63707     -1318.304 7        44.269
E06        11.000    23795621.654 6 125046808.07706       255.489 6        41.793                                                                    23795621.865 7  93379193.55107       190.779 7        45.843    23795620.816 6  95815113.43906       195.899 6        40.329
G05        14.000    21772383.866 6 114414651.66706      1257.768 6        40.574                                    21772381.011 5  89154221.67005       980.080 5        32.096    21772380.888 6  89154269.66606       980.178 6        37.376
E11        16.000    26646419.944 5                     -3608.812 5        33.257                                                                    26646427.699 4                     -2694.917 4        27.832
E04        17.000    23351580.365 8 122713365.94408      -943.605 8        49.533                                                                    23351578.051 7  91636668.82007      -704.598 7        42.095    23351578.940 7  94027120.67507      -723.105 7        46.475
R08        18.000    21849020.295 6 117000615.93606     -3954.951 6        36.817                                                                    21849020.356 5  91000380.52005     -3076.104 5        34.295
E19        20.000    25911631.286 4                     -3049.504 4        28.872                                                                    25911629.235 5 101682800.47005     -2277.698 5        34.962
E09        21.000    25415200.620 7 133557952.95607      1089.387 7        43.515                                                                    25415197.583 6  99734702.40406       813.487 6        37.217    25415193.224 6 102336487.69606       834.645 6        37.123
E36        22.000    26201626.823 4                     -1558.551 4        26.180                                                                    26201631.670 5 102820926.62805     -1163.856 5        32.251    26201636.016 7 105503106.13207     -1194.234 7        43.501
S23        24.000    38195333.210 6 200717780.42806      -849.325 6        41.116
G11        25.000    24183460.972 5                     -3893.945 5        31.630                                                                                                    24183434.476 5                     -3035.890 5        34.324
E34        26.000    28118433.544 5                       893.573 5        30.928                                                                    28118436.117 5                       667.247 5        30.943    28118456.728 3                       683.277 3        18.955
R17        27.000    23172321.671 5 123999791.16505     -3458.286 5        32.569                                                                    23172336.221 5  96444271.82305     -2689.870 5        32.928
R18        28.000                                                                                                                                    23128342.683 6  96024965.05006      -444.069 6        39.508
E10        29.000                                                                                                                                                                                                    28094414.144 4                     -3077.006 4        24.647
R11        30.000    19436516.738 8 103862844.09608      -602.829 8        51.047                                                                    19436513.935 7  80782201.85707      -468.905 7        44.861
C20        31.000                                                                                                                                    24417196.969 6 127146710.16106     -3587.933 6        39.156                                                                    24417219.267 3                     -2914.719 3        23.200
R10        32.000    21963032.477 4                     -4432.426 4        25.293
C36        34.000                                                                                                                                    23505609.382 6 122400058.34206      2013.293 6        39.676                                                                    23505601.578 4  99459973.96304      1635.555 4        25.579
R02        35.000    21508450.417 7 114773173.84107      2341.792 7        42.694                                                                    21508452.004 6  89268226.69706      1821.459 6        40.853
R12        38.000    21893751.428 6 116952591.38716      3285.701 6        39.772                                                                    21893756.393 5                      2555.662 5        32.557
C37        42.000                                                                                                                                                                                                                                                                    24963058.549 5 105626856.12605     -2915.753 5        31.675
R01        44.000    19246616.744 8 102884173.93208      -594.448 8        48.871                                                                    19246617.489 6  80021027.89606      -462.494 6        39.099
C09        47.000                                                                                                                                    39991991.815 3                     -1623.962 3        22.514
C19        48.000                                                                                                                                    21910287.581 7 114092763.49007     -1314.999 7        44.712                                                                    21910281.255 7  92709566.13407     -1068.655 7        44.928
C34        49.000                                                                                                                                    26824261.781 5 139681030.83905     -1375.791 5        35.052                                                                    26824252.371 4                     -1117.583 4        27.365
C22        51.000                                                                                                                                    23261096.345 8 121126615.81308      1535.608 8        50.209                                                                    23261089.428 7  98425300.03107      1247.699 7        42.694
C12        54.000                                                                                                                                    26762412.263 4                     -2336.194 4        28.009    26762427.782 5 107761142.38605     -1806.193 5        30.513    26762443.458 3                     -1895.531 3        20.690
> 2025 01 02 06 32  0.0000000  0 32
G13         1.000    22708762.819 6 119335354.54406      2125.722 6        38.174                                    22708757.158 2  92988568.55302      1656.399 2        12.727
G20         4.000    20732744.050 7 108951361.62207     -1208.302 7        44.969                                    20732737.015 4  84897116.53704      -941.529 4        28.104
G07         5.000    21389431.190 7 112402241.88107     -2395.065 7        43.335                                    21389425.773 6  87586169.22506     -1866.279 6        37.686    21389427.556 6  87586115.21306     -1866.292 6        40.105
G09         6.000    23072091.382 4                     -3834.566 4        29.308                                                                                                    23072083.644 4                     -2987.683 4        24.015
G30         7.000    20522426.724 8 107846096.50808      -263.409 8        50.026                                    20522423.016 7  84035840.36107      -205.253 7        47.828    20522425.281 7  84035888.35507      -205.220 7        43.503
G14         8.000    23385867.747 5                      2584.215 5        35.452                                                                                                    23385865.698 6  95761224.21606      2013.681 6        40.689
E21        10.000    25978493.553 6 136517874.19806     -1722.942 6        40.474                                                                    25978493.567 6 101945186.45206     -1286.578 6        40.553    25978494.599 7 104604642.95207     -1320.133 7        44.668
E06        11.000    23795378.470 7 125045532.79907       254.679 7        42.174                                                                    23795378.934 7  93378241.23507       190.140 7        45.898    23795378.181 6  95814136.30406       195.030 6        41.085
G05        14.000    21771188.315 6 114408369.58506      1255.117 6        39.405                                    21771186.216 5  89149326.52605       978.023 5        31.275    21771185.783 6  89149374.52906       977.892 6        37.085
E11        16.000    26649854.986 5                     -3610.238 5        30.921                                                                    26649861.127 4                     -2695.871 4        26.778
E04        17.000    23352478.859 8 122718087.17308      -944.769 8        49.349                                                                    23352476.683 7  91640194.38707      -705.447 7        43.672    23352477.132 7  94030738.23307      -723.907 7        46.234
R08        18.000    21852716.306 6 117020395.10206     -3956.711 6        37.558                                                                    21852713.015 5  91015764.26905     -3077.510 5        35.805
E19        20.000    25914534.599 5                     -3050.347 5        31.102                                                                    25914530.905 5 101694188.72705     -2277.815 5        35.148
E09        21.000    25414165.326 7 133552507.08407      1088.959 7        44.959                                                                    25414161.870 6  99730635.65506       813.217 6        37.543    25414159.547 6 102332314.87606       834.376 6        36.828
E36        22.000    26203114.711 4                     -1560.920 4        24.962                                                                    26203116.942 5 102826750.86905     -1166.128 5        30.551    26203120.346 7 105509082.29507     -1196.120 7        43.553
S23        24.000    38196141.688 6 200722027.57706      -849.481 6        40.138
G11        25.000                                                                                                                                                                    24187139.063 5  99042296.13515     -3035.327 5        35.086
E34        26.000    28117581.449 4                       890.940 4        29.062                                                                    28117585.900 4                       665.463 4        29.185
R18        28.000    23128877.107 4                      -574.943 4        25.248                                                                    23128880.308 6                      -447.519 6        39.559
E10        29.000                                                                                                                                                                                                    28098236.263 4                     -3077.788 4        25.594
R11        30.000    19437082.713 8 103865869.74408      -607.389 8        49.517                                                                    19437079.803 7  80784555.11007      -472.395 7        45.333
C20        31.000                                                                                                                                    24420642.554 6 127164653.54206     -3589.241 6        39.694                                                                    24420652.601 3                     -2916.011 3        22.800
R10        32.000    21967200.056 4                     -4435.702 4        26.048
C36        34.000                                                                                                                                    23503677.406 6 122389995.56606      2011.776 6        40.350
R02        35.000    21506256.662 7 114761466.57807      2340.894 7        43.676                                                                    21506258.434 7  89259121.04407      1820.773 7        42.830
R12        38.000    21890676.276 6                      3283.743 6        38.673                                                                    21890683.463 4                      2553.980 4        29.517
C37        42.000                                                                                                                                    24966604.051 5 130007081.51505     -3589.150 5        33.748                                                                    24966506.023 5 105641436.41705     -2916.656 5        32.934
R01        44.000    19247174.409 8 102887153.71208      -597.391 8        48.820                                                                    19247175.243 6  80023345.46306      -464.638 6        39.766
C19        48.000                                                                                                                                    21911550.623 7 114099343.96107     -1317.182 7        44.376                                                                    21911545.071 7  92714913.30707     -1070.378 7        45.514
C34        49.000                                                                                                                                                                                                                                                                    26825577.197 3                     -1119.101 3        23.086
C22        51.000                                                                                                                                    23259622.451 8 121118940.82708      1534.420 8        50.720                                                                    23259615.061 7  98419063.48007      1246.900 7        42.478
C12        54.000                                                                                                                                    26764655.076 4                     -2338.365 4        28.237    26764665.161 5 107770178.97705     -1807.893 5        33.018    26764689.764 3                     -1898.734 3        20.333
> 2025 01 02 06 32  5.0000000  0 31
G13         1.000    22706741.729 6 119324728.14406      2124.668 6        38.495                                    22706734.934 2  92980288.23102      1655.585 2        12.727
G20         4.000    20733895.176 7 108957411.99807     -1211.915 7        44.558                                    20733888.726 4  84901831.09904      -944.343 4        28.701
G07         5.000    21391711.645 7 112414222.22507     -2396.913 7        43.426                                    21391705.433 6  87595504.55206     -1867.720 6        37.856    21391707.249 6  87595450.57806     -1867.780 6        40.412
G09         6.000    23075737.123 5                     -3835.155 5        30.928                                                                                                    23075737.859 4                     -2988.738 4        25.444
G30         7.000    20522678.514 8 107847420.00608      -265.950 8        49.496                                    20522675.341 8  84036871.65208      -207.234 8        48.422    20522677.373 7  84036919.64907      -207.187 7        44.023
G14         8.000    23383408.177 6 122880643.66916      2583.112 6        36.019                                                                                                    23383408.118 6  95751158.08106      2012.760 6        40.663
E21        10.000    25980133.964 6 136526495.03006     -1725.420 6        40.393                                                                    25980134.387 6 101951624.06406     -1288.388 6        40.644    25980135.294 7 104611248.52707     -1322.155 7        44.730
E06        11.000    23795136.291 6 125044262.58506       253.480 6        41.676                                                                    23795137.172 7  93377292.68307       189.283 7        46.194    23795136.094 6  95813163.00106       194.320 6        41.294
G05        14.000    21769995.619 6 114402101.49806      1251.916 6        37.936                                    21769993.938 5  89144442.28305       975.522 5        30.113    21769993.637 6  89144490.25806       975.750 6        36.386
E11        16.000    26653291.329 5                     -3611.119 5        31.698                                                                    26653297.775 4                     -2696.851 4        27.126
E04        17.000    23353378.147 8 122722814.30308      -946.123 8        49.371                                                                    23353376.429 7  91643724.39707      -706.451 7        44.158    23353376.249 7  94034360.31307      -724.908 7        45.613
R08        18.000    21856414.726 6 117040183.21806     -3958.412 6        36.726                                                                    21856408.688 6  91031154.94206     -3078.771 6        37.146
E19        20.000    25917441.767 5                     -3051.033 5        31.547                                                                    25917433.639 5 101705579.16205     -2278.368 5        34.776
E09        21.000    25413129.892 7 133547064.29807      1088.168 7        44.880                                                                    25413126.924 6  99726571.22606       812.568 6        38.462    25413125.286 6 102328144.41706       833.831 6        37.274
E36        22.000    26204600.716 3                     -1565.213 3        21.119                                                                    26204607.613 5 102832584.47805     -1167.731 5        33.820    26204607.090 7 105515068.19507     -1198.158 7        42.978
S23        24.000    38196948.020 6 200726274.93906      -849.534 6        39.108
G11        25.000    24190888.570 5                     -3896.468 5        32.234                                                                                                    24190847.888 5  99057475.15605     -3036.287 5        35.109
E34        26.000    28116732.789 4                       889.553 4        26.395                                                                    28116737.871 5                       664.015 5        30.513    28116724.703 5 113214396.01215       681.442 5        34.714
R18        28.000    23129419.931 5                      -579.749 5        30.785                                                                    23129420.439 6  96029440.65916      -451.179 6        39.408
E10        29.000                                                                                                                                                                                                    28102057.497 4                     -3077.459 4        25.489
R11        30.000    19437652.708 8 103868918.13708      -612.064 8        49.958                                                                    19437650.604 7  80786926.06907      -476.046 7        45.896
C20        31.000                                                                                                                                    24424089.945 6 127182603.13406     -3590.608 6        41.647                                                                    24424093.260 3                     -2919.364 3        20.643
C36        34.000                                                                                                                                    23501748.440 6 122379940.46106      2010.290 6        40.255                                                                    23501739.970 4  99443626.56004      1633.701 4        26.263
R02        35.000    21504065.213 7 114749764.42207      2339.861 7        45.585                                                                    21504065.099 7  89250019.34807      1819.941 7        42.954
R12        38.000    21887605.808 6 116919753.65916      3281.865 6        38.946                                                                    21887602.738 4                      2552.296 4        27.497
C37        42.000                                                                                                                                                                                                                                                                    24969953.750 5 105656022.20905     -2917.763 5        32.126
R01        44.000    19247734.546 8 102890148.35808      -600.478 8        48.525                                                                    19247735.214 6  80025674.62306      -467.023 6        39.628
C19        48.000                                                                                                                                    21912816.472 7 114105935.50107     -1319.523 7        44.119                                                                    21912810.944 7  92720269.45807     -1072.123 7        45.869
C34        49.000                                                                                                                                    26826888.032 5 139694814.72005     -1381.052 5        35.609                                                                    26826901.061 3                     -1121.513 3        23.390
C22        51.000                                                                                                                                    23258150.599 8 121111271.85708      1533.079 8        50.980                                                                    23258142.082 7  98412831.81407      1245.812 7        42.392
C12        54.000                                                                                                                                    26766899.786 4                     -2340.733 4        26.527    26766913.887 5 107779224.07005     -1809.943 5        34.014
> 2025 01 02 06 32 10.0000000  0 32
G13         1.000    22704720.163 6 119314105.16906      2124.623 6        39.048                                    22704713.228 2  92972010.60302      1655.558 2        13.758
G20         4.000    20735049.889 7 108963478.42507     -1214.516 7        45.011                                    20735043.558 4  84906558.17804      -946.383 4        29.564
G07         5.000    21393993.161 7 112426210.33407     -2398.174 7        43.727                                    21393986.663 6  87604845.92606     -1868.710 6        38.309    21393988.432 6  87604791.94206     -1868.663 6        41.077
G09         6.000    23079394.060 4                     -3836.142 4        25.263                                                                                                    23079385.379 4                     -2988.727 4        25.398
G30         7.000    20522932.398 8 107848754.94108      -267.805 8        49.613                                    20522929.879 8  84037911.85008      -208.681 8        48.896    20522931.220 7  84037959.85407      -208.650 7        44.387
G14         8.000    23380951.770 6 122867728.92406      2582.923 6        36.125                                                                                                    23380950.095 6  95741094.66506      2012.607 6        40.291
E21        10.000    25981776.309 6 136535127.03106     -1727.132 6        40.517                                                                    25981777.026 6 101958070.00306     -1289.891 6        40.069    25981777.952 7 104617862.63907     -1323.455 7        45.335
E06        11.000    23794894.444 6 125042996.50906       253.092 6        40.687                                                                    23794896.225 7  93376347.21507       188.973 7        46.045    23794895.191 6  95812192.87406       194.015 6        41.731
G05        14.000    21768806.033 5 114395846.42805      1249.929 5        34.348                                    21768803.918 4  89139568.16604       973.994 4        27.892    21768804.684 6  89139616.13706       974.150 6        36.994
E11        16.000    26656728.558 5                     -3611.767 5        32.413                                                                    26656735.737 4                     -2696.729 4        28.171
E04        17.000    23354278.317 8 122727546.42508      -946.640 8        48.898                                                                    23354277.350 7  91647258.11207      -706.919 7        45.082    23354276.015 7  94037986.21307      -725.315 7        45.333
R08        18.000    21860111.502 6 117059979.18706     -3959.708 6        37.297                                                                    21860104.426 6  91046551.78406     -3079.756 6        36.873
E19        20.000    25920342.776 4                     -3050.888 4        29.232                                                                    25920335.776 5 101716971.07005     -2278.449 5        35.071
E09        21.000    25412093.277 7 133541623.67207      1088.247 7        44.954                                                                    25412092.286 6  99722508.40006       812.658 6        39.117    25412090.408 6 102323975.62106       833.725 6        38.123
E36        22.000    26206121.385 4                     -1565.875 4        24.090                                                                                                                                    26206096.394 7 105521063.10907     -1199.701 7        43.173
S23        24.000    38197746.491 6 200730521.58106      -848.856 6        37.713
G11        25.000    24194595.840 5                     -3897.250 5        31.841                                                                                                    24194557.360 6  99072657.78906     -3036.719 6        37.036
E34        26.000                                                                                                                                    28115891.500 5                       662.575 5        30.166    28115877.587 5 113210992.71805       680.258 5        34.462
R17        27.000                                                                                                                                    23182093.775 5  96484670.62115     -2696.242 5        30.332
R18        28.000    23129971.510 5                      -583.649 5        35.719                                                                    23129963.576 6  96031703.24016      -453.918 6        39.589
E10        29.000                                                                                                                                                                                                    28105881.808 4                     -3076.414 4        26.072
R11        30.000    19438227.091 8 103871988.35308      -615.903 8        49.536                                                                    19438225.655 7  80789314.03007      -479.051 7        45.845
C20        31.000                                                                                                                                    24427538.325 6 127200558.06206     -3591.241 6        41.051                                                                    24427534.675 3                     -2918.607 3        22.171
C36        34.000                                                                                                                                    23499821.662 6 122369892.08306      2009.263 6        41.847                                                                    23499815.404 4  99435461.43504      1633.018 4        28.464
R02        35.000    21501873.965 7 114738066.20607      2339.455 7        47.084                                                                    21501871.965 7  89240920.73607      1819.638 7        42.197
R12        38.000    21884533.682 6 116903347.66516      3280.647 6        38.754                                                                    21884532.156 5                      2551.630 5        30.664
C37        42.000                                                                                                                                                                                                                                                                    24973401.903 5 105670612.71605     -2918.303 5        33.144
R01        44.000    19248296.851 8 102893156.83308      -602.786 8        48.538                                                                    19248298.198 6  80028014.53606      -468.656 6        38.919
C19        48.000                                                                                                                                    21914083.137 7 114112537.16607     -1321.058 7        44.066                                                                    21914078.555 7  92725633.87507     -1073.506 7        46.157
C34        49.000                                                                                                                                    26828218.709 5 139701724.88905     -1382.841 5        35.614                                                                    26828228.265 3                     -1122.626 3        20.929
C22        51.000                                                                                                                                    23256679.230 8 121103607.99908      1532.518 8        50.710                                                                    23256669.836 7  98406604.31107      1245.283 7        42.099
C12        54.000                                                                                                                                    26769150.738 4                     -2342.563 4        28.152    26769165.810 5 107788276.97005     -1811.129 5        34.290
> 2025 01 02 06 32 15.0000000  0 33
G13         1.000    22702697.911 6 119303485.68206      2123.270 6        40.591                                    22702691.956 2  92963735.67102      1654.500 2        13.697
G20         4.000    20736207.687 7 108969560.85607     -1218.380 7        45.759                                    20736201.467 5  84911297.72605      -949.386 5        30.347
G07         5.000    21396275.737 7 112438206.19407     -2400.203 7        42.394                                    21396269.435 6  87614193.34306     -1870.290 6        38.565    21396270.649 6  87614139.36406     -1870.259 6        41.230
G09         6.000    23083032.016 4                     -3836.979 4        27.186                                                                                                    23083036.066 3                     -2988.678 3        22.533
G30         7.000    20523188.728 8 107850101.35308      -270.630 8        50.502                                    20523186.505 8  84038960.99508      -210.877 8        49.116    20523187.428 7  84039008.98707      -210.853 7        44.903
G14         8.000    23378494.905 6 122854817.72906      2581.733 6        36.635                                                                                                    23378493.312 6  95731034.03006      2011.545 6        40.138
E21        10.000    25983421.981 6 136543770.20006     -1729.959 6        41.166                                                                    25983421.680 6 101964524.29706     -1291.995 6        39.396    25983422.655 7 104624485.30307     -1325.617 7        45.183
E06        11.000    23794653.615 6 125041734.57106       251.643 6        39.775                                                                    23794656.108 7  93375404.83107       187.975 7        45.649    23794654.802 7  95811225.90507       192.926 7        42.588
G05        14.000    21767616.596 5 114389604.43005      1246.361 5        32.108                                    21767616.188 4  89134704.26104       971.195 4        24.947    21767616.890 6  89134752.18506       971.733 6        37.285
E11        16.000    26660169.070 5                     -3612.804 5        33.856                                                                    26660175.260 4                     -2697.569 4        28.389
E04        17.000    23355179.640 8 122732283.55008      -948.257 8        48.169                                                                    23355178.806 7  91650795.56807      -708.111 7        45.881    23355177.457 7  94041615.94907      -726.567 7        45.220
R08        18.000    21863806.219 6 117079783.22206     -3962.007 6        36.348                                                                    21863802.963 6  91061954.89706     -3081.429 6        38.210
S36        19.000    38263403.410 6 201075522.57816      -852.241 6        37.422
E19        20.000    25923242.007 4                     -3051.469 4        24.331                                                                    25923239.193 5 101728364.40105     -2279.080 5        33.683
E09        21.000    25411058.864 7 133536185.18707      1087.207 7        45.598                                                                    25411057.502 6  99718447.18806       811.832 6        39.417    25411055.977 6 102319808.48906       832.991 6        38.075
E36        22.000    26207611.929 4                     -1568.468 4        28.768                                                                    26207599.138 6 102844278.12706     -1171.521 6        36.896    26207587.540 7 105527067.04607     -1201.896 7        43.350
S23        24.000    38198557.522 6 200734767.60306      -849.454 6        39.069
G11        25.000    24198299.681 5 127162941.84215     -3898.668 5        31.940                                                                                                    24198270.497 6  99087844.07006     -3037.884 6        37.667
E34        26.000    28115041.143 3                       884.338 3        21.143                                                                    28115050.142 4                       661.182 4        28.389    28115033.685 5 113207596.74805       678.055 5        34.129
R18        28.000    23130522.767 6 123472272.33116      -588.349 6        37.939                                                                    23130513.199 6  96033982.24406      -457.780 6        38.691
E10        29.000                                                                                                                                                                                                    28109703.216 4                     -3076.975 4        26.263
R11        30.000    19438805.101 8 103875080.40408      -620.675 8        48.481                                                                    19438804.374 7  80791718.97807      -482.947 7        46.406
C20        31.000                                                                                                                                    24430985.514 6 127218518.24306     -3592.820 6        40.965                                                                    24430981.768 4                     -2920.831 4        24.045
C36        34.000                                                                                                                                    23497895.587 6 122359850.48706      2007.409 6        39.709                                                                    23497891.410 5  99427301.80505      1631.110 5        30.725
R02        35.000    21499682.927 7 114726372.03607      2338.109 7        46.630                                                                    21499681.061 7  89231825.26107      1818.430 7        42.789
R12        38.000    21881465.575 5 116886950.00905      3278.541 5        35.319                                                                    21881462.239 5                      2550.257 5        31.441
C37        42.000                                                                                                                                                                                                                                                                    24976849.614 5 105685207.89805     -2919.779 5        32.539
R01        44.000    19248862.546 8 102896179.29008      -606.169 8        48.651                                                                    19248862.771 6  80030365.31406      -471.370 6        39.096
C09        47.000                                                                                                                                    39998205.184 3                     -1625.065 3        22.724    39998181.169 5                     -1255.864 5        32.467
C19        48.000                                                                                                                                    21915351.805 7 114119149.02007     -1323.608 7        43.410                                                                    21915348.054 7  92731006.52107     -1075.557 7        46.279
C34        49.000                                                                                                                                    26829548.235 5 139708646.93705     -1386.014 5        33.138
C22        51.000                                                                                                                                    23255208.160 8 121095949.24908      1530.955 8        50.428                                                                    23255198.573 6  98400380.95306      1244.156 6        41.833
C12        54.000                                                                                                                                    26771404.982 5                     -2344.790 5        30.106    26771425.718 5 107797337.47105     -1812.985 5        34.481
> 2025 01 02 06 32 20.0000000  0 33
G13         1.000    22700678.915 6 119292870.46106      2122.747 6        39.898                                    22700671.610 2  92955464.05602      1654.091 2        13.697
G20         4.000    20737368.846 7 108975660.32607     -1221.480 7        45.726                                    20737362.412 5  84916050.55605      -951.797 5        30.641
G07         5.000    21398559.741 7 112450210.69907     -2401.685 7        43.314                                    21398554.050 6  87623547.49506     -1871.437 6        38.625    21398555.304 7  87623493.49807     -1871.424 7        42.203
G09         6.000    23086683.941 4                     -3838.125 4        24.135                                                                                                    23086684.163 4                     -2990.400 4        24.602
G30         7.000    20523447.391 8 107851460.08208      -272.878 8        50.990                                    20523445.417 8  84040019.73808      -212.627 8        49.642    20523445.928 7  84040067.73307      -212.598 7        44.928
G14         8.000    23376041.598 6 122841910.95706      2581.044 6        36.079                                    23376017.338 1                      2011.162 1         7.000    23376036.945 6  95720976.81606      2011.326 6        39.408
E21        10.000    25985069.881 6 136552425.35906     -1732.167 6        41.952                                                                    25985068.633 6 101970987.56906     -1293.495 6        39.189    25985069.903 7 104631117.18607     -1327.219 7        45.159
E06        11.000    23794414.933 6 125040477.61706       251.095 6        38.835                                                                    23794416.814 7  93374466.19007       187.430 7        45.598    23794415.586 7  95810262.79807       192.320 7        42.760
G05        14.000    21766430.629 5 114383376.25205      1244.226 5        30.460                                    21766430.717 3  89129851.11303       969.521 3        22.095    21766429.351 5  89129899.11505       969.857 5        35.433
E11        16.000    26663605.896 5                     -3613.977 5        32.437                                                                    26663614.698 4                     -2699.331 4        25.053
E04        17.000    23356082.120 7 122737026.53107      -949.053 7        47.898                                                                    23356081.341 7  91654337.39907      -708.688 7        46.224    23356079.337 7  94045250.18907      -727.236 7        44.752
R08        18.000                                                                                                                                    21867503.281 6  91077364.93806     -3082.588 6        39.294
S36        19.000    38264206.455 6 201079783.30906      -852.006 6        37.527
E19        20.000    25926141.800 4                     -3052.376 4        24.827                                                                    25926142.918 5 101739759.88905     -2279.104 5        33.928
E09        21.000    25410025.758 7 133530749.78107      1086.866 7        45.254                                                                    25410023.082 6  99714388.25806       811.608 6        40.029    25410021.769 6 102315643.67606       832.703 6        38.880
E36        22.000    26209104.906 4                     -1571.021 4        27.952                                                                    26209088.472 6 102850138.83806     -1172.997 6        38.429    26209080.895 7 105533080.66807     -1203.602 7        43.697
S23        24.000    38199373.495 6 200739014.14406      -849.498 6        39.931
G11        25.000    24202006.274 5 127182436.42505     -3899.405 5        34.667                                                                                                    24201988.195 6  99103034.63206     -3038.575 6        37.595
E34        26.000                                                                                                                                    28114208.385 4                       659.444 4        29.071    28114191.317 5 113204208.74505       676.802 5        35.514
R18        28.000    23131076.470 6 123475224.35106      -592.510 6        38.970                                                                    23131066.470 6  96036278.23606      -460.810 6        38.781
E10        29.000                                                                                                                                                                                                    28113524.817 4                     -3077.058 4        26.479
R11        30.000    19439388.101 7 103878195.18507      -625.484 7        46.546                                                                    19439387.533 7  80794141.54907      -486.182 7        46.396
C20        31.000                                                                                                                                    24434435.650 7 127236484.59607     -3593.760 7        43.276                                                                    24434435.931 4                     -2919.767 4        27.341
C36        34.000                                                                                                                                    23495967.454 6 122349816.53306      2006.124 6        40.582                                                                    23495967.004 5  99419148.35305      1630.026 5        32.377
R02        35.000    21497492.595 7 114714682.97707      2337.482 7        47.283                                                                    21497490.821 6  89222733.74706      1818.072 6        41.869
R12        38.000                                                                                                                                    21878396.683 5                      2548.643 5        31.336
C37        42.000                                                                                                                                    24980291.412 5 130078917.10605     -3594.268 5        34.952                                                                    24980300.350 5 105699808.57705     -2920.588 5        31.774
R01        44.000    19249431.239 8 102899216.59308      -608.880 8        48.350                                                                    19249431.155 6  80032727.67106      -473.622 6        38.793
C09        47.000                                                                                                                                                                                                    39999749.769 5                     -1255.960 5        33.216
C19        48.000                                                                                                                                    21916623.078 7 114125771.90807     -1325.647 7        43.103                                                                    21916619.685 7  92736388.14307     -1077.096 7        46.005
C34        49.000                                                                                                                                    26830879.131 4 139715581.87404     -1388.323 4        29.450                                                                    26830890.638 3                     -1125.594 3        22.190
C22        51.000                                                                                                                                    23253738.415 8 121088296.50508      1530.059 8        50.263                                                                    23253728.989 6  98394162.46106      1243.473 6        41.611
C12        54.000                                                                                                                                    26773658.250 4                     -2346.804 4        29.678    26773683.636 5 107806406.45005     -1814.096 5        30.853
> 2025 01 02 06 32 25.0000000  0 34
G13         1.000    22698658.600 6 119282259.40206      2121.878 6        39.291                                    22698652.051 2  92947195.71902      1653.388 2        13.515
G20         4.000    20738532.338 7 108981776.54807     -1224.845 7        46.848                                    20738526.510 5  84920816.44705      -954.422 5        30.838
G07         5.000    21400846.607 7 112462223.56907     -2403.272 7        44.287                                    21400840.408 6  87632908.16406     -1872.674 6        38.928    21400841.165 7  87632854.17307     -1872.857 7        42.828
G09         6.000    23090333.822 4                     -3838.870 4        25.308                                                                                                    23090342.871 3                     -2991.312 3        22.400
G30         7.000    20523708.219 8 107852830.91608      -275.268 8        50.937                                    20523706.604 8  84041087.91008      -214.492 8        50.278    20523707.199 7  84041135.90207      -214.455 7        45.624
G14         8.000    23373590.769 6 122829008.34906      2580.177 6        36.597                                    23373564.407 1  95710828.87911      2010.560 1         8.000    23373581.409 6  95710922.89106      2010.700 6        39.249
E21        10.000    25986718.447 7 136561092.34507     -1734.464 7        42.275                                                                    25986717.599 6 101977459.65706     -1295.157 6        39.048    25986719.290 7 104637758.11607     -1329.079 7        45.232
E06        11.000    23794177.550 6 125039225.45006       250.035 6        39.366                                                                    23794178.408 7  93373531.13707       186.650 7        45.124    23794176.992 7  95809303.34007       191.706 7        42.973
G05        14.000    21765250.590 4 114377161.76804      1241.947 4        28.758                                    21765247.856 3  89125008.65403       967.778 3        20.500    21765245.404 5  89125056.62605       967.671 5        34.443
E11        16.000    26667042.454 5                     -3614.860 5        31.623                                                                    26667052.745 4                     -2698.268 4        25.654
E04        17.000    23356985.378 7 122741775.16707      -950.240 7        46.970                                                                    23356984.735 7  91657883.44607      -709.454 7        46.647    23356982.158 7  94048888.75007      -728.062 7        44.217
R08        18.000    21871206.775 3                     -3969.287 3        18.478                                                                    21871205.896 6  91092781.66206     -3083.896 6        39.348
S36        19.000    38265011.499 6 201084043.78006      -851.925 6        36.711
E19        20.000    25929045.819 3                     -3052.703 3        20.048                                                                    25929046.919 5 101751157.32805     -2279.632 5        32.401
E09        21.000    25408992.854 7 133525317.17607      1086.391 7        44.609                                                                    25408989.298 6  99710331.42306       811.244 6        40.443    25408988.091 6 102311481.02506       832.402 6        40.579
E36        22.000    26210595.821 4                     -1573.450 4        27.677                                                                    26210584.355 6 102856008.84606     -1174.960 6        38.937    26210576.617 7 105539103.83507     -1205.546 7        42.885
S23        24.000    38200180.113 6 200743260.73206      -849.110 6        39.889
G11        25.000    24205709.651 5 127201936.24605     -3900.565 5        31.789                                                                                                    24205705.106 6  99118229.27506     -3039.308 6        36.076
E34        26.000                                                                                                                                    28113369.764 5                       658.066 5        31.072    28113352.402 5 113200828.59805       675.135 5        34.333
R17        27.000    23191898.830 5                     -3476.061 5        32.677                                                                    23191813.183 3                     -2707.146 3        19.970
R18        28.000    23131632.335 6 123478198.02406      -596.843 6        39.039                                                                    23131623.660 6  96038591.05906      -464.023 6        39.399
E10        29.000                                                                                                                                                                                                    28117345.004 4                     -3077.320 4        25.910
R11        30.000    19439975.435 7 103881332.39807      -629.665 7        46.752                                                                    19439974.701 7  80796581.63007      -489.716 7        46.166
C20        31.000                                                                                                                                    24437887.853 7 127254456.89807     -3594.886 7        44.370                                                                    24437889.946 4                     -2921.245 4        29.953
C36        34.000                                                                                                                                    23494041.343 6 122339789.93006      2004.566 6        40.300                                                                    23494043.563 5  99411000.95305      1629.125 5        35.629
R02        35.000    21495302.623 8 114702998.60208      2336.377 8        48.409                                                                    21495302.135 7  89213645.88007      1817.251 7        42.601
R12        38.000    21875326.688 5                      3274.765 5        34.590                                                                    21875332.611 5                      2547.182 5        30.921
C37        42.000                                                                                                                                                                                                                                                                    24983751.188 5 105714414.44005     -2921.492 5        31.834
R01        44.000    19250001.690 7 102902268.46807      -611.711 7        47.737                                                                    19250002.060 6  80035101.32106      -475.805 6        38.754
C09        47.000                                                                                                                                                                                                    40001311.493 5                     -1255.820 5        31.019
C19        48.000                                                                                                                                    21917896.480 7 114132405.58007     -1327.726 7        42.207                                                                    21917893.599 7  92741778.55707     -1078.979 7        46.056
C34        49.000                                                                                                                                    26832202.722 4                     -1390.313 4        24.797                                                                    26832223.195 4                     -1130.591 4        26.000
C22        51.000                                                                                                                                    23252269.815 8 121080649.53808      1528.927 8        49.991                                                                    23252260.569 6  98387948.68406      1242.272 6        40.794
C12        54.000                                                                                                                                    26775912.731 5                     -2348.730 5        31.396
> 2025 01 02 06 32 30.0000000  0 34
G13         1.000    22696640.315 6 119271652.26706      2121.433 6        38.715                                    22696633.386 2  92938930.41902      1653.036 2        12.970
G20         4.000    20739699.230 7 108987909.37607     -1227.876 7        47.980                                    20739693.670 5  84925595.27905      -956.788 5        31.079
G07         5.000    21403134.296 7 112474244.68007     -2404.687 7        44.879                                    21403128.452 6  87642275.25506     -1873.783 6        39.571    21403128.891 7  87642221.25607     -1873.794 7        43.407
G09         6.000    23093992.164 4                     -3839.265 4        29.204
G30         7.000    20523971.395 8 107854213.69508      -277.320 8        51.407                                    20523970.019 8  84042165.39108      -216.091 8        50.799    20523970.283 7  84042213.38407      -216.077 7        45.543
G14         8.000    23371135.886 5 122816109.89505      2579.641 5        33.958                                    23371113.166 1  95700778.13401      2010.110 1         9.238    23371127.329 6  95700872.13906      2010.184 6        39.787
E21        10.000    25988368.521 6 136569771.00006     -1736.472 6        41.442                                                                    25988369.616 6 101983940.44106     -1296.710 6        39.721    25988371.105 7 104644407.96607     -1330.580 7        45.153
E06        11.000    23793940.032 6 125037977.96106       249.297 6        37.474                                                                    23793940.679 7  93372599.54307       186.284 7        44.915    23793939.592 7  95808347.46207       191.092 7        43.295
G05        14.000    21764071.969 4 114370960.96504      1238.620 4        25.248                                    21764067.643 3  89120176.88203       965.199 3        18.985    21764065.620 5  89120224.77405       965.467 5        33.587
E11        16.000    26670480.394 5                     -3615.792 5        31.457                                                                    26670490.748 3                     -2700.755 3        21.738
E04        17.000    23357889.949 7 122746529.31907      -950.973 7        46.496                                                                    23357889.378 7  91661433.61607      -710.089 7        46.991    23357886.282 7  94052531.53107      -728.671 7        44.149
R08        18.000    21874904.105 4                     -3967.094 4        28.663                                                                    21874909.248 6  91108204.96806     -3084.918 6        38.483
S36        19.000    38265822.021 5 201088303.11505      -851.237 5        35.529
E19        20.000                                                                                                                                    25931952.418 5 101762556.67805     -2279.689 5        32.383
E09        21.000    25407958.938 7 133519887.25307      1086.183 7        44.224                                                                    25407955.987 6  99706276.60106       810.909 6        40.126    25407955.066 6 102307320.43406       832.075 6        40.982
E36        22.000                                                                                                                                    26212083.059 6 102861888.02506     -1176.580 6        39.069    26212074.376 7 105545136.38707     -1207.166 7        42.343
S23        24.000    38200989.575 6 200747507.07406      -848.956 6        39.850
G11        25.000    24209415.450 4 127221441.07104     -3900.345 4        25.113                                                                                                    24209415.451 6  99133427.94106     -3039.728 6        36.786
E34        26.000    28112560.153 4                       879.455 4        28.445                                                                    28112531.603 5                       656.707 5        31.147    28112515.219 5 113197456.13305       673.797 5        34.943
R17        27.000                                                                                                                                    23195073.036 4                     -2705.813 4        24.030
R18        28.000    23132199.513 6 123481193.20806      -600.844 6        40.822                                                                    23132185.673 6  96040920.66606      -467.165 6        40.010
E10        29.000                                                                                                                                                                                                    28121166.569 4                     -3077.661 4        25.970
R11        30.000    19440568.219 7 103884491.99607      -633.746 7        47.451                                                                    19440566.296 7  80799039.09007      -492.906 7        46.048
C20        31.000                                                                                                                                    24441340.611 7 127272435.00107     -3595.884 7        45.145                                                                    24441344.217 5                     -2922.000 5        30.574
C36        34.000                                                                                                                                    23492117.515 6 122329770.63806      2003.498 6        41.051                                                                    23492121.183 6  99402859.51606      1627.897 6        37.463
R02        35.000    21493114.320 7 114691318.83007      2335.903 7        47.913                                                                    21493113.174 7  89204561.62507      1816.809 7        43.958
R12        38.000    21872265.329 5 116837688.75615      3273.856 5        33.228                                                                    21872270.479 4                      2546.086 4        29.460
C37        42.000                                                                                                                                    24987221.755 5 130114872.75205     -3596.377 5        34.319                                                                    24987204.804 5 105729025.46805     -2922.358 5        32.108
R01        44.000    19250574.552 7 102905334.81607      -614.295 7        47.326                                                                    19250576.104 6  80037486.26806      -477.913 6        39.279
C09        47.000                                                                                                                                    40002881.602 4                     -1623.667 4        24.932
C19        48.000                                                                                                                                    21919171.124 6 114139049.90806     -1329.593 6        41.335                                                                    21919169.610 7  92747177.64207     -1080.440 7        46.295
C34        49.000                                                                                                                                    26833545.788 4                     -1392.538 4        26.263                                                                    26833560.197 4                     -1131.711 4        24.391
C22        51.000                                                                                                                                    23250802.031 8 121073008.21908      1528.050 8        50.014                                                                    23250793.614 6  98381739.50106      1241.629 6        40.846
C12        54.000                                                                                                                                    26778169.957 5                     -2350.610 5        32.263                                                                    26778160.595 5                     -1910.070 5        35.138
> 2025 01 02 06 32 35.0000000  0 34
G13         1.000    22694621.345 6 119261048.09306      2120.356 6        41.063                                    22694615.303 2  92930667.45602      1652.219 2        12.303
G20         4.000    20740868.777 8 108994057.83808     -1231.418 8        48.131                                    20740863.527 5  84930386.29005      -959.547 5        30.906
G07         5.000    21405422.520 7 112486273.02907     -2406.522 7        44.840                                    21405417.834 6  87651647.97806     -1875.211 6        39.532    21405417.030 7  87651593.99107     -1875.312 7        43.736
G09         6.000    23097644.858 4                     -3840.085 4        28.341
G30         7.000    20524236.833 8 107855607.43508      -280.028 8        52.391                                    20524235.410 8  84043251.41308      -218.200 8        51.226    20524235.376 7  84043299.40407      -218.136 7        45.538
G14         8.000    23368677.976 4 122803214.59204      2578.185 4        29.147                                    23368661.121 1  95690729.76401      2009.008 1         8.190    23368672.964 6  95690823.78806      2009.400 6        40.522
E21        10.000    25990022.266 6 136578460.27206     -1739.073 6        40.687                                                                    25990023.584 6 101990429.17706     -1298.609 6        40.169    25990025.252 7 104651065.96807     -1332.539 7        45.083
E06        11.000    23793703.361 6 125036734.08606       248.316 6        36.628                                                                    23793703.875 7  93371670.66207       185.383 7        44.838    23793702.471 7  95807394.34507       190.112 7        43.126
G05        14.000    21762897.108 5 114364772.63805      1236.096 5        30.045                                    21762889.616 2  89115354.75702       963.216 2        17.736    21762888.878 5  89115402.73605       963.392 5        34.667
E11        16.000    26673920.440 4                     -3616.664 4        28.967
E04        17.000    23358795.429 7 122751287.96407      -952.257 7        45.604                                                                    23358794.915 7  91664987.14107      -711.146 7        46.765    23358791.882 7  94056177.75307      -729.669 7        44.099
R08        18.000    21878612.578 5                     -3968.412 5        30.641                                                                    21878611.805 6  91123634.17916     -3086.538 6        36.851
S36        19.000    38266633.446 5 201092560.91205      -851.701 5        33.683
E19        20.000                                                                                                                                    25934858.749 5 101773957.14105     -2280.162 5        32.317
E09        21.000    25406925.916 7 133514459.00807      1085.316 7        42.936                                                                    25406923.054 6  99702223.01906       810.434 6        40.265    25406921.983 6 102303161.11106       831.577 6        41.733
E36        22.000    26213604.655 5                     -1578.200 5        32.030                                                                    26213583.352 6 102867775.62706     -1178.657 6        38.943    26213574.471 6 105551177.56906     -1209.230 6        41.714
S23        24.000    38201799.006 6 200751752.32506      -849.017 6        39.276
G11        25.000                                                                                                                                                                    24213122.512 6  99148629.75606     -3040.767 6        36.000
E34        26.000    28111726.463 5                       877.546 5        31.924                                                                    28111695.208 5                       655.178 5        31.238    28111678.255 5 113194090.61105       672.016 5        34.319
R17        27.000                                                                                                                                    23198320.610 4                     -2708.026 4        28.891
R18        28.000    23132766.794 6 123484208.87406      -605.400 6        37.890                                                                    23132748.864 6  96043266.20406      -470.879 6        38.345
E10        29.000                                                                                                                                                                                                    28124989.029 4                     -3076.525 4        25.444
R11        30.000    19441163.855 8 103887672.92308      -638.472 8        48.468                                                                    19441161.320 7  80801513.12207      -496.512 7        45.797
C20        31.000                                                                                                                                    24444792.159 7 127290417.91507     -3597.273 7        45.121                                                                    24444796.515 4                     -2922.889 4        29.213
C36        34.000                                                                                                                                    23490193.645 6 122319757.64406      2001.707 6        40.591                                                                    23490198.356 6  99394723.11006      1626.627 6        38.841
R02        35.000    21490925.460 8 114679642.63508      2334.642 8        48.089                                                                    21490925.118 7  89195480.16007      1815.843 7        44.456
R12        38.000    21869203.423 5 116821326.12705      3271.231 5        34.957                                                                    21869197.544 4                      2544.504 4        29.336
C37        42.000                                                                                                                                    24990677.103 5 130132858.99405     -3597.912 5        32.150                                                                    24990660.098 5 105743640.71105     -2923.355 5        31.487
R01        44.000    19251150.586 7 102908414.66807      -617.484 7        46.479                                                                    19251151.175 6  80039881.69706      -480.284 6        38.715
C09        47.000                                                                                                                                    40004441.658 4                     -1623.741 4        27.832    40004414.168 4                     -1255.594 4        26.671
C19        48.000                                                                                                                                    21920450.019 6 114145703.94606     -1331.972 6        40.176                                                                    21920447.542 7  92752584.55707     -1082.293 7        46.446
C34        49.000                                                                                                                                    26834885.034 4                     -1395.563 4        27.078                                                                    26834898.424 4                     -1134.153 4        27.605
C22        51.000                                                                                                                                    23249335.342 8 121065371.55308      1526.654 8        49.688                                                                    23249327.214 6  98375534.08306      1240.487 6        40.510
C12        54.000                                                                                                                                    26780428.148 5                     -2352.852 5        31.638    26780472.275 4 107833661.60504     -1819.512 4        28.758    26780418.102 5 113316721.45215     -1911.822 5        35.952
> 2025 01 02 06 32 40.0000000  0 33
G13         1.000    22692604.866 6 119250447.59506      2119.354 6        40.782                                    22692598.024 2  92922407.32702      1651.429 2        13.697
G20         4.000    20742041.733 7 109000222.53807     -1234.900 7        46.972                                    20742036.358 5  84935189.95505      -962.260 5        30.747
G07         5.000    21407712.854 7 112498309.25807     -2408.374 7        44.152                                    21407708.606 6  87661026.84706     -1876.649 6        39.841    21407707.764 7  87660972.85307     -1876.684 7        43.678
G09         6.000    23101294.999 5                     -3841.005 5        30.045                                                                                                    23101337.415 4                     -2993.602 4        25.774
G30         7.000    20524504.262 8 107857012.78408      -282.575 8        52.110                                    20524502.924 8  84044346.48108      -220.188 8        51.433    20524502.649 7  84044394.48207      -220.200 7        45.786
G14         8.000    23366212.864 3                      2578.084 3        23.771                                                                                                    23366219.395 6  95680778.35906      2008.573 6        40.942
E21        10.000    25991678.528 6 136587160.86506     -1741.502 6        41.630                                                                    25991679.731 6 101996926.35206     -1300.453 6        40.231    25991681.073 7 104657732.64507     -1334.541 7        44.919
E06        11.000    23793467.882 6 125035494.53206       247.142 6        37.773                                                                    23793467.993 7  93370745.02007       184.580 7        44.175    23793466.363 7  95806444.53807       189.470 7        42.618
G05        14.000    21761728.807 6 114358597.62406      1233.478 6        36.200                                    21761713.817 3  89110543.03303       961.133 3        18.925    21761712.412 5  89110591.06405       960.891 5        33.347
E11        16.000    26677364.363 4                     -3617.272 4        26.862                                                                    26677355.055 4                     -2701.198 4        24.376
E04        17.000    23359702.128 7 122756051.76107      -953.526 7        44.494                                                                    23359701.443 7  91668544.51407      -712.052 7        46.921    23359698.680 7  94059827.94207      -730.636 7        43.915
R08        18.000    21882319.352 5                     -3970.079 5        32.144                                                                    21882317.773 5                     -3087.985 5        35.086
S36        19.000    38267431.175 5 201096819.05405      -852.080 5        31.283
E19        20.000                                                                                                                                    25937764.299 5 101785359.15705     -2280.746 5        31.955
E09        21.000    25405892.254 6 133509033.12006      1084.571 6        40.775                                                                    25405890.887 6  99698171.19206       809.873 6        40.589    25405889.388 7 102299003.58307       831.115 7        42.318
E36        22.000    26215101.490 5 137761290.59215     -1580.607 5        34.500                                                                    26215086.418 6 102873672.11206     -1180.437 6        38.405    26215076.796 6 105557227.90506     -1211.100 6        41.602
S23        24.000    38202597.231 6 200755997.30806      -849.320 6        38.985
G11        25.000                                                                                                                                                                    24216834.679 5  99163835.29005     -3041.632 5        33.467
E34        26.000    28110891.880 5                       875.379 5        32.317                                                                    28110861.121 5                       653.969 5        31.562    28110844.104 5 113190732.57605       670.536 5        33.826
R18        28.000    23133330.991 5 123487245.66505      -609.759 5        34.219                                                                    23133317.079 6  96045628.16306      -474.330 6        37.671
E10        29.000                                                                                                                                                                                                    28128813.683 4                     -3076.956 4        25.414
R11        30.000    19441763.320 7 103890875.88407      -643.159 7        47.815                                                                    19441760.483 7  80804004.30807      -500.231 7        44.632
C20        31.000                                                                                                                                    24448246.157 7 127308406.27907     -3598.526 7        45.193
C36        34.000                                                                                                                                    23488270.976 6 122309751.58406      2000.180 6        38.907                                                                    23488276.756 6  99386592.36006      1625.363 6        39.604
R02        35.000    21488737.134 7 114667970.87907      2333.551 7        46.938                                                                    21488737.950 7  89186402.11907      1815.075 7        44.188
R12        38.000    21866145.001 6 116804972.07606      3269.572 6        36.737                                                                    21866129.730 4                      2542.618 4        26.647
C37        42.000                                                                                                                                                                                                                                                                    24994113.572 4 105758260.82104     -2924.857 4        29.924
R01        44.000    19251729.159 7 102911508.53207      -620.558 7        46.673                                                                    19251730.821 6  80042288.02106      -482.624 6        38.772
C09        47.000                                                                                                                                                                                                    40005969.872 4                     -1255.604 4        26.108
C19        48.000                                                                                                                                    21921733.050 6 114152368.29806     -1334.183 6        38.219                                                                    21921727.516 7  92757999.89607     -1084.104 7        46.534
C34        49.000                                                                                                                                    26836224.307 5                     -1398.078 5        30.075                                                                    26836238.913 4                     -1135.881 4        25.594
C22        51.000                                                                                                                                    23247869.739 8 121057740.22608      1525.379 8        48.605                                                                    23247862.014 6  98369333.00006      1239.458 6        40.572
C12        54.000                                                                                                                                    26782684.310 5                     -2354.888 5        30.045                                                                    26782678.078 6 113326284.57506     -1913.658 6        36.117
> 2025 01 02 06 32 45.0000000  0 33
G13         1.000    22690588.388 6 119239851.92306      2118.527 6        41.318                                    22690581.671 2  92914150.92902      1650.783 2        12.848
G20         4.000    20743218.279 7 109006404.74107     -1238.312 7        45.967                                    20743212.484 5  84940007.25205      -964.916 5        30.868
G07         5.000    21410005.209 7 112510354.50907     -2410.016 7        44.330                                    21410001.019 6  87670412.74806     -1877.940 6        40.737    21409999.895 7  87670358.76907     -1878.061 7        43.247
G09         6.000    23104951.682 5                     -3842.254 5        32.234                                                                                                    23104992.153 4                     -2993.889 4        24.737
G30         7.000    20524773.855 8 107858430.93708      -285.011 8        52.075                                    20524772.787 8  84045451.52708      -222.084 8        51.553    20524772.367 7  84045499.52807      -222.136 7        45.430
G14         8.000    23363764.262 5                      2576.870 5        30.121                                                                                                    23363767.379 6  95670736.79706      2007.995 6        40.493
E21        10.000    25993336.636 6 136595873.94806     -1743.898 6        40.508                                                                    25993337.801 6 102003432.86806     -1302.459 6        40.198    25993339.122 7 104664408.88207     -1336.278 7        44.585
E06        11.000    23793234.949 6 125034260.46006       246.158 6        39.892                                                                    23793233.209 7  93369823.47107       183.766 7        44.048    23793231.830 7  95805498.95707       188.613 7        43.433
G05        14.000    21760550.858 6 114352437.16306      1230.510 6        38.799                                    21760540.396 3  89105742.68603       958.841 3        21.524    21760540.622 5  89105790.63305       958.825 5        31.223
E11        16.000    26680811.859 3                     -3618.853 3        22.876                                                                    26680799.421 3                     -2702.107 3        23.619
E04        17.000    23360610.332 7 122760821.93307      -954.726 7        45.213                                                                    23360609.061 7  91672106.65107      -712.935 7        46.433    23360606.773 7  94063483.00207      -731.606 7        43.964
R08        18.000    21886020.536 4                     -3972.353 4        29.118                                                                    21886025.080 5  91154512.57215     -3089.344 5        33.401
S36        19.000    38268258.308 5 201101077.31505      -851.798 5        32.635
E19        20.000                                                                                                                                    25940671.280 5 101796763.69705     -2280.972 5        32.832
E09        21.000    25404860.644 6 133503610.79106      1084.060 6        37.784                                                                    25404858.962 6  99694121.98906       809.577 6        40.355    25404857.565 7 102294848.76407       830.628 7        42.349
E36        22.000    26216600.121 5 137769199.91005     -1582.993 5        35.224                                                                    26216592.583 6 102879578.41206     -1182.219 6        36.405    26216581.474 6 105563288.28006     -1213.158 6        41.347
S23        24.000    38203410.275 6 200760242.97806      -849.321 6        39.354
G11        25.000                                                                                                                                                                    24220550.389 5  99179045.46305     -3042.579 5        32.198
E34        26.000    28110057.717 5 147719354.41415       872.897 5        33.515                                                                    28110029.766 5                       652.026 5        31.321    28110011.539 5 113187382.92705       668.778 5        33.754
R18        28.000    23133897.762 4 123490304.86904      -613.861 4        25.985                                                                    23133891.475 5  96048007.55105      -477.519 5        35.986
E10        29.000                                                                                                                                                                                                    28132637.162 4                     -3076.219 4        25.519
R11        30.000    19442365.923 7 103894102.03807      -647.605 7        47.625                                                                    19442363.704 7  80806513.54907      -503.685 7        44.375
C20        31.000                                                                                                                                    24451701.538 7 127326401.25507     -3599.792 7        44.792                                                                    24451694.167 5                     -2925.110 5        32.994
C36        34.000                                                                                                                                    23486349.620 6 122299753.71706      1998.766 6        36.715                                                                    23486356.119 6  99378468.25606      1623.808 6        39.180
R02        35.000    21486550.500 7 114656304.55607      2332.606 7        47.106                                                                    21486551.164 7  89177328.31107      1814.261 7        44.229
R12        38.000    21863085.676 6 116788627.74006      3267.725 6        36.348                                                                    21863079.707 5                      2541.528 5        33.305
C37        42.000                                                                                                                                    24997564.567 5 130168850.48805     -3600.890 5        32.192                                                                    24997575.666 4 105772886.64704     -2925.490 4        28.379
R01        44.000    19252311.273 7 102914617.82807      -623.459 7        47.525                                                                    19252312.305 6  80044706.36906      -485.098 6        38.477
C09        47.000                                                                                                                                                                                                    40007527.848 4                     -1254.325 4        26.838
C19        48.000                                                                                                                                    21923016.176 6 114159044.13906     -1336.217 6        37.807                                                                    21923009.810 7  92763424.58607     -1086.058 7        46.936
C34        49.000                                                                                                                                    26837569.085 4                     -1400.853 4        28.692                                                                    26837580.914 4                     -1138.169 4        27.581
C22        51.000                                                                                                                                    23246404.879 7 121050115.39607      1524.202 7        47.605                                                                    23246397.698 6  98363137.18406      1238.553 6        40.884
C12        54.000                                                                                                                                    26784938.245 4                     -2357.337 4        25.985                                                                    26784941.067 6 113335856.90806     -1915.774 6        36.669
> 2025 01 02 06 32 50.0000000  0 33
G13         1.000    22688572.496 6 119229261.25106      2117.843 6        41.035                                    22688566.409 2  92905898.45002      1650.284 2        13.758
G20         4.000    20744397.993 7 109012604.55307     -1241.463 7        46.165                                    20744392.201 5  84944838.26205      -967.374 5        30.604
G07         5.000    21412298.923 7 112522408.98707     -2411.626 7        45.025                                    21412295.019 6  87679805.84306     -1879.189 6        40.892    21412293.990 7  87679751.84807     -1879.119 7        42.500
G09         6.000    23108612.854 5                     -3843.219 5        31.857                                                                                                    23108649.994 4                     -2994.622 4        27.006
G30         7.000    20525046.035 8 107859862.05008      -287.293 8        51.460                                    20525045.068 8  84046566.67208      -223.867 8        51.187    20525044.640 7  84046614.68007      -223.954 7        45.222
G14         8.000    23361319.313 5 122764559.84815      2576.066 5        35.752                                                                                                    23361315.917 6  95660699.25206      2007.280 6        39.871
E21        10.000    25994997.132 6 136604599.68106     -1746.312 6        39.976                                                                    25994997.826 6 102009948.82206     -1303.974 6        39.586    25994999.257 7 104671094.79407     -1337.976 7        43.784
E06        11.000    23793001.658 6 125033032.04806       245.290 6        40.291                                                                    23792999.138 7  93368906.15407       183.230 7        43.164    23792998.012 7  95804557.70707       187.978 7        43.105
G05        14.000    21759377.011 6 114346291.24006      1228.073 6        38.279                                    21759369.698 3  89100953.63403       956.959 3        22.895    21759369.260 4  89101001.60104       956.926 4        29.877
E11        16.000    26684255.402 3                     -3618.904 3        19.134                                                                    26684242.544 4                     -2703.664 4        25.128
E04        17.000    23361519.999 7 122765598.61307      -955.842 7        44.968                                                                    23361517.971 7  91675673.63707      -713.800 7        46.362    23361515.772 7  94067143.05107      -732.261 7        43.941
R08        18.000    21889734.778 6 117218516.47716     -3973.694 6        36.299                                                                    21889733.656 5  91169962.72205     -3090.937 5        31.328
S36        19.000    38269054.736 5 201105337.12005      -851.978 5        31.343
E19        20.000                                                                                                                                    25943579.131 5 101808170.77905     -2281.357 5        32.024
E09        21.000    25403830.921 5 133498192.15305      1083.616 5        34.290                                                                    25403828.076 6  99690075.56306       809.060 6        40.646    25403826.538 7 102290696.78107       830.318 7        42.561
E36        22.000    26218108.783 5 137777122.46105     -1585.527 5        33.575                                                                    26218102.319 6 102885494.65106     -1184.324 6        36.465    26218089.066 6 105569358.82706     -1215.086 6        40.563
S23        24.000    38204221.758 6 200764489.43106      -849.203 6        38.814
G11        25.000                                                                                                                                                                    24224261.882 5  99194260.31605     -3043.328 5        32.168
E34        26.000    28109221.291 5 147714993.95605       870.765 5        32.677                                                                    28109201.510 5 110306540.64915       650.580 5        32.287    28109182.174 5 113184041.79305       667.485 5        33.299
R18        28.000                                                                                                                                    23134469.022 6                      -480.872 6        36.469
E10        29.000                                                                                                                                                                                                    28136450.705 4                     -3076.837 4        24.556
R11        30.000    19442973.183 7 103897351.55807      -651.979 7        46.282                                                                    19442971.878 7  80809040.94107      -507.224 7        44.778
C20        31.000                                                                                                                                    24455158.774 7 127344403.00807     -3600.833 7        43.378                                                                    24455152.395 5                     -2925.965 5        33.952
C36        34.000                                                                                                                                    23484430.172 6 122289764.12306      1997.362 6        36.465                                                                    23484437.693 6  99370350.85606      1623.023 6        38.886
R02        35.000    21484365.351 7 114644643.90607      2331.796 7        46.677                                                                    21484365.519 7  89168258.90207      1813.626 7        43.803
R12        38.000    21860021.399 5 116772293.43605      3265.822 5        33.748                                                                    21860023.380 5                      2540.680 5        34.195
C37        42.000                                                                                                                                    25001022.533 5 130186856.96205     -3601.874 5        33.102                                                                    25001037.621 4 105787518.39004     -2926.458 4        28.199
R01        44.000    19252896.130 7 102917742.66207      -626.282 7        47.757                                                                    19252896.153 6  80047136.78306      -487.217 6        38.348
C09        47.000                                                                                                                                    40009094.542 4                     -1623.652 4        28.351    40009088.217 4                     -1257.032 4        24.226
C19        48.000                                                                                                                                    21924300.981 6 114165731.62506     -1338.330 6        39.057                                                                    21924294.196 7  92768858.75407     -1087.702 7        47.139
C34        49.000                                                                                                                                    26838916.484 5                     -1403.068 5        32.240                                                                    26838925.710 4                     -1139.522 4        26.443
C22        51.000                                                                                                                                    23244941.365 7 121042497.20407      1523.211 7        47.026                                                                    23244934.694 6  98356946.79006      1237.724 6        41.075
C12        54.000                                                                                                                                    26787201.212 3                     -2359.203 3        23.905    26787219.472 5 107860989.17605     -1824.417 5        33.707    26787205.954 6 113345438.49306     -1917.257 6        37.206
> 2025 01 02 06 32 55.0000000  0 34
G13         1.000    22686557.599 6 119218674.77706      2116.878 6        39.249                                    22686551.912 2  92897649.21802      1649.519 2        14.095
G20         4.000    20745581.414 7 109018821.16007     -1244.966 7        46.980                                    20745574.958 5  84949682.37005      -970.107 5        30.521
G07         5.000    21414594.680 7 112534471.82907     -2413.406 7        45.750                                    21414590.518 6  87689205.45406     -1880.573 6        41.294    21414589.749 7  87689151.44507     -1880.496 7        42.195
G09         6.000    23112269.850 5                     -3844.037 5        33.599                                                                                                    23112311.273 4                     -2995.590 4        28.427
G30         7.000    20525320.681 8 107861305.26808      -289.855 8        51.224                                    20525319.595 8  84047691.25008      -225.862 8        51.233    20525318.963 7  84047739.26107      -225.828 7        44.822
G14         8.000    23358866.512 6 122751682.49206      2575.174 6        37.474                                                                                                    23358865.645 6  95650665.05006      2006.546 6        41.108
E21        10.000    25996660.297 6 136613337.18206     -1748.553 6        39.787                                                                    25996660.204 6 102016473.58706     -1305.805 6        39.601    25996662.084 7 104677789.76607     -1339.797 7        43.591
E06        11.000    23792768.382 6 125031808.46406       244.203 6        40.484                                                                    23792766.194 7  93367992.43507       182.436 7        42.476    23792765.286 7  95803620.15407       187.083 7        42.933
G05        14.000    21758211.932 6 114340158.93106      1225.208 6        38.838                                    21758202.278 4  89096175.22704       954.712 4        24.376    21758203.855 4  89096223.20104       954.357 4        29.374
E11        16.000                                                                                                                                    26687686.708 4                     -2704.074 4        24.917
E04        17.000    23362430.235 7 122770380.95607      -956.971 7        44.509                                                                    23362428.072 7  91679244.85707      -714.688 7        46.002    23362426.266 7  94070807.44907      -733.281 7        44.448
R08        18.000    21893448.071 6 117238389.73006     -3975.458 6        38.754                                                                    21893445.161 5  91185419.62805     -3092.075 5        34.219
S36        19.000    38269862.373 5 201109597.73205      -852.149 5        31.260
E19        20.000                                                                                                                                    25946485.668 5 101819579.86605     -2281.975 5        31.917
E09        21.000                                                                                                                                    25402798.057 6  99686031.25606       808.717 6        40.389    25402796.224 7 102286546.98107       829.787 7        43.316
E36        22.000    26219618.481 5 137785057.48105     -1588.059 5        33.132                                                                    26219615.426 5 102891420.14105     -1186.021 5        34.652    26219599.346 6 105575438.89106     -1216.988 6        40.961
S23        24.000    38205027.817 6 200768735.88206      -849.249 6        39.210
G11        25.000                                                                                                                                                                    24227974.957 5  99209479.20705     -3044.430 5        30.574
E34        26.000    28108383.840 5 147710643.74705       869.101 5        32.281                                                                    28108372.521 5 110303292.12305       649.197 5        33.305    28108353.955 5 113180708.51405       665.870 5        32.299
R17        27.000                                                                                                                                    23211277.758 5                     -2717.492 5        31.283
R18        28.000                                                                                                                                    23135051.130 6  96052818.26316      -484.361 6        38.471
E10        29.000                                                                                                                                                                                                    28140267.561 3                     -3076.280 3        22.362
R11        30.000    19443585.323 7 103900623.56607      -656.697 7        46.142                                                                    19443584.052 7  80811585.84107      -510.698 7        42.728
C20        31.000                                                                                                                                    24458617.222 7 127362410.70607     -3602.138 7        42.923                                                                    24458613.097 5 103492384.41315     -2927.001 5        33.898
C36        34.000                                                                                                                                    23482512.213 5 122279781.99605      1995.709 5        35.881                                                                    23482520.324 6  99362239.54006      1621.659 6        39.042
R02        35.000    21482181.131 7 114632988.06107      2330.684 7        46.684                                                                    21482181.452 7  89159193.24007      1812.833 7        44.089
R12        38.000    21856963.449 5 116755968.18105      3264.107 5        34.643                                                                    21856967.363 5  90810217.73415      2538.691 5        30.974
C37        42.000                                                                                                                                    25004483.100 5 130204869.86805     -3603.333 5        33.940                                                                    25004495.655 4 105802155.33104     -2927.317 4        27.701
R01        44.000    19253483.421 8 102920882.07508      -629.345 8        48.255                                                                    19253484.450 6  80049578.52806      -489.394 6        38.363
C09        47.000                                                                                                                                    40010658.800 4                     -1623.494 4        28.104    40010647.355 4                     -1255.524 4        27.473
C19        48.000                                                                                                                                    21925585.897 6 114172430.02006     -1340.725 6        38.571                                                                    21925580.442 7  92774301.72607     -1089.453 7        47.503
C34        49.000                                                                                                                                    26840265.322 5                     -1405.696 5        32.982                                                                    26840268.632 4                     -1142.032 4        26.000
C22        51.000                                                                                                                                    23243479.389 7 121034884.88507      1521.907 7        46.056                                                                    23243472.859 6  98350761.14006      1236.780 6        41.766
C12        54.000                                                                                                                                    26789469.174 3                     -2363.438 3        23.086    26789489.500 5 107870115.38605     -1826.111 5        35.538    26789472.354 6 113355028.65206     -1918.739 6        37.894
