     3.04           OBSERVATION DATA    M                   RINEX VERSION / TYPE
ssrcrin-15.6.1x                         20250102 130000 UTC PGM / RUN BY / DATE 
(00000000023479385599111004) Septentrio proprietary         COMMENT             
ract                                                        MARKER NAME         
01                                                          MARKER NUMBER       
geodetic                                                    MARKER TYPE         
NFB                 CLIMERS@TUW                             OBSERVER / AGENCY   
3296359             SEPT ASTERX SB3 PROB4.14.4              REC # / TYPE / VERS 
Unknown             Unknown                                 ANT # / TYPE        
  4127446.9887  1206915.0306  4695542.5251                  APPROX POSITION XYZ 
        0.0000        0.0000        0.0000                  ANTENNA: DELTA H/E/N
G   23 X1  C1C L1C D1C S1C C1W S1W C2W L2W D2W S2W C2L L2L  SYS / # / OBS TYPES 
       D2L S2L C5Q L5Q D5Q S5Q C1L L1L D1L S1L              SYS / # / OBS TYPES 
E   21 X1  C1C L1C D1C S1C C6C L6C D6C S6C C5Q L5Q D5Q S5Q  SYS / # / OBS TYPES 
       C7Q L7Q D7Q S7Q C8Q L8Q D8Q S8Q                      SYS / # / OBS TYPES 
S    9 X1  C1C L1C D1C S1C C5I L5I D5I S5I                  SYS / # / OBS TYPES 
R   17 X1  C1C L1C D1C S1C C2P L2P D2P S2P C2C L2C D2C S2C  SYS / # / OBS TYPES 
       C3Q L3Q D3Q S3Q                                      SYS / # / OBS TYPES 
C   25 X1  C1P L1P D1P S1P C5P L5P D5P S5P C2I L2I D2I S2I  SYS / # / OBS TYPES 
       C7I L7I D7I S7I C6I L6I D6I S6I C7D L7D D7D S7D      SYS / # / OBS TYPES 
J   17 X1  C1C L1C D1C S1C C2L L2L D2L S2L C5Q L5Q D5Q S5Q  SYS / # / OBS TYPES 
       C1L L1L D1L S1L                                      SYS / # / OBS TYPES 
I    5 X1  C5A L5A D5A S5A                                  SYS / # / OBS TYPES 
SEPTENTRIO RECEIVERS OUTPUT ALIGNED CARRIER PHASES.         COMMENT             
NO FURTHER PHASE SHIFT APPLIED IN THE RINEX ENCODER.        COMMENT             
G L1C                                                       SYS / PHASE SHIFT   
G L2W                                                       SYS / PHASE SHIFT   
G L2L  0.00000                                              SYS / PHASE SHIFT   
G L5Q  0.00000                                              SYS / PHASE SHIFT   
G L1L  0.00000                                              SYS / PHASE SHIFT   
E L1C  0.00000                                              SYS / PHASE SHIFT   
E L6C  0.00000                                              SYS / PHASE SHIFT   
E L5Q  0.00000                                              SYS / PHASE SHIFT   
E L7Q  0.00000                                              SYS / PHASE SHIFT   
E L8Q  0.00000                                              SYS / PHASE SHIFT   
S L1C                                                       SYS / PHASE SHIFT   
S L5I                                                       SYS / PHASE SHIFT   
R L1C                                                       SYS / PHASE SHIFT   
R L2P  0.00000                                              SYS / PHASE SHIFT   
R L2C                                                       SYS / PHASE SHIFT   
R L3Q  0.00000                                              SYS / PHASE SHIFT   
C L1P  0.00000                                              SYS / PHASE SHIFT   
C L5P  0.00000                                              SYS / PHASE SHIFT   
C L2I                                                       SYS / PHASE SHIFT   
C L7I                                                       SYS / PHASE SHIFT   
C L6I                                                       SYS / PHASE SHIFT   
C L7D                                                       SYS / PHASE SHIFT   
J L1C                                                       SYS / PHASE SHIFT   
J L2L  0.00000                                              SYS / PHASE SHIFT   
J L5Q  0.00000                                              SYS / PHASE SHIFT   
J L1L  0.00000                                              SYS / PHASE SHIFT   
I L5A                                                       SYS / PHASE SHIFT   
  2025     1     2    13     0    0.0000000     GPS         TIME OF FIRST OBS   
 C1C    0.000 C2C    0.000 C2P    0.000                     GLONASS COD/PHS/BIS 
DBHZ                                                        SIGNAL STRENGTH UNIT
    18                                                      LEAP SECONDS        
 24 R01  1 R02 -4 R03  5 R04  6 R05  1 R06 -4 R07  5 R08  6 GLONASS SLOT / FRQ #
    R09 -2 R10 -7 R11  0 R12 -1 R13 -2 R14 -7 R15  0 R16 -1 GLONASS SLOT / FRQ #
    R17  4 R18 -3 R19  3 R20  2 R21  4 R22 -3 R23  3 R24  2 GLONASS SLOT / FRQ #
                                                            END OF HEADER       
> 2025 01 02 13 00  0.0000000  0 42
G06         1.000    22923217.335 6 120462518.30406      -185.936 6        37.626                                    22923219.962 1  93866783.97201      -144.877 1         8.667    22923251.665 5                      -144.882 5        31.570
G25         3.000    21057401.354 5 110657505.11205      1453.945 5        34.733                                    21057385.201 3  86226561.80503      1132.935 3        22.971    21057388.305 6  86226569.81906      1132.998 6        38.033
G19         4.000    22804020.292 6 119836012.32006     -3814.302 6        38.234
E25         6.000    23970807.311 7 125967449.09807       424.744 7        42.648                                                                    23970809.864 6  94066727.13906       317.147 6        38.997    23970811.858 7  96520537.46907       325.390 7        42.980
G11         7.000    23579879.694 3                      1746.401 3        21.667                                                                                                    23579825.517 4  96555526.30704      1360.064 4        29.801
G29         9.000    24443602.794 5 128452027.62305      2913.920 5        30.785                                    24443612.031 2 100092507.09702      2270.562 2        15.429    24443609.537 5 100092518.17805      2270.637 5        30.528
E31        10.000                                                                                                                                                                                                    27363952.322 3                     -2527.094 3        22.152
E10        11.000    26952340.571 3                      1971.283 3        20.786                                                                    26952333.390 5 105766744.75605      1472.100 5        35.867    26952336.121 5 108525870.06705      1510.437 5        32.826
G24        12.000    21275879.855 7 111806094.72607     -3486.087 7        47.984                                    21275883.206 7  87121192.80207     -2716.430 7        46.128    21275882.921 7  87121166.79007     -2716.380 7        43.930
E12        13.000    26541015.687 5                      1201.580 5        32.677                                                                    26541018.223 4 104152619.34404       897.314 4        27.425    26541001.571 4 106869645.34004       920.749 4        28.038
E33        14.000    26832441.806 5                     -1427.960 5        32.383
G12        15.000    20096499.717 8 105607786.97508      -946.768 8        48.275                                    20096497.711 7  82291788.92107      -737.740 7        45.430    20096497.442 7  82291806.94407      -737.710 7        43.266
E24        16.000    23986609.504 8 126050445.71308     -1941.382 8        50.161                                                                    23986610.185 7  94128645.20907     -1449.757 7        43.160    23986611.770 7  96584201.01707     -1487.489 7        44.665
G32        17.000    22914265.690 5 120415199.92905        85.479 5        34.733                                    22914295.433 1  93830057.78701        66.631 1        11.407    22914265.473 5  93830093.65105        66.641 5        33.868
E05        18.000    24181404.480 5 127074166.45205     -3607.443 5        30.921                                                                    24181429.793 5  94892973.08405     -2694.173 5        32.719    24181413.043 6  97368429.28006     -2764.510 6        36.193
E08        20.000    27346453.542 6 143706577.08006      1226.414 6        37.474                                                                    27346464.785 6 107313434.60006       915.941 6        38.408    27346462.876 6 110112925.09306       939.707 6        41.318
E02        21.000    28006208.203 5 147173770.21805      1612.332 5        32.174
S23        22.000    38093052.352 6 200180405.76806      -864.048 6        36.302
R14        23.000    19649564.939 7 104743195.06207     -1947.830 7        47.242                                                                    19649568.577 7  81466896.00707     -1514.961 7        42.042
R16        24.000    24518917.190 4                      2566.963 4        24.421                                                                    24518951.600 4                      1996.785 4        26.024
E03        26.000    24840953.210 6 130540275.78206     -1246.368 6        37.871                                                                    24840961.171 7  97481328.77507      -930.635 7        43.369    24840958.425 6 100024299.65006      -955.104 6        37.766
S21        27.000    38382097.850 5 201699337.67905      -859.066 5        34.843
R06        28.000    23051250.079 4                      1175.265 4        28.114
R04        29.000    23367579.259 4                     -5140.650 4        28.303                                                                    23367534.133 4                     -3997.809 4        27.964
R15        30.000    20305795.364 8 108508256.82008      1274.498 8        49.063                                                                    20305797.645 7  84395133.04407       991.219 7        42.385
S36        31.000    38153153.597 5 200496273.63105      -858.898 5        34.752
C07        32.000                                                                                                                                                                                                    40318988.649 4                     -1386.495 4        26.263
C10        33.000                                                                                                                                    39299120.133 4                     -1566.455 4        28.806    39299169.068 3                     -1210.902 3        23.143    39299116.885 5 166287412.48805     -1272.626 5        31.381
C05        35.000                                                                                                                                                                                                    39407089.242 5                      -658.416 5        30.068
R17        36.000    22449464.748 5 120131648.50005      3543.798 5        31.260                                                                    22449467.434 5  93435798.13505      2756.227 5        34.105
C45        37.000                                                                                                                                    23417534.896 6 121941244.93206     -3088.658 6        38.574                                                                    23417529.871 6  99087206.15606     -2510.268 6        38.405
R24        38.000    20206669.926 7 108054093.21307       520.279 7        47.198                                                                    20206669.915 7  84042119.10607       404.594 7        43.543
C33        39.000                                                                                                                                                                                                                                                                    25611158.591 4                     -1208.504 4        27.186
C35        42.000                                                                                                                                                                                                                                                                    22850170.986 6  96686570.38906      1195.919 6        40.057
R05        44.000                                                                                                                                    21512302.055 5  89441011.31705     -2375.271 5        35.005
C42        45.000                                                                                                                                                                                                                                                                    25829091.902 5 109291312.59405     -2885.187 5        34.257
C29        46.000                                                                                                                                    23109452.670 5 120336965.70805     -1994.058 5        35.990                                                                    23109452.742 7  97783634.56607     -1620.615 7        43.691
C26        48.000                                                                                                                                    21635791.541 7 112663264.16507      -345.642 7        46.027                                                                    21635793.663 7  91548141.02807      -281.125 7        46.091
C24        51.000                                                                                                                                    24044527.208 7 125206134.40007      1773.451 7        45.046                                                                    24044527.601 5 101740252.77405      1440.906 5        34.343
C14        53.000                                                                                                                                    25400842.320 6 132268862.44206     -2688.714 6        36.646    25400848.756 6 102278670.30906     -2079.231 6        38.267    25400838.943 4                     -2185.115 4        26.934
I06        58.000    38424558.340 6 150786212.04406      -746.091 6        40.791
I02        59.000    36974460.968 6 145095726.60706      -825.613 6        39.853
> 2025 01 02 13 00  5.0000000  0 44
G06         1.000    22923395.292 6 120463456.22606      -189.613 6        37.353                                    22923398.223 1  93867515.00301      -147.780 1         9.143    22923434.166 5                      -147.552 5        31.102
G25         3.000    21056011.887 5 110650239.20505      1452.355 5        35.962                                    21056002.924 3  86220900.06403      1131.679 3        20.857    21056006.172 6  86220908.06706      1131.671 6        38.700
G19         4.000    22807649.586 6 119855088.34106     -3816.364 6        38.486
E25         6.000    23970403.836 7 125965328.02307       423.369 7        42.796                                                                    23970406.451 6  94065143.23606       316.200 6        39.288    23970408.599 7  96518912.24007       324.367 7        42.938
G11         7.000    23578220.704 3                      1743.539 3        23.086                                                                                                    23578166.796 5  96548728.57905      1358.711 5        30.121
G28         8.000    25354237.948 3                      2726.772 3        20.976                                                                                                    25354147.021 5                      2126.561 5        30.226
G29         9.000    24440830.308 5 128437459.46105      2913.255 5        30.521                                    24440840.094 2 100081155.35102      2270.047 2        15.143    24440837.711 4 100081166.41804      2269.779 4        29.716
E31        10.000                                                                                                                                                                                                    27367090.256 3                     -2530.471 3        20.548
E10        11.000                                                                                                                                    26950459.316 6 105759385.70406      1471.228 6        36.688    26950461.014 5 108518319.03005      1509.535 5        32.587
G24        12.000    21279198.053 7 111823530.79207     -3488.601 7        47.958                                    21279201.172 7  87134779.35107     -2718.391 7        46.116    21279200.736 7  87134753.33107     -2718.410 7        43.738
E12        13.000    26539866.372 5                      1199.740 5        32.880                                                                    26539876.071 4 104148135.98204       895.860 4        25.805    26539859.316 4 106865044.99404       918.762 4        27.856
E33        14.000    26833801.814 5                     -1430.368 5        32.162
G12        15.000    20097401.232 8 105612526.81608      -949.438 8        48.156                                    20097399.414 7  82295482.30207      -739.820 7        45.391    20097399.524 7  82295500.31507      -739.862 7        42.529
E24        16.000    23988456.940 8 126060155.23708     -1942.739 8        49.864                                                                    23988457.859 7  94135895.81707     -1450.713 7        42.394    23988459.198 7  96591640.76907     -1488.619 7        44.075
G32        17.000    22914181.609 6 120414781.15506        81.791 6        36.843                                    22914216.500 2  93829731.52602        63.733 2        13.333    22914181.510 5  93829767.19605        63.712 5        35.162
E05        18.000    24184836.733 5 127092207.72605     -3609.154 5        30.445                                                                    24184857.457 5  94906445.46005     -2695.531 5        33.251    24184850.641 5  97382253.02405     -2765.429 5        35.429
E08        20.000    27345287.012 6 143700449.26706      1224.354 6        37.905                                                                    27345298.705 6 107308858.68706       914.342 6        39.033    27345296.648 6 110108229.80506       938.147 6        41.089
E02        21.000    28004677.695 5 147165709.97005      1611.856 5        32.263
S23        22.000    38093872.653 5 200184725.97605      -864.455 5        35.943
R14        23.000    19651393.381 7 104752940.22407     -1950.474 7        47.698                                                                    19651395.909 6  81474475.57406     -1517.132 6        40.553
R16        24.000    24516516.791 4                      2567.614 4        27.521
R23        25.000    22149686.917 5 118485733.78915     -3818.763 5        30.309
E03        26.000    24842140.057 6 130546513.94406     -1249.360 6        38.634                                                                    24842148.357 7  97485987.14207      -932.780 7        42.955    24842146.286 6 100029079.53206      -957.081 6        37.611
S21        27.000    38382909.928 5 201703633.86405      -859.483 5        34.438
R06        28.000    23050146.129 4                      1171.257 4        25.489
R04        29.000                                                                                                                                    23372341.257 4                     -3998.591 4        27.401
R15        30.000    20304603.696 8 108501888.45408      1272.620 8        48.866                                                                    20304605.880 7  84390179.88507       989.802 7        42.263
S36        31.000    38153975.132 5 200500569.56905      -859.624 5        34.829
C07        32.000                                                                                                                                                                                                    40320707.442 4                     -1385.896 4        25.083
C10        33.000                                                                                                                                    39300627.284 4                     -1566.249 4        29.716    39300672.374 3                     -1211.584 3        23.829    39300620.676 5 166293776.21905     -1273.061 5        31.351
C05        35.000                                                                                                                                                                                                    39407908.716 5                      -659.150 5        30.475
R17        36.000    22446156.560 5 120113932.69105      3541.998 5        33.371                                                                    22446155.949 5  93422019.12205      2755.131 5        32.431
C45        37.000                                                                                                                                    23420501.207 6 121956691.81106     -3090.205 6        38.931                                                                    23420494.542 6  99099757.99006     -2511.075 6        38.517
R24        38.000    20206183.685 7 108051502.97707       515.455 7        46.674                                                                    20206185.583 7  84040104.50807       400.901 7        42.827
C33        39.000                                                                                                                                                                                                                                                                    25612589.976 4                     -1210.856 4        28.360
C35        42.000                                                                                                                                    22848754.593 7 118979501.45917      1469.608 7        44.420                                                                    22848758.846 6  96680593.60506      1194.303 6        40.851
R05        44.000                                                                                                                                    21515161.717 6                     -2378.794 6        38.820
C42        45.000                                                                                                                                    25832493.065 5 134516579.41515     -3551.532 5        34.062                                                                    25832501.043 5 109305739.29805     -2885.904 5        34.124
C29        46.000                                                                                                                                    23111369.836 6 120346943.53506     -1997.130 6        37.399                                                                    23111368.649 7  97791742.34207     -1622.812 7        43.763
C26        48.000                                                                                                                                    21636124.220 7 112664996.54407      -347.686 7        46.247                                                                    21636126.231 7  91549548.70807      -282.353 7        46.045
C24        51.000                                                                                                                                    24042824.795 7 125197268.70807      1772.547 7        45.300                                                                    24042825.159 5 101733048.65005      1440.795 5        33.886
C14        53.000                                                                                                                                    25403423.571 6 132282312.66306     -2691.535 6        36.265    25403432.535 6 102289070.84506     -2081.283 6        38.694    25403422.843 4                     -2187.017 4        27.689
I06        58.000    38425508.375 6 150789942.20406      -746.382 6        40.770
I02        59.000    36975512.878 6 145099853.95806      -825.754 6        39.871
> 2025 01 02 13 00 10.0000000  0 43
G06         1.000    22923575.930 6 120464410.31806      -192.330 6        38.381                                    22923579.382 2  93868258.53402      -149.848 2        12.848    22923616.930 5                      -149.505 5        30.785
G25         3.000    21054620.591 6 110642981.35406      1451.041 6        37.304                                    21054622.217 3  86215244.59903      1130.705 3        21.905    21054624.549 6  86215252.60806      1130.667 6        38.628
G19         4.000    22811278.438 6 119874172.96206     -3817.734 6        39.006
E25         6.000    23970001.233 7 125963211.79707       422.808 7        43.081                                                                    23970003.712 6  94063562.96106       315.732 6        39.979    23970006.016 7  96517290.71907       324.090 7        42.737
G11         7.000                                                                                                                                                                    23576506.896 5  96541937.63805      1357.248 5        30.234
G28         8.000    25351648.932 3                      2728.128 3        22.019                                                                                                    25351553.292 4                      2126.835 4        29.346
G29         9.000    24438057.419 5 128422894.04505      2912.841 5        30.815                                    24438068.440 2 100069805.78602      2269.724 2        13.273    24438065.395 4 100069816.83704      2269.625 4        28.806
E31        10.000                                                                                                                                                                                                    27370228.830 3                     -2528.660 3        21.190
E10        11.000                                                                                                                                    26948586.179 6 105752029.81806      1470.951 6        37.437    26948586.263 5 108510771.23905      1509.440 5        32.126
G24        12.000    21282517.975 8 111840977.60208     -3490.264 8        48.452                                    21282521.231 7  87148374.26507     -2719.686 7        45.857    21282520.674 7  87148348.24507     -2719.734 7        43.594
E12        13.000    26538720.845 5                      1198.174 5        33.126                                                                    26538739.094 4 104143659.02604       894.655 4        24.962    26538719.128 4 106860451.29304       918.572 4        27.317
E33        14.000    26835164.411 5                     -1432.604 5        32.281
G12        15.000    20098304.779 7 105617277.73207      -951.167 7        47.570                                    20098303.142 7  82299184.31407      -741.167 7        45.278    20098303.967 7  82299202.32907      -741.231 7        42.146
E24        16.000    23990305.291 8 126069869.47908     -1943.189 8        49.479                                                                    23990306.591 7  94143149.93607     -1451.015 7        42.267    23990307.644 7  96599084.13307     -1488.916 7        43.793
G32        17.000    22914096.596 6 120414378.06006        78.984 6        39.465                                    22914140.322 2  93829417.42502        61.561 2        13.455    22914101.504 6  93829453.10006        61.738 6        36.922
E05        18.000    24188272.144 5 127110254.62805     -3609.865 5        30.370                                                                    24188290.148 5  94919922.00905     -2695.745 5        34.410
E08        20.000    27344122.550 6 143694329.88206      1223.269 6        38.643                                                                    27344134.658 6 107304289.09106       913.296 6        39.523    27344132.068 6 110103540.95606       937.143 6        40.832
E02        21.000    28003144.771 5 147157650.74905      1611.981 5        32.731
S23        22.000    38094699.800 6 200189046.06006      -863.998 6        36.469
R14        23.000    19653224.244 8 104762695.86408     -1952.067 8        48.075                                                                    19653224.889 6  81482063.29006     -1518.410 6        39.508
R23        25.000    22153255.502 4 118504834.38704     -3821.473 4        25.729
E03        26.000    24843328.483 6 130552764.31206     -1251.275 6        38.931                                                                    24843337.764 7  97490654.62607      -934.386 7        42.609    24843336.917 6 100033868.73706      -958.614 6        38.180
S21        27.000    38383731.535 5 201707929.89805      -859.207 5        34.795
R06        28.000    23049048.605 3                      1167.326 3        22.343
R04        29.000                                                                                                                                    23377139.719 4                     -3998.813 4        26.623
R15        30.000    20303413.490 8 108495527.40808      1271.565 8        48.098                                                                    20303415.039 6  84385232.40606       989.127 6        41.125
S36        31.000    38154787.318 5 200504865.42905      -858.993 5        34.762
C07        32.000                                                                                                                                                                                                    40322427.103 4                     -1384.748 4        25.519
C10        33.000                                                                                                                                    39302130.644 4                     -1566.695 4        28.417    39302176.131 3                     -1213.768 3        22.743    39302124.764 5 166300140.30405     -1272.749 5        32.018
C05        35.000                                                                                                                                                                                                    39408727.314 4                      -658.045 4        29.867
R17        36.000    22442849.512 6 120096222.54706      3541.490 6        36.499                                                                    22442845.705 4  93408244.57704      2754.767 4        29.697
C45        37.000                                                                                                                                    23423468.407 6 121972144.17306     -3091.023 6        39.886                                                                    23423459.901 6  99112314.32606     -2511.785 6        39.108
R24        38.000    20205701.103 7 108048934.65107       511.524 7        46.033                                                                    20205704.824 7  84038106.93407       397.752 7        42.404
C33        39.000                                                                                                                                                                                                                                                                    25614027.826 4                     -1212.974 4        28.303
C35        42.000                                                                                                                                    22847344.726 7 118972156.44307      1468.147 7        44.870                                                                    22847347.967 6  96674625.19206      1192.892 6        41.166
R05        44.000                                                                                                                                    21518024.634 6  89464795.79616     -2381.267 6        40.400
C42        45.000                                                                                                                                    25835902.362 5 134534338.37405     -3552.099 5        34.243                                                                    25835910.227 5 109320169.94505     -2886.518 5        33.659
C29        46.000                                                                                                                                    23113289.521 6 120356934.46106     -1999.438 6        40.133                                                                    23113287.257 7  97799860.80907     -1624.756 7        43.818
C26        48.000                                                                                                                                    21636459.022 7 112666737.16607      -348.869 7        46.764                                                                    21636460.603 7  91550963.13907      -283.460 7        46.056
C24        51.000                                                                                                                                    24041123.630 7 125188405.59807      1772.473 7        45.229                                                                    24041123.598 5 101725846.69805      1440.380 5        33.533
C14        53.000                                                                                                                                    25406009.137 6 132295773.03406     -2693.063 6        36.129    25406018.254 6 102299479.23706     -2082.402 6        40.462    25406008.715 4                     -2188.171 4        27.377
I06        58.000    38426459.193 6 150793672.21906      -745.884 6        40.715
I02        59.000    36976564.663 6 145103982.08206      -825.657 6        39.748
> 2025 01 02 13 00 15.0000000  0 43
G06         1.000    22923761.973 6 120465380.80906      -195.769 6        39.709                                    22923763.192 2  93869014.83802      -152.562 2        16.981    22923804.751 4                      -152.636 4        28.028
G25         3.000    21053240.027 5 110635731.78605      1449.082 5        35.890                                    21053243.271 3  86209595.60603      1129.151 3        23.429    21053245.915 6  86209603.58906      1129.252 6        38.682
G19         4.000    22814909.952 6 119893266.36706     -3819.767 6        39.492
E25         6.000    23969598.802 7 125961100.66007       421.624 7        43.278                                                                    23969601.808 6  94061986.48406       314.829 6        39.859    23969604.394 7  96515673.11107       323.053 7        42.747
G11         7.000                                                                                                                                                                    23574848.374 4  96535153.59104      1356.500 4        29.981
G28         8.000                                                                                                                                                                    25348955.275 4                      2126.262 4        28.047
G29         9.000    24435286.876 5 128408331.56805      2912.140 5        31.389                                    24435297.406 2 100058458.47602      2269.168 2        13.091    24435295.298 4 100058469.52504      2269.159 4        28.332
E31        10.000                                                                                                                                                                                                    27373365.915 3                     -2531.291 3        20.643
E10        11.000    26946694.316 3                      1969.149 3        22.438                                                                    26946713.676 6 105744677.24206      1469.987 6        37.471    26946712.751 5 108503226.85305      1508.623 5        31.260
G24        12.000    21285840.386 8 111858435.36808     -3492.776 8        49.183                                    21285843.370 7  87161977.71407     -2721.643 7        45.610    21285842.182 7  87161951.68507     -2721.598 7        43.162
E12        13.000    26537581.235 5                      1196.422 5        32.844                                                                                                                                    26537580.105 4 106855864.59604       916.229 4        27.353
E33        14.000    26836527.947 5                     -1435.379 5        32.245
G12        15.000    20099210.806 7 105622039.94907      -953.735 7        47.946                                    20099209.052 7  82302895.12807      -743.170 7        45.118    20099210.251 7  82302913.13207      -743.083 7        42.483
E24        16.000    23992154.661 8 126079588.65708     -1944.494 8        49.545                                                                    23992156.364 6  94150407.76806     -1452.161 6        41.843    23992157.007 7  96606531.29107     -1489.966 7        43.263
G32        17.000    22914020.244 6 120413990.88206        75.758 6        41.666                                    22914067.466 1  93829115.62501        59.059 1        10.667    22914023.726 6  93829151.37906        58.861 6        38.411
E05        18.000    24191709.534 5 127128307.46105     -3611.627 5        30.483                                                                    24191726.026 5  94933402.96505     -2696.810 5        34.767    24191737.240 5  97409913.65105     -2767.105 5        35.562
E08        20.000    27342959.895 6 143688219.16606      1221.088 6        39.489                                                                    27342971.856 6 107299725.93006       911.836 6        39.661    27342969.239 6 110098858.75606       935.682 6        40.582
E02        21.000    28001609.048 5 147149592.85305      1611.251 5        31.094
S23        22.000    38095522.377 6 200193366.34006      -864.208 6        36.129
R14        23.000    19655056.106 8 104772462.34808     -1954.431 8        48.213                                                                    19655057.471 6  81489659.43606     -1520.234 6        37.943
R23        25.000    22156834.361 3                     -3824.522 3        22.229
E03        26.000    24844519.875 6 130559027.04206     -1253.744 6        38.532                                                                    24844529.468 7  97495331.34807      -936.337 7        42.184    24844530.363 6 100038667.46306      -960.905 6        38.949
S21        27.000    38384550.459 5 201712226.01105      -859.285 5        34.595
R06        28.000    23047952.575 3                      1163.546 3        23.924
R04        29.000                                                                                                                                    23381939.711 4                     -3999.720 4        27.257
R15        30.000    20302223.376 7 108489173.74307      1269.864 7        47.256                                                                    20302226.439 6  84380290.70106       987.502 6        41.211
S36        31.000    38155606.568 5 200509161.78505      -859.574 5        34.390
C07        32.000                                                                                                                                                                                                    40324149.156 4                     -1385.910 4        26.707
C10        33.000                                                                                                                                    39303633.409 4                     -1566.889 4        28.294    39303676.378 3                     -1211.087 3        22.533    39303629.011 5 166306504.71105     -1272.897 5        32.413
C05        35.000                                                                                                                                                                                                    39409544.851 4                      -659.188 4        29.346
R17        36.000    22439546.507 6 120078518.25806      3540.413 6        38.147                                                                    22439540.019 4  93394474.64004      2753.456 4        26.012
C45        37.000                                                                                                                                    23426436.361 6 121987602.22006     -3092.264 6        41.046                                                                    23426427.848 6  99124875.24806     -2512.730 6        40.582
R24        38.000    20205223.905 7 108046388.52707       506.836 7        45.076                                                                    20205228.747 6  84036126.62306       394.272 6        41.678
C33        39.000                                                                                                                                    25615426.729 5 133386284.93715     -1495.552 5        33.335
C35        42.000                                                                                                                                    22845939.700 7 118964821.89607      1465.737 7        45.627                                                                    22845938.884 6  96668665.25306      1191.143 6        41.445
R05        44.000    21520941.084 5                     -3065.675 5        33.928                                                                    21520890.087 6  89476710.14116     -2384.453 6        40.901
C42        45.000                                                                                                                                    25839313.410 5 134552102.31905     -3553.302 5        32.790                                                                    25839321.010 5 109334604.56905     -2887.442 5        33.234
C29        46.000                                                                                                                                    23115211.335 6 120366938.71006     -2002.422 6        41.492                                                                    23115208.473 7  97807990.06407     -1626.931 7        43.862
C26        48.000                                                                                                                                    21636795.235 7 112668486.26707      -350.812 7        47.004                                                                    21636796.517 7  91552384.39707      -285.037 7        46.042
C24        51.000                                                                                                                                    24039422.500 7 125179545.25107      1771.557 7        44.814                                                                    24039422.280 5 101718646.90605      1439.766 5        32.748
C14        53.000                                                                                                                                    25408598.059 5 132309243.68305     -2695.508 5        34.181    25408605.574 6 102309895.61006     -2084.206 6        40.930    25408595.603 4                     -2190.322 4        27.269
I06        58.000    38427409.932 6 150797402.25506      -746.121 6        40.622
I02        59.000    36977617.127 6 145108110.85206      -825.926 6        39.450
> 2025 01 02 13 00 20.0000000  0 42
G06         1.000    22923951.008 6 120466367.52606      -199.024 6        40.312                                    22923950.030 3  93869783.76403      -155.098 3        20.524
G25         3.000    21051863.067 5 110628490.26205      1447.611 5        35.157                                    21051865.985 4  86203952.87004      1127.992 4        24.316    21051867.779 6  86203960.88206      1127.904 6        39.474
G19         4.000    22818541.733 6 119912368.50806     -3821.361 6        38.982
E25         6.000    23969197.360 7 125958994.40607       420.806 7        43.215                                                                    23969201.167 6  94060413.64706       314.164 6        40.021    23969203.689 7  96514059.24607       322.397 7        42.853
G11         7.000                                                                                                                                                                    23573193.242 5  96528376.42805      1354.744 5        31.162
G29         9.000    24432516.586 5 128393771.97805      2911.357 5        30.015                                    24432526.838 2 100047113.41202      2268.566 2        12.727    24432524.465 4 100047124.42104      2268.495 4        28.000
E31        10.000                                                                                                                                                                                                    27376505.933 3                     -2530.773 3        19.373
E10        11.000    26944821.636 3                      1968.571 3        23.276                                                                    26944841.149 6 105737327.86106      1469.558 6        37.622    26944838.994 4 108495685.78604      1507.507 4        29.915
G24        12.000    21289164.591 8 111875903.86508     -3494.764 8        49.336                                    21289167.449 7  87175589.52207     -2723.191 7        45.217    21289165.856 7  87175563.49507     -2723.204 7        42.762
E12        13.000    26536445.214 5                      1194.596 5        32.419                                                                    26536478.215 4 104134725.02404       891.854 4        27.569    26536443.851 4 106851284.50304       915.428 4        27.461
E33        14.000    26837894.033 5                     -1437.841 5        30.672                                                                    26837887.510 4                     -1073.847 4        25.699
G12        15.000    20100119.293 8 105626813.23908      -955.786 8        48.028                                    20100117.109 7  82306614.57707      -744.770 7        44.962    20100118.881 7  82306632.59507      -744.775 7        43.147
E24        16.000    23994005.023 8 126089312.58108     -1945.290 8        49.387                                                                    23994006.982 6  94157669.12606     -1452.670 6        41.271    23994007.247 7  96613982.07107     -1490.517 7        42.790
G32        17.000    22913950.399 7 120413619.39407        72.807 7        43.016                                    22913998.048 1  93828825.97901        56.813 1         8.286    22913953.309 6  93828861.89406        56.709 6        39.880
E05        18.000    24195151.834 5 127146365.93205     -3612.177 5        30.830                                                                    24195162.871 5  94946888.14805     -2697.428 5        35.076    24195169.721 5  97423750.59905     -2767.876 5        34.810
E08        20.000    27341799.004 6 143682116.93506      1219.525 6        39.595                                                                    27341810.781 6 107295169.11806       910.625 6        39.562    27341808.104 6 110094183.05706       934.528 6        40.698
E02        21.000    28000076.029 5 147141536.01205      1611.133 5        30.445
S23        22.000    38096346.158 6 200197686.72906      -863.935 6        36.431
R14        23.000    19656889.883 7 104782239.22507     -1956.472 7        47.665                                                                    19656892.144 6  81497263.66806     -1521.716 6        37.486
R16        24.000    24509350.605 3                      2570.392 3        23.257                                                                    24509342.536 3                      1996.201 3        21.167
E03        26.000    24845714.556 6 130565302.03106     -1256.328 6        38.943                                                                    24845723.292 6  97500017.21506      -938.128 6        41.533    24845725.081 6 100043475.53506      -962.536 6        39.204
S21        27.000    38385366.302 5 201716522.03205      -859.354 5        34.333
R06        28.000    23046861.356 4                      1160.307 4        27.892
R04        29.000                                                                                                                                    23386737.552 4                     -3999.309 4        26.994
R15        30.000    20301035.477 7 108482827.34307      1268.556 7        46.296                                                                    20301039.796 7  84375354.63307       986.608 7        42.294
S36        31.000    38156427.585 5 200513459.24805      -859.498 5        34.762
C07        32.000                                                                                                                                                                                                    40325870.181 4                     -1385.336 4        27.844
C10        33.000                                                                                                                                    39305134.139 4                     -1566.348 4        28.351    39305189.356 3                     -1210.718 3        21.429    39305132.939 5 166312869.48005     -1273.262 5        32.329
C05        35.000                                                                                                                                                                                                    39410363.015 5                      -658.663 5        30.023
R17        36.000    22436240.064 6                      3539.332 6        38.685                                                                    22436225.747 4                      2753.217 4        25.669
C45        37.000                                                                                                                                    23429405.252 7 122003065.81207     -3093.241 7        42.121                                                                    23429398.384 6  99137440.69606     -2513.719 6        41.926
R24        38.000    20204751.017 7 108043864.44307       502.627 7        42.552                                                                    20204756.011 6  84034163.46806       390.781 6        41.070
C33        39.000                                                                                                                                    25616863.826 5 133393769.06005     -1498.517 5        31.064                                                                    25616915.282 5                     -1217.678 5        34.114
C35        42.000                                                                                                                                    22844533.680 7 118957497.65007      1463.800 7        45.354                                                                    22844532.362 6  96662713.71406      1189.444 6        41.666
R05        44.000                                                                                                                                    21523759.447 6  89488639.05206     -2387.352 6        40.503
C42        45.000                                                                                                                                    25842725.502 5 134569871.07705     -3554.013 5        30.664                                                                    25842732.844 5 109349043.10905     -2888.148 5        33.311
C29        46.000                                                                                                                                    23117135.788 7 120376956.09207     -2004.742 7        42.933                                                                    23117132.363 7  97816130.02807     -1629.203 7        44.004
C26        48.000                                                                                                                                    21637132.558 7 112670243.65807      -352.378 7        46.881                                                                    21637134.026 7  91553812.42807      -286.402 7        45.907
C24        51.000                                                                                                                                    24037722.427 7 125170687.49507      1771.320 7        44.348                                                                    24037721.893 5 101711449.27705      1439.109 5        32.970
C14        53.000                                                                                                                                    25411186.022 5 132322724.47705     -2697.050 5        33.018    25411194.059 6 102320319.82506     -2085.677 6        41.650    25411184.372 4                     -2191.541 4        27.772
I06        58.000    38428359.626 6 150801132.16006      -745.997 6        40.324
I02        59.000    36978669.583 6 145112240.41606      -825.808 6        39.468
> 2025 01 02 13 00 25.0000000  0 44
G06         1.000    22924141.385 6 120467370.41606      -202.217 6        38.814                                    22924141.000 3  93870565.27403      -157.584 3        23.314
G25         3.000    21050488.870 5 110621256.82805      1445.775 5        35.100                                    21050490.156 4  86198316.43604      1126.577 4        25.564    21050491.964 6  86198324.43306      1126.513 6        39.868
G19         4.000    22822178.209 6 119931479.14406     -3822.758 6        38.420
E25         6.000    23968797.913 7 125956893.02707       419.780 7        43.128                                                                    23968801.625 6  94058844.43906       313.429 6        40.136    23968803.758 7  96512449.10907       321.681 7        43.202
G11         7.000                                                                                                                                                                    23571541.046 5  96521606.11505      1353.304 5        32.024
G28         8.000                                                                                                                                                                    25343740.978 4                      2126.909 4        27.988
G29         9.000    24429745.996 4 128379215.08504      2911.119 4        29.659                                    24429756.681 1 100035770.48401      2268.389 1        11.852    24429751.484 4 100035781.50804      2268.450 4        27.916
E31        10.000                                                                                                                                                                                                    27379646.939 3                     -2529.532 3        20.571
E10        11.000    26942950.580 4                      1967.103 4        24.947                                                                    26942969.718 6 105729981.62206      1468.855 6        37.452    26942967.206 4 108488147.96304      1506.705 4        29.810
G24        12.000    21292490.231 8 111893383.08808     -3496.895 8        49.307                                    21292493.451 7  87189209.68207     -2724.847 7        44.721    21292492.145 7  87189183.65207     -2724.902 7        42.491
E12        13.000    26535308.313 5                      1192.859 5        32.581                                                                    26535339.669 4 104130267.94904       890.693 4        27.485    26535309.653 4 106846711.20504       914.175 4        27.293
E33        14.000    26839263.293 4                     -1440.786 4        26.503                                                                    26839256.963 4                     -1076.025 4        28.739
G12        15.000    20101029.567 7 105631597.61007      -957.991 7        47.754                                    20101027.322 7  82310342.66107      -746.485 7        44.713    20101028.991 7  82310360.66207      -746.418 7        43.319
E24        16.000    23995856.190 8 126099041.21308     -1946.198 8        49.216                                                                    23995858.556 6  94164933.99306     -1453.338 6        41.356    23995858.345 7  96621436.46907     -1491.268 7        42.705
G32        17.000    22913882.050 6 120413263.52906        69.633 6        41.719                                    22913931.577 1  93828548.64301        54.211 1         9.333    22913886.739 6  93828584.60206        54.228 6        40.095
E05        18.000    24198589.083 5 127164430.03405     -3612.933 5        30.551                                                                    24198599.249 5  94960377.53305     -2698.161 5        35.514    24198606.601 5  97437591.86705     -2768.719 5        33.108
E08        20.000    27340639.520 6 143676023.16906      1217.852 6        39.991                                                                    27340650.838 6 107290618.63406       909.423 6        39.538    27340648.166 6 110089513.84906       933.161 6        40.448
E02        21.000    27998542.753 4 147133480.27604      1610.853 4        28.578
S23        22.000    38097169.365 6 200202006.96406      -864.134 6        36.582
R14        23.000    19658725.354 7 104792026.68807     -1958.531 7        46.562                                                                    19658727.653 6  81504876.13406     -1523.209 6        38.261
R16        24.000    24506948.794 4                      2568.729 4        25.940
R23        25.000    22163973.141 4                     -3831.966 4        29.024
E03        26.000    24846912.177 6 130571589.16806     -1258.604 6        39.562                                                                    24846919.458 6  97504712.15306      -939.805 6        41.168    24846921.293 6 100048292.93906      -964.271 6        39.835
S21        27.000    38386183.353 5 201720817.78105      -858.992 5        34.567
R06        28.000    23045778.745 4                      1156.447 4        27.114
R04        29.000    23391531.117 4                     -5142.420 4        27.078                                                                    23391537.257 4                     -4000.017 4        26.503
R15        30.000    20299849.104 7 108476488.15007      1267.092 7        46.406                                                                    20299853.943 7  84370424.17307       985.513 7        44.203
S36        31.000    38157247.944 5 200517757.44605      -859.708 5        34.748
C07        32.000                                                                                                                                                                                                    40327590.262 4                     -1385.461 4        28.341
C10        33.000                                                                                                                                    39306635.562 4                     -1566.295 4        28.256    39306686.903 4                     -1210.616 4        25.353    39306636.866 5 166319234.54905     -1273.101 5        32.102
C05        35.000                                                                                                                                                                                                    39411181.760 5                      -659.064 5        30.015
R17        36.000    22432932.761 6 120043126.87316      3538.027 6        38.477                                                                    22432926.562 4                      2751.841 4        28.692
C45        37.000                                                                                                                                    23432375.797 7 122018534.90907     -3094.362 7        42.470                                                                    23432369.948 7  99150010.62007     -2514.293 7        43.026
R24        38.000    20204283.508 6 108041362.29606       498.237 6        39.414                                                                    20204288.256 6  84032217.34906       387.405 6        40.434
C33        39.000                                                                                                                                    25618304.390 5 133401266.55505     -1500.561 5        31.057                                                                    25618351.308 5 108399647.75215     -1219.322 5        34.986
C35        42.000                                                                                                                                    22843128.922 7 118950183.69207      1461.774 7        45.181                                                                    22843127.786 6  96656770.56406      1187.925 6        41.921
R05        44.000                                                                                                                                    21526630.824 6  89500582.55506     -2390.233 6        40.226
C42        45.000                                                                                                                                    25846137.095 5 134587644.58205     -3554.619 5        30.332                                                                    25846146.329 5 109363485.52805     -2888.970 5        32.677
C29        46.000                                                                                                                                    23119060.770 7 120386986.61707     -2007.487 7        43.181                                                                    23119058.768 7  97824280.66007     -1631.072 7        43.947
C26        48.000                                                                                                                                    21637471.326 7 112672009.32307      -354.007 7        46.775                                                                    21637473.175 7  91555247.18507      -287.524 7        46.151
C24        51.000                                                                                                                                    24036022.110 7 125161832.32907      1770.851 7        44.036                                                                    24036022.480 5 101704253.72305      1439.034 5        32.898
C14        53.000                                                                                                                                    25413772.163 5 132336215.36705     -2699.166 5        30.468    25413784.327 6 102330751.82706     -2087.083 6        41.955    25413777.547 4                     -2193.273 4        27.976
I06        58.000    38429310.194 6 150804861.93106      -745.793 6        40.310
I02        59.000    36979721.763 6 145116370.55906      -826.150 6        39.444
> 2025 01 02 13 00 30.0000000  0 44
G06         1.000    22924332.924 6 120468389.80606      -205.643 6        36.752                                    22924335.962 4  93871359.64304      -160.253 4        24.722    22924318.255 5  93871238.67615      -160.478 5        34.462
G25         3.000    21049114.739 5 110614031.81105      1443.917 5        32.569                                    21049115.772 4  86192686.51704      1125.130 4        25.789    21049117.245 6  86192694.50906      1125.053 6        39.838
G19         4.000    22825817.439 6 119950598.61006     -3825.079 6        37.198
E25         6.000    23968399.236 7 125954796.80407       418.600 7        43.467                                                                    23968403.071 6  94057279.10106       312.582 6        40.515    23968404.921 7  96510842.91607       320.747 7        43.450
G11         7.000    23569884.938 4                      1734.907 4        26.084                                                                                                    23569891.200 5  96514842.84005      1351.883 5        30.468
G28         8.000                                                                                                                                                                    25341138.476 4                      2126.195 4        27.222
G29         9.000    24426975.325 4 128364661.30704      2910.303 4        28.730                                    24426987.227 2 100024429.94202      2267.736 2        12.606    24426982.897 4 100024440.98004      2267.832 4        27.725
E31        10.000                                                                                                                                                                                                    27382787.292 3                     -2529.448 3        20.071
E10        11.000    26941078.964 4                      1966.073 4        24.105                                                                    26941098.956 6 105722638.82006      1468.057 6        37.100    26941096.622 4 108480613.57104      1506.289 4        28.957
G24        12.000    21295818.259 8 111910873.33908     -3499.317 8        49.160                                    21295821.447 7  87202838.43107     -2726.733 7        44.229    21295819.967 7  87202812.40107     -2726.730 7        42.059
E12        13.000    26534175.392 5                      1191.005 5        31.864                                                                    26534204.809 4 104125817.60104       889.271 4        26.802    26534177.350 4 106842144.87004       912.665 4        27.509
E33        14.000    26840633.201 3                     -1444.323 3        20.976                                                                    26840628.485 5                     -1077.405 5        30.211
G12        15.000    20101942.023 7 105636393.33207      -960.487 7        47.288                                    20101939.770 7  82314079.58507      -748.425 7        44.516    20101941.063 7  82314097.57607      -748.368 7        43.541
E24        16.000    23997708.382 8 126108774.88908     -1947.373 8        48.685                                                                    23997711.393 6  94172202.62406     -1454.226 6        41.614    23997710.509 7  96628894.72607     -1492.175 7        42.483
G32        17.000    22913815.110 6 120412923.63206        66.171 6        40.198                                    22913868.438 1  93828283.91001        51.484 1         6.125    22913820.030 6  93828319.72506        51.646 6        40.234
E05        18.000    24202024.908 4 127182500.10704     -3614.870 4        29.877                                                                    24202037.305 5  94973871.35805     -2699.298 5        35.557    24202046.104 5  97451437.72005     -2769.756 5        31.630
E08        20.000    27339482.333 6 143669938.17606      1215.917 6        40.265                                                                    27339492.948 6 107286074.70806       908.031 6        39.411    27339490.541 6 110084851.37206       931.549 6        40.136
E02        21.000    27997010.641 4 147125425.87504      1610.631 4        27.748                                                                                                                                    27997028.749 4 112732436.07714      1234.674 4        29.829
S23        22.000    38097992.578 6 200206327.16406      -864.126 6        36.548
R14        23.000    19660563.199 7 104801824.96007     -1960.875 7        45.771                                                                    19660566.413 6  81512497.03706     -1525.100 6        39.204
R16        24.000                                                                                                                                    24504518.044 4                      1997.914 4        28.028
R23        25.000    22167560.201 5                     -3835.285 5        32.084
E03        26.000    24848111.526 6 130577888.83506     -1261.421 6        40.293                                                                    24848118.275 6  97509416.44206      -941.941 6        41.051    24848120.077 6 100053119.95006      -966.545 6        39.787
S21        27.000    38387001.919 5 201725113.47305      -859.349 5        34.609
R06        28.000    23044696.348 4                      1153.324 4        24.406
R04        29.000    23396335.209 4                     -5143.751 4        25.038                                                                    23396334.177 4                     -3999.947 4        25.865
R15        30.000    20298665.139 8 108470156.56108      1265.364 8        48.485                                                                    20298668.556 7  84365499.60507       984.230 7        44.850
S36        31.000    38158067.038 5 200522055.13305      -859.523 5        35.252
C07        32.000                                                                                                                                                                                                    40329314.864 4                     -1385.496 4        28.957
C10        33.000                                                                                                                                    39308140.987 4                     -1566.546 4        28.455    39308183.926 4                     -1211.615 4        25.594    39308141.672 5 166325600.05505     -1273.417 5        32.186
C05        35.000                                                                                                                                                                                                    39411999.880 4                      -658.143 4        29.754
R17        36.000    22429628.308 6 120025440.16016      3536.642 6        38.568                                                                    22429621.604 5                      2750.840 5        32.174
C45        37.000                                                                                                                                    23435347.047 7 122034009.80707     -3095.677 7        42.070                                                                    23435342.133 7  99162585.23307     -2515.451 7        43.941
R24        38.000    20203822.764 5 108038882.40905       493.518 5        35.943                                                                    20203823.990 6  84030288.60706       383.905 6        40.651
C33        39.000                                                                                                                                    25619747.973 5 133408777.78705     -1504.068 5        31.879                                                                    25619793.467 5 108405751.19005     -1221.930 5        34.714
C35        42.000                                                                                                                                    22841727.226 7 118942880.32007      1459.471 7        44.819                                                                    22841725.382 7  96650835.98307      1185.875 7        42.567
R05        44.000    21529503.614 7 115087839.55617     -3077.048 7        42.174                                                                    21529506.673 6  89512540.92206     -2393.286 6        40.555
C42        45.000                                                                                                                                    25849547.853 4 134605423.06904     -3556.437 4        27.593                                                                    25849561.140 5 109377931.98005     -2889.865 5        32.395
C29        46.000                                                                                                                                    23120988.569 7 120397030.51907     -2010.288 7        43.526                                                                    23120987.721 7  97832442.16507     -1633.475 7        44.489
C26        48.000                                                                                                                                    21637811.868 7 112673783.53907      -355.989 7        46.520                                                                    21637813.795 7  91556688.87407      -289.170 7        46.304
C24        51.000                                                                                                                                    24034321.590 7 125152980.03207      1770.051 7        42.396                                                                    24034322.402 5 101697060.47705      1438.324 5        32.802
C14        53.000                                                                                                                                    25416362.344 5 132349716.72005     -2701.738 5        30.113    25416376.580 6 102341191.85606     -2088.911 6        41.659    25416372.179 4                     -2195.052 4        28.967
I06        58.000    38430260.742 6 150808591.76406      -745.978 6        40.377
I02        59.000    36980774.715 6 145120501.53806      -826.460 6        39.204
> 2025 01 02 13 00 35.0000000  0 44
G06         1.000    22924528.586 5 120469425.24205      -208.784 5        35.567                                    22924534.109 4  93872166.51904      -162.695 4        25.113
G25         3.000    21047742.144 5 110606814.70605      1442.566 5        31.532                                    21047742.639 4  86187062.78204      1124.075 4        25.579    21047743.034 6  86187070.74406      1124.147 6        39.691
G19         4.000    22829458.147 6 119969726.40806     -3826.314 6        37.308
E25         6.000    23968001.355 7 125952705.29207       417.832 7        44.075                                                                    23968005.252 6  94055717.26906       311.945 6        40.925    23968006.751 7  96509240.33207       320.230 7        43.427
G11         7.000    23568241.098 5                      1733.243 5        30.385                                                                                                    23568237.358 4  96508086.26504      1350.796 4        29.896
G28         8.000    25338491.349 5                      2728.779 5        33.174                                                                                                    25338540.016 4                      2126.250 4        27.317
G29         9.000    24424207.659 4 128350110.23204      2910.256 4        29.185                                    24424218.295 2 100013091.48102      2267.725 2        12.727    24424216.077 4 100013102.57004      2267.172 4        28.009
E31        10.000                                                                                                                                                                                                    27385925.289 3                     -2529.633 3        20.881
E10        11.000    26939206.374 4                      1965.266 4        25.579                                                                    26939230.157 6 105715299.05306      1467.677 6        37.002    26939227.915 4 108473082.39904      1506.037 4        29.374
G24        12.000    21299148.768 8 111928374.12808     -3501.213 8        48.926                                    21299151.366 7  87216475.38707     -2728.210 7        43.922    21299149.658 6  87216449.35306     -2728.143 6        41.681
E12        13.000    26533043.834 5                      1189.362 5        31.185                                                                    26533070.885 4 104121373.74204       888.361 4        26.120    26533047.931 4 106837585.15204       910.983 4        27.461
E33        14.000                                                                                                                                    26842001.850 5                     -1079.352 5        31.358    26842004.552 5 108081653.50115     -1107.691 5        32.719
G12        15.000    20102857.022 7 105641199.94807      -962.420 7        47.250                                    20102854.333 7  82317825.00307      -749.937 7        44.644    20102855.764 7  82317843.01307      -750.007 7        43.706
E24        16.000    23999561.568 8 126118513.09008     -1948.038 8        48.557                                                                    23999565.014 7  94179474.65007     -1454.794 7        42.402    23999563.489 7  96636356.45307     -1492.719 7        42.281
G32        17.000    22913753.760 6 120412599.23206        63.377 6        40.393                                    22913808.451 1  93828031.39401        49.386 1         5.857    22913758.242 6  93828066.94806        49.443 6        40.164
E05        18.000    24205462.940 4 127200575.54304     -3615.236 4        29.289                                                                    24205477.945 5  94987369.25005     -2699.884 5        34.190    24205486.625 4  97465287.77604     -2770.791 4        27.210
E08        20.000    27338325.985 6 143663861.49106      1214.703 6        39.676                                                                    27338336.345 6 107281536.96006       906.928 6        39.456    27338334.183 6 110080195.22406       930.547 6        39.877
E02        21.000    27995479.323 4 147117372.38204      1610.914 4        27.665                                                                                                                                    27995494.161 4 112726265.23504      1234.142 4        28.635
S23        22.000    38098817.995 6 200210647.09606      -864.052 6        37.062
R14        23.000    19662402.925 7 104811633.60107     -1962.724 7        46.182                                                                    19662406.351 6  81520125.96606     -1526.597 6        40.017
R16        24.000    24502113.731 4                      2569.482 4        25.459                                                                    24502107.916 4                      1998.604 4        29.327
R23        25.000    22171145.865 5 118600680.34515     -3838.383 5        35.419
E03        26.000    24849312.544 6 130584200.48706     -1263.398 6        40.863                                                                    24849319.172 6  97514129.70106      -943.511 6        40.984    24849320.861 6 100057956.14606      -968.014 6        39.141
S21        27.000    38387823.437 5 201729408.63105      -858.848 5        35.252
R06        28.000    23043615.405 3                      1148.941 3        23.829
R04        29.000                                                                                                                                    23401140.058 4                     -4001.252 4        26.120
R15        30.000    20297482.628 8 108463832.02908      1264.169 8        48.206                                                                    20297484.900 7  84360580.52807       983.328 7        45.099
S36        31.000    38158886.919 5 200526351.99205      -859.292 5        35.562
C07        32.000                                                                                                                                                                                                    40331038.799 4                     -1385.329 4        28.891
C10        33.000                                                                                                                                    39309647.410 4                     -1566.792 4        27.653    39309686.606 4                     -1211.607 4        26.108    39309646.009 5 166331965.70105     -1273.050 5        32.569
C05        35.000                                                                                                                                                                                                    39412817.923 4                      -658.690 4        29.754
R17        36.000    22426327.557 6 120007758.95906      3535.688 6        37.478                                                                    22426317.969 5                      2749.947 5        33.725
C45        37.000                                                                                                                                    23438319.962 6 122049490.06406     -3096.550 6        41.588                                                                    23438315.257 7  99175164.22007     -2516.194 7        44.495
R24        38.000    20203363.180 6 108036424.44206       489.531 6        39.381                                                                    20203364.174 6  84028376.86906       380.732 6        40.489
C33        39.000                                                                                                                                    25621190.915 5 133416302.11105     -1506.199 5        35.095                                                                    25621240.330 5 108411865.42705     -1223.735 5        33.605
C35        42.000                                                                                                                                    22840327.113 7 118935587.08907      1457.649 7        44.977                                                                    22840325.298 7  96644909.66007      1184.491 7        43.115
R05        44.000    21532381.367 7 115103232.93107     -3080.489 7        42.827                                                                    21532387.185 6  89524513.54106     -2395.846 6        40.796
C42        45.000                                                                                                                                    25852960.046 4 134623206.17604     -3557.145 4        24.902                                                                    25852977.693 5 109392382.19305     -2890.145 5        32.401
C29        46.000                                                                                                                                    23122919.829 7 120407087.38207     -2012.631 7        43.740                                                                    23122919.268 7  97840614.20707     -1635.498 7        44.775
C26        48.000                                                                                                                                    21638154.418 7 112675565.85407      -357.285 7        46.974                                                                    21638156.065 7  91558137.18607      -290.313 7        46.289
C24        51.000                                                                                                                                    24032621.970 6 125144130.14906      1769.792 6        41.099                                                                    24032624.386 5 101689869.22805      1438.092 5        33.305
C14        53.000                                                                                                                                    25418961.406 5 132363227.91805     -2703.281 5        31.321    25418971.027 6 102351639.57406     -2090.262 6        41.421    25418965.581 4                     -2196.543 4        29.640
I06        58.000    38431211.083 6 150812321.33806      -745.938 6        40.212
I02        59.000    36981827.070 6 145124633.23106      -826.242 6        39.312
> 2025 01 02 13 00 40.0000000  0 43
G06         1.000    22924728.680 5 120470477.10005      -211.817 5        34.195                                    22924735.122 4  93872986.18104      -165.063 4        24.406    22924734.536 6  93872865.17006      -165.233 6        36.257
G25         3.000                                                                                                                                                                    21046371.197 6  86181453.45606      1122.806 6        39.748
G19         4.000    22833100.218 6 119988862.90206     -3828.038 6        36.068
E25         6.000    23967603.781 7 125950618.86107       416.756 7        43.699                                                                    23967608.525 6  94054159.23206       311.137 6        41.328    23967609.525 7  96507641.63407       319.441 7        43.179
G11         7.000    23566595.219 5                      1731.522 5        33.407                                                                                                    23566585.548 4  96501336.70604      1349.096 4        29.393
G28         8.000    25335895.433 5                      2728.437 5        34.190                                                                                                    25335949.543 4                      2125.828 4        27.090
G29         9.000    24421439.885 5 128335562.13205      2909.495 5        31.313                                    24421449.954 2 100001755.40302      2267.131 2        13.939    24421445.433 4 100001766.47604      2266.856 4        28.133
E10        11.000    26937336.418 4                      1964.541 4        25.398                                                                    26937362.959 6 105707962.65406      1466.987 6        36.465    26937359.814 4 108465554.66204      1505.059 4        29.934
G24        12.000    21302480.954 8 111945885.81608     -3503.425 8        48.771                                    21302483.252 7  87230120.83507     -2729.935 7        43.530    21302481.769 6  87230094.81806     -2729.984 6        40.834
E12        13.000    26531915.224 4                      1187.609 4        29.299                                                                    26531938.658 4 104116936.57904       887.054 4        25.038    26531919.728 4 106833032.32704       909.805 4        26.970
E33        14.000    26843402.911 4                     -1447.914 4        25.729                                                                    26843377.836 5                     -1081.152 5        32.413    26843376.848 5 108087195.75905     -1109.364 5        33.287
G12        15.000    20103774.228 7 105646017.84507      -964.702 7        47.066                                    20103771.064 7  82321579.21207      -751.720 7        44.904    20103772.617 7  82321597.21407      -751.758 7        43.410
E24        16.000    24001415.450 8 126128256.22608     -1949.182 8        48.122                                                                    24001419.412 7  94186750.35307     -1455.581 7        43.153    24001417.288 7  96643821.97707     -1493.558 7        42.161
G32        17.000    22913697.235 6 120412290.73006        60.052 6        40.877                                    22913751.232 1  93827790.97901        46.595 1         5.429    22913699.446 6  93827826.54306        46.876 6        40.310
E05        18.000    24208901.789 5 127218656.86905     -3617.082 5        31.336                                                                    24208918.756 5  95000871.54205     -2700.693 5        32.725    24208928.432 3  97479142.32603     -2771.254 3        23.695
E08        20.000    27337171.324 6 143657793.51106      1212.751 6        38.652                                                                    27337181.041 6 107277005.70106       905.654 6        39.144    27337179.230 6 110075545.75406       929.274 6        39.330
E02        21.000    27993948.931 4 147109320.19704      1610.393 4        26.479                                                                    27993965.150 5 109854329.38915      1202.219 5        31.162    27993958.520 4 112720095.38104      1233.460 4        27.988
S23        22.000    38099641.404 6 200214967.36306      -864.345 6        36.824
R14        23.000    19664245.525 7 104821452.94407     -1964.932 7        47.493                                                                    19664247.595 6  81527763.23006     -1528.334 6        40.072
R16        24.000    24499711.562 4                      2569.215 4        27.042                                                                    24499709.172 4                      1998.682 4        29.033
R23        25.000    22174734.217 6 118619881.31906     -3841.732 6        37.399
E03        26.000    24850514.915 6 130590524.55606     -1266.060 6        41.249                                                                    24850522.312 6  97518852.22406      -945.375 6        41.075    24850523.881 6 100062801.88106      -969.972 6        38.510
S21        27.000    38388634.325 5 201733703.45505      -858.892 5        35.090
R06        28.000    23042545.113 4                      1144.893 4        25.835
R04        29.000    23405927.349 3                     -5144.017 3        23.943                                                                    23405951.340 4                     -4000.890 4        24.782
R15        30.000    20296298.737 8 108457515.10908      1262.664 8        48.038                                                                    20296303.096 7  84355667.38007       982.107 7        46.631
S36        31.000    38159708.870 5 200530648.94305      -859.663 5        35.657
C07        32.000                                                                                                                                                                                                    40332758.183 4                     -1385.986 4        28.701
C10        33.000                                                                                                                                    39311152.916 4                     -1566.898 4        27.054    39311190.278 4                     -1211.519 4        25.353    39311150.606 5 166338331.83305     -1273.559 5        32.737
C05        35.000                                                                                                                                                                                                    39413636.820 5                      -658.264 5        30.377
R17        36.000    22423025.299 6 119990083.76916      3534.258 6        36.382                                                                    22423016.837 5  93325620.65915      2748.757 5        35.262
C45        37.000                                                                                                                                    23441293.976 6 122064976.03306     -3097.815 6        40.846                                                                    23441289.448 7  99187747.83407     -2517.280 7        44.769
R24        38.000    20202908.753 7 108033988.78707       484.878 7        43.390                                                                    20202908.802 6  84026482.44006       377.188 6        41.237
C33        39.000                                                                                                                                    25622638.949 6 133423840.05306     -1508.890 6        36.420                                                                    25622689.523 5 108417990.71105     -1226.021 5        32.401
C35        42.000                                                                                                                                    22838928.415 7 118928304.38007      1455.461 7        45.321                                                                    22838927.379 7  96638991.88007      1182.574 7        43.657
R05        44.000    21535268.847 7 115118645.31107     -3084.321 7        42.254                                                                    21535270.919 6  89536500.93206     -2398.928 6        40.181
C42        45.000                                                                                                                                    25856381.728 3 134640994.02503     -3557.717 3        23.829                                                                    25856394.148 5 109406836.37905     -2891.303 5        32.054
C29        46.000                                                                                                                                    23124853.827 7 120417157.54107     -2015.356 7        43.890                                                                    23124853.068 7  97848797.03907     -1637.828 7        44.941
C26        48.000                                                                                                                                    21638498.855 7 112677356.66207      -359.003 7        47.638                                                                    21638499.812 7  91559592.37607      -291.814 7        46.359
C24        51.000                                                                                                                                    24030923.873 6 125135283.06806      1769.270 6        39.222                                                                    24030926.617 5 101682680.22805      1437.609 5        33.874
C14        53.000                                                                                                                                    25421561.500 5 132376749.37605     -2705.556 5        32.401    25421567.619 6 102362095.22806     -2091.856 6        40.896    25421560.294 5                     -2198.396 5        30.008
I06        58.000    38432161.280 6 150816050.90906      -745.914 6        40.062
I02        59.000    36982880.247 6 145128765.56706      -826.661 6        38.949
> 2025 01 02 13 00 45.0000000  0 43
G06         1.000    22924932.701 5 120471544.86605      -214.860 5        30.257                                    22924939.126 3  93873818.25003      -167.447 3        22.248    22924939.614 5  93873697.26305      -167.611 5        34.814
G25         3.000    21044990.815 5 110592404.66805      1439.399 5        31.600                                    21045000.976 4  86175834.23704      1121.609 4        24.541    21045000.763 6  86175842.21606      1121.611 6        40.155
G19         4.000    22836741.230 5 120008007.61605     -3829.911 5        35.305                                    22836748.092 1  93512665.19911     -2984.342 1        10.370
E25         6.000    23967206.656 7 125948537.01807       415.697 7        42.178                                                                    23967212.620 7  94052604.60907       310.525 7        42.087    23967213.375 7  96506046.46507       318.566 7        43.293
G11         7.000    23564949.237 5                      1729.809 5        33.455                                                                                                    23564939.497 4  96494593.84004      1348.154 4        27.808
G28         8.000    25333299.987 5 133127384.82915      2728.432 5        33.994                                                                                                    25333355.572 4                      2126.485 4        28.227
G29         9.000    24418674.822 5 128321016.58905      2908.923 5        33.928                                    24418682.207 2  99990421.28002      2266.665 2        15.190    24418677.877 4  99990432.38304      2266.257 4        28.341
E10        11.000    26935468.755 4                      1963.398 4        25.368                                                                    26935496.122 5 105700629.23605      1466.207 5        35.167    26935491.232 5 108458030.00905      1504.100 5        31.313
G24        12.000    21305815.438 8 111963407.90808     -3505.519 8        48.565                                    21305817.017 7  87243774.39107     -2731.566 7        43.120    21305815.931 6  87243748.38606     -2731.593 6        40.017
E12        13.000    26530785.817 4                      1185.670 4        28.379                                                                                                                                    26530795.311 4 106828486.04504       908.957 4        27.234
E33        14.000    26844777.841 4                     -1450.212 4        28.739                                                                    26844756.674 5                     -1083.114 5        31.857    26844755.314 5 108092747.33705     -1111.338 5        33.467
G12        15.000    20104693.103 7 105650846.52707      -966.926 7        46.808                                    20104689.920 7  82325341.82807      -753.451 7        45.162    20104691.351 7  82325359.82407      -753.406 7        43.382
E24        16.000    24003270.059 7 126138003.78007     -1949.990 7        47.855                                                                    24003274.419 7  94194029.36207     -1456.221 7        43.875    24003272.072 7  96651290.88307     -1494.201 7        42.235
G32        17.000    22913639.131 6 120411997.59106        57.152 6        40.489                                    22913696.844 1  93827562.45201        44.789 1         2.800    22913643.667 6  93827598.15906        44.369 6        41.111
E05        18.000    24212341.071 5 127236743.53205     -3618.350 5        32.389                                                                    24212362.115 5  95014377.83505     -2702.050 5        31.706    24212378.665 4                     -2772.514 4        24.767
E08        20.000    27336018.382 6 143651733.75706      1210.966 6        37.716                                                                    27336027.886 6 107272480.60506       904.304 6        38.862    27336025.866 6 110070902.59406       927.812 6        38.871
E02        21.000                                                                                                                                    27992431.910 5 109848316.95605      1202.367 5        31.260    27992424.713 4 112713926.09804      1233.103 4        27.737
S23        22.000    38100463.185 6 200219287.35306      -864.006 6        36.635
R14        23.000    19666090.540 8 104831282.56808     -1967.008 8        48.357                                                                    19666091.442 6  81535408.49006     -1530.036 6        40.534
R16        24.000    24497308.154 4                      2569.487 4        28.758                                                                    24497309.641 4                      1998.195 4        25.955
R23        25.000    22178325.823 6 118639098.44306     -3845.221 6        37.493
E03        26.000    24851720.339 6 130596860.54406     -1268.439 6        41.323                                                                    24851727.894 6  97523583.64006      -947.318 6        40.784    24851729.749 6 100067656.69606      -972.024 6        37.539
S21        27.000    38389446.502 5 201737997.60305      -858.793 5        35.152
R06        28.000    23041472.273 4                      1140.869 4        26.216
R04        29.000                                                                                                                                    23410757.373 4                     -4002.190 4        24.226
R15        30.000    20295117.202 7 108451205.15007      1261.177 7        47.509                                                                    20295122.272 7  84350759.65207       980.884 7        46.783
S36        31.000    38160530.451 6 200534945.88006      -859.722 6        36.193
C07        32.000                                                                                                                                                                                                    40334475.447 4                     -1385.843 4        29.100
C10        33.000                                                                                                                                    39312654.786 4                     -1566.966 4        27.772    39312697.828 4                     -1211.613 4        25.729    39312655.417 5 166344697.94005     -1273.424 5        32.581
C05        35.000                                                                                                                                                                                                    39414454.711 4                      -658.675 4        29.716
R17        36.000    22419723.692 5 119972413.99205      3533.365 5        35.214                                                                    22419715.281 6  93311877.59206      2748.045 6        36.730
C45        37.000                                                                                                                                    23444269.277 6 122080467.20306     -3098.895 6        40.734                                                                    23444264.290 7  99200335.69007     -2518.124 7        44.591
R24        38.000    20202457.856 7 108031574.77207       480.577 7        45.145                                                                    20202457.626 6  84024604.89106       373.712 6        41.518
C33        39.000                                                                                                                                    25624088.103 6 133431391.21706     -1511.637 6        36.491                                                                    25624137.704 5 108424126.66405     -1228.208 5        32.198
C35        42.000                                                                                                                                    22837531.559 7 118921031.70707      1453.416 7        44.689                                                                    22837530.870 7  96633082.25007      1181.023 7        44.286
R05        44.000    21538155.402 6 115134076.10906     -3088.100 6        41.714                                                                    21538156.583 6  89548502.64406     -2401.879 6        39.979
C42        45.000                                                                                                                                                                                                                                                                    25859810.950 5 109421294.13305     -2891.949 5        31.064
C29        46.000                                                                                                                                    23126790.530 7 120427240.50507     -2017.911 7        43.901                                                                    23126789.485 7  97856990.27407     -1639.701 7        45.181
C26        48.000                                                                                                                                    21638844.503 7 112679155.48807      -360.688 7        47.990                                                                    21638845.184 7  91561054.08107      -293.058 7        46.311
C24        51.000                                                                                                                                    24029226.728 6 125126438.28706      1768.653 6        38.775                                                                    24029228.854 5 101675493.12005      1437.129 5        34.190
C14        53.000                                                                                                                                    25424162.047 5 132390280.65305     -2707.243 5        33.802    25424167.049 6 102372558.46006     -2093.486 6        40.777    25424158.615 5                     -2199.975 5        31.087
I06        58.000    38433112.016 6 150819780.14406      -745.918 6        40.379
I02        59.000    36983933.657 6 145132898.45506      -826.763 6        39.444
> 2025 01 02 13 00 50.0000000  0 44
G06         1.000    22925137.662 5 120472628.97005      -218.267 5        30.966                                    22925146.010 3  93874663.03903      -170.119 3        18.358    22925145.041 5  93874542.05805      -170.435 5        34.395
G25         3.000    21043627.603 5 110585211.83905      1437.705 5        33.353                                    21043632.176 4  86170229.39004      1120.317 4        25.654    21043632.147 6  86170237.35406      1120.363 6        40.362
G19         4.000    22840383.569 5 120027160.87805     -3831.416 5        34.624                                    22840392.893 1  93527589.80501     -2985.548 1        10.222
E25         6.000    23966810.911 6 125946460.09906       414.951 6        39.504                                                                    23966817.709 7  94051053.66607       309.790 7        42.690    23966817.803 7  96504455.06607       317.891 7        43.202
G11         7.000    23563296.270 5                      1727.912 5        31.404                                                                                                    23563293.080 3                      1344.421 3        21.833
G28         8.000    25330703.250 5 133113742.92205      2728.179 5        32.754                                                                                                    25330759.335 4                      2125.729 4        27.617
G29         9.000    24415907.237 5 128306473.96305      2908.258 5        35.752                                    24415915.181 2  99979089.40702      2266.141 2        15.905    24415911.308 4  99979100.51304      2266.310 4        29.166
E31        10.000                                                                                                                                                                                                    27395321.564 4                     -2528.924 4        24.571
E10        11.000    26933601.432 3                      1962.347 3        23.733                                                                    26933630.053 5 105693299.11305      1465.776 5        33.814    26933621.628 5 108450508.65205      1503.837 5        32.078
G24        12.000    21309151.943 8 111980940.75908     -3507.715 8        48.481                                    21309152.870 7  87257436.33007     -2733.280 7        43.187    21309152.655 6  87257410.33506     -2733.423 6        39.375
E12        13.000    26529655.556 3                      1183.676 3        23.810                                                                    26529674.951 4 104108081.84004       884.309 4        25.519    26529675.122 4 106823946.65404       907.224 4        25.669
E33        14.000    26846161.777 5                     -1452.750 5        30.430                                                                    26846138.303 5                     -1084.966 5        31.547    26846136.237 5 108098308.48005     -1113.372 5        32.605
G12        15.000    20105614.507 7 105655686.33207      -969.065 7        46.886                                    20105611.012 7  82329113.11007      -755.115 7        45.694    20105612.538 7  82329131.10707      -755.123 7        44.147
E24        16.000    24005126.062 7 126147756.11807     -1950.924 7        47.680                                                                    24005130.357 7  94201311.93607     -1456.932 7        44.411    24005127.563 6  96658763.44106     -1494.997 6        41.986
G32        17.000    22913583.388 6 120411720.23306        53.781 6        39.820                                    22913645.349 1  93827345.97801        41.910 1         8.762    22913591.062 6  93827382.02806        42.025 6        41.526
E05        18.000    24215783.475 5 127254835.82005     -3619.101 5        33.892                                                                    24215805.614 5  95027888.29205     -2702.082 5        31.079
E08        20.000    27334865.192 6 143645682.55806      1209.365 6        37.259                                                                    27334876.054 6 107267961.88206       902.927 6        38.495    27334874.024 6 110066265.96906       926.652 6        38.366
E02        21.000    27990877.300 3 147093218.31803      1610.570 3        22.743                                                                    27990900.478 5 109842305.37305      1202.143 5        31.336    27990892.741 4 112707757.68704      1233.804 4        26.467
S23        22.000    38101278.657 6 200223607.27906      -864.131 6        36.662
R14        23.000    19667936.481 8 104841122.82608     -1969.146 8        48.418                                                                    19667938.435 6  81543062.03106     -1531.620 6        41.397
R16        24.000    24494901.442 4                      2570.285 4        27.269                                                                    24494907.915 3                      1999.666 3        21.119
R23        25.000    22181917.181 5 118658332.09405     -3848.472 5        35.529
E03        26.000    24852928.256 6 130603208.78606     -1270.958 6        40.987                                                                    24852935.572 6  97528324.20306      -949.062 6        40.338    24852938.601 6 100072520.91506      -973.902 6        37.112
S21        27.000    38390271.561 5 201742291.64205      -859.050 5        34.662
R06        28.000    23040408.416 4                      1137.469 4        28.408
R04        29.000                                                                                                                                    23415557.794 4                     -4002.578 4        24.857
R15        30.000    20293937.252 7 108444902.57607      1259.711 7        46.384                                                                    20293942.632 7  84345857.65507       979.816 7        46.903
S36        31.000    38161345.296 6 200539242.41206      -859.160 6        36.295
C07        32.000                                                                                                                                                                                                    40336195.126 4                     -1385.794 4        29.166
C10        33.000                                                                                                                                    39314157.770 4                     -1566.934 4        28.872    39314200.369 4                     -1212.034 4        24.556    39314159.936 5 166351064.36905     -1273.362 5        32.617
C05        35.000                                                                                                                                                                                                    39415268.273 4                      -658.417 4        29.355
R17        36.000    22416428.298 5 119954750.29505      3532.183 5        32.719                                                                    22416413.347 6  93298139.23406      2747.065 6        37.062
C45        37.000                                                                                                                                    23447245.925 6 122095963.94406     -3099.942 6        39.622                                                                    23447239.654 7  99212928.03607     -2518.829 7        43.943
R24        38.000    20202010.730 7 108029182.79207       476.137 7        45.821                                                                    20202010.376 6  84022744.47706       370.357 6        41.702
C33        39.000                                                                                                                                    25625545.387 6 133438955.79106     -1514.269 6        37.490                                                                    25625588.478 5 108430273.55205     -1230.556 5        32.138
C35        42.000                                                                                                                                    22836136.697 7 118913769.43307      1451.423 7        44.629                                                                    22836136.190 7  96627181.04607      1179.478 7        44.700
R05        44.000    21541042.407 6 115149525.56406     -3091.894 6        40.822                                                                    21541047.858 6  89560518.86906     -2404.711 6        40.894
C42        45.000                                                                                                                                                                                                                                                                    25863230.770 4 109435755.79704     -2892.954 4        29.867
C29        46.000                                                                                                                                    23128729.662 7 120437336.59707     -2020.485 7        44.837                                                                    23128728.479 7  97865194.17507     -1641.715 7        45.339
C26        48.000                                                                                                                                    21639191.596 8 112680962.64108      -362.308 8        48.085                                                                    21639192.055 7  91562522.52207      -294.196 7        46.307
C24        51.000                                                                                                                                    24027528.541 6 125117596.17806      1768.106 6        37.456                                                                    24027531.592 5 101668308.14005      1437.011 5        34.495
C14        53.000                                                                                                                                    25426762.278 5 132403821.97205     -2709.109 5        33.269    25426769.462 6 102383029.52606     -2095.075 6        41.318    25426761.158 5                     -2201.585 5        31.592
I06        58.000    38434062.576 6 150823509.26306      -745.759 6        40.131
I02        59.000    36984986.476 6 145137031.95106      -826.727 6        39.012
> 2025 01 02 13 00 55.0000000  0 43
G06         1.000    22925351.286 5 120473729.30905      -221.628 5        32.449                                    22925355.703 2  93875520.48802      -172.716 2        15.000    22925354.512 5  93875399.49405      -173.011 5        32.940
G25         3.000    21042263.580 5 110578027.02605      1435.812 5        31.389                                    21042264.821 4  86164630.85704      1118.828 4        26.036    21042264.026 6  86164638.82606      1118.908 6        39.369
G19         4.000    22844031.650 5 120046322.75105     -3833.514 5        34.114                                    22844038.862 1  93542521.10301     -2987.166 1        11.259
E25         6.000    23966416.415 6 125944388.09406       413.730 6        37.293                                                                    23966423.757 7  94049506.40207       308.960 7        43.113    23966423.290 7  96502867.43007       317.041 7        43.367
G11         7.000    23561649.653 5                      1726.505 5        30.181
G28         8.000    25328108.925 5 133100101.57105      2727.898 5        32.778                                                                                                    25328160.736 4                      2125.302 4        26.311
G29         9.000    24413138.884 6 128291934.26306      2907.601 6        36.624                                    24413148.861 2  99967759.81102      2265.679 2        17.321    24413141.415 4  99967770.90304      2265.737 4        28.919
E31        10.000                                                                                                                                                                                                    27398467.931 4                     -2529.753 4        24.361
E10        11.000    26931733.631 3                      1961.487 3        23.067                                                                    26931764.608 5 105685972.20505      1464.779 5        32.383    26931754.277 5 108442990.67305      1503.116 5        32.575
G24        12.000    21312490.645 8 111998484.32408     -3509.965 8        48.287                                    21312490.806 7  87271106.62507     -2735.034 7        43.445    21312491.817 6  87271080.62906     -2735.032 6        39.165
E12        13.000    26528525.358 3                      1182.232 3        21.524                                                                    26528544.266 4 104103664.27504       882.644 4        24.316
E33        14.000    26847546.848 4                     -1455.283 4        29.754                                                                    26847521.353 5                     -1086.837 5        31.177    26847518.471 5 108103879.18805     -1115.217 5        32.054
G12        15.000    20106538.198 8 105660537.35908      -971.450 8        48.097                                    20106534.335 7  82332893.14007      -756.977 7        46.311    20106535.973 7  82332911.13007      -756.890 7        44.811
E24        16.000    24006982.771 7 126157513.22607     -1952.022 7        47.681                                                                    24006986.967 7  94208598.06407     -1457.639 7        44.688    24006984.488 7  96666239.63807     -1495.567 7        42.169
G32        17.000    22913531.809 6 120411458.57706        50.609 6        38.841                                    22913596.738 2  93827142.05702        39.422 2        12.364    22913540.912 6  93827178.16106        39.500 6        41.271
E05        18.000    24219228.583 5 127272933.77405     -3620.120 5        35.071                                                                    24219248.806 5  95041403.00805     -2703.364 5        32.042    24219251.616 4                     -2773.849 4        29.299
E08        20.000    27333714.853 6 143639639.89806      1207.378 6        37.025                                                                    27333726.166 6 107263449.52206       901.692 6        38.360    27333723.450 6 110061635.90306       925.103 6        37.535
E02        21.000    27989358.317 3                      1609.971 3        22.952                                                                    27989369.561 5 109836294.63205      1201.936 5        31.638    27989360.592 4 112701590.05704      1234.593 4        25.383
S23        22.000    38102098.855 6 200227927.02406      -864.058 6        36.147
R14        23.000    19669784.294 8 104850973.57408     -1971.298 8        48.634                                                                    19669786.611 6  81550723.71806     -1533.338 6        41.430
R16        24.000    24492489.981 4                      2570.173 4        27.545
R23        25.000    22185509.607 5 118677582.34705     -3851.651 5        35.243
E03        26.000    24854138.579 6 130609569.25706     -1273.384 6        41.156                                                                    24854145.905 6  97533073.89706      -951.111 6        39.976    24854149.311 6 100077394.50006      -975.650 6        36.737
S21        27.000    38391083.929 5 201746585.56305      -859.126 5        34.148
R06        28.000    23039348.189 4                      1133.375 4        29.981
R04        29.000                                                                                                                                    23420369.251 3                     -4003.514 3        22.552
R15        30.000    20292759.808 7 108438607.29607      1258.140 7        47.017                                                                    20292764.806 7  84340961.32507       978.530 7        47.058
S36        31.000    38162167.838 6 200543538.87306      -859.620 6        36.541
C07        32.000                                                                                                                                                                                                    40337914.670 4                     -1385.279 4        28.502
C10        33.000                                                                                                                                    39315662.520 4                     -1566.887 4        28.720    39315710.024 4                     -1211.810 4        26.144    39315664.242 5 166357431.12205     -1273.292 5        32.880
C05        35.000                                                                                                                                                                                                    39416084.541 5                      -658.782 5        30.596
R17        36.000    22413134.994 4 119937092.25204      3531.370 4        26.216                                                                    22413113.662 6  93284405.36306      2746.094 6        36.783
C45        37.000                                                                                                                                    23450223.076 6 122111466.20506     -3101.013 6        38.426                                                                    23450216.059 7  99225524.91607     -2519.911 7        43.369
R24        38.000    20201568.200 7 108026812.93607       471.629 7        46.442                                                                    20201567.675 6  84020901.28106       366.798 6        41.526
C33        39.000                                                                                                                                                                                                                                                                    25627040.956 5 108436431.36105     -1232.775 5        31.389
C35        42.000                                                                                                                                    22834744.176 7 118906517.54107      1449.280 7        44.424                                                                    22834743.680 7  96621288.31507      1177.669 7        45.035
R05        44.000    21543934.307 6 115164993.76306     -3095.621 6        40.870                                                                    21543941.312 6  89572549.66706     -2407.684 6        39.754
C29        46.000                                                                                                                                    23130671.882 7 120447445.84107     -2023.304 7        44.715                                                                    23130670.003 7  97873408.77007     -1644.127 7        45.667
C26        48.000                                                                                                                                    21639539.847 7 112682778.14607      -363.981 7        47.547                                                                    21639540.787 7  91563997.78507      -295.800 7        46.434
C24        51.000                                                                                                                                    24025829.592 5 125108756.71005      1767.634 5        34.786                                                                    24025834.706 5 101661125.36605      1436.344 5        34.609
C14        53.000                                                                                                                                    25429361.780 5 132417373.50905     -2711.688 5        31.857    25429373.605 6 102393508.39306     -2096.664 6        41.318    25429366.593 5                     -2203.151 5        33.138
I06        58.000    38435012.243 6 150827238.27406      -745.831 6        40.193
I02        59.000    36986040.164 6 145141166.16906      -827.051 6        38.712
> 2025 01 02 13 01  0.0000000  0 44
G06         1.000    22925569.823 5 120474846.27305      -225.207 5        32.539                                    22925568.659 2  93876390.93402      -175.454 2        14.952    22925565.440 5  93876269.92105      -175.499 5        31.094
G25         3.000    21040897.624 5 110570850.64605      1434.322 5        31.804                                    21040898.678 4  86159038.87604      1117.658 4        26.719    21040897.661 6  86159046.87106      1117.774 6        38.060
G19         4.000    22847681.226 5 120065493.41705     -3834.965 5        34.348                                    22847686.763 1  93557459.27301     -2988.309 1        10.667
E25         6.000    23966023.705 5 125942321.34805       412.873 5        35.186                                                                    23966030.866 7  94047963.03607       308.311 7        43.860    23966029.822 7  96501283.80707       316.239 7        43.088
G11         7.000    23560008.072 5                      1724.247 5        31.683
G28         8.000    25325520.934 5 133086461.05205      2727.981 5        33.569
G29         9.000    24410372.466 6 128277397.79706      2906.935 6        37.369                                    24410383.381 2  99956432.76302      2265.145 2        17.924    24410379.484 5  99956443.82905      2265.209 5        30.279
E31        10.000                                                                                                                                                                                                    27401608.432 3                     -2530.124 3        22.552
E10        11.000    26929868.835 3                      1960.539 3        21.167                                                                    26929899.572 5 105678648.80605      1464.369 5        30.483    26929887.917 5 108435476.25605      1502.486 5        32.575
G24        12.000    21315831.371 8 112016038.91208     -3511.996 8        48.430                                    21315831.023 7  87284785.50907     -2736.618 7        43.632    21315832.539 6  87284759.51806     -2736.540 6        39.604
E12        13.000                                                                                                                                                                                                    26527443.680 3                       905.405 3        23.124
E33        14.000    26848928.329 5                     -1458.011 5        31.396                                                                    26848907.565 5                     -1089.021 5        30.792    26848903.867 5 108109459.68505     -1117.189 5        31.351
G12        15.000    20107463.878 8 105665399.78808      -973.616 8        49.292                                    20107459.889 7  82336682.05307      -758.662 7        46.611    20107461.379 7  82336700.04207      -758.680 7        45.264
E24        16.000    24008840.700 7 126167275.40507     -1952.888 7        47.778                                                                    24008844.668 7  94215887.98507     -1458.337 7        44.871    24008842.332 7  96673719.73607     -1496.318 7        42.025
G32        17.000    22913486.469 6 120411213.01406        47.454 6        38.042                                    22913550.971 2  93826950.63902        37.006 2        13.273    22913494.121 6  93826986.81006        37.116 6        41.147
E05        18.000    24222672.685 5 127291037.66405     -3621.170 5        34.886                                                                    24222692.583 5  95054922.13505     -2704.052 5        31.645    24222695.816 5                     -2774.789 5        30.302
E08        20.000    27332567.158 6 143633606.10306      1205.954 6        37.679                                                                    27332577.224 6 107258943.81206       900.504 6        37.834    27332574.257 6 110057012.65406       923.962 6        36.798
E02        21.000    27987835.207 4                      1609.788 4        24.767                                                                    27987837.943 5 109830284.96805      1201.876 5        31.351    27987829.171 4 112695423.70204      1233.640 4        24.361
S23        22.000    38102919.970 6 200232247.07106      -864.131 6        36.234
R14        23.000    19671634.302 8 104860835.23208     -1973.370 8        48.417                                                                    19671636.853 6  81558393.89006     -1534.788 6        41.657
R16        24.000    24490080.013 3                      2570.654 3        23.600                                                                    24490116.361 3                      2000.549 3        20.071
R23        25.000    22189103.264 5 118696849.36205     -3855.058 5        34.062
E03        26.000    24855351.996 6 130615942.26306     -1275.797 6        41.933                                                                    24855358.516 6  97537832.94806      -952.719 6        39.910    24855363.359 5 100082277.71805      -977.605 5        35.571
S21        27.000    38391899.325 5 201750879.77405      -858.866 5        34.033
R06        28.000    23038290.982 4                      1129.066 4        29.744
R04        29.000    23425160.996 4                     -5146.227 4        24.887
R15        30.000    20291585.012 8 108432319.75608      1256.849 8        49.345                                                                    20291588.662 7  84336071.01507       977.526 7        47.776
S36        31.000    38162979.898 6 200547835.37106      -859.164 6        36.624
C07        32.000                                                                                                                                                                                                    40339633.039 4                     -1386.288 4        27.461
C10        33.000                                                                                                                                    39317168.312 4                     -1567.768 4        27.772    39317219.930 3                     -1210.985 3        22.762    39317169.526 5 166363798.42105     -1273.293 5        32.802
C05        35.000                                                                                                                                                                                                    39416902.115 5                      -658.495 5        30.702
R17        36.000                                                                                                                                    22409813.076 6  93270676.40116      2745.333 6        36.488
C45        37.000                                                                                                                                    23453200.311 6 122126974.36306     -3102.242 6        37.062                                                                    23453193.760 7  99238126.53607     -2520.641 7        42.726
R24        38.000    20201129.972 7 108024465.56707       467.266 7        45.747                                                                    20201129.206 6  84019075.53606       363.415 6        41.893
C33        39.000                                                                                                                                    25628486.095 6 133454125.66306     -1519.688 6        36.688                                                                    25628497.272 4 108442600.25404     -1234.589 4        29.924
C35        42.000                                                                                                                                    22833353.852 7 118899276.36807      1447.100 7        43.754                                                                    22833352.973 7  96615404.24407      1176.070 7        45.181
R05        44.000    21546831.302 6 115180481.04906     -3099.346 6        38.727                                                                    21546836.810 6  89584595.31106     -2410.428 6        38.012
C42        45.000                                                                                                                                                                                                                                                                    25870091.815 5 109464691.00205     -2894.365 5        30.853
C29        46.000                                                                                                                                    23132613.774 7 120457568.52507     -2025.837 7        43.149                                                                    23132614.025 7  97881634.25007     -1646.049 7        45.693
C26        48.000                                                                                                                                    21639890.066 7 112684602.31207      -365.717 7        46.821                                                                    21639891.257 7  91565480.04707      -297.015 7        46.403
C24        51.000                                                                                                                                    24024127.851 4 125099920.37804      1767.091 4        27.725                                                                    24024137.548 5 101653944.94905      1435.975 5        33.886
C14        53.000                                                                                                                                    25431962.954 5 132430935.36705     -2713.290 5        30.038    25431977.051 7 102403995.28207     -2098.212 7        42.463    25431973.071 5                     -2204.702 5        34.319
I06        58.000    38435962.761 6 150830967.44106      -745.964 6        40.148
I02        59.000    36987093.346 6 145145301.33506      -827.049 6        38.510
> 2025 01 02 13 01  5.0000000  0 43
G06         1.000    22925784.563 5 120475980.04705      -228.735 5        31.872                                    22925784.893 2  93877274.41102      -178.214 2        15.286    22925780.359 5  93877153.34205      -178.372 5        31.072
G25         3.000    21039534.307 5 110563682.94805      1432.707 5        34.600                                    21039533.894 4  86153453.63504      1116.386 4        28.028    21039534.775 6  86153461.66506      1116.310 6        36.518
G19         4.000    22851335.447 5 120084673.14305     -3836.608 5        35.638                                    22851336.640 1  93572404.41001     -2989.517 1         9.524
E25         6.000    23965631.731 5 125940259.97605       411.836 5        34.843                                                                    23965638.663 7  94046423.71407       307.407 7        44.214    23965637.306 7  96499704.32207       315.470 7        42.603
G11         7.000    23558368.685 5                      1722.664 5        33.539                                                                                                    23558368.295 3                      1341.368 3        23.371
G28         8.000    25322930.302 5 133072821.62605      2727.765 5        32.760                                                                                                    25322951.743 4                      2126.014 4        25.774
G29         9.000    24407606.519 6 128262864.69306      2906.332 6        37.558                                    24407618.376 3  99945108.31803      2264.639 3        18.776    24407614.371 5  99945119.41205      2264.738 5        30.249
E31        10.000                                                                                                                                                                                                    27404750.284 3                     -2529.623 3        22.667
E10        11.000    26928004.857 3                      1959.864 3        22.857                                                                    26928036.083 4 105671328.98504      1463.722 4        27.377    26928023.106 5 108427965.58405      1501.833 5        32.904
G24        12.000    21319174.040 8 112033604.70908     -3514.314 8        48.369                                    21319173.530 7  87298473.13707     -2738.427 7        43.727    21319175.736 6  87298447.15006     -2738.402 6        39.985
E12        13.000                                                                                                                                    26526282.052 4 104094850.04204       880.208 4        27.593    26526320.489 3                       904.008 3        20.571
E33        14.000                                                                                                                                    26850295.405 4                     -1090.542 4        29.744    26850292.244 5 108115050.13905     -1119.405 5        30.800
G12        15.000    20108390.945 8 105670273.81108      -975.966 8        49.375                                    20108387.706 7  82340479.99907      -760.494 7        46.863    20108388.166 7  82340497.97507      -760.407 7        45.509
E24        16.000    24010699.794 7 126177042.81907     -1953.971 7        47.988                                                                    24010703.184 7  94223181.82507     -1459.116 7        44.658    24010701.334 7  96681203.85907     -1497.296 7        42.148
G32        17.000    22913442.810 6 120410983.66606        44.212 6        38.414                                    22913508.075 2  93826771.80802        34.452 2        13.273    22913450.392 6  93826808.11306        34.433 6        40.534
E05        18.000    24226117.989 5 127309147.67405     -3622.775 5        34.438                                                                    24226139.858 5  95068445.83205     -2705.042 5        30.075    24226141.000 5                     -2775.746 5        30.045
E08        20.000    27331421.590 6 143627581.36306      1204.061 6        39.408                                                                    27331430.366 6 107254444.86806       899.228 6        37.403    27331426.468 5 110052396.33305       922.755 5        35.995
E02        21.000                                                                                                                                    27986305.699 5 109824276.49105      1201.665 5        30.453    27986298.203 4 112689258.49304      1233.108 4        24.361
S23        22.000    38103737.316 6 200236567.56706      -863.949 6        36.231
R14        23.000    19673486.449 7 104870707.82607     -1975.641 7        47.994                                                                    19673489.469 6  81566072.54806     -1536.651 6        41.368
R23        25.000    22192710.111 6 118716133.45106     -3858.476 6        36.272
E03        26.000    24856567.075 7 130622328.00107     -1278.419 7        42.226                                                                    24856574.003 6  97542601.51106      -954.603 6        39.820    24856580.318 5 100087170.64205      -979.540 5        34.410
S21        27.000    38392715.660 5 201755174.13605      -859.160 5        33.958
R06        28.000    23037235.875 4                      1125.360 4        29.318
R04        29.000    23429971.755 4                     -5146.370 4        27.760
R15        30.000    20290410.039 8 108426040.09408      1255.261 8        50.477                                                                    20290413.325 7  84331186.82807       976.315 7        47.962
S36        31.000    38163792.893 6 200552131.57606      -859.302 6        36.147
C07        32.000                                                                                                                                                                                                    40341352.190 4                     -1385.857 4        26.886
C10        33.000                                                                                                                                    39318672.320 4                     -1567.363 4        26.766    39318726.447 4                     -1212.886 4        24.451    39318674.489 5 166370166.46205     -1273.412 5        33.245
C05        35.000                                                                                                                                                                                                    39417723.065 5                      -658.655 5        31.034
R17        36.000                                                                                                                                    22406516.726 6  93256952.39406      2744.388 6        36.461
C45        37.000                                                                                                                                    23456178.635 5 122142488.55005     -3103.515 5        35.857                                                                    23456172.608 6  99250733.07206     -2521.549 6        41.561
R24        38.000    20200692.022 7 108022140.71307       462.747 7        42.902                                                                    20200694.193 6  84017267.32706       359.918 6        41.869
C33        39.000                                                                                                                                    25629944.359 6 133461731.39406     -1522.251 6        36.507                                                                    25629953.425 4 108448780.54304     -1236.621 4        28.427
C35        42.000                                                                                                                                    22831965.332 6 118892046.10806      1444.958 6        41.878                                                                    22831964.469 7  96609529.06507      1174.260 7        45.419
R05        44.000    21549730.487 5 115195987.45305     -3103.302 5        35.657                                                                    21549738.502 6  89596655.83606     -2413.625 6        37.013
C42        45.000                                                                                                                                                                                                                                                                    25873507.464 5 109479164.73605     -2894.491 5        30.196
C29        46.000                                                                                                                                    23134556.925 6 120467704.82206     -2028.577 6        41.626                                                                    23134560.622 7  97889870.81707     -1648.296 7        45.443
C26        48.000                                                                                                                                    21640241.938 7 112686435.28607      -367.472 7        46.481                                                                    21640243.436 7  91566969.51007      -298.574 7        46.598
C24        51.000                                                                                                                                    24022426.989 4 125091087.06704      1766.939 4        28.047                                                                    24022442.018 5 101646767.12505      1435.307 5        32.659
C14        53.000                                                                                                                                    25434568.863 4 132444507.89404     -2715.762 4        27.653    25434582.514 7 102414490.35507     -2099.812 7        42.633    25434578.107 5 107622026.48815     -2206.629 5        34.971
I06        58.000    38436912.614 6 150834696.82606      -745.852 6        40.038
I02        59.000    36988147.547 6 145149437.34106      -827.292 6        38.718
> 2025 01 02 13 01 10.0000000  0 44
G06         1.000    22926000.280 5 120477129.62405      -231.401 5        32.629                                    22926004.110 2  93878170.19102      -180.305 2        14.571    22926002.031 5  93878049.10105      -179.914 5        31.087
G25         3.000    21038170.279 6 110556522.96106      1431.458 6        36.578                                    21038170.411 4  86147874.39404      1115.414 4        28.967    21038172.127 6  86147882.41006      1115.296 6        36.102
G19         4.000    22854988.079 6 120103860.85306     -3838.276 6        36.457                                    22854987.773 1  93587355.90301     -2990.836 1         8.762
E25         6.000    23965239.264 5 125938203.07405       411.213 5        34.643                                                                    23965247.150 7  94044887.70107       306.965 7        44.694    23965245.526 7  96498128.23207       315.047 7        42.519
G11         7.000    23556730.936 5 123791454.07615      1720.949 5        33.587                                                                                                    23556731.332 3                      1340.918 3        23.657
G28         8.000    25320332.896 5 133059182.39105      2727.658 5        32.772                                                                                                    25320359.459 4                      2125.230 4        26.240
G29         9.000    24404840.459 6 128248334.06006      2906.031 6        37.270                                    24404854.046 3  99933785.81203      2264.433 3        19.045    24404849.255 5  99933796.92505      2264.551 5        30.143
E31        10.000                                                                                                                                                                                                    27407890.168 3                     -2529.321 3        23.162
E10        11.000    26926143.115 4                      1959.005 4        24.105                                                                    26926172.653 4 105664012.16104      1463.596 4        25.699    26926158.861 5 108420457.92705      1501.315 5        32.377
G24        12.000    21322518.545 8 112051180.72808     -3516.075 8        48.072                                    21322518.151 7  87312168.73307     -2739.799 7        43.826    21322520.524 6  87312142.74606     -2739.855 6        40.958
E12        13.000                                                                                                                                    26525163.809 4 104090452.78404       879.371 4        27.844
E33        14.000    26851686.399 5 141106579.55115     -1462.781 5        34.510                                                                    26851684.568 4                     -1092.211 4        29.393    26851683.872 5 108120649.75105     -1120.259 5        30.408
G12        15.000    20109319.485 8 105675158.45708      -977.832 8        49.174                                    20109317.540 7  82344286.22107      -761.946 7        47.010    20109317.773 7  82344304.20007      -761.932 7        45.547
E24        16.000    24012559.427 8 126186814.50908     -1954.597 8        48.320                                                                    24012562.296 7  94230478.85807     -1459.588 7        44.372    24012560.998 7  96688691.24007     -1497.792 7        42.372
G32        17.000    22913402.964 6 120410769.60706        41.309 6        36.616                                    22913467.937 2  93826604.97902        32.207 2        13.697    22913409.130 6  93826641.32106        32.111 6        39.730
E05        18.000    24229565.035 5 127327262.81505     -3623.243 5        33.066                                                                    24229590.848 4  95081973.37504     -2705.598 4        28.578    24229587.874 5                     -2776.446 5        30.000
E08        20.000    27330277.533 6 143621564.73706      1202.660 6        40.477                                                                    27330285.494 6 107249951.94706       898.285 6        37.278    27330280.645 5 110047786.23705       921.267 5        34.724
E02        21.000                                                                                                                                    27984774.461 5 109818268.53705      1201.384 5        30.392    27984768.988 4 112683093.75604      1233.194 4        24.060
S23        22.000    38104557.099 5 200240887.69905      -863.632 5        35.795
R14        23.000    19675340.472 7 104880590.55207     -1977.393 7        47.607                                                                    19675343.384 6  81573759.09606     -1537.904 6        41.607
R16        24.000    24485285.531 4                      2570.973 4        28.427
R23        25.000    22196322.308 6 118735433.54206     -3861.512 6        36.945
E03        26.000    24857784.274 6 130628725.48406     -1280.571 6        41.704                                                                    24857791.524 6  97547378.84206      -956.152 6        40.272    24857801.045 5 100092072.58505      -980.989 5        32.796
S21        27.000    38393537.017 5 201759467.87505      -858.550 5        34.652
R06        28.000    23036186.059 5                      1121.834 5        31.736
R04        29.000    23434776.898 4                     -5147.178 4        26.491
R15        30.000    20289234.669 8 108419767.17008      1254.039 8        50.227                                                                    20289239.554 8  84326307.89408       975.359 8        48.300
S36        31.000    38164608.266 5 200556427.30605      -858.634 5        35.581
C07        32.000                                                                                                                                                                                                    40343071.041 4                     -1385.463 4        26.850
C10        33.000                                                                                                                                    39320174.741 4                     -1567.357 4        27.341    39320231.358 4                     -1212.077 4        26.108    39320179.546 5 166376534.38205     -1273.409 5        33.341
C05        35.000                                                                                                                                                                                                    39418541.586 5                      -658.404 5        30.551
R17        36.000    22403216.204 4                      3527.603 4        25.549                                                                    22403219.700 5  93243232.67305      2743.555 5        35.195
C45        37.000                                                                                                                                    23459157.831 5 122158007.75305     -3104.151 5        35.414                                                                    23459152.028 6  99263343.70606     -2522.412 6        40.446
R24        38.000    20200256.545 6 108019837.44506       458.733 6        41.154                                                                    20200263.496 7  84015475.94607       356.804 7        42.051
C33        39.000                                                                                                                                    25631398.252 6 133469350.09506     -1524.787 6        36.718                                                                    25631412.469 4 108454971.30304     -1238.841 4        26.683
C35        42.000                                                                                                                                    22830576.905 6 118884825.75806      1443.389 6        40.815                                                                    22830578.096 7  96603661.94407      1172.707 7        45.761
R05        44.000    21552635.058 6 115211511.83806     -3106.289 6        38.216                                                                    21552642.721 6  89608730.34706     -2416.280 6        37.293
C42        45.000                                                                                                                                    25876892.762 4                     -3564.100 4        28.559                                                                    25876927.308 4 109493641.87304     -2895.815 4        27.892
C29        46.000                                                                                                                                    23136504.757 6 120477853.75806     -2030.874 6        41.113                                                                    23136509.564 7  97898117.63707     -1650.287 7        45.216
C26        48.000                                                                                                                                    21640595.368 7 112688276.14407      -368.765 7        46.478                                                                    21640597.060 7  91568465.34507      -299.676 7        46.974
C24        51.000                                                                                                                                    24020730.385 5 125082255.82705      1766.247 5        32.826                                                                    24020746.625 5 101639591.05505      1434.895 5        32.533
C14        53.000                                                                                                                                    25437181.344 4 132458089.93004     -2716.821 4        29.450    25437189.284 7 102424992.81207     -2101.000 7        42.377    25437187.464 5 107633062.96505     -2208.132 5        35.452
I06        58.000    38437862.662 6 150838425.77906      -745.708 6        40.112
I02        59.000    36989201.859 6 145153573.87806      -827.255 6        38.961
> 2025 01 02 13 01 15.0000000  0 43
G06         1.000    22926224.760 4 120478295.32904      -234.407 4        29.384                                    22926226.332 2  93879078.49602      -182.657 2        13.515    22926225.639 5  93878957.42305      -183.077 5        30.423
G25         3.000    21036807.941 6 110549370.93906      1429.761 6        39.087                                    21036808.690 4  86142301.40404      1114.106 4        29.573    21036811.306 6  86142309.40706      1114.205 6        36.533
G19         4.000    22858638.206 6 120123056.83306     -3839.816 6        37.974                                    22858640.852 1  93602313.82301     -2992.063 1         8.000
E25         6.000    23964848.841 5 125936150.91405       410.226 5        33.509                                                                    23964856.708 7  94043355.24807       306.276 7        45.028    23964854.505 6  96496555.80806       314.214 6        41.819
G11         7.000    23555100.260 5 123782854.17805      1719.185 5        35.648                                                                                                    23555095.335 4                      1339.717 4        26.156
G28         8.000    25317735.648 5 133045543.55905      2728.056 5        32.281                                                                                                    25317766.230 4                      2125.357 4        26.742
G29         9.000    24402075.645 6 128233806.22706      2905.447 6        36.692                                    24402090.319 3  99922465.46503      2263.991 3        18.687    24402085.897 5  99922476.60705      2264.044 5        30.075
E31        10.000                                                                                                                                                                                                    27411031.500 3                     -2528.431 3        23.695
E10        11.000    26924279.002 4                      1957.704 4        25.669                                                                    26924306.664 4 105656698.42304      1462.312 4        25.519    26924294.430 5 108412953.51205      1500.571 5        32.228
G24        12.000    21325864.968 7 112068767.26607     -3518.168 7        47.559                                    21325864.942 7  87325872.52307     -2741.428 7        43.845    21325867.139 7  87325846.54407     -2741.480 7        42.125
E12        13.000    26524062.223 3                      1175.503 3        21.952                                                                    26524046.379 4 104086062.00304       877.209 4        29.185
E33        14.000    26853077.422 5 141113899.84305     -1465.240 5        34.667                                                                    26853076.794 4                     -1094.195 4        29.175    26853077.325 5 108126258.85805     -1122.891 5        30.392
G12        15.000    20110250.682 8 105680054.03108      -979.956 8        48.123                                    20110249.426 7  82348100.95607      -763.601 7        46.794    20110249.479 7  82348118.93507      -763.600 7        45.570
E24        16.000    24014419.902 8 126196590.78508     -1955.454 8        48.553                                                                    24014422.432 7  94237779.32407     -1460.259 7        43.843    24014421.553 7  96696182.14007     -1498.246 7        42.428
G32        17.000    22913365.154 5 120410571.15605        38.360 5        34.405                                    22913431.051 1  93826450.38801        29.863 1        10.889    22913371.487 6  93826486.65706        29.975 6        40.334
E05        18.000    24233011.592 5 127345383.47905     -3624.635 5        31.208                                                                    24233046.464 4  95095505.05004     -2706.466 4        27.856    24233035.469 4                     -2777.198 4        29.924
E08        20.000    27329134.347 6 143615556.54706      1201.048 6        40.999                                                                    27329141.735 6 107245465.35906       896.948 6        36.930    27329137.114 5 110043182.60305       920.069 5        33.994
E02        21.000                                                                                                                                    27983244.048 4 109812261.27804      1201.579 4        29.934    27983244.382 4 112676929.93404      1232.897 4        24.075
S23        22.000    38105381.205 5 200245207.45605      -863.634 5        35.690
R14        23.000    19677196.161 7 104890483.72907     -1979.487 7        47.859                                                                    19677199.545 7  81581453.80407     -1539.626 7        42.444
R23        25.000    22199934.698 6 118754749.77406     -3864.820 6        37.093
E03        26.000    24859004.382 6 130635135.05406     -1283.097 6        41.731                                                                    24859011.050 6  97552165.19906      -958.030 6        40.350    24859024.220 5 100096983.78805      -982.745 5        30.000
S21        27.000    38394350.776 5 201763761.29405      -858.173 5        34.443
R06        28.000    23035145.258 5                      1117.831 5        32.323
R04        29.000    23439573.407 4                     -5147.890 4        24.962
R15        30.000    20288061.345 8 108413501.54608      1252.637 8        50.345                                                                    20288066.366 8  84321434.63708       974.264 8        48.052
S36        31.000    38165427.096 5 200560722.47605      -858.679 5        35.400
C07        32.000                                                                                                                                                                                                    40344791.614 4                     -1385.528 4        27.006
C10        33.000                                                                                                                                    39321679.777 4                     -1567.852 4        26.659    39321734.266 4                     -1212.171 4        25.113    39321684.271 5 166382902.53905     -1273.950 5        33.048
C05        35.000                                                                                                                                                                                                    39419357.961 5                      -658.201 5        30.981
R17        36.000    22399915.159 4                      3526.606 4        25.609                                                                    22399923.723 5  93229517.50005      2742.665 5        35.095
C45        37.000                                                                                                                                    23462140.015 5 122173532.35805     -3105.156 5        35.248                                                                    23462132.507 6  99275958.70806     -2523.265 6        39.375
R24        38.000    20199829.737 6 108017556.34006       454.229 6        39.291                                                                    20199836.961 6  84013701.75306       353.365 6        41.094
C33        39.000                                                                                                                                    25632852.402 6 133476981.91806     -1527.418 6        36.681
C35        42.000                                                                                                                                    22829191.250 6 118877615.65706      1441.164 6        41.764                                                                    22829193.904 7  96597803.16707      1171.011 7        46.356
R05        44.000    21555543.381 6 115227054.76206     -3110.255 6        38.682                                                                    21555549.941 6  89620819.29206     -2419.172 6        39.141
C42        45.000                                                                                                                                    25880315.194 4                     -3564.815 4        28.114                                                                    25880347.219 4 109508122.75004     -2897.030 4        24.241
C29        46.000                                                                                                                                    23138456.605 6 120488015.63906     -2033.468 6        40.303                                                                    23138460.891 7  97906374.98807     -1652.518 7        45.111
C26        48.000                                                                                                                                    21640950.279 7 112690125.19407      -370.367 7        46.312                                                                    21640952.391 7  91569967.85307      -301.026 7        47.666
C24        51.000                                                                                                                                                                                                                                                                    24019052.974 5 101632417.00005      1434.690 5        31.872
C14        53.000                                                                                                                                    25439791.817 5 132471681.84505     -2718.903 5        30.551    25439798.540 7 102435502.95407     -2102.675 7        42.061    25439797.979 6 107644107.51506     -2209.652 6        36.620
I06        58.000    38438812.868 6 150842154.50006      -745.520 6        39.721
I02        59.000    36990256.153 6 145157710.68606      -827.283 6        38.595
> 2025 01 02 13 01 20.0000000  0 44
G06         1.000    22926448.909 3 120479477.14403      -237.084 3        23.200                                    22926451.666 1  93879999.31901      -184.765 1         9.333    22926450.738 5  93879878.32805      -185.169 5        30.974
G25         3.000    21035449.283 6 110542226.84406      1427.899 6        39.030                                    21035448.731 4  86136734.59104      1112.645 4        29.867    21035451.739 6  86136742.61906      1112.638 6        36.597
G19         4.000    22862290.449 6 120142261.08806     -3841.765 6        38.453                                    22862295.129 1  93617278.18901     -2993.602 1        11.185
E25         6.000    23964460.374 5 125934103.43105       409.275 5        31.675                                                                    23964467.129 7  94041826.30507       305.330 7        45.387    23964464.249 6  96494986.96806       313.328 6        41.497
G11         7.000    23553465.708 6 123774263.05406      1717.390 6        38.366                                                                                                    23553460.139 4                      1337.812 4        26.467
G28         8.000    25315140.156 5 133031905.19505      2727.902 5        31.268                                                                                                    25315169.935 4                      2125.810 4        27.485
G29         9.000    24399311.907 6 128219281.09706      2904.612 6        36.140                                    24399327.236 3  99911147.22703      2263.340 3        18.239    24399324.660 4  99911158.38104      2263.826 4        27.856
E31        10.000                                                                                                                                                                                                    27414171.282 4                     -2529.709 4        25.293
E10        11.000    26922418.101 4                      1957.271 4        26.731                                                                    26922440.149 4 105649387.78804      1462.016 4        26.826    26922431.274 5 108405452.31605      1499.652 5        31.177
G24        12.000    21329213.847 7 112086364.30607     -3520.592 7        47.146                                    21329213.901 7  87339584.50007     -2743.318 7        44.105    21329215.727 7  87339558.51607     -2743.338 7        42.902
E12        13.000                                                                                                                                    26522930.308 5 104081677.71005       876.682 5        30.762
E33        14.000    26854472.000 5 141121232.41605     -1467.793 5        33.713                                                                    26854471.381 4                     -1096.385 4        28.152    26854473.040 5 108131877.30705     -1124.766 5        30.053
G12        15.000    20111184.301 7 105684960.49307      -982.464 7        46.828                                    20111183.275 7  82351924.16807      -765.556 7        46.362    20111183.061 7  82351942.15507      -765.544 7        45.401
E24        16.000    24016281.065 8 126206371.60508     -1956.728 8        48.488                                                                    24016283.310 7  94245083.18307     -1461.181 7        43.268    24016282.808 7  96703676.52807     -1499.215 7        42.648
G32        17.000    22913331.295 6 120410388.21606        34.881 6        37.501                                    22913397.822 1  93826307.97201        27.145 1        11.852    22913337.917 6  93826344.13606        27.221 6        40.327
E05        18.000    24236459.253 4 127363509.45904     -3625.303 4        28.730                                                                    24236496.560 4  95109040.72104     -2707.394 4        28.360    24236483.868 4                     -2778.123 4        29.791
E08        20.000    27327992.043 6 143609556.75506      1199.062 6        41.225                                                                    27327999.570 6 107240985.03806       895.365 6        36.616    27327995.843 5 110038585.40305       918.710 5        33.551
E02        21.000    27981762.564 4                      1608.698 4        25.083                                                                    27981713.042 4 109806254.72504      1200.931 4        28.559
S23        22.000    38106201.498 5 200249526.88505      -863.981 5        35.871
R14        23.000    19679054.386 7 104900387.38307     -1981.815 7        47.519                                                                    19679058.108 7  81589156.63107     -1541.443 7        42.982
R16        24.000                                                                                                                                    24480472.931 3                      2003.320 3        19.940
R23        25.000    22203550.162 5 118774082.29005     -3868.216 5        34.967
E03        26.000    24860226.400 6 130641556.61506     -1285.562 6        41.800                                                                    24860232.812 6  97556960.52306      -960.045 6        40.296    24860246.773 4 100101904.29704      -984.956 4        26.587
S21        27.000    38395170.617 5 201768054.70705      -858.843 5        34.886
R06        28.000    23034102.019 5                      1113.929 5        30.951
R04        29.000    23444370.183 3                     -5146.802 3        20.452                                                                    23444463.154 3                     -4007.711 3        21.405
R15        30.000    20286890.470 8 108407243.13908      1250.893 8        50.253                                                                    20286894.579 7  84316566.98107       972.941 7        47.425
S36        31.000    38166244.044 5 200565017.85605      -859.015 5        35.638
C07        32.000                                                                                                                                                                                                    40346512.738 4                     -1385.753 4        27.210
C10        33.000                                                                                                                                    39323183.087 4                     -1567.420 4        27.617    39323239.785 4                     -1211.594 4        24.902    39323189.256 5 166389270.72005     -1273.619 5        32.928
C05        35.000                                                                                                                                                                                                    39420174.605 5 158728721.56515      -658.263 5        30.611
R17        36.000    22396622.287 4                      3524.500 4        26.838                                                                    22396628.778 5  93215806.78005      2741.487 5        33.719
C45        37.000                                                                                                                                    23465123.831 5 122189062.32505     -3106.785 5        34.652                                                                    23465114.664 6  99288578.02006     -2524.308 6        38.501
R24        38.000    20199409.024 6 108015297.12906       449.693 6        38.625                                                                    20199414.123 6  84011944.57106       349.817 6        39.553
C33        39.000                                                                                                                                    25634312.240 6 133484626.91306     -1530.391 6        36.711                                                                    25634366.082 5 108467385.07105     -1243.648 5        30.098
C35        42.000                                                                                                                                    22827807.753 7 118870415.75207      1438.880 7        43.674                                                                    22827811.515 7  96591952.66107      1169.226 7        46.675
R05        44.000    21558454.235 6 115242616.24306     -3114.134 6        38.646                                                                    21558462.067 6  89632922.63706     -2422.135 6        41.936
C42        45.000                                                                                                                                    25883736.039 4                     -3565.510 4        26.084                                                                    25883761.502 4                     -2896.033 4        24.045
C29        46.000                                                                                                                                    23140410.791 6 120498190.40206     -2036.314 6        39.117                                                                    23140414.735 7  97914642.78007     -1654.686 7        44.780
C26        48.000                                                                                                                                    21641306.409 7 112691982.37607      -372.303 7        46.484                                                                    21641309.151 8  91571476.95808      -302.552 8        48.073
C24        51.000                                                                                                                                    24017370.407 6 125064600.95906      1764.985 6        39.171                                                                    24017360.199 5 101625244.93905      1434.255 5        31.404
C14        53.000                                                                                                                                    25442405.917 5 132485283.62405     -2721.378 5        31.525    25442410.757 6 102446020.65806     -2104.430 6        40.996    25442409.940 6 107655160.04106     -2211.390 6        37.463
I06        58.000    38439763.342 6 150845882.94006      -745.747 6        39.736
I02        59.000    36991310.409 6 145161848.02506      -827.447 6        38.378
> 2025 01 02 13 01 25.0000000  0 42
G06         1.000    22926683.481 3                      -241.664 3        23.429                                                                                                    22926677.810 5  93880812.50605      -188.541 5        31.577
G25         3.000    21034089.676 6 110535091.56306      1426.215 6        39.805                                    21034090.825 5  86131174.63705      1111.328 5        30.279    21034093.070 6  86131182.69506      1111.141 6        36.106
G19         4.000    22865947.190 6 120161474.52906     -3843.591 6        38.598                                    22865951.347 1  93632249.70601     -2995.012 1        11.556
E25         6.000    23964070.858 5 125932061.54405       408.277 5        30.951                                                                    23964078.443 7  94040301.51307       304.485 7        45.547    23964075.059 6  96493422.40906       312.551 6        41.042
G11         7.000    23551834.725 6 123765681.54406      1715.416 6        39.267                                                                                                    23551828.104 4                      1336.944 4        28.787
G28         8.000    25312547.614 5 133018268.11805      2727.283 5        30.491                                                                                                    25312566.820 4                      2125.309 4        29.289
G29         9.000    24396548.010 5 128204759.61205      2903.979 5        35.643                                    24396564.981 2  99899831.80702      2262.865 2        16.566    24396559.545 4  99899842.95304      2263.215 4        26.335
E31        10.000                                                                                                                                                                                                    27417310.481 3                     -2530.372 3        23.829
E10        11.000    26920555.809 4                      1955.744 4        26.695                                                                    26920574.566 4 105642081.03304      1461.063 4        29.005    26920570.591 5 108397954.98705      1498.985 5        30.506
G24        12.000    21332564.504 7 112103972.66307     -3522.874 7        47.215                                    21332565.100 7  87353305.29607     -2745.099 7        44.464    21332566.647 7  87353279.31307     -2745.097 7        43.528
E12        13.000                                                                                                                                    26521816.875 5 104077300.60405       874.645 5        31.781
E33        14.000    26855870.451 5 141128578.12305     -1470.197 5        34.109                                                                    26855869.595 4                     -1098.217 4        28.190    26855871.125 5 108137505.84505     -1126.891 5        30.385
G12        15.000    20112120.050 7 105689878.70907      -984.839 7        46.685                                    20112119.226 7  82355756.54207      -767.408 7        45.535    20112118.812 7  82355774.52107      -767.266 7        45.422
E24        16.000    24018143.233 8 126216157.81208     -1957.815 8        48.687                                                                    24018145.383 7  94252391.06807     -1462.031 7        42.929    24018145.077 7  96711175.04207     -1500.092 7        42.868
G32        17.000    22913301.697 6 120410221.62906        31.589 6        38.249                                    22913367.742 2  93826178.17302        24.629 2        13.697    22913305.909 6  93826214.38606        24.630 6        39.351
E05        18.000    24239909.750 4 127381641.71804     -3626.820 4        26.958                                                                    24239943.180 4  95122581.12504     -2708.782 4        28.796    24239932.978 4                     -2779.098 4        28.531
E08        20.000    27326851.742 6 143603566.21106      1197.270 6        41.638                                                                    27326859.689 6 107236511.59906       894.341 6        36.344    27326856.174 5 110033995.29205       917.245 5        32.515
E02        21.000    27980228.386 4                      1608.627 4        24.060                                                                    27980181.261 4 109800249.42904      1201.077 4        27.473    27980205.682 4 112664604.95304      1232.290 4        24.511
S23        22.000    38107028.560 5 200253846.98005      -864.116 5        35.910
R14        23.000    19680914.409 7 104910302.18607     -1984.166 7        46.983                                                                    19680917.670 7  81596868.12307     -1543.211 7        42.245
R23        25.000    22207169.999 5 118793432.07605     -3871.610 5        32.569
E03        26.000    24861450.503 7 130647991.05407     -1288.173 7        42.226                                                                    24861456.883 6  97561765.44606      -961.861 6        40.341
S21        27.000    38395989.049 5 201772348.73905      -859.031 5        35.062
R04        29.000    23449173.435 3                     -5145.268 3        21.262                                                                    23449264.201 3                     -4001.386 3        20.214
R15        30.000    20285720.739 8 108400992.61608      1249.206 8        49.713                                                                    20285724.666 7  84311705.46507       971.605 7        47.077
S36        31.000    38167058.510 5 200569313.81605      -859.359 5        35.376
C07        32.000                                                                                                                                                                                                    40348235.654 4                     -1385.596 4        27.090
C10        33.000                                                                                                                                    39324688.839 4                     -1566.940 4        26.683    39324749.950 4                     -1210.703 4        25.850    39324694.221 5 166395639.81805     -1273.673 5        32.802
C05        35.000                                                                                                                                                                                                    39420990.917 5 158732014.03205      -658.564 5        30.430
R17        36.000    22393331.303 4                      3524.055 4        27.485                                                                    22393332.990 5  93202101.17715      2740.313 5        30.898
C45        37.000                                                                                                                                    23468107.656 5 122204598.45305     -3107.874 5        32.928                                                                    23468097.853 6  99301202.39606     -2525.398 6        37.444
R24        38.000    20198992.269 6 108013060.71906       445.084 6        38.024                                                                    20198996.891 6  84010205.15006       346.051 6        39.126
C33        39.000                                                                                                                                    25635784.370 6 133492286.02106     -1533.268 6        36.745                                                                    25635838.209 5 108473608.70905     -1246.351 5        30.325
C35        42.000                                                                                                                                    22826427.727 7 118863226.93307      1436.650 7        44.978                                                                    22826431.014 7  96586111.19607      1167.316 7        46.869
R05        44.000    21561369.010 6 115258196.79406     -3117.989 6        39.826                                                                    21561377.606 7  89645040.84607     -2425.209 7        42.353
C42        45.000                                                                                                                                    25887153.794 3                     -3566.559 3        23.314                                                                    25887183.183 3                     -2896.867 3        23.829
C29        46.000                                                                                                                                    23142367.593 6 120508378.89806     -2039.145 6        37.905                                                                    23142370.978 7  97922921.76507     -1656.951 7        44.156
C26        48.000                                                                                                                                    21641664.871 7 112693848.56207      -374.247 7        46.784                                                                    21641667.680 8  91572993.39408      -304.046 8        48.324
C24        51.000                                                                                                                                                                                                                                                                    24015667.895 5 101618075.58105      1433.254 5        30.053
C14        53.000                                                                                                                                    25445022.171 5 132498896.08405     -2723.787 5        31.125    25445026.556 6 102456546.63606     -2106.021 6        40.095    25445024.481 6 107666221.27106     -2213.220 6        37.690
I06        58.000    38440713.638 6 150849611.76206      -745.773 6        39.730
I02        59.000    36992364.888 6 145165986.47206      -827.865 6        38.480
> 2025 01 02 13 01 30.0000000  0 43
G06         1.000    22926911.060 4                      -244.417 4        25.263                                                                                                    22926914.219 5  93881759.86205      -190.909 5        31.064
G25         3.000    21032733.242 6 110527965.06506      1424.428 6        40.188                                    21032734.707 5  86125621.54005      1109.938 5        30.762    21032737.157 5  86125629.59505      1109.780 5        35.324
G19         4.000    22869606.748 6 120180697.08706     -3845.557 6        37.308                                    22869609.031 1  93647228.35401     -2996.544 1        10.963
E25         6.000    23963681.648 4 125930025.17804       406.696 4        29.118                                                                    23963690.736 7  94038780.85107       303.686 7        45.284    23963686.977 6  96491862.07806       311.639 6        40.386
G11         7.000    23550201.976 6 123757109.65106      1713.383 6        38.580                                    23550195.640 1  96434112.57411      1335.114 1        10.370    23550197.536 5                      1335.287 5        30.060
G28         8.000    25309952.356 5 133004632.17105      2727.281 5        30.385
G29         9.000    24393785.099 5 128190241.66205      2903.627 5        34.914                                    24393803.258 2  99888519.17102      2262.579 2        16.075
E31        10.000                                                                                                                                                                                                    27420451.774 4                     -2530.010 4        26.024
E10        11.000    26918693.016 4                      1955.251 4        25.173                                                                    26918710.909 4 105634778.04904      1460.327 4        29.934    26918713.012 4 108390461.58804      1498.484 4        28.645
G24        12.000    21335917.775 7 112121592.29207     -3524.981 7        47.523                                    21335918.513 7  87367034.88007     -2746.740 7        45.081    21335919.359 7  87367008.89607     -2746.840 7        43.951
E12        13.000    26520691.219 5                      1169.556 5        30.362                                                                    26520704.930 5 104072930.60905       873.391 5        32.539
E33        14.000    26857270.537 5 141135936.87005     -1473.042 5        34.438                                                                    26857269.508 4                     -1099.444 4        26.934    26857271.704 4 108143144.38204     -1128.732 4        29.498
G12        15.000    20113058.158 7 105694808.61107      -987.107 7        46.251                                    20113057.265 7  82359598.01807      -769.177 7        44.656    20113056.749 7  82359616.01907      -769.227 7        44.963
E24        16.000    24020006.498 8 126225949.37608     -1958.823 8        48.920                                                                    24020008.505 7  94259702.94307     -1462.773 7        42.415    24020008.208 7  96718677.66107     -1500.891 7        43.141
G32        17.000    22913271.308 6 120410071.51406        28.392 6        38.411                                    22913340.438 2  93826061.07902        22.158 2        14.857    22913275.480 6  93826097.40606        22.202 6        38.201
E05        18.000    24243363.734 4 127399780.22604     -3628.709 4        26.407                                                                    24243386.151 4  95136126.07704     -2709.047 4        29.905    24243381.117 4                     -2779.897 4        27.713
E08        20.000    27325712.912 6 143597584.92506      1195.351 6        41.368                                                                    27325721.014 6 107232045.12606       892.773 6        36.083    27325717.986 5 110029412.28605       915.624 5        32.162
E02        21.000    27978697.714 3                      1607.090 3        21.643                                                                    27978650.557 4 109794245.54104      1200.805 4        26.204
S23        22.000    38107842.766 5 200258167.80905      -864.306 5        35.267
R14        23.000    19682776.732 7 104920228.19307     -1986.352 7        46.785                                                                    19682779.294 6  81604588.34606     -1544.860 6        41.752
R16        24.000    24475662.326 3                      2571.060 3        23.219
E03        26.000    24862677.289 7 130654438.34707     -1290.706 7        42.463                                                                    24862683.274 6  97566579.98006      -963.798 6        40.160    24862678.202 5 100111774.84105      -989.450 5        32.102
S21        27.000    38396805.250 5 201776643.43605      -858.903 5        34.948
R06        28.000    23032016.723 4                      1105.784 4        26.683
R04        29.000    23453985.920 4                     -5149.301 4        26.036                                                                    23454005.892 3                     -4004.599 3        19.254
R15        30.000    20284552.603 8 108394750.20708      1247.697 8        48.851                                                                    20284556.682 7  84306850.26707       970.411 7        46.795
S36        31.000    38167876.410 5 200573610.10505      -859.514 5        35.586
C07        32.000                                                                                                                                                                                                    40349959.209 4                     -1385.423 4        27.401
C10        33.000                                                                                                                                    39326195.423 4                     -1567.643 4        26.922    39326255.143 4                     -1212.837 4        25.368    39326199.635 5 166402009.65105     -1273.693 5        32.581
C05        35.000                                                                                                                                                                                                    39421810.700 5                      -658.198 5        30.596
R17        36.000                                                                                                                                    22390044.462 4  93188400.86304      2739.431 4        28.180
C45        37.000                                                                                                                                    23471091.545 4 122220140.75704     -3109.320 4        27.018                                                                    23471082.728 6  99313831.73306     -2526.209 6        37.403
R24        38.000    20198579.720 6 108010847.14306       440.453 6        37.520                                                                    20198583.362 6  84008483.46006       342.706 6        39.826
C33        39.000                                                                                                                                    25637264.307 5 133499959.14305     -1535.945 5        35.543                                                                    25637309.430 5 108479843.70805     -1247.787 5        30.732
C35        42.000                                                                                                                                    22825051.013 7 118856049.16407      1434.482 7        45.425                                                                    22825052.417 7  96580278.68607      1165.635 7        46.986
R05        44.000    21564287.392 6 115273796.60106     -3121.890 6        39.661                                                                    21564294.675 6  89657174.02506     -2428.209 6        40.870
C42        45.000                                                                                                                                    25890577.085 4                     -3567.606 4        24.902                                                                    25890611.004 4                     -2898.830 4        25.940
C29        46.000                                                                                                                                    23144326.411 6 120518581.09606     -2041.677 6        36.677                                                                    23144330.103 7  97931211.86507     -1659.047 7        43.926
C26        48.000                                                                                                                                    21642025.224 7 112695723.69807      -375.856 7        46.970                                                                    21642027.909 8  91574517.11108      -305.427 8        48.599
C24        51.000                                                                                                                                    24013967.114 6 125046958.47006      1763.519 6        41.349                                                                    24013976.263 4 101610908.83604      1433.576 4        29.905
C14        53.000                                                                                                                                    25447635.285 4 132512519.13404     -2725.405 4        28.512    25447644.385 6 102467080.83006     -2107.591 6        38.459    25447640.417 6 107677291.12006     -2214.839 6        38.381
I06        58.000    38441663.938 6 150853340.95106      -745.897 6        39.844
I02        59.000    36993420.110 6 145170126.17306      -828.000 6        38.339
> 2025 01 02 13 01 35.0000000  0 43
G06         1.000    22927144.979 5                      -248.008 5        30.091                                                                                                    22927155.711 5  93882719.31705      -193.198 5        30.196
G25         3.000    21031379.316 6 110520846.01406      1422.629 6        41.082                                    21031380.033 5  86120074.23705      1108.531 5        31.230    21031382.880 5  86120082.27205      1108.674 5        35.038
G19         4.000    22873265.380 6 120199927.29606     -3847.157 6        36.741                                    22873268.468 1  93662212.86601     -2997.708 1        10.518
E25         6.000    23963295.278 4 125927992.85604       407.055 4        24.030                                                                    23963303.779 7  94037263.28807       303.018 7        45.189    23963300.458 6  96490304.94106       310.791 6        39.868
G11         7.000    23548569.099 6 123748545.99306      1711.433 6        37.100                                    23548566.418 1  96427439.65801      1333.583 1        11.333    23548567.902 5                      1333.857 5        31.502
G28         8.000    25307356.252 5 132990996.20905      2727.063 5        30.589                                                                                                    25307361.131 5                      2124.881 5        30.204
G29         9.000    24391024.274 5 128175725.97205      2902.678 5        34.243                                    24391041.736 2  99877208.26802      2261.809 2        14.000    24391039.638 3                      2261.050 3        22.210
E31        10.000                                                                                                                                                                                                    27423593.218 4                     -2530.241 4        25.564
E10        11.000    26916829.767 3                      1953.233 3        21.262                                                                    26916848.404 5 105627477.90205      1459.654 5        32.060    26916855.579 4 108382970.99604      1497.755 4        28.275
G24        12.000    21339272.433 7 112139221.82007     -3527.177 7        47.977                                    21339273.853 7  87380772.17807     -2748.448 7        45.857    21339274.307 7  87380746.18007     -2748.421 7        44.293
E12        13.000    26519584.233 5                      1167.888 5        32.228                                                                    26519593.864 5 104068566.73505       871.857 5        33.455
E33        14.000    26858672.162 5 141143307.33405     -1475.680 5        35.514                                                                    26858671.111 4                     -1101.060 4        25.714    26858673.721 4 108148791.87204     -1130.803 4        28.616
G12        15.000    20113998.002 7 105699748.84607      -989.376 7        45.702                                    20113997.138 7  82363447.54707      -770.942 7        43.606    20113996.721 7  82363465.55007      -770.949 7        44.340
E24        16.000    24021870.751 8 126235744.93208     -1959.816 8        49.456                                                                    24021872.436 7  94267017.79907     -1463.585 7        42.271    24021872.241 7  96726183.33707     -1501.689 7        43.249
G32        17.000    22913243.788 6 120409936.41506        25.286 6        38.381                                    22913315.433 2  93825955.72802        19.733 2        13.939    22913250.801 6  93825992.12406        19.655 6        37.966
E05        18.000    24246815.065 4 127417923.40504     -3629.201 4        26.575                                                                    24246827.623 5  95149674.68905     -2710.074 5        31.608    24246829.736 4                     -2781.245 4        27.677
E08        20.000    27324575.882 6 143591611.47406      1193.541 6        41.492                                                                    27324583.745 5 107227584.46005       891.252 5        35.795    27324581.545 5 110024835.22805       914.596 5        31.600
E02        21.000    27977164.985 3                      1608.056 3        23.276                                                                    27977120.571 4 109788241.80704      1200.790 4        24.707    27977134.926 4 112652283.99304      1231.438 4        25.444
S23        22.000    38108669.042 5 200262487.82705      -864.335 5        35.514
R14        23.000    19684640.241 7 104930163.96807     -1988.410 7        45.937                                                                    19684644.097 7  81612316.16507     -1546.511 7        42.239
R16        24.000    24473255.104 4                      2573.307 4        24.556
E03        26.000    24863906.897 7 130660897.10807     -1293.198 7        43.022                                                                    24863912.143 6  97571403.06206      -965.729 6        39.829    24863915.904 5 100116723.78105      -990.891 5        34.524
S21        27.000    38397623.664 5 201780937.70705      -858.907 5        34.786
R06        28.000    23030982.057 4                      1101.900 4        25.038
R04        29.000    23458800.784 4                     -5149.509 4        27.269                                                                    23458823.913 3                     -4011.713 3        18.896
R15        30.000    20283386.312 8 108388514.36008      1246.253 8        49.003                                                                    20283389.348 7  84302000.16207       969.302 7        46.240
S36        31.000    38168699.434 6 200577905.76006      -859.214 6        36.605
C07        32.000                                                                                                                                                                                                    40351680.695 4                     -1385.423 4        27.916
C10        33.000                                                                                                                                    39327700.956 4                     -1567.644 4        26.778    39327758.333 4                     -1212.981 4        25.519    39327705.048 5 166408379.17605     -1274.073 5        32.611
C05        35.000                                                                                                                                                                                                    39422629.333 5                      -658.536 5        30.883
R17        36.000    22386774.661 5                      3521.040 5        30.981                                                                    22386755.619 4  93174704.72504      2738.493 4        27.545
C45        37.000                                                                                                                                                                                                                                                                    23474068.643 6  99326464.97306     -2527.230 6        37.251
R24        38.000    20198172.574 6 108008654.82106       436.039 6        41.254                                                                    20198172.839 6  84006778.33106       339.148 6        39.913
C33        39.000                                                                                                                                    25638742.160 5 133507644.91605     -1538.914 5        33.754                                                                    25638784.753 5 108486089.06505     -1250.329 5        30.430
C35        42.000                                                                                                                                    22823674.466 7 118848881.12507      1432.283 7        45.601                                                                    22823675.745 7  96574454.05807      1163.916 7        46.867
R05        44.000    21567209.413 6 115289414.23306     -3125.607 6        41.700                                                                    21567213.830 6  89669321.00806     -2431.272 6        38.811
C42        45.000                                                                                                                                    25894012.557 4                     -3569.426 4        28.085                                                                    25894037.479 4                     -2899.751 4        26.539
C29        46.000                                                                                                                                    23146288.621 6 120528795.61406     -2044.623 6        36.110                                                                    23146291.374 7  97939511.97707     -1661.159 7        43.170
C26        48.000                                                                                                                                    21642387.004 7 112697606.45807      -377.615 7        46.905                                                                    21642389.530 8  91576047.00208      -306.771 8        48.805
C24        51.000                                                                                                                                    24012271.078 7 125038140.78707      1763.046 7        42.296                                                                    24012284.375 5 101603743.73805      1432.717 5        30.943
C14        53.000                                                                                                                                    25450247.450 4 132526151.53304     -2727.763 4        25.414    25450263.041 5 102477622.13305     -2109.141 5        35.214    25450257.946 6 107688368.52306     -2216.480 6        38.595
I06        58.000    38442613.970 6 150857069.44906      -745.938 6        39.583
I02        59.000    36994474.987 6 145174265.82806      -828.098 6        38.474
> 2025 01 02 13 01 40.0000000  0 43
G06         1.000    22927388.298 5                      -251.352 5        33.467                                                                                                    22927393.759 4  93883692.02804      -195.936 4        28.900
G25         3.000    21030026.732 7 110513735.81107      1421.154 7        42.315                                    21030026.987 5  86114533.84105      1107.387 5        31.291    21030029.901 5  86114541.84105      1107.590 5        35.624
G19         4.000    22876926.485 6 120219166.61006     -3848.681 6        36.386                                    22876929.462 1  93677204.56301     -2998.998 1        10.148
E25         6.000    23962909.694 4 125925966.44704       404.795 4        24.451                                                                    23962918.048 7  94035749.92407       302.298 7        44.924    23962915.020 6  96488752.08906       310.104 6        39.574
G11         7.000    23546941.060 5 123739992.04405      1709.789 5        35.386                                    23546939.042 2  96420774.26902      1332.257 2        13.151    23546941.586 5                      1332.407 5        33.204
G28         8.000    25304757.971 5 132977361.63005      2726.565 5        32.635                                                                                                    25304768.297 5                      2125.013 5        31.351
G29         9.000    24388261.224 5 128161213.98305      2902.393 5        33.180                                    24388281.090 1  99865900.23601      2261.609 1        11.630    24388283.424 3                      2262.603 3        19.015
E31        10.000                                                                                                                                                                                                    27426735.808 4                     -2530.587 4        24.902
E10        11.000                                                                                                                                    26914987.544 5 105620181.53105      1459.240 5        33.060    26914997.223 4 108375484.40104      1496.840 4        28.844
G24        12.000    21342629.510 8 112156862.72108     -3529.264 8        48.531                                    21342631.358 7  87394518.33507     -2750.076 7        46.487    21342631.806 7  87394492.34907     -2750.180 7        44.731
E12        13.000    26518475.762 5                      1165.922 5        32.222                                                                    26518485.143 5 104064210.07105       870.587 5        33.796
E33        14.000    26860076.802 6 141150690.95206     -1478.016 6        36.374                                                                                                                                    26860079.049 4 108154449.44004     -1132.369 4        27.401
G12        15.000    20114940.323 7 105704700.89307      -991.552 7        44.311                                    20114939.157 7  82367306.27507      -772.640 7        42.377    20114938.654 7  82367324.28507      -772.600 7        43.905
E24        16.000    24023736.014 8 126245545.92508     -1960.697 8        49.787                                                                    24023737.468 7  94274336.71607     -1464.147 7        42.258    24023737.275 7  96733693.18507     -1502.421 7        43.598
G32        17.000    22913221.565 6 120409817.76906        22.146 6        40.212                                    22913293.678 1  93825863.22101        17.319 1         9.238    22913228.261 6  93825899.67506        17.216 6        37.728
E05        18.000    24250266.908 4 127436072.88504     -3630.369 4        27.018                                                                    24250280.197 5  95163227.90205     -2711.029 5        32.449    24250284.972 4                     -2781.597 4        28.218
E08        20.000    27323440.324 6 143585647.31606      1191.932 6        41.406                                                                    27323448.175 5 107223130.75105       890.030 5        35.114    27323446.750 5 110020265.33805       913.358 5        32.156
E02        21.000                                                                                                                                                                                                    27975599.748 4 112646125.00204      1231.462 4        26.503
S23        22.000    38109491.834 5 200266808.41405      -864.342 5        35.638
R14        23.000    19686505.379 7 104940111.03807     -1990.533 7        44.396                                                                    19686509.020 6  81620052.76006     -1548.179 6        40.841
R16        24.000                                                                                                                                    24470833.182 4                      2000.314 4        27.677
E03        26.000    24865138.853 7 130667368.78907     -1295.664 7        43.371                                                                    24865143.561 6  97576235.78506      -967.464 6        39.766    24865155.781 6 100121682.63506      -992.732 6        36.276
S21        27.000    38398442.436 5 201785232.93005      -858.922 5        34.710
R06        28.000    23029952.635 3                      1098.635 3        23.886
R04        29.000                                                                                                                                    23463634.967 3                     -4002.331 3        21.429
R15        30.000    20282221.715 8 108382286.58908      1244.790 8        50.444                                                                    20282224.224 7  84297156.33707       968.236 7        45.853
S36        31.000    38169513.211 6 200582202.26506      -859.325 6        36.374
C07        32.000                                                                                                                                                                                                    40353400.373 4                     -1385.867 4        27.365
C10        33.000                                                                                                                                    39329204.798 4                     -1567.906 4        26.527    39329262.135 4                     -1212.166 4        26.108    39329210.901 5 166414749.56005     -1274.255 5        32.395
C05        35.000                                                                                                                                                                                                    39423447.962 5                      -658.826 5        30.423
R17        36.000    22383483.032 5                      3519.899 5        31.253                                                                    22383469.448 4  93161013.80304      2737.043 4        29.024
C45        37.000                                                                                                                                    23477069.099 4                     -3111.614 4        24.947                                                                    23477055.355 6  99339103.25306     -2528.067 6        37.418
R24        38.000    20197768.213 7 108006485.48807       431.587 7        44.286                                                                    20197766.877 6  84005091.06306       335.703 6        39.529
C33        39.000                                                                                                                                    25640216.199 5 133515344.74405     -1541.501 5        34.029                                                                    25640260.188 4 108492345.85504     -1252.412 4        29.384
C35        42.000                                                                                                                                    22822296.389 7 118841724.23607      1430.285 7        44.724                                                                    22822301.444 7  96568638.50207      1162.236 7        46.972
R05        44.000    21570135.004 7 115305051.10107     -3129.182 7        44.704                                                                    21570138.773 5  89681482.94205     -2433.910 5        35.881
C42        45.000                                                                                                                                    25897442.747 5                     -3569.243 5        30.325                                                                    25897466.158 4                     -2900.436 4        27.329
C29        46.000                                                                                                                                    23148254.208 6 120539023.90106     -2046.979 6        36.423                                                                    23148255.387 7  97947823.28807     -1663.417 7        42.457
C26        48.000                                                                                                                                    21642750.448 7 112699498.28607      -379.216 7        46.632                                                                    21642752.861 8  91577584.26508      -308.146 8        49.041
C24        51.000                                                                                                                                    24010578.813 7 125029326.47707      1762.516 7        42.381                                                                    24010592.334 5 101596581.34105      1431.876 5        32.245
C14        53.000                                                                                                                                    25452868.680 3                     -2726.543 3        20.167    25452884.632 5 102488171.79005     -2110.850 5        32.240    25452877.151 6 107699454.62306     -2218.155 6        38.574
I06        58.000    38443564.208 6 150860798.35306      -745.855 6        39.501
I02        59.000    36995529.615 6 145178406.73106      -828.244 6        38.285
> 2025 01 02 13 01 45.0000000  0 44
G06         1.000    22927631.537 5 120485519.59015      -254.718 5        33.539                                                                                                    22927633.645 4  93884677.70804      -198.411 4        28.654
G25         3.000    21028675.652 7 110506633.96807      1419.406 7        42.032                                    21028675.565 5  86108999.94505      1106.031 5        31.079    21028678.140 6  86109007.96306      1106.036 6        36.378
G19         4.000    22880592.245 6 120238414.51206     -3850.440 6        36.741                                    22880592.204 1  93692202.79301     -3000.228 1         8.000
E25         6.000    23962526.172 4 125923944.93404       403.663 4        26.647                                                                    23962533.382 7  94034240.35607       301.488 7        44.892    23962530.788 6  96487203.13806       309.281 6        39.051
G11         7.000    23545314.489 5 123731447.28205      1708.000 5        33.018                                    23545314.023 2  96414116.04502      1330.896 2        12.727    23545316.398 5  96414139.01415      1330.789 5        34.019
G28         8.000    25302160.972 5 132963727.89305      2726.470 5        34.329                                                                                                    25302177.814 5                      2124.637 5        32.299
G29         9.000    24385500.112 5 128146705.11905      2901.468 5        32.311                                    24385521.012 1  99854594.64201      2260.832 1         7.375
E31        10.000                                                                                                                                                                                                    27429876.841 3                     -2530.557 3        23.905
E10        11.000                                                                                                                                    26913127.882 5 105612888.64505      1458.212 5        33.647    26913140.022 4 108368001.28404      1496.145 4        28.957
G24        12.000    21345988.391 8 112174514.43608     -3531.634 8        48.654                                    21345990.861 7  87408272.91607     -2751.922 7        46.941    21345990.744 7  87408246.92107     -2751.902 7        44.730
E12        13.000    26517367.453 5                      1163.924 5        31.366                                                                    26517376.910 5 104059860.22705       869.293 5        33.868
E33        14.000    26861484.902 6 141158087.19806     -1480.516 6        36.427                                                                    26861509.501 5                     -1105.576 5        30.083    26861486.881 4 108160116.69404     -1134.787 4        26.060
G12        15.000    20115884.643 7 105709664.17707      -993.726 7        42.254                                    20115883.340 6  82371173.75906      -774.334 6        40.913    20115883.133 7  82371191.76907      -774.508 7        44.020
E24        16.000    24025602.008 8 126255351.81408     -1961.804 8        49.838                                                                    24025603.501 7  94281659.28807     -1464.940 7        42.373    24025603.086 7  96741206.76907     -1503.138 7        43.755
G32        17.000    22913203.911 6 120409715.05106        18.876 6        41.602                                    22913275.434 1  93825783.08301        14.778 1         5.286    22913207.964 6  93825819.63706        14.742 6        36.896
E05        18.000    24253722.886 4 127454228.15204     -3631.246 4        28.171                                                                    24253736.667 5  95176785.34605     -2712.129 5        33.569    24253740.306 4                     -2782.295 4        27.832
E08        20.000    27322306.732 6 143579691.97206      1190.080 6        41.080                                                                    27322315.007 5 107218683.60105       888.768 5        35.067    27322314.285 5 110015702.19105       911.627 5        32.623
E02        21.000                                                                                                                                    27974061.220 3 109776238.23103      1200.070 3        22.629    27974068.739 4 112639967.09804      1231.123 4        29.450
S23        22.000    38110315.681 5 200271129.10605      -864.325 5        35.629
R14        23.000    19688372.619 7 104950068.73607     -1992.691 7        42.125                                                                    19688377.340 6  81627797.63106     -1549.887 6        41.018
R16        24.000    24468401.422 4                      2572.223 4        29.564                                                                    24468432.113 4                      2000.716 4        29.071
R23        25.000    22221784.429 5 118870997.35005     -3885.343 5        30.408
E03        26.000    24866372.992 7 130673852.85707     -1298.186 7        43.255                                                                    24866377.456 6  97581077.75906      -969.265 6        39.979    24866393.444 6 100126650.92606      -994.490 6        36.817
S21        27.000    38399255.211 5 201789528.25005      -859.113 5        34.381
R06        28.000    23028928.665 3                      1092.622 3        21.643
R04        29.000                                                                                                                                    23468443.240 4                     -4005.934 4        24.195
R15        30.000    20281058.565 8 108376066.49908      1243.217 8        50.663                                                                    20281059.804 7  84292318.48707       966.812 7        45.186
S36        31.000    38170332.332 6 200586498.95806      -859.819 6        36.340
C07        32.000                                                                                                                                                                                                    40355116.649 4                     -1385.817 4        27.174
C10        33.000                                                                                                                                    39330711.292 4                     -1568.510 4        26.707    39330760.290 4                     -1212.718 4        27.102    39330716.348 5 166421120.40705     -1274.273 5        32.557
C05        35.000                                                                                                                                                                                                    39424265.267 5                      -658.249 5        30.219
R17        36.000    22380191.610 5                      3518.577 5        31.079                                                                    22380180.976 5  93147327.69805      2736.382 5        30.483
C45        37.000                                                                                                                                    23480050.597 3                     -3112.028 3        23.752                                                                    23480043.401 6  99351746.19006     -2529.002 6        37.546
R24        38.000    20197366.108 7 108004338.39507       426.981 7        45.610                                                                    20197365.456 6  84003421.11806       332.058 6        38.949
C33        39.000                                                                                                                                    25641694.163 5 133523058.06305     -1544.208 5        32.587
C35        42.000                                                                                                                                    22820921.166 7 118834577.97207      1428.101 7        44.278                                                                    22820929.366 7  96562831.57607      1160.626 7        47.034
R05        44.000    21573065.088 7 115320706.60007     -3133.064 7        46.514                                                                    21573068.646 5  89693659.39005     -2436.848 5        33.228
C42        45.000                                                                                                                                    25900873.702 5                     -3570.416 5        30.392                                                                    25900895.874 4                     -2901.606 4        27.353
C29        46.000                                                                                                                                    23150223.837 6 120549265.41606     -2049.775 6        38.504                                                                    23150221.937 7  97956145.34507     -1665.443 7        42.099
C26        48.000                                                                                                                                    21643115.863 7 112701398.64307      -381.065 7        46.784                                                                    21643117.757 8  91579128.45808      -309.524 8        49.076
C24        51.000                                                                                                                                    24008885.904 7 125020515.02707      1761.931 7        42.762                                                                    24008898.146 5 101589421.30005      1431.666 5        33.814
C14        53.000                                                                                                                                                                                                                                                                    25455498.401 6 107710548.97006     -2219.589 6        38.937
I06        58.000    38444514.100 6 150864527.28106      -745.769 6        39.649
I02        59.000    36996585.098 6 145182548.34906      -828.624 6        38.393
> 2025 01 02 13 01 50.0000000  0 42
G06         1.000    22927874.270 4 120486800.88104      -257.956 4        29.649                                    22927878.521 2  93885830.08112      -200.994 2        12.545    22927875.949 5  93885676.12605      -200.416 5        30.045
G25         3.000    21027324.215 6 110499540.42506      1418.027 6        41.585                                    21027325.609 5  86103472.52005      1104.953 5        30.823    21027327.347 5  86103480.54405      1104.988 5        35.367
G19         4.000    22884262.151 6 120257670.92906     -3851.991 6        37.482                                    22884256.703 1  93707207.88801     -3001.608 1         6.000
E25         6.000                                                                                                                                    23962149.605 7  94032734.55907       300.930 7        44.488    23962147.395 6  96485658.06106       308.803 6        38.664
G11         7.000    23543690.222 5 123722911.66705      1706.224 5        31.162                                    23543690.493 1  96407464.93801      1329.450 1        11.037    23543692.981 5  96407487.93305      1329.788 5        33.802
G28         8.000    25299565.749 6 132950095.01306      2726.697 6        36.268                                                                                                    25299583.017 5                      2124.730 5        32.826
G29         9.000    24382739.054 5 128132199.39705      2900.936 5        33.796                                    24382761.556 1  99843291.50001      2260.402 1         7.500
E31        10.000                                                                                                                                                                                                    27433019.716 3                     -2530.050 3        23.943
E10        11.000    26911280.546 5                      1952.121 5        30.566                                                                    26911270.158 5 105605599.19905      1457.651 5        34.205    26911280.645 4 108360521.69104      1495.542 4        29.204
G24        12.000    21349349.575 8 112192176.89908     -3533.412 8        48.951                                    21349352.296 7  87422035.87507     -2753.307 7        47.268    21349351.606 7  87422009.88207     -2753.309 7        44.617
E12        13.000    26516256.939 5                      1162.259 5        30.166                                                                    26516270.677 5 104055517.17105       868.132 5        33.006
E33        14.000    26862895.278 6 141165496.03106     -1482.852 6        36.106                                                                    26862915.826 5                     -1107.468 5        32.114    26862896.274 4 108165793.56404     -1135.793 4        25.203
G12        15.000    20116831.906 6 105714638.72606      -995.900 6        41.425                                    20116829.692 6  82375050.02206      -776.015 6        40.012    20116830.055 7  82375068.01107      -775.964 7        43.943
E24        16.000    24027468.899 8 126265162.55908     -1962.447 8        50.034                                                                    24027470.535 7  94288985.49707     -1465.571 7        42.220    24027469.859 7  96748724.08807     -1503.699 7        43.962
G32        17.000    22913187.009 6 120409628.24606        15.800 6        40.646                                    22913260.499 1  93825715.34901        12.375 1         4.429    22913190.739 6  93825752.01206        12.381 6        36.514
E05        18.000    24257181.355 4 127472389.13204     -3632.636 4        27.090                                                                    24257192.885 5  95190347.04105     -2712.428 5        33.377    24257197.559 4                     -2783.556 4        26.084
E08        20.000    27321175.129 6 143573745.36706      1188.646 6        40.553                                                                    27321183.180 5 107214242.97905       887.737 5        34.524    27321183.461 5 110011145.75205       910.723 5        33.419
E02        21.000                                                                                                                                    27972528.656 3                      1200.048 3        21.690    27972540.492 5 112633810.18405      1231.517 5        30.815
S23        22.000    38111139.390 6 200275450.00206      -864.147 6        36.204
R14        23.000    19690242.416 6 104960037.37406     -1994.529 6        40.410                                                                    19690247.839 6  81635551.04106     -1551.316 6        41.576
R16        24.000    24466000.777 5                      2572.564 5        30.075                                                                    24466027.556 4                      2000.920 4        29.735
E03        26.000    24867609.381 7 130680349.25407     -1300.299 7        43.215                                                                    24867613.866 6  97585928.97706      -971.124 6        39.508    24867627.212 6 100131628.69506      -996.364 6        36.650
S21        27.000    38400075.361 5 201793823.52905      -858.980 5        34.900
R06        28.000    23027902.227 3                      1095.254 3        20.548
R04        29.000                                                                                                                                    23473243.375 4                     -4006.196 4        24.812
R15        30.000    20279895.695 8 108369853.91508      1241.908 8        50.216                                                                    20279897.516 7  84287486.47807       965.966 7        45.102
S36        31.000    38171151.802 6 200590796.05006      -859.197 6        36.076
C07        32.000                                                                                                                                                                                                    40356835.272 4                     -1385.234 4        27.341
C10        33.000                                                                                                                                    39332215.586 4                     -1567.511 4        27.449    39332265.474 4                     -1212.490 4        28.550    39332222.160 5 166427491.59405     -1274.405 5        32.539
C05        35.000                                                                                                                                                                                                    39425082.720 5                      -658.464 5        30.649
R17        36.000    22376907.194 5                      3517.755 5        30.038                                                                    22376892.705 5  93133646.46805      2736.298 5        31.177
C45        37.000                                                                                                                                    23483036.979 3                     -3113.610 3        23.314                                                                    23483032.683 6  99364393.69306     -2530.007 6        37.883
R24        38.000    20196967.963 7 108002213.67007       422.900 7        46.059                                                                    20196968.499 6  84001768.57306       328.822 6        39.018
C35        42.000                                                                                                                                    22819552.357 7 118827442.28907      1426.240 7        44.536                                                                    22819559.136 7  96557033.27807      1158.859 7        46.921
R05        44.000    21575996.930 7 115336380.70107     -3136.493 7        46.653                                                                    21576005.382 4  89705850.25604     -2439.106 4        29.905
C42        45.000                                                                                                                                    25904299.260 4                     -3571.422 4        29.602                                                                    25904328.685 4                     -2901.664 4        26.850
C29        46.000                                                                                                                                    23152193.725 6 120559520.09206     -2051.996 6        40.369                                                                    23152191.136 6  97964478.11606     -1667.546 6        41.802
C26        48.000                                                                                                                                    21643482.623 7 112703307.49507      -382.468 7        46.858                                                                    21643484.223 8  91580679.56008      -310.808 8        48.989
C24        51.000                                                                                                                                    24007193.653 7 125011706.39707      1761.605 7        43.253                                                                    24007204.579 5 101582263.52905      1431.450 5        35.152
C14        53.000                                                                                                                                                                                                                                                                    25458122.387 6 107721651.50906     -2221.259 6        39.414
I06        58.000    38445464.730 6 150868256.17406      -745.399 6        39.763
I02        59.000    36997640.451 6 145186690.70906      -828.343 6        38.096
> 2025 01 02 13 01 55.0000000  0 43
G06         1.000                                                                                                                                                                    22928122.344 4  93886687.26204      -203.373 4        29.052
G25         3.000    21025976.206 6 110492454.99606      1416.463 6        41.905                                    21025977.133 5  86097951.42205      1103.737 5        30.196    21025978.567 5  86097959.40605      1103.912 5        34.857
G19         4.000    22887932.830 6 120276935.66006     -3853.615 6        36.658                                    22887922.481 1  93722219.35901     -3002.780 1         5.429
E25         6.000                                                                                                                                    23961766.684 7  94031232.37007       300.183 7        44.280    23961765.096 6  96484116.71106       307.858 6        38.880
G11         7.000    23542066.764 4 123714385.05004      1704.630 4        29.242                                    23542068.171 1  96400820.85001      1328.332 1        10.148    23542070.791 5  96400843.81505      1328.233 5        34.090
G28         8.000    25296970.927 6 132936462.75106      2726.461 6        36.575                                                                                                    25296986.422 5                      2124.399 5        32.299
G29         9.000    24379980.794 5 128117696.61005      2900.162 5        34.871                                    24380002.663 1  99831990.61801      2259.948 1         5.714
E31        10.000                                                                                                                                                                                                    27436162.341 3                     -2529.706 3        23.257
E10        11.000    26909421.147 5                      1951.074 5        33.449                                                                    26909413.658 5 105598313.05805      1457.014 5        34.433    26909419.635 5 108353045.53905      1494.594 5        30.264
G24        12.000    21352712.746 8 112209849.92908     -3535.550 8        49.576                                    21352715.596 7  87435807.07007     -2754.971 7        47.530    21352714.813 7  87435781.07507     -2754.951 7        44.176
E12        13.000    26515149.479 4                      1160.440 4        25.940                                                                    26515167.310 5 104051180.74105       866.875 5        31.192
E33        14.000    26864306.647 5 141172917.22105     -1485.376 5        35.981                                                                    26864327.030 5                     -1109.292 5        33.156    26864307.597 4 108171479.93104     -1137.121 4        24.316
G12        15.000    20117780.938 6 105719624.24506      -998.115 6        41.917                                    20117778.172 6  82378934.83706      -777.742 6        39.489    20117778.465 7  82378952.83607      -777.672 7        43.418
E24        16.000    24029336.708 8 126274977.95908     -1963.480 8        50.393                                                                    24029338.277 7  94296315.16007     -1466.147 7        42.311    24029337.581 7  96756244.96007     -1504.362 7        44.453
G32        17.000    22913171.148 6 120409557.14006        12.842 6        38.480                                    22913248.671 1  93825660.22201         9.885 1         4.571    22913176.088 5  93825696.60405         9.826 5        35.057
E05        18.000    24260640.446 4 127490555.52604     -3633.536 4        27.437                                                                    24260649.406 5  95203912.79605     -2713.197 5        33.515    24260649.737 4                     -2784.410 4        26.587
E08        20.000    27320045.018 6 143567807.37106      1186.739 6        40.062                                                                    27320053.139 5 107209808.81505       886.133 5        33.958    27320054.577 5 110006595.87305       909.451 5        34.281
E02        21.000    27970987.385 4                      1607.314 4        24.797                                                                    27970997.416 3                      1198.627 3        20.929    27971012.212 5 112627654.07205      1231.414 5        32.389
S23        22.000    38111960.174 6 200279770.78806      -864.209 6        36.208
R14        23.000    19692114.569 6 104970016.43206     -1996.663 6        39.523                                                                    19692120.200 7  81643312.53907     -1552.960 7        42.036
R16        24.000    24463603.947 4                      2572.829 4        27.916                                                                    24463620.692 4                      2001.483 4        28.749
E03        26.000    24868847.662 7 130686857.80707     -1302.854 7        43.145                                                                    24868852.595 6  97590789.23606      -972.840 6        39.550    24868862.817 6 100136615.73806      -998.203 6        36.299
S21        27.000    38400891.973 5 201798118.85405      -858.887 5        34.810
R06        28.000    23026881.234 3                      1083.712 3        19.284
R04        29.000                                                                                                                                    23478053.728 4                     -4006.566 4        24.932
R15        30.000    20278733.201 8 108363648.51008      1240.424 8        49.779                                                                    20278736.390 7  84282660.06107       964.746 7        45.514
S36        31.000    38171970.364 6 200595093.06006      -859.133 6        36.091
C07        32.000                                                                                                                                                                                                    40358554.486 4                     -1386.088 4        26.539
C10        33.000                                                                                                                                    39333724.414 4                     -1568.414 4        27.581    39333770.582 4                     -1212.707 4        28.275    39333727.574 5 166433863.01005     -1274.687 5        32.533
C05        35.000                                                                                                                                                                                                    39425900.249 5                      -658.593 5        30.626
R17        36.000    22373626.865 4                      3516.360 4        29.336                                                                    22373605.746 5  93119969.94715      2735.197 5        31.615
C45        37.000                                                                                                                                    23486023.455 3                     -3112.593 3        18.298                                                                    23486023.097 6  99377045.61306     -2530.891 6        38.354
R24        38.000    20196573.884 7 108000110.99707       418.494 7        47.572                                                                    20196575.086 6  84000133.17706       325.386 6        38.910
C33        39.000                                                                                                                                    25644651.300 4 133538525.06604     -1549.102 4        29.223                                                                    25644679.099 5 108511181.84105     -1258.964 5        33.778
C35        42.000                                                                                                                                    22818186.429 7 118820317.02607      1424.155 7        45.004                                                                    22818190.881 7  96551243.41407      1157.018 7        46.716
R05        44.000    21578931.631 7 115352073.35207     -3140.262 7        47.107
C42        45.000                                                                                                                                    25907730.752 4                     -3572.116 4        28.142                                                                    25907761.470 4                     -2903.020 4        28.445
C29        46.000                                                                                                                                    23154162.657 6 120569787.78106     -2054.913 6        41.104                                                                    23154163.047 6  97972821.42706     -1669.894 6        41.647
C26        48.000                                                                                                                                    21643850.391 7 112705224.64907      -384.114 7        46.685                                                                    21643852.231 8  91582237.38208      -312.337 8        49.083
C24        51.000                                                                                                                                    24005503.514 7 125002900.40407      1761.098 7        43.536                                                                    24005512.250 6 101575107.89906      1430.903 6        36.522
C14        53.000                                                                                                                                    25460755.263 4                     -2735.021 4        26.527                                                                    25460748.412 6 107732762.09906     -2223.161 6        39.931
I06        58.000    38446414.368 6 150871984.92706      -745.601 6        39.568
I02        59.000    36998696.119 6 145190833.70606      -828.464 6        37.856
> 2025 01 02 13 02  0.0000000  0 42
G06         1.000    22928383.892 4                      -264.240 4        28.483                                                                                                    22928363.229 4  93887711.08104      -205.284 4        26.479
G25         3.000    21024629.818 7 110485377.73907      1414.952 7        43.065                                    21024629.998 4  86092436.68904      1102.548 4        29.801    21024632.231 5  86092444.68205      1102.682 5        33.144
G19         4.000    22891600.696 5 120296208.74905     -3855.006 5        34.376                                    22891589.873 1  93737237.20801     -3003.957 1         2.200
E25         6.000                                                                                                                                    23961384.861 7  94029733.84007       299.577 7        44.048    23961383.183 6  96482579.07606       307.338 6        38.640
G11         7.000    23540443.001 4 123705867.59404      1701.703 4        25.308                                    23540447.579 1  96394183.85501      1326.058 1         9.143    23540449.576 5  96394206.77905      1326.975 5        33.719
G28         8.000    25294378.326 6 132922831.11506      2726.648 6        37.138                                                                                                    25294391.843 5                      2124.404 5        31.517
G29         9.000    24377220.342 5 128103196.82605      2899.821 5        35.710                                    24377244.298 1  99820692.05701      2259.671 1         4.857    24377228.285 3                      2259.718 3        22.648
E31        10.000                                                                                                                                                                                                    27439303.893 4                     -2530.559 4        24.195
E10        11.000    26907560.634 5 141400207.67615      1950.415 5        35.457                                                                    26907558.198 5 105591030.20805      1456.564 5        34.219
G24        12.000    21356078.088 8 112227533.56908     -3537.520 8        50.019                                    21356080.737 7  87449586.52707     -2756.511 7        47.706    21356079.721 7  87449560.52707     -2756.495 7        43.666
E12        13.000    26514043.240 3                      1157.400 3        22.648                                                                    26514065.483 4 104046851.03604       865.698 4        29.194
E33        14.000    26865721.813 5 141180350.85005     -1487.705 5        35.352                                                                    26865740.063 5                     -1110.986 5        33.437
G12        15.000    20118730.999 7 105724620.81707     -1000.165 7        42.586                                    20118728.830 6  82382828.25306      -779.350 6        39.372    20118729.070 7  82382846.27007      -779.335 7        43.100
E24        16.000    24031205.426 8 126284798.09008     -1964.215 8        50.528                                                                    24031206.971 6  94303648.36906     -1466.830 6        41.981    24031206.433 7  96763769.46407     -1504.995 7        44.692
G32        17.000    22913161.114 6 120409501.81006         9.640 6        39.264                                    22913239.080 1  93825617.16501         7.460 1         7.750    22913165.016 5  93825653.49105         7.761 5        34.300
E05        18.000    24264097.671 4 127508727.45004     -3634.781 4        25.985                                                                    24264107.080 5  95217482.69105     -2714.318 5        32.934    24264104.803 4                     -2785.046 4        28.076
E08        20.000    27318916.546 6 143561877.98006      1185.302 6        39.658                                                                    27318925.106 5 107205381.02805       885.249 5        34.157    27318926.654 5 110002052.61005       908.202 5        35.062
E02        21.000    27969456.301 4                      1607.227 4        26.347                                                                                                                                    27969483.142 5 112621498.77405      1231.058 5        33.275
S23        22.000    38112784.441 6 200284091.55606      -863.878 6        36.265
R14        23.000    19693988.228 6 104980006.01206     -1998.620 6        38.414                                                                    19693994.249 7  81651082.20907     -1554.554 7        42.527
R16        24.000    24461198.116 4                      2573.295 4        28.237                                                                    24461215.397 4                      2001.387 4        26.204
E03        26.000    24870088.165 7 130693378.54407     -1305.073 7        42.675                                                                    24870093.426 6  97595658.60806      -974.425 6        39.243    24870102.298 5 100141612.16305     -1000.110 5        35.286
S21        27.000    38401715.932 5 201802414.16205      -858.815 5        34.910
R04        29.000    23482900.626 3                     -5152.028 3        21.833                                                                    23482859.304 4                     -4006.231 4        26.263
R15        30.000    20277572.500 8 108357450.66108      1239.149 8        49.498                                                                    20277576.705 7  84277839.52207       963.791 7        45.762
S36        31.000    38172782.889 5 200599390.20305      -858.959 5        35.743
C07        32.000                                                                                                                                                                                                    40360276.334 4                     -1385.448 4        26.958
C10        33.000                                                                                                                                    39335230.220 4                     -1568.073 4        27.593    39335272.841 4                     -1212.489 4        27.401    39335233.873 5 166440234.74505     -1274.663 5        32.461
C05        35.000                                                                                                                                                                                                    39426717.456 5                      -658.033 5        30.279
R17        36.000    22370347.024 4                      3514.759 4        26.048                                                                    22370321.803 5  93106298.19705      2734.184 5        31.977
C45        37.000                                                                                                                                                                                                                                                                    23489014.289 6  99389702.01106     -2531.626 6        38.099
R24        38.000    20196185.322 8 107998030.61808       414.220 8        48.198                                                                    20196185.907 6  83998515.09306       322.198 6        38.381
C33        39.000                                                                                                                                                                                                                                                                    25646171.701 5 108517482.23805     -1260.876 5        34.257
C35        42.000                                                                                                                                    22816820.727 7 118813202.24507      1422.182 7        45.558                                                                    22816824.451 7  96545462.07907      1155.467 7        46.273
R05        44.000    21581871.251 7 115367784.40507     -3143.847 7        47.001
C42        45.000                                                                                                                                    25911165.285 4                     -3572.633 4        29.185                                                                    25911192.930 4                     -2903.298 4        27.593
C29        46.000                                                                                                                                    23156134.930 6 120580068.47906     -2057.063 6        41.638                                                                    23156137.648 6  97981175.31906     -1671.696 6        41.805
C26        48.000                                                                                                                                    21644219.526 7 112707150.16307      -385.611 7        46.579                                                                    21644221.874 8  91583802.00708      -313.495 8        48.803
C24        51.000                                                                                                                                    24003814.911 7 124994097.07007      1760.748 7        43.752                                                                    24003820.748 6 101567954.48506      1430.567 6        37.437
C14        53.000                                                                                                                                                                                                                                                                    25463376.013 6 107743880.74406     -2224.389 6        39.826
I06        58.000    38447364.994 6 150875713.53506      -745.459 6        39.580
I02        59.000    36999752.323 6 145194977.44106      -828.527 6        37.732
> 2025 01 02 13 02  5.0000000  0 42
G06         1.000    22928636.543 5                      -267.599 5        33.413
G25         3.000    21023284.728 7 110478308.78907      1412.902 7        42.171                                    21023284.237 4  86086928.42204      1100.957 4        28.834    21023287.236 5  86086936.40705      1100.830 5        32.072
G19         4.000    22895265.950 5 120315490.22905     -3857.373 5        30.551                                    22895259.152 1  93752262.10201     -3005.972 1         3.200
E25         6.000                                                                                                                                    23961003.969 7  94028239.05107       298.564 7        43.627    23961002.332 6  96481045.30906       306.271 6        38.904
G11         7.000    23538820.549 3                      1700.789 3        22.095                                                                                                    23538830.359 5  96387576.84505      1325.075 5        33.916
G28         8.000    25291783.982 6 132909200.31906      2725.945 6        36.877                                                                                                    25291799.205 5                      2124.189 5        30.785
G29         9.000    24374460.848 6 128088700.14006      2898.859 6        36.465                                    24374486.532 1  99809395.91801      2258.896 1         5.143    24374471.517 4                      2259.112 4        26.790
E31        10.000                                                                                                                                                                                                    27442446.210 3                     -2529.825 3        22.133
E10        11.000    26905703.243 6 141390459.51006      1948.863 6        36.548                                                                    26905703.280 5 105583750.85105      1455.539 5        33.737    26905694.678 5 108338103.36205      1493.779 5        33.581
G24        12.000    21359445.363 8 112245227.91708     -3540.091 8        50.096                                    21359447.780 7  87463374.33307     -2758.513 7        47.737    21359447.041 7  87463348.33007     -2758.505 7        43.365
E12        13.000    26512939.970 3                      1158.051 3        19.851                                                                    26512966.603 4 104042528.12604       863.766 4        28.133
E33        14.000    26867139.121 5 141187797.03805     -1490.710 5        35.662                                                                    26867156.158 5 105432493.12215     -1113.256 5        33.760    26867141.220 3                     -1142.038 3        22.705
G12        15.000    20119684.197 7 105729628.60507     -1002.748 7        43.691                                    20119681.706 6  82386730.42006      -781.362 6        39.532    20119682.336 7  82386748.43007      -781.370 7        43.124
E24        16.000    24033074.877 8 126294623.02908     -1965.572 8        50.792                                                                    24033076.564 7  94310985.16407     -1467.746 7        42.015    24033076.098 7  96771297.64907     -1505.994 7        45.245
G32        17.000    22913155.824 6 120409462.35306         6.070 6        40.949                                    22913232.457 1  93825586.35901         4.818 1         8.286    22913157.468 5  93825622.78705         5.059 5        32.940
E05        18.000    24267555.168 4 127526904.93504     -3635.735 4        25.158                                                                    24267566.029 5  95231056.79705     -2715.686 5        32.395    24267565.083 5                     -2786.035 5        32.102
E08        20.000    27317789.737 6 143555957.30006      1183.181 6        39.655                                                                    27317798.779 5 107200959.76305       883.607 5        33.988    27317799.897 5 109997516.01105       906.645 5        35.910
E02        21.000    27967935.350 4                      1606.371 4        28.237                                                                                                                                    27967955.070 5 112615344.41305      1230.674 5        32.886
S23        22.000    38113605.199 6 200288412.27606      -864.200 6        36.091
R14        23.000    19695865.626 6 104990006.13706     -2001.247 6        36.987                                                                    19695870.841 7  81658860.06507     -1556.591 7        43.266
R16        24.000    24458794.369 4                      2573.534 4        28.569                                                                    24458810.643 3                      2001.305 3        23.771
E03        26.000    24871331.932 7 130699911.60107     -1307.995 7        42.760                                                                    24871336.573 6  97600537.18006      -976.680 6        38.979    24871347.087 5 100146617.99305     -1002.032 5        34.567
S21        27.000    38402535.634 5 201806709.49505      -859.144 5        34.652
R04        29.000                                                                                                                                    23487672.326 4                     -4006.170 4        27.078
R15        30.000    20276413.115 8 108351260.27508      1237.161 8        48.256                                                                    20276417.736 7  84273024.78307       962.257 7        46.355
S36        31.000    38173604.482 5 200603687.49505      -859.866 5        35.552
C07        32.000                                                                                                                                                                                                    40361997.072 4                     -1385.140 4        26.539
C10        33.000                                                                                                                                    39336735.095 4                     -1567.943 4        27.413    39336775.414 4                     -1213.187 4        27.353    39336739.884 5 166446606.83705     -1274.569 5        31.955
C05        35.000                                                                                                                                                                                                    39427535.056 5                      -658.254 5        30.211
R17        36.000    22367060.140 3                      3511.233 3        19.970                                                                    22367039.049 5  93092631.30315      2732.980 5        32.347
C45        37.000                                                                                                                                                                                                                                                                    23492006.450 6  99402362.98006     -2532.568 6        38.177
R24        38.000    20195801.239 8 107995972.51908       409.326 8        48.701                                                                    20195800.818 6  83996914.34106       318.469 6        38.132
C33        39.000                                                                                                                                    25647649.702 5 133554045.58605     -1554.466 5        31.691                                                                    25647663.967 5 108523793.58205     -1263.188 5        34.729
C35        42.000                                                                                                                                    22815455.596 7 118806098.05907      1419.619 7        45.374                                                                    22815460.029 7  96539689.34907      1153.652 7        45.514
R05        44.000    21584813.780 7 115383513.99607     -3147.899 7        47.068
C42        45.000                                                                                                                                    25914604.133 4                     -3573.959 4        28.265                                                                    25914625.683 4                     -2903.508 4        26.251
C29        46.000                                                                                                                                    23158110.560 7 120590362.34007     -2060.235 7        42.445                                                                    23158114.885 6  97989539.92206     -1673.991 6        41.874
C26        48.000                                                                                                                                    21644590.450 7 112709084.15307      -387.829 7        46.423                                                                    21644593.179 8  91585373.53308      -315.089 8        48.526
C24        51.000                                                                                                                                    24002125.252 7 124985296.57607      1759.734 7        43.465                                                                    24002129.730 6 101560803.35706      1429.995 6        37.735
C14        53.000                                                                                                                                                                                                    25466029.360 5                     -2118.585 5        31.117    25466005.608 6 107755007.59206     -2226.188 6        39.498
I06        58.000    38448314.489 6 150879442.12406      -745.713 6        39.324
I02        59.000    37000808.290 6 145199121.68806      -829.070 6        37.599
> 2025 01 02 13 02 10.0000000  0 41
G06         1.000    22928885.138 5                      -270.814 5        34.700                                                                                                    22928867.272 3                      -211.127 3        20.786
G25         3.000    21021939.877 6 110471247.61706      1411.310 6        41.402                                    21021940.000 4  86081426.22304      1099.716 4        27.988    21021943.986 5  86081434.17405      1099.756 5        31.751
E25         6.000                                                                                                                                    23960624.181 7  94026747.62307       297.860 7        43.367    23960622.114 6  96479514.95606       305.889 6        39.273
G11         7.000                                                                                                                                                                    23537212.275 5  96380953.65105      1323.972 5        33.473
G28         8.000    25289187.767 6 132895569.77106      2726.017 6        36.212                                                                                                    25289205.861 5                      2124.241 5        30.415
G29         9.000    24371703.439 6 128074206.08206      2898.432 6        36.681                                    24371729.071 1  99798101.83901      2258.513 1         8.095    24371717.502 4                      2259.081 4        27.617
E31        10.000                                                                                                                                                                                                    27445587.869 3                     -2530.381 3        20.690
E10        11.000    26903846.580 6 141380715.42006      1948.340 6        37.229                                                                    26903848.627 5 105576474.49705      1455.047 5        33.886    26903843.729 5 108330637.21305      1492.973 5        34.100
G24        12.000    21362814.184 8 112262932.43008     -3541.980 8        49.767                                    21362816.629 7  87477170.05707     -2759.982 7        47.637    21362816.194 7  87477144.04307     -2759.902 7        43.331
E12        13.000                                                                                                                                    26511868.948 4 104038211.64504       861.522 4        26.371
E33        14.000    26868559.027 6 141195255.22506     -1492.806 6        36.129                                                                    26868573.824 5 105438062.60205     -1114.784 5        33.922    26868560.580 3                     -1144.207 3        23.505
G12        15.000    20120639.230 7 105734647.02607     -1004.865 7        44.114                                    20120636.621 6  82390640.88006      -783.008 6        39.823    20120637.544 7  82390658.87907      -782.958 7        43.183
E24        16.000    24034945.205 8 126304452.27408     -1966.361 8        50.849                                                                    24034946.994 6  94318325.18806     -1468.395 6        41.838    24034946.758 7  96778829.14207     -1506.712 7        45.708
G32        17.000    22913151.800 6 120409438.27806         3.226 6        41.156                                    22913228.800 1  93825567.66901         2.541 1         9.619    22913152.585 5  93825604.01805         2.623 5        32.359
E05        18.000                                                                                                                                    24271026.114 5  95244634.63805     -2716.073 5        32.353    24271026.213 5  97729364.70915     -2786.887 5        34.790
E08        20.000    27316664.950 6 143550044.88606      1181.712 6        39.297                                                                    27316673.929 5 107196544.69505       882.307 5        33.431    27316675.305 6 109992985.76106       905.393 6        36.998
E02        21.000    27966414.748 4                      1606.112 4        29.697                                                                                                                                    27966427.079 5 112609190.59005      1230.942 5        33.114
S23        22.000    38114433.889 6 200292732.52306      -864.041 6        36.544
R14        23.000    19697744.410 5 105000016.53205     -2003.213 5        35.790                                                                    19697748.638 7  81666645.94407     -1558.029 7        43.795
R16        24.000    24456385.434 4                      2573.785 4        29.488                                                                    24456401.686 3                      2003.543 3        21.976
R23        25.000    22239839.915 6 118968322.45206     -3901.120 6        38.655
E03        26.000    24872577.211 7 130706456.43707     -1310.204 7        42.461                                                                    24872582.207 6  97605424.54806      -978.362 6        39.273    24872598.046 5 100151632.87605     -1003.880 5        34.557
S21        27.000    38403352.031 5 201811004.41005      -858.916 5        34.762
R15        30.000    20275254.908 7 108345076.92507      1235.895 7        47.346                                                                    20275260.919 7  84268215.53707       961.231 7        46.225
S36        31.000    38174414.396 5 200607984.99505      -859.500 5        35.543
C07        32.000                                                                                                                                                                                                    40363713.898 4                     -1385.530 4        25.744
C10        33.000                                                                                                                                    39338242.055 4                     -1568.502 4        28.038    39338273.206 4                     -1212.885 4        27.665    39338245.676 5 166452978.84405     -1274.782 5        31.721
C05        35.000                                                                                                                                                                                                    39428353.672 4                      -658.211 4        29.829
R17        36.000                                                                                                                                    22363758.291 5  93078968.94505      2732.100 5        32.563
C45        37.000                                                                                                                                    23495045.701 3                     -3120.826 3        20.500                                                                    23494999.807 6  99415028.08906     -2533.557 6        38.246
R24        38.000    20195421.799 8 107993936.09108       404.988 8        48.794                                                                    20195418.546 6  83995330.50006       314.850 6        36.548
C33        39.000                                                                                                                                                                                                                                                                    25649158.804 5 108530115.44105     -1265.476 5        35.424
C35        42.000                                                                                                                                    22814092.415 7 118799003.96007      1417.716 7        45.195                                                                    22814097.458 7  96533924.81807      1152.007 7        44.763
R05        44.000    21587759.188 7 115399261.66407     -3151.480 7        46.331
C42        45.000                                                                                                                                    25918040.445 4                     -3575.587 4        25.955                                                                    25918056.446 4                     -2904.138 4        25.474
C29        46.000                                                                                                                                    23160089.783 7 120600668.80007     -2062.675 7        42.449                                                                    23160094.629 7  97997914.76107     -1676.112 7        42.254
C26        48.000                                                                                                                                    21644963.026 7 112711026.08307      -389.245 7        46.673                                                                    21644966.040 8  91586951.50008      -316.327 8        48.482
C24        51.000                                                                                                                                    24000434.252 7 124976498.34307      1759.359 7        42.813                                                                    24000439.303 6 101553654.07206      1429.524 6        38.276
C14        53.000                                                                                                                                    25468669.507 5 132622043.56715     -2741.782 5        35.452    25468665.172 5                     -2119.933 5        34.186    25468636.831 6 107766142.17006     -2227.848 6        39.009
I06        58.000    38449265.122 6 150883170.29306      -745.688 6        39.520
I02        59.000    37001864.894 6 145203266.43506      -829.085 6        37.947
> 2025 01 02 13 02 15.0000000  0 40
G06         1.000                                                                                                                                                                    22929128.988 3                      -213.607 3        20.857
G25         3.000    21020597.393 7 110464195.00807      1409.781 7        42.127                                    21020597.373 4  86075930.69804      1098.524 4        27.174    21020601.251 5  86075938.68605      1098.212 5        31.660
E25         6.000                                                                                                                                    23960245.467 7  94025260.13807       297.212 7        43.299    23960242.827 6  96477988.70206       304.793 6        39.327
G11         7.000    23535600.985 3                      1697.496 3        20.738                                                                                                    23535597.343 5  96374337.87905      1322.662 5        34.010
G28         8.000    25286592.637 6 132881940.32706      2725.911 6        36.265                                                                                                    25286612.199 5                      2123.892 5        30.196
G29         9.000    24368945.965 6 128059715.45906      2897.845 6        37.319                                    24368972.172 1  99786810.48601      2258.030 1         9.524    24368965.800 4                      2257.964 4        28.701
E31        10.000                                                                                                                                                                                                    27448728.061 3                     -2532.035 3        20.452
E10        11.000    26901990.407 6 141370976.22406      1947.470 6        36.575                                                                    26901995.484 5 105569201.82705      1454.124 5        33.413    26901990.569 5 108323174.77105      1492.331 5        34.100
G24        12.000    21366185.238 8 112280647.94708     -3544.141 8        49.085                                    21366187.454 7  87490974.35507     -2761.670 7        47.335    21366186.927 7  87490948.34307     -2761.750 7        42.610
E12        13.000    26510742.690 3                      1153.390 3        20.071                                                                    26510770.412 4 104033901.95504       860.042 4        24.376
E33        14.000    26869983.498 5 141202726.28705     -1495.238 5        35.433                                                                    26869995.168 5 105443641.62205     -1116.818 5        34.605    26869981.514 4                     -1145.087 4        25.519
G12        15.000    20121595.529 7 105739676.94007     -1006.920 7        43.591                                    20121593.723 6  82394560.29006      -784.608 6        39.862    20121594.687 7  82394578.29507      -784.704 7        43.120
E24        16.000    24036816.383 8 126314286.62108     -1967.264 8        50.221                                                                    24036818.223 6  94325669.02106     -1469.130 6        41.857    24036818.367 7  96786364.53807     -1507.395 7        45.952
G32        17.000    22913151.089 7 120409430.38707         0.019 7        42.669                                    22913228.294 1  93825561.43501        -0.007 1         9.524    22913150.345 5  93825597.88605         0.086 5        30.551
E05        18.000    24274472.087 3                     -3639.850 3        20.071                                                                    24274487.734 5  95258216.90805     -2716.578 5        30.800    24274485.824 6  97743301.34606     -2787.615 6        36.601
E08        20.000    27315542.113 6 143544141.59206      1179.835 6        38.796                                                                    27315550.479 5 107192136.43105       880.789 5        33.383    27315552.089 6 109988462.47706       903.960 6        37.898
E02        21.000    27964888.986 4                      1605.773 4        29.299                                                                                                                                    27964899.517 5 112603037.96705      1230.399 5        32.994
S23        22.000    38115249.642 6 200297053.14706      -864.054 6        36.420
R14        23.000    19699625.214 6 105010037.78106     -2005.240 6        37.667                                                                    19699628.890 7  81674440.27607     -1559.624 7        43.314
R16        24.000    24453976.526 4                      2573.843 4        29.365                                                                    24453997.103 3                      2002.168 3        23.695
E03        26.000    24873823.744 6 130713013.87906     -1312.646 6        41.170                                                                    24873830.098 6  97610321.31006      -980.148 6        39.045    24873846.830 5 100156657.38605     -1005.713 5        33.551
S21        27.000    38404167.083 5 201815299.55705      -858.839 5        34.814
R15        30.000    20274099.114 7 108338901.40207      1234.431 7        47.696                                                                    20274104.884 7  84263412.35107       960.171 7        45.549
S36        31.000    38175233.637 5 200612282.82605      -859.399 5        35.729
C07        32.000                                                                                                                                                                                                    40365431.815 4                     -1385.277 4        25.820
C10        33.000                                                                                                                                    39339748.043 4                     -1568.842 4        28.692                                                                    39339751.707 5 166459351.51305     -1274.972 5        31.691
C05        35.000                                                                                                                                                                                                    39429172.202 5                      -658.227 5        30.000
R17        36.000                                                                                                                                    22360480.063 5  93065311.63205      2731.006 5        31.283
C45        37.000                                                                                                                                                                                                                                                                    23497995.229 6  99427698.04206     -2534.608 6        38.664
R24        38.000    20195044.579 7 107991922.34707       400.592 7        46.894                                                                    20195041.953 5  83993764.29005       311.734 5        34.214
C33        39.000                                                                                                                                    25650627.358 5 133569619.23905     -1560.455 5        32.096                                                                    25650655.013 6 108536448.51606     -1267.909 6        36.060
C35        42.000                                                                                                                                    22812732.325 7 118791920.75107      1415.643 7        45.640                                                                    22812737.111 7  96528169.18207      1150.167 7        44.427
R05        44.000    21590707.981 7 115415028.04807     -3155.007 7        46.025
C42        45.000                                                                                                                                    25921469.710 4                     -3576.220 4        24.677                                                                    25921487.155 4                     -2905.283 4        25.564
C29        46.000                                                                                                                                    23162071.777 7 120610988.68707     -2065.104 7        42.730                                                                    23162076.800 7  98006300.53807     -1678.334 7        42.701
C26        48.000                                                                                                                                    21645337.166 7 112712976.80307      -390.892 7        46.306                                                                    21645340.615 8  91588536.63608      -317.809 8        48.593
C24        51.000                                                                                                                                    23998743.723 6 124967703.21906      1758.900 6        41.619                                                                    23998748.834 6 101546507.34206      1429.055 6        38.565
C14        53.000                                                                                                                                    25471301.793 5 132635756.59005     -2743.490 5        34.762                                                                    25471269.673 6 107777285.14706     -2229.518 6        38.577
I06        58.000    38450214.925 6 150886898.60506      -745.532 6        39.742
I02        59.000    37002921.545 6 145207412.03006      -828.908 6        37.792
> 2025 01 02 13 02 20.0000000  0 40
G06         1.000    22929382.360 5 120494868.55815      -277.568 5        32.581                                    22929381.670 2  93891986.41612      -216.299 2        14.667    22929389.876 3                      -215.609 3        21.238
G25         3.000    21019257.484 7 110457150.50507      1408.000 7        42.845                                    21019256.284 4  86070441.48604      1097.128 4        26.359    21019260.929 5  86070449.45505      1097.448 5        31.109
E25         6.000    23959846.287 5 125909932.15305       397.222 5        30.868                                                                    23959867.485 7  94023776.24707       296.325 7        43.380    23959864.585 6  96476466.09306       304.128 6        39.769
G11         7.000    23533970.399 4                      1695.040 4        26.216                                                                                                    23533983.724 5  96367729.14005      1321.246 5        34.676
G28         8.000    25283998.993 6 132868311.49106      2725.893 6        36.537                                                                                                    25284019.839 4                      2123.844 4        28.891
G29         9.000    24366189.784 6 128045227.72206      2897.138 6        37.614                                    24366215.497 2  99775521.32102      2257.498 2        12.000    24366215.274 4                      2257.356 4        29.280
E10        11.000    26900136.265 6 141361241.44906      1946.570 6        36.268                                                                    26900143.038 5 105561932.43305      1453.760 5        33.006    26900137.901 5 108315715.72705      1491.536 5        33.976
G24        12.000    21369558.412 8 112298373.93508     -3546.276 8        48.691                                    21369560.184 7  87504786.81007     -2763.327 7        47.005    21369560.094 7  87504760.79407     -2763.344 7        42.190
E12        13.000    26509644.567 3                      1149.508 3        21.833
E33        14.000    26871411.056 5 141210209.63205     -1497.913 5        34.614                                                                    26871419.353 5 105449229.83105     -1118.544 5        34.981    26871406.585 4                     -1147.453 4        27.784
G12        15.000    20122554.203 7 105744717.80607     -1009.340 7        43.118                                    20122552.903 6  82398488.23506      -786.501 6        39.865    20122553.656 7  82398506.24007      -786.441 7        43.664
E24        16.000    24038688.359 8 126324125.57008     -1968.280 8        49.749                                                                    24038690.562 7  94333016.27107     -1469.788 7        42.057    24038690.803 7  96793903.45907     -1508.154 7        46.247
G32        17.000    22913155.091 7 120409438.14007        -3.128 7        43.909                                    22913230.919 1  93825567.40501        -2.438 1        11.185    22913150.202 4  93825603.97304        -2.134 4        29.412
E05        18.000    24277934.531 4                     -3639.709 4        24.286                                                                    24277949.356 4  95271803.20204     -2717.832 4        29.791    24277948.760 6  97757242.07706     -2788.589 6        38.087
E08        20.000    27314420.987 6 143538246.82306      1177.913 6        38.366                                                                    27314428.954 5 107187734.49405       879.823 5        33.018    27314430.333 6 109983945.71506       902.730 6        38.715
E02        21.000                                                                                                                                                                                                    27963371.703 5 112596886.07405      1230.387 5        31.977
S23        22.000    38116068.401 5 200301373.54205      -863.995 5        35.676
R14        23.000    19701505.456 6 105020069.45506     -2007.492 6        37.429                                                                    19701510.096 7  81682242.69607     -1561.360 7        42.772
R16        24.000                                                                                                                                    24451581.004 4                      2001.781 4        28.209
R23        25.000    22247173.742 6 119007366.51106     -3907.680 6        39.054
E03        26.000    24875072.348 6 130719583.43106     -1315.206 6        39.838                                                                    24875080.321 6  97615227.10306      -982.000 6        39.267
S21        27.000    38404987.872 5 201819594.64005      -859.109 5        34.733
R15        30.000    20272945.640 7 108332733.20007      1232.797 7        47.435                                                                    20272950.778 7  84258614.84707       958.859 7        45.678
S36        31.000    38176054.873 5 200616579.79405      -859.514 5        35.229
C07        32.000                                                                                                                                                                                                    40367152.987 4                     -1385.848 4        26.108
C10        33.000                                                                                                                                    39341253.151 4                     -1568.498 4        28.341    39341259.320 4                     -1212.849 4        28.427    39341258.081 5 166465724.32305     -1274.866 5        31.600
C05        35.000                                                                                                                                                                                                    39429988.895 5                      -658.417 5        30.249
R17        36.000    22357207.363 4                      3510.010 4        26.527                                                                    22357203.976 5                      2730.066 5        30.506
C45        37.000                                                                                                                                                                                                                                                                    23500992.373 6  99440372.33706     -2535.320 6        39.168
R24        38.000    20194668.368 7 107989930.70607       395.937 7        43.611                                                                    20194670.553 5  83992215.24605       307.953 5        32.994
C33        39.000                                                                                                                                                                                                                                                                    25652153.653 6 108542792.23906     -1269.870 6        36.072
C35        42.000                                                                                                                                    22811375.207 7 118784847.93707      1413.495 7        46.008                                                                    22811378.886 7  96522421.96307      1148.517 7        44.026
R05        44.000    21593660.401 7 115430812.75207     -3158.849 7        46.112
C42        45.000                                                                                                                                                                                                                                                                    25924920.753 4                     -2906.457 4        24.767
C29        46.000                                                                                                                                    23164056.023 7 120621321.48307     -2067.950 7        42.639                                                                    23164061.250 7  98014696.77507     -1680.393 7        43.124
C26        48.000                                                                                                                                    21645713.344 7 112714935.77307      -392.693 7        46.495                                                                    21645716.818 8  91590128.44908      -319.083 8        48.436
C24        51.000                                                                                                                                    23997052.069 6 124958910.72806      1758.235 6        38.222                                                                    23997059.396 6 101539362.70106      1428.584 6        38.372
C14        53.000                                                                                                                                    25473935.784 5 132649479.34405     -2745.263 5        32.210    25473942.129 5 102572974.21015     -2123.141 5        30.068    25473904.235 6 107788436.06406     -2231.083 6        37.728
I06        58.000    38451165.182 6 150890626.72506      -745.583 6        39.501
I02        59.000    37003977.848 6 145211558.24306      -829.220 6        37.747
