     3.04           OBSERVATION DATA    M                   RINEX VERSION / TYPE
ssrcrin-15.6.1x                         20250102 111500 UTC PGM / RUN BY / DATE 
(00000000023479385599111004) Septentrio proprietary         COMMENT             
ract                                                        MARKER NAME         
01                                                          MARKER NUMBER       
geodetic                                                    MARKER TYPE         
NFB                 CLIMERS@TUW                             OBSERVER / AGENCY   
3296359             SEPT ASTERX SB3 PROB4.14.4              REC # / TYPE / VERS 
Unknown             Unknown                                 ANT # / TYPE        
  4127445.3053  1206914.9077  4695542.0782                  APPROX POSITION XYZ 
        0.0000        0.0000        0.0000                  ANTENNA: DELTA H/E/N
G   23 X1  C1C L1C D1C S1C C1W S1W C2W L2W D2W S2W C2L L2L  SYS / # / OBS TYPES 
       D2L S2L C5Q L5Q D5Q S5Q C1L L1L D1L S1L              SYS / # / OBS TYPES 
E   21 X1  C1C L1C D1C S1C C6C L6C D6C S6C C5Q L5Q D5Q S5Q  SYS / # / OBS TYPES 
       C7Q L7Q D7Q S7Q C8Q L8Q D8Q S8Q                      SYS / # / OBS TYPES 
S    9 X1  C1C L1C D1C S1C C5I L5I D5I S5I                  SYS / # / OBS TYPES 
R   17 X1  C1C L1C D1C S1C C2P L2P D2P S2P C2C L2C D2C S2C  SYS / # / OBS TYPES 
       C3Q L3Q D3Q S3Q                                      SYS / # / OBS TYPES 
C   25 X1  C1P L1P D1P S1P C5P L5P D5P S5P C2I L2I D2I S2I  SYS / # / OBS TYPES 
       C7I L7I D7I S7I C6I L6I D6I S6I C7D L7D D7D S7D      SYS / # / OBS TYPES 
J   17 X1  C1C L1C D1C S1C C2L L2L D2L S2L C5Q L5Q D5Q S5Q  SYS / # / OBS TYPES 
       C1L L1L D1L S1L                                      SYS / # / OBS TYPES 
I    5 X1  C5A L5A D5A S5A                                  SYS / # / OBS TYPES 
SEPTENTRIO RECEIVERS OUTPUT ALIGNED CARRIER PHASES.         COMMENT             
NO FURTHER PHASE SHIFT APPLIED IN THE RINEX ENCODER.        COMMENT             
G L1C                                                       SYS / PHASE SHIFT   
G L2W                                                       SYS / PHASE SHIFT   
G L2L  0.00000                                              SYS / PHASE SHIFT   
G L5Q  0.00000                                              SYS / PHASE SHIFT   
G L1L  0.00000                                              SYS / PHASE SHIFT   
E L1C  0.00000                                              SYS / PHASE SHIFT   
E L6C  0.00000                                              SYS / PHASE SHIFT   
E L5Q  0.00000                                              SYS / PHASE SHIFT   
E L7Q  0.00000                                              SYS / PHASE SHIFT   
E L8Q  0.00000                                              SYS / PHASE SHIFT   
S L1C                                                       SYS / PHASE SHIFT   
S L5I                                                       SYS / PHASE SHIFT   
R L1C                                                       SYS / PHASE SHIFT   
R L2P  0.00000                                              SYS / PHASE SHIFT   
R L2C                                                       SYS / PHASE SHIFT   
R L3Q  0.00000                                              SYS / PHASE SHIFT   
C L1P  0.00000                                              SYS / PHASE SHIFT   
C L5P  0.00000                                              SYS / PHASE SHIFT   
C L2I                                                       SYS / PHASE SHIFT   
C L7I                                                       SYS / PHASE SHIFT   
C L6I                                                       SYS / PHASE SHIFT   
C L7D                                                       SYS / PHASE SHIFT   
J L1C                                                       SYS / PHASE SHIFT   
J L2L  0.00000                                              SYS / PHASE SHIFT   
J L5Q  0.00000                                              SYS / PHASE SHIFT   
J L1L  0.00000                                              SYS / PHASE SHIFT   
I L5A                                                       SYS / PHASE SHIFT   
  2025     1     2    11    15    0.0000000     GPS         TIME OF FIRST OBS   
 C1C    0.000 C2C    0.000 C2P    0.000                     GLONASS COD/PHS/BIS 
DBHZ                                                        SIGNAL STRENGTH UNIT
    18                                                      LEAP SECONDS        
 24 R01  1 R02 -4 R03  5 R04  6 R05  1 R06 -4 R07  5 R08  6 GLONASS SLOT / FRQ #
    R09 -2 R10 -7 R11  0 R12 -1 R13 -2 R14 -7 R15  0 R16 -1 GLONASS SLOT / FRQ #
    R17  4 R18 -3 R19  3 R20  2 R21  4 R22 -3 R23  3 R24  2 GLONASS SLOT / FRQ #
                                                            END OF HEADER       
> 2025 01 02 11 15  0.0000000  0 40
G13         1.000    23500756.545 7 123497391.88307     -4638.591 7        43.702                                    23500763.374 2  96231684.47002     -3614.478 2        16.340
G17         2.000    22647444.335 6 119013014.02806     -2680.291 6        41.595                                    22647445.205 5  92737442.05305     -2088.540 5        30.521    22647442.560 5  92737514.01905     -2088.508 5        34.971
G19         4.000    21382305.179 7 112364935.56807      -200.696 7        42.688                                    21382299.892 3  87556951.23603      -156.386 3        19.612
E25         6.000                                                                                                                                    26414031.241 6 103654377.76106      1206.186 6        40.436    26414055.255 5 106358432.44305      1237.572 5        30.551
G10         7.000    24472198.802 6 128602233.56006     -1195.439 6        38.369                                    24472201.250 4 100209576.35504      -931.499 4        25.699    24472207.488 5 100209662.33805      -931.475 5        35.519
G15         9.000    22117601.532 6 116228961.44006     -4096.117 6        40.825                                    22117603.469 5  90567894.90005     -3191.775 5        30.589    22117603.898 6  90567907.88406     -3191.608 6        38.231
G23        10.000    24314867.012 4                     -3297.188 4        28.967                                                                                                    24314878.673 4                     -2568.831 4        27.078
E06        11.000    27525042.163 4                     -4034.302 4        25.338
G24        12.000    20237368.601 6 106348697.35906      -161.619 6        36.064                                    20237368.037 5  82868680.78405      -125.935 5        34.076    20237371.916 6  82868654.77806      -126.091 6        41.628
E31        13.000    24814638.489 7 130401869.02207     -2790.452 7        44.840                                                                    24814644.323 7  97377976.45007     -2083.818 7        45.314    24814641.119 6  99918256.44706     -2138.133 6        40.489
G12        15.000    21858954.461 7 114870062.66607      1803.983 7        44.334                                    21859021.575 2  89508838.75602      1405.750 2        12.788    21858955.511 5  89508778.37605      1405.594 5        35.400
E24        16.000    23746214.917 8 124787173.97308      -324.656 8        50.865                                                                    23746216.008 7  93185295.27207      -242.458 7        46.451    23746215.360 7  95616241.60207      -248.778 7        47.227
G32        17.000    26075169.850 5 137026057.30705      2629.560 5        30.309                                    26075184.649 1 106773527.44001      2049.031 1        11.852
E05        18.000    22365985.065 7 117534046.12907     -1170.670 7        45.217                                                                    22365988.603 8  87768925.99508      -874.231 8        49.071    22365987.837 7  90058553.25507      -897.098 7        45.940
E09        21.000    25820129.300 6 135685675.38906     -3649.617 6        39.712                                                                    25820131.227 5 101323740.33305     -2725.365 5        34.043    25820133.362 7 103966935.14507     -2796.297 7        43.338
R14        23.000    20098995.440 7 107138879.57807       644.752 7        44.119                                                                    20098997.091 6  83330311.42706       501.370 6        40.005
S23        24.000    38258566.733 5 201050122.84005      -860.503 5        35.433
R23        25.000    21990831.471 5 117636116.60705      1567.749 5        35.919
E03        26.000    26279467.941 6 138099670.87706      1404.302 6        41.209                                                                    26279474.920 7 103126330.26807      1048.572 7        43.187    26279473.362 7 105816594.36507      1075.982 7        46.458
R13        27.000    20492690.284 6 109429816.38406     -3033.707 6        36.242
R04        29.000    20169658.382 8 108007635.31408     -1397.992 8        48.236                                                                    20169660.049 7  84005920.27807     -1087.237 7        44.287
R15        30.000    23809057.490 5                      2445.791 5        32.515                                                                    23809081.245 3                      1902.278 3        23.429
S36        31.000    38323528.923 5 201391659.17705      -857.624 5        32.802
C07        32.000                                                                                                                                    39429942.677 5 205322021.36805     -1584.668 5        30.830    39429934.039 6 158768019.57206     -1225.183 6        38.544
C10        33.000                                                                                                                                    38751778.001 6 201790671.20106     -1246.837 6        37.595    38751780.470 6 156037366.58606      -964.217 6        37.036    38751778.522 6 163971441.83606     -1013.205 6        40.362
C36        34.000                                                                                                                                    24531879.498 5 127743937.64305     -3384.647 5        33.066                                                                    24531900.623 4 103802502.01204     -2750.394 4        28.379
R03        36.000    21618470.889 6                     -4810.947 6        40.446                                                                    21618459.366 5                     -3741.670 5        31.057
C45        37.000                                                                                                                                    21829936.385 8 113674197.55508     -1451.349 8        49.285                                                                    21829931.155 7  92369612.74207     -1179.210 7        46.299
C33        39.000                                                                                                                                                                                                                                                                    27071631.012 4                      1381.353 4        25.654
C40        40.000                                                                                                                                    39678417.237 4 206615925.92804     -1848.741 4        28.995
R22        41.000                                                                                                                                    22523802.784 5                     -1350.576 5        33.192
C30        43.000                                                                                                                                    24712788.528 5 128685986.35205     -1555.544 5        33.856                                                                    24712813.451 4 104567900.84904     -1263.823 4        25.699
R05        44.000    22343992.296 7                      2265.245 7        42.990                                                                    22343991.795 4                      1762.089 4        24.947
C42        45.000                                                                                                                                    24158537.811 6 125799825.40406      -768.020 6        38.655                                                                    24158549.094 5 102222780.07405      -624.060 5        34.967
C29        46.000                                                                                                                                    24003005.441 7 124989987.02207      1335.407 7        43.272
C26        48.000                                                                                                                                    23485236.089 6 122293772.52306      1262.616 6        38.408                                                                    23485232.787 5  99373733.21105      1025.992 5        34.429
C14        53.000                                                                                                                                    25311957.135 5 131806115.25605       669.721 5        31.743    25311973.870 6 101920842.97206       517.828 6        41.442    25311967.434 6 107103253.32206       544.132 6        38.736
C21        55.000                                                                                                                                    24323837.298 5 126660638.54405     -3427.141 5        32.892                                                                    24323851.023 5 102922039.64505     -2785.108 5        34.024
I06        58.000    38419359.708 6 150765827.15206      -750.706 6        36.881
I02        59.000    37012684.546 7 145245693.00907      -606.423 7        44.334
> 2025 01 02 11 15  5.0000000  0 40
G13         1.000    23505170.241 7 123520585.23007     -4639.130 7        42.942                                    23505176.709 2  96249757.18302     -3614.861 2        16.717
G17         2.000    22649995.183 6 119026420.27706     -2682.601 6        40.953                                    22649996.118 5  92747888.45105     -2090.330 5        30.189    22649993.244 5  92747960.40105     -2090.246 5        34.581
G19         4.000    21382497.465 6 112365945.87606      -203.707 6        41.945                                    21382492.534 3  87557738.48403      -158.736 3        19.791
E25         6.000    26412495.359 4                      1614.553 4        27.820                                                                    26412495.179 6 103648347.08406      1205.985 6        39.607    26412518.678 4 106352244.40104      1237.384 4        29.270
G10         7.000    24473337.292 6 128608217.07606     -1198.260 6        39.342                                    24473340.306 4 100214238.80604      -933.688 4        24.361    24473346.818 5 100214324.78705      -933.759 5        35.190
G15         9.000    22121500.001 6 116249444.76706     -4097.732 6        41.230                                    22121501.257 5  90583855.93805     -3193.039 5        30.151    22121501.919 6  90583868.92006     -3193.001 6        36.620
G23        10.000    24318005.818 5                     -3298.698 5        30.128                                                                                                    24318015.489 3                     -2570.924 3        22.933
E06        11.000    27528878.842 3                     -4035.524 3        23.371
G24        12.000    20237520.906 5 106349510.92005      -164.124 5        32.976                                    20237523.462 5  82869314.68505      -127.879 5        33.808    20237526.341 7  82869288.68407      -127.827 7        42.830
E31        13.000    24817293.035 7 130415821.90607     -2791.046 7        44.763                                                                    24817299.446 7  97388395.80907     -2084.172 7        45.427    24817296.086 6  99928947.62306     -2138.452 6        40.131
G12        15.000    21857238.837 7 114861045.64507      1802.396 7        44.041                                    21857307.995 2  89501812.36802      1404.481 2        14.762    21857240.475 6  89501752.10806      1404.468 6        37.675
E24        16.000    23746524.234 8 124788799.52408      -325.942 8        50.729                                                                    23746525.576 7  93186509.17007      -243.405 7        46.574    23746524.694 7  95617487.17007      -249.786 7        47.180
G32        17.000    26072667.685 4 137012910.49404      2629.066 4        29.981                                    26072683.000 2 106763283.09802      2048.659 2        12.788
E05        18.000    22367099.548 7 117539903.84307     -1172.808 7        45.016                                                                    22367103.331 8  87773300.26008      -875.778 8        49.431    22367102.438 7  90063041.62607      -898.570 7        46.214
E09        21.000    25823602.253 6 135703923.99206     -3650.256 6        38.249                                                                    25823605.068 5 101337367.51605     -2726.058 5        35.090    25823605.812 7 103980917.83507     -2797.112 7        42.781
R14        23.000    20098391.498 7 107135659.25107       643.026 7        45.088                                                                    20098394.423 6  83327806.72606       500.144 6        40.667
S23        24.000    38259381.981 5 201054424.21805      -860.584 5        35.881
R23        25.000    21989369.990 6 117628285.73006      1564.427 6        36.677
E03        26.000    26278132.008 6 138092651.26606      1403.253 6        41.669                                                                    26278139.135 7 103121088.36407      1047.785 7        42.654    26278137.449 7 105811215.71407      1075.189 7        46.115
R13        27.000    20495532.628 6 109444986.62306     -3034.701 6        37.682
R04        29.000    20170965.481 7 108014634.82907     -1402.293 7        47.949                                                                    20170967.298 7  84011364.34707     -1090.691 7        44.942
R15        30.000    23806756.603 5 127216135.50415      2445.339 5        35.767                                                                    23806779.960 3                      1899.308 3        20.762
S36        31.000    38324339.789 5 201395945.04105      -856.916 5        32.910
C07        32.000                                                                                                                                    39431461.533 5 205329942.93405     -1584.550 5        30.611    39431454.871 6 158774145.04206     -1225.351 6        38.796
C10        33.000                                                                                                                                    38752974.869 6 201796904.86706     -1246.971 6        37.493    38752977.140 6 156042186.82406      -964.011 6        37.153    38752975.630 6 163976507.21306     -1013.246 6        40.257
C36        34.000                                                                                                                                    24535127.705 5 127760860.30605     -3384.729 5        31.140                                                                    24535151.776 4 103816253.11504     -2750.747 4        27.054
R03        36.000    21622962.455 6 115749394.83716     -4812.948 6        38.246                                                                    21622954.809 5                     -3743.286 5        33.096
C45        37.000                                                                                                                                    21831329.966 8 113681455.83708     -1452.426 8        48.782                                                                    21831325.168 7  92375510.70107     -1180.228 7        46.641
C33        39.000                                                                                                                                                                                                                                                                    27070001.584 4                      1378.473 4        26.671
C40        40.000                                                                                                                                    39680191.079 4 206625168.86704     -1848.981 4        29.706
R22        41.000    22525414.227 5 120242388.80115     -1740.676 5        32.210                                                                    22525425.880 5                     -1353.849 5        33.599
C30        43.000                                                                                                                                    24714284.587 5 128693770.25805     -1558.124 5        34.043                                                                    24714314.571 4                     -1265.744 4        24.256
R05        44.000    22341874.423 7 119430288.07017      2262.513 7        42.993                                                                    22341877.066 4                      1759.917 4        26.431
C42        45.000                                                                                                                                    24159275.937 6 125803670.56206      -770.636 6        38.126                                                                    24159292.910 5 102225904.51305      -626.705 5        33.030
C29        46.000                                                                                                                                    24001722.974 7 124983313.22907      1333.753 7        42.866                                                                    24001733.678 5 101559185.14615      1083.886 5        35.367
C26        48.000                                                                                                                                    23484024.099 6 122287460.53106      1261.927 6        39.661                                                                    23484020.688 5  99368604.21305      1025.363 5        34.181
C14        53.000                                                                                                                                    25311322.481 5 131802771.29105       667.513 5        33.251    25311334.347 6 101918257.27106       516.066 6        41.802    25311325.194 6 107100536.11306       542.344 6        39.129
C21        55.000                                                                                                                                    24327128.627 5 126677777.53805     -3428.738 5        35.690                                                                    24327144.979 5 102935966.55405     -2786.273 5        30.996
I06        58.000    38420315.299 6 150769579.01006      -750.492 6        37.108
I02        59.000    37013456.858 7 145248724.70207      -606.681 7        44.500
> 2025 01 02 11 15 10.0000000  0 40
G13         1.000    23509584.006 7 123543782.75307     -4639.831 7        42.032                                    23509590.804 2  96267833.14602     -3615.452 2        16.868
G17         2.000    22652549.013 6 119039839.68106     -2685.119 6        40.937                                    22652549.213 5  92758345.10405     -2092.301 5        30.098    22652546.924 5  92758417.07005     -2092.255 5        35.086
G19         4.000    21382691.594 6 112366972.79006      -207.035 6        41.058                                    21382688.422 3  87558538.68603      -161.340 3        19.672
E25         6.000    26410954.062 4                      1614.104 4        25.955                                                                    26410959.659 6 103642319.42906      1205.179 6        38.156    26410984.152 4 106346059.47704      1236.105 4        28.237
G10         7.000    24474479.405 6 128614215.81406     -1201.236 6        40.296                                    24474482.140 3 100218913.11903      -935.997 3        23.410    24474488.202 5 100218999.11305      -936.154 5        33.659
G15         9.000    22125398.526 6 116269937.46406     -4099.499 6        40.970                                    22125400.614 4  90599824.26504     -3194.420 4        28.967    22125402.065 5  90599837.24705     -3194.280 5        34.881
G23        10.000    24321146.091 5                     -3300.600 5        31.509
E06        11.000    27532713.822 3                     -4034.202 3        23.105
G24        12.000    20237680.275 6 106350337.33906      -166.560 6        36.994                                    20237681.494 5  82869958.64505      -129.789 5        34.038    20237683.446 7  82869932.63407      -129.683 7        43.407
E31        13.000    24819948.859 7 130429779.15007     -2791.861 7        44.629                                                                    24819955.353 7  97398818.41007     -2084.781 7        45.461    24819952.306 6  99939642.14006     -2139.302 6        39.703
G12        15.000    21855524.244 7 114852037.79307      1800.755 7        44.060                                    21855596.088 2  89494793.16802      1403.205 2        15.810    21855527.229 6  89494733.00306      1402.992 6        39.453
E24        16.000    23746835.060 8 124790432.99708      -327.405 8        50.576                                                                    23746836.634 7  93187728.97407      -244.559 7        46.782    23746835.540 7  95618738.79807      -250.879 7        47.474
G32        17.000    26070165.458 5 136999766.82105      2628.629 5        30.143                                    26070182.008 2 106753041.15102      2048.290 2        12.242
E05        18.000    22368216.422 7 117545773.10307     -1174.906 7        45.062                                                                    22368220.238 8  87777683.14308      -877.352 8        49.627    22368219.305 7  90067538.84907      -900.263 7        46.838
E09        21.000    25827073.677 5 135722178.34205     -3651.470 5        35.800                                                                    25827078.719 6 101350999.00706     -2726.784 6        36.189    25827079.182 7 103994904.94107     -2797.854 7        42.428
R14        23.000    20097790.972 7 107132448.66207       641.105 7        46.421                                                                    20097792.588 6  83325309.59406       498.590 6        41.688
S23        24.000    38260201.858 6 201058725.61906      -860.281 6        36.261
R23        25.000    21987917.192 6 117620472.52906      1561.034 6        36.888
E03        26.000    26276797.433 6 138085638.49806      1401.990 6        41.800                                                                    26276804.806 7 103115851.58307      1046.836 7        42.343    26276802.965 7 105805842.31507      1074.207 7        46.093
R13        27.000    20498377.600 6 109460164.12306     -3036.155 6        39.111
R04        29.000    20172277.282 7 108021657.95307     -1406.899 7        47.847                                                                    20172278.758 7  84016826.78107     -1094.308 7        44.930
R15        30.000    23804466.988 5 127203910.74405      2444.911 5        34.848                                                                    23804482.150 4                      1902.257 4        24.752
S36        31.000    38325167.415 5 201400230.28905      -857.125 5        33.677
C07        32.000                                                                                                                                    39432982.938 5 205337866.26005     -1584.876 5        30.574    39432976.789 6 158780271.84106     -1225.464 6        38.940
C10        33.000                                                                                                                                    38754172.808 6 201803140.67806     -1247.362 6        37.622    38754175.009 6 156047008.74806      -964.443 6        37.546    38754173.189 6 163981574.31706     -1013.549 6        40.200
C36        34.000                                                                                                                                    24538384.472 5 127777785.57405     -3385.377 5        30.558                                                                    24538403.943 4 103830006.33504     -2750.888 4        26.323
R03        36.000    21627457.484 6 115773464.42516     -4815.033 6        36.253                                                                    21627452.027 5                     -3744.926 5        34.362
C45        37.000                                                                                                                                    21832725.592 8 113688721.38208     -1453.788 8        48.537                                                                    21832720.553 7  92381414.54407     -1181.286 7        46.764
C33        39.000                                                                                                                                                                                                                                                                    27068373.555 4                      1377.355 4        28.332
C40        40.000                                                                                                                                    39681966.495 4 206634413.91804     -1849.570 4        29.517
R22        41.000    22527056.591 5 120251103.43405     -1745.007 5        34.190                                                                    22527059.538 5                     -1357.330 5        33.725
C30        43.000                                                                                                                                    24715783.334 5 128701567.98605     -1560.900 5        34.862
R05        44.000    22339757.702 6 119418983.21816      2259.485 6        40.467                                                                    22339759.417 4                      1757.313 4        26.826
C42        45.000                                                                                                                                    24160015.996 6 125807530.28506      -773.307 6        37.493                                                                    24160045.044 5 102229040.62105      -628.338 5        32.742
C29        46.000                                                                                                                                    24000441.726 7 124976649.17607      1331.891 7        42.366                                                                    24000453.084 5 101553769.99105      1082.073 5        35.486
C26        48.000                                                                                                                                    23482811.451 6 122281153.17906      1261.054 6        39.444                                                                    23482809.223 5  99363479.02805      1024.481 5        34.448
C14        53.000                                                                                                                                    25310685.761 5 131799440.16105       665.024 5        34.609    25310702.046 6 101915681.41106       514.283 6        41.728    25310685.189 6 107097829.28206       540.537 6        39.204
C21        55.000                                                                                                                                    24330421.571 6 126694925.26806     -3430.364 6        38.835                                                                    24330446.977 5 102949900.54405     -2787.612 5        30.234
I06        58.000    38421271.255 6 150773330.86106      -750.165 6        37.183
I02        59.000    37014229.566 7 145251757.76707      -606.917 7        44.439
> 2025 01 02 11 15 15.0000000  0 40
G13         1.000    23513999.035 6 123566984.66006     -4641.197 6        40.832                                    23514005.834 2  96285912.50502     -3616.473 2        15.810
G17         2.000    22655104.966 7 119053272.35907     -2688.279 7        42.118                                    22655104.947 5  92768812.09905     -2094.759 5        30.475    22655103.684 5  92768884.09105     -2094.635 5        35.695
G19         4.000    21382890.108 6 112368016.47606      -210.815 6        41.094                                    21382887.065 3  87559351.95603      -164.252 3        19.791
E25         6.000    26409414.272 4                      1612.607 4        24.526                                                                    26409424.381 5 103636294.88405      1204.273 5        35.710    26409450.142 4 106339877.69004      1235.842 4        25.684
G10         7.000    24475624.719 6 128620229.95606     -1204.843 6        38.441                                    24475626.656 3 100223599.44703      -938.830 3        21.333    24475631.782 5 100223685.44405      -938.903 5        33.389
G15         9.000    22129298.895 6 116290439.66806     -4101.904 6        40.541                                    22129301.484 4  90615800.01604     -3196.289 4        26.886    22129303.382 5  90615812.98705     -3196.151 5        32.581
G23        10.000    24324285.416 5                     -3302.210 5        30.762
E06        11.000    27536551.498 3                     -4030.832 3        19.642
G24        12.000    20237841.690 6 106351176.75406      -169.679 6        37.939                                    20237841.980 5  82870612.75705      -132.218 5        34.929    20237843.202 7  82870586.75707      -132.139 7        43.943
E31        13.000    24822605.559 7 130443740.89307     -2793.135 7        44.290                                                                    24822612.095 7  97409244.37907     -2085.705 7        45.163    24822609.075 6  99950340.08506     -2140.250 6        39.204
G12        15.000    21853811.302 7 114843039.23807      1798.384 7        43.344                                    21853885.545 2  89487781.22202      1401.381 2        15.238    21853815.023 6  89487721.13506      1401.404 6        40.446
E24        16.000    23747147.467 8 124792074.53408      -329.549 8        50.482                                                                    23747149.155 7  93188954.80207      -246.104 7        46.924    23747148.078 7  95619996.60207      -252.448 7        47.580
G32        17.000    26067662.481 5 136986626.42305      2626.948 5        30.106                                    26067681.539 1 106742801.80101      2047.018 1        11.926
E05        18.000    22369335.590 7 117551654.09007     -1177.683 7        45.028                                                                    22369339.244 8  87782074.78008      -879.500 8        49.713    22369338.417 7  90072045.05307      -902.466 7        46.967
E09        21.000    25830544.867 5 135740438.64505     -3652.880 5        32.192                                                                    25830553.712 6 101364634.92006     -2727.898 6        36.998    25830553.850 6 104008896.56806     -2799.108 6        41.495
R14        23.000    20097191.302 7 107129247.98407       638.766 7        47.231                                                                    20097191.600 6  83322820.19306       496.841 6        41.886
S23        24.000    38261021.953 6 201063027.18406      -860.615 6        36.212
R23        25.000    21986471.177 5 117612677.52105      1556.769 5        35.500
E03        26.000    26275463.679 7 138078632.77107      1400.004 7        42.411                                                                    26275471.767 6 103110620.03506      1045.528 6        41.843    26275469.793 7 105800474.29207      1072.759 7        45.834
R13        27.000    20501221.961 6 109475349.33006     -3038.074 6        40.246
R04        29.000    20173593.435 7 108028704.77207     -1412.078 7        47.646                                                                    20173594.058 7  84022307.62607     -1098.260 7        44.563
R15        30.000    23802178.248 5 127191688.73605      2443.820 5        33.760                                                                    23802199.047 4                      1901.415 4        26.359
S36        31.000    38325976.957 5 201404515.17305      -857.312 5        33.934
C07        32.000                                                                                                                                    39434510.727 5 205345791.53205     -1585.422 5        30.958    39434499.021 6 158786400.15706     -1226.087 6        38.360
C10        33.000                                                                                                                                    38755370.969 6 201809378.79806     -1248.184 6        37.410    38755372.956 6 156051832.44306      -965.168 6        37.554    38755370.926 6 163986643.28306     -1014.504 6        40.210
C36        34.000                                                                                                                                    24541637.037 5 127794713.61505     -3385.687 5        30.408                                                                    24541655.586 4 103843761.79804     -2751.324 4        25.895
R03        36.000                                                                                                                                    21631950.655 6  90064738.29016     -3747.101 6        36.423
C45        37.000                                                                                                                                    21834122.616 8 113695994.34808     -1455.757 8        48.245                                                                    21834117.164 7  92387324.40907     -1183.067 7        46.595
C33        39.000                                                                                                                                    27066725.801 5                      1693.053 5        31.947                                                                    27066747.405 4                      1375.467 4        28.777
C40        40.000                                                                                                                                    39683741.600 4 206643661.23604     -1850.090 4        29.545
R22        41.000    22528702.669 6 120259839.84906     -1749.729 6        38.817                                                                    22528696.130 5                     -1360.913 5        33.365
C30        43.000                                                                                                                                    24717284.224 5 128709379.77505     -1564.252 5        34.738                                                                    24717332.326 4                     -1270.998 4        27.593
R05        44.000    22337640.159 6 119407693.96616      2255.762 6        36.544                                                                    22337650.815 4                      1755.017 4        26.467
C42        45.000                                                                                                                                    24160759.216 6 125811404.73006      -776.673 6        37.599                                                                    24160789.058 5 102232188.84805      -631.337 5        31.962
C29        46.000                                                                                                                                    23999163.283 6 124969994.99606      1329.460 6        41.778                                                                    23999175.633 5 101548362.88705      1080.239 5        35.048
C26        48.000                                                                                                                                    23481600.937 6 122274850.66206      1259.671 6        39.622                                                                    23481599.507 5  99358357.68605      1023.401 5        34.514
C14        53.000                                                                                                                                    25310047.320 5 131796121.93305       662.082 5        34.671    25310070.646 6 101913115.57706       511.915 6        41.213    25310047.525 6 107095132.97306       537.673 6        39.387
C21        55.000                                                                                                                                    24333716.457 6 126712081.88006     -3432.514 6        40.687                                                                    24333743.280 5 102963841.73105     -2789.544 5        31.245
I06        58.000    38422227.611 6 150777082.89306      -750.827 6        37.062
I02        59.000    37015003.187 7 145254791.90307      -607.292 7        44.384
> 2025 01 02 11 15 20.0000000  0 38
G13         1.000    23518414.865 6 123590191.47106     -4641.259 6        38.967                                    23518421.896 2  96303995.72302     -3616.589 2        15.571
G17         2.000    22657663.857 7 119066718.96307     -2690.189 7        44.364                                    22657663.555 5  92779289.95405     -2096.246 5        32.006    22657662.820 6  92779361.96006     -2096.360 6        36.938
G19         4.000    21383092.836 6 112369077.50106      -213.443 6        40.667                                    21383089.240 3  87560178.74103      -166.324 3        20.548
E25         6.000    26407869.765 4                      1612.595 4        26.323                                                                    26407890.104 5 103630273.92605      1204.015 5        32.605
G10         7.000    24476768.893 5 128626260.13305     -1207.156 5        35.200                                    24476774.517 3 100228298.24603      -940.625 3        20.119    24476780.241 5 100228384.24305      -940.904 5        34.405
G15         9.000    22133200.920 6 116310952.02506     -4103.093 6        40.243                                    22133204.047 4  90631783.66204     -3197.213 4        24.662    22133205.589 4  90631796.56604     -3196.920 4        29.735
G23        10.000    24327424.062 4                     -3303.615 4        27.186                                                                                                    24327463.258 4                     -2574.319 4        27.365
G24        12.000    20238002.182 6 106352029.82506      -171.312 6        36.612                                    20238004.980 6  82871277.46806      -133.493 6        36.060    20238005.575 7  82871251.47907      -133.668 7        44.375
E31        13.000    24825262.895 7 130457707.70807     -2793.338 7        43.570                                                                    24825269.675 7  97419674.13607     -2085.914 7        44.957    24825267.061 6  99961041.91806     -2140.257 6        38.973
G12        15.000    21852100.703 7 114834050.55907      1797.315 7        43.314                                    21852176.616 1  89480777.06001      1400.422 1        11.481    21852103.805 6  89480716.98306      1400.537 6        40.574
E24        16.000    23747461.485 8 124793724.70208      -330.346 8        50.382                                                                    23747463.192 7  93190187.08407      -246.774 7        47.005    23747462.205 7  95621261.03107      -253.149 7        47.937
G32        17.000    26065163.163 4 136973489.89904      2627.045 4        28.711                                    26065181.781 1 106732565.44001      2047.108 1        10.296
E05        18.000    22370456.317 7 117557547.33207     -1179.383 7        44.298                                                                    22370460.780 8  87786475.57808      -880.706 8        49.991    22370459.797 7  90076560.65007      -903.649 7        47.278
E09        21.000    25834021.389 4 135758705.39104     -3653.479 4        27.006                                                                    25834029.759 6 101378275.65806     -2728.159 6        37.720    25834029.550 6 104022893.16806     -2799.463 6        40.541
R14        23.000    20096591.852 7 107126057.93807       637.414 7        47.056                                                                    20096593.249 7  83320339.04707       495.701 7        42.582
S23        24.000    38261839.214 6 201067329.51206      -859.957 6        36.310
E03        26.000    26274132.312 7 138071634.61207      1399.425 7        42.747                                                                    26274140.148 6 103105394.16306      1044.932 6        41.621    26274138.106 7 105795112.08907      1072.268 7        45.691
R13        27.000    20504066.563 6 109490542.63606     -3039.175 6        39.210
R04        29.000    20174914.364 8 108035775.77008     -1416.165 8        48.117                                                                    20174914.579 7  84027807.28607     -1101.442 7        44.510
R15        30.000    23799894.988 5 127179470.35815      2444.054 5        35.638
S36        31.000    38326794.558 5 201408800.57805      -856.771 5        33.766
C07        32.000                                                                                                                                    39436033.944 5 205353719.31405     -1585.437 5        30.860    39436020.787 6 158792530.38506     -1226.017 6        38.165
C10        33.000                                                                                                                                    38756569.310 6 201815619.82106     -1247.974 6        37.656    38756571.399 6 156056658.38706      -964.874 6        37.611    38756569.458 6 163991714.63806     -1014.237 6        40.043
C36        34.000                                                                                                                                    24544889.880 5 127811645.08305     -3386.221 5        30.075                                                                    24544907.877 4 103857520.10004     -2751.607 4        27.425
R03        36.000                                                                                                                                    21636451.814 6  90083476.87116     -3748.121 6        38.099
C45        37.000                                                                                                                                    21835520.605 8 113703275.29808     -1456.560 8        48.181                                                                    21835515.102 7  92393240.78707     -1183.562 7        46.524
C33        39.000                                                                                                                                    27065097.285 5                      1691.407 5        33.042                                                                    27065122.780 4                      1374.428 4        29.687
C40        40.000                                                                                                                                    39685517.418 5 206652911.40905     -1849.734 5        30.347
R22        41.000    22530346.820 6 120268598.61406     -1753.454 6        37.682                                                                    22530336.267 5                     -1363.934 5        32.563
C30        43.000                                                                                                                                    24718787.594 5 128717206.12005     -1565.974 5        34.329                                                                    24718840.340 4                     -1272.617 4        24.707
R05        44.000    22335532.167 5 119396420.97805      2253.323 5        34.543                                                                    22335538.997 4                      1751.985 4        26.144
C42        45.000                                                                                                                                    24161506.776 6 125815294.53806      -779.000 6        37.395                                                                    24161535.726 5 102235349.54105      -633.090 5        31.042
C29        46.000                                                                                                                                    23997887.339 6 124963351.25606      1328.213 6        41.976                                                                    23997899.186 5 101542964.31705      1079.108 5        34.981
C26        48.000                                                                                                                                    23480393.406 6 122268553.52606      1259.213 6        40.126                                                                    23480390.361 5  99353240.77605      1023.238 5        34.662
C14        53.000                                                                                                                                    25309410.843 5 131792817.28305       659.912 5        35.076    25309432.561 6 101910560.24806       510.307 6        40.331    25309412.471 6 107092447.64506       536.299 6        39.162
C21        55.000                                                                                                                                    24337013.119 6 126729247.95406     -3433.597 6        41.354                                                                    24337037.302 5 102977790.58505     -2789.880 5        32.054
I06        58.000    38423183.237 6 150780835.44806      -749.977 6        37.217
I02        59.000    37015776.309 7 145257827.25807      -606.937 7        44.325
> 2025 01 02 11 15 25.0000000  0 38
G13         1.000    23522832.117 6 123613401.75706     -4642.183 6        36.873                                    23522838.607 2  96322081.60702     -3617.276 2        13.636
G17         2.000    22660224.999 7 119080178.02607     -2692.868 7        46.019                                    22660224.802 5  92789777.51105     -2098.333 5        33.557    22660225.203 6  92789849.52106     -2098.536 6        37.864
G19         4.000    21383297.382 6 112370154.42906      -216.780 6        40.827                                    21383294.228 3  87561017.90903      -168.928 3        21.524
E25         6.000    26406337.751 4                      1611.919 4        27.605                                                                    26406358.591 4 103624255.36504      1203.577 4        27.844
G10         7.000    24477918.587 5 128632304.82805     -1210.180 5        34.800                                    24477925.079 3 100233008.35903      -942.971 3        18.269    24477934.711 5 100233094.33805      -942.894 5        33.808
G15         9.000    22137106.136 6 116331472.96606     -4104.710 6        40.572                                    22137107.761 3  90647773.99103     -3198.472 3        21.286    22137108.269 4  90647786.89404     -3198.586 4        26.683
G23        10.000    24330567.975 4                     -3305.688 4        27.701                                                                                                    24330603.187 5                     -2575.882 5        30.158
G24        12.000    20238166.589 6 106352895.06406      -174.054 6        36.964                                    20238170.197 6  82871951.68606      -135.623 6        36.405    20238170.339 7  82871925.68707      -135.700 7        44.488
E31        13.000    24827921.653 7 130471678.14707     -2794.332 7        43.204                                                                    24827928.046 7  97430106.58707     -2086.675 7        44.766    24827925.894 6  99971746.54106     -2141.126 6        38.751
G12        15.000    21850392.592 7 114825070.37307      1795.534 7        43.972                                    21850469.878 1  89473779.72301      1399.090 1         8.476    21850393.719 6  89473719.42706      1398.965 6        40.310
E24        16.000    23747777.201 8 124795382.06008      -332.026 8        50.462                                                                    23747778.539 7  93191424.71507      -247.934 7        47.179    23747777.690 8  95622530.95408      -254.450 8        48.274
G32        17.000    26062662.493 4 136960355.74404      2627.065 4        28.370                                    26062682.457 1 106722330.90501      2047.081 1        10.370
E05        18.000    22371579.630 7 117563451.39907     -1181.596 7        43.771                                                                    22371584.319 8  87790884.46008      -882.456 8        50.133    22371583.164 7  90081084.54807      -905.452 7        47.701
E09        21.000    25837500.194 4 135776977.20504     -3654.767 4        25.654                                                                    25837506.827 6 101391920.14806     -2729.191 6        38.486    25837506.415 6 104036893.61406     -2800.439 6        39.883
R14        23.000    20095994.348 7 107122876.95407       635.540 7        46.542                                                                    20095996.803 7  83317864.97807       494.253 7        43.359
S23        24.000    38262655.553 6 201071631.17806      -860.205 6        36.446
E03        26.000    26272801.895 7 138064642.60407      1398.055 7        43.024                                                                    26272809.568 6 103100172.88006      1043.934 6        41.449    26272807.571 7 105789754.59707      1071.234 7        45.676
R13        27.000    20506913.121 5 109505742.57405     -3040.113 5        35.010
R04        29.000    20176239.435 8 108042869.49608     -1420.816 8        49.042                                                                    20176239.054 7  84033324.61607     -1105.129 7        44.173
R15        30.000    23797612.239 5 127167253.82415      2443.093 5        35.400                                                                    23797631.968 4                      1900.458 4        25.158
S36        31.000    38327607.986 5 201413085.86405      -856.811 5        34.081
C07        32.000                                                                                                                                    39437553.206 5 205361648.04205     -1585.732 5        30.581    39437543.767 6 158798661.40006     -1226.048 6        37.924
C10        33.000                                                                                                                                    38757767.621 6 201821862.30706     -1248.376 6        37.482    38757769.958 6 156061485.47206      -965.370 6        37.679    38757768.432 6 163996787.16206     -1014.495 6        39.997
C36        34.000                                                                                                                                    24548144.468 4 127828578.52304     -3386.856 4        28.957                                                                    24548159.823 4 103871279.83304     -2752.193 4        27.748
R03        36.000    21640997.056 5                     -4821.577 5        32.359                                                                    21640957.646 6  90102223.34806     -3749.888 6        38.679
C45        37.000                                                                                                                                    21836920.002 8 113710562.78208     -1457.934 8        48.297                                                                    21836914.408 7  92399162.44907     -1184.697 7        46.589
C33        39.000                                                                                                                                    27063472.910 5                      1689.553 5        32.778                                                                    27063499.934 5                      1373.089 5        30.264
C40        40.000                                                                                                                                    39687294.514 5 206662162.96805     -1850.794 5        30.438
R22        41.000    22531988.143 5 120277378.28415     -1757.877 5        35.538                                                                    22531977.125 5                     -1367.515 5        30.943
C30        43.000                                                                                                                                    24720294.022 5 128725045.64305     -1569.248 5        35.038
R05        44.000    22333427.820 5 119385162.76205      2250.423 5        33.251                                                                    22333434.428 4                      1750.442 4        27.629
C42        45.000                                                                                                                                    24162256.068 6 125819198.23306      -781.999 6        36.571                                                                    24162281.370 5 102238521.35405      -635.016 5        30.777
C29        46.000                                                                                                                                    23996613.435 7 124956716.54507      1326.220 7        42.408                                                                    23996624.366 5 101537573.02805      1077.609 5        34.657
C26        48.000                                                                                                                                    23479186.890 6 122262260.33706      1258.363 6        40.341                                                                    23479181.827 5  99348127.04405      1022.690 5        35.810
C14        53.000                                                                                                                                    25308778.797 5 131789524.66905       657.168 5        35.867                                                                    25308779.918 6 107089772.11006       534.330 6        39.012
C21        55.000                                                                                                                                    24340311.162 6 126746421.99406     -3435.349 6        41.731                                                                    24340334.860 5 102991745.92405     -2791.582 5        30.747
I06        58.000    38424139.471 6 150784587.50306      -750.142 6        37.285
I02        59.000    37016550.001 7 145260863.38607      -607.267 7        44.321
> 2025 01 02 11 15 30.0000000  0 39
G13         1.000    23527250.419 5 123636615.93605     -4643.140 5        34.171                                    23527256.123 1  96340170.53901     -3618.027 1        11.704
G17         2.000    22662788.021 7 119093649.93007     -2695.648 7        46.365                                    22662788.795 5  92800275.08005     -2100.496 5        34.905    22662788.864 6  92800347.08506     -2100.608 6        39.045
G19         4.000    21383505.950 6 112371247.69206      -220.312 6        41.387                                    21383502.271 3  87561869.81003      -171.665 3        22.419
E25         6.000    26404805.254 4                      1612.032 4        25.759                                                                                                                                    26404812.877 5 106321351.15405      1234.359 5        34.243
G10         7.000    24479071.999 5 128638364.40105     -1213.474 5        30.649                                    24479078.015 2 100237730.16702      -945.462 2        15.286
G15         9.000    22141012.938 6 116352002.94706     -4106.911 6        39.129                                    22141013.052 2  90663771.33902     -3200.189 2        17.849    22141018.472 3                     -3200.384 3        22.038
G23        10.000    24333715.796 4                     -3307.384 4        26.754                                                                                                    24333745.660 5                     -2577.284 5        32.234
G24        12.000    20238334.853 6 106353772.87806      -176.614 6        38.961                                    20238337.646 6  82872635.69906      -137.621 6        37.062    20238336.963 7  82872609.70507      -137.685 7        44.385
E31        13.000    24830581.348 7 130485652.60307     -2795.318 7        42.631                                                                    24830587.115 7  97440542.04407     -2087.427 7        44.430    24830585.396 6  99982454.21006     -2141.675 6        39.111
G12        15.000    21848685.990 7 114816099.06507      1793.424 7        43.217                                    21848765.081 1  89466789.21601      1397.401 1        10.444    21848685.741 6  89466728.79506      1397.402 6        39.462
E24        16.000    23748094.291 8 124797047.02708      -333.779 8        50.517                                                                    23748095.348 7  93192668.03807      -249.200 7        47.383    23748094.624 8  95623806.70908      -255.705 8        48.462
G32        17.000    26060162.197 4 136947224.42904      2626.192 4        28.246                                    26060183.692 1 106712098.58301      2046.429 1        10.667
E05        18.000    22372705.683 7 117569366.73207     -1184.002 7        42.906                                                                    22372710.049 8  87795301.74908      -884.232 8        50.213    22372708.825 7  90085617.07007      -907.292 7        47.840
E09        21.000    25840983.094 5 135795254.45405     -3655.868 5        30.091                                                                    25840984.849 6 101405568.69006     -2730.111 6        39.219    25840984.578 6 104050898.19906     -2801.232 6        39.264
R14        23.000    20095398.643 7 107119705.50507       633.341 7        45.378                                                                    20095402.172 7  83315398.29307       492.612 7        44.029
S23        24.000    38263474.924 6 201075932.72206      -860.255 6        36.272
R23        25.000    21982091.073 6 117589399.73606      1546.710 6        36.930
E03        26.000    26271472.687 7 138057657.19007      1396.581 7        42.798                                                                    26271480.428 6 103094956.51506      1042.881 6        41.335    26271478.545 7 105784402.15907      1069.980 7        45.460
R13        27.000    20509760.758 5 109520949.58005     -3042.095 5        32.030
R04        29.000    20177567.742 8 108049986.47108     -1425.755 8        49.515                                                                    20177568.597 7  84038860.04007     -1108.869 7        44.760
R15        30.000    23795325.674 5                      2442.854 5        31.932                                                                    23795350.037 4                      1899.766 4        24.692
S36        31.000    38328426.047 5 201417371.24605      -857.150 5        34.257
C07        32.000                                                                                                                                    39439073.457 5 205369578.33905     -1586.070 5        30.415    39439066.565 6 158804793.56306     -1226.525 6        37.800
C10        33.000                                                                                                                                    38758967.279 6 201828106.67206     -1248.973 6        37.493    38758969.643 6 156066313.99806      -965.820 6        37.259    38758967.568 6 164001861.20006     -1014.801 6        39.832
C36        34.000                                                                                                                                    24551400.158 4 127845514.23504     -3387.216 4        27.377                                                                    24551414.334 4 103885041.47404     -2752.614 4        28.142
R03        36.000    21645487.951 5                     -4825.058 5        34.295                                                                    21645466.037 6  90120978.17516     -3751.941 6        38.432
C45        37.000                                                                                                                                    21838320.613 8 113717857.22108     -1459.615 8        48.845                                                                    21838315.090 7  92405089.77307     -1186.011 7        46.191
C33        39.000                                                                                                                                    27061852.971 5                      1688.065 5        31.970                                                                    27061878.743 4                      1371.697 4        29.261
C40        40.000                                                                                                                                    39689071.727 5 206671416.25605     -1850.812 5        30.830
R22        41.000    22533633.191 6 120286179.24206     -1762.463 6        36.223                                                                    22533626.156 5                     -1370.793 5        31.517
C30        43.000                                                                                                                                    24721805.540 5 128732898.70905     -1571.949 5        35.629                                                                    24721866.131 3                     -1279.568 3        21.952
R05        44.000    22331329.266 5 119373919.72415      2246.909 5        35.314                                                                    22331334.000 5                      1747.778 5        32.808
C42        45.000                                                                                                                                    24163006.355 6 125823116.13606      -784.880 6        38.105                                                                    24163023.427 5 102241704.92505      -638.036 5        33.928
C29        46.000                                                                                                                                    23995341.716 7 124950091.30207      1324.150 7        43.020                                                                    23995351.285 5 101532189.43705      1075.997 5        34.638
C26        48.000                                                                                                                                    23477979.236 6 122255971.50006      1257.349 6        39.598                                                                    23477974.779 5  99343016.84805      1021.656 5        35.986
C14        53.000                                                                                                                                    25308150.723 6 131786244.51806       654.759 6        37.146    25308147.947 6 101905477.76406       506.302 6        40.770    25308149.310 6 107087106.74806       532.004 6        38.486
C21        55.000                                                                                                                                    24343610.117 7 126763604.40307     -3437.324 7        42.097                                                                    24343634.494 4 103005708.06504     -2792.754 4        27.473
I06        58.000    38425096.355 6 150788339.36506      -750.570 6        37.248
I02        59.000    37017324.144 7 145263900.32007      -607.302 7        44.257
> 2025 01 02 11 15 35.0000000  0 39
G13         1.000    23531666.003 5 123659833.67505     -4643.816 5        30.725                                    23531674.270 2  96358262.22302     -3618.540 2        12.606
G17         2.000    22665353.435 7 119107134.31307     -2698.156 7        46.313                                    22665355.305 5  92810782.37205     -2102.455 5        35.933    22665354.883 6  92810854.36906     -2102.485 6        39.523
G19         4.000    21383717.503 7 112372356.96307      -223.434 7        42.343                                    21383713.434 4  87562734.18504      -174.112 4        24.015
E25         6.000    26403272.753 4                      1610.077 4        24.541                                                                    26403286.504 4 103612226.42804      1202.397 4        29.213    26403285.621 5 106315181.20405      1233.547 5        35.933
G10         7.000                                                                                                                                                                    24480256.089 5 100242549.25305      -947.692 5        30.792
G15         9.000    22144919.905 6 116372541.63506     -4108.731 6        36.129                                    22144920.414 2  90679775.43902     -3201.575 2        14.905
G23        10.000    24336863.116 4                     -3308.798 4        28.569                                                                                                    24336892.560 5                     -2578.406 5        33.305
G24        12.000    20238504.639 6 106354662.97606      -179.167 6        41.023                                    20238507.206 6  82873329.27706      -139.611 6        37.675    20238506.628 7  82873303.29307      -139.678 7        44.336
E31        13.000    24833241.500 7 130499630.76107     -2796.022 7        42.070                                                                    24833246.728 7  97450980.26507     -2087.958 7        44.345    24833245.648 6  99993164.74206     -2142.340 6        39.192
G12        15.000    21846979.688 7 114807136.30507      1791.738 7        42.847                                    21847061.478 2  89459805.23002      1396.137 2        12.364    21846979.813 6  89459744.84706      1396.071 6        39.414
E24        16.000    23748412.294 8 124798719.27308      -335.144 8        50.630                                                                    23748413.537 7  93193916.79807      -250.304 7        47.602    23748412.848 8  95625088.04508      -256.804 8        48.594
G32        17.000    26057661.905 4 136934095.66404      2625.712 4        27.868                                    26057685.424 1 106701868.36001      2045.947 1         8.476
E05        18.000    22373833.564 6 117575292.98906     -1186.327 6        41.435                                                                    22373837.864 8  87799727.19708      -885.906 8        50.459    22373836.468 7  90090157.96607      -909.027 7        47.816
E09        21.000                                                                                                                                    25844463.915 6 101419221.05106     -2730.810 6        40.093    25844464.436 6 104064906.73806     -2802.166 6        38.477
R14        23.000    20094803.014 7 107116543.23407       631.432 7        43.551                                                                    20094808.959 7  83312938.76607       491.123 7        44.387
S23        24.000    38264289.922 6 201080233.68206      -860.171 6        36.423
R23        25.000    21980654.665 6 117581675.17006      1543.284 6        38.060
E03        26.000    26270143.972 7 138050678.05207      1395.247 7        42.366                                                                    26270152.319 6 103089744.83606      1041.797 6        41.433    26270150.632 7 105779054.52007      1068.962 7        45.356
R13        27.000    20512608.775 5 109536163.40305     -3043.375 5        34.305
R04        29.000    20178900.689 8 108057126.45408     -1430.298 8        49.860                                                                    20178901.946 7  84044413.36207     -1112.489 7        45.338
R15        30.000    23793037.982 4 127142827.67414      2442.709 4        29.355                                                                    23793057.928 3                      1899.237 3        22.838
S36        31.000    38329246.393 5 201421656.19605      -856.911 5        34.681
C07        32.000                                                                                                                                    39440597.812 5 205377509.78405     -1586.579 5        30.279    39440590.296 6 158810926.68306     -1226.803 6        37.856
C10        33.000                                                                                                                                    38760166.668 6 201834352.55006     -1249.345 6        37.592    38760168.922 6 156071143.69106      -966.113 6        37.482    38760166.887 6 164006936.48206     -1015.249 6        39.877
C36        34.000                                                                                                                                    24554658.228 4 127862451.89604     -3387.559 4        28.663
R03        36.000                                                                                                                                    21649971.749 6  90139740.88606     -3753.465 6        36.801
C45        37.000                                                                                                                                    21839722.685 8 113725158.29108     -1460.844 8        49.799                                                                    21839717.031 7  92411022.48907     -1187.060 7        45.812
C33        39.000                                                                                                                                    27060234.508 5                      1686.302 5        31.902                                                                    27060258.629 4                      1370.315 4        29.204
C40        40.000                                                                                                                                    39690849.171 5 206680671.10605     -1851.224 5        31.215
R22        41.000    22535291.392 6 120295001.25206     -1766.615 6        37.233                                                                    22535281.314 5                     -1374.010 5        32.826
C30        43.000                                                                                                                                    24723316.424 5 128740765.01805     -1574.657 5        35.067
R05        44.000    22329233.356 6 119362691.48306      2244.086 6        39.670                                                                    22329234.032 5  92837538.08715      1745.230 5        35.205
C42        45.000                                                                                                                                    24163761.133 6 125827047.98106      -787.667 6        38.988                                                                    24163779.674 6 102244899.91106      -640.139 6        36.091
C29        46.000                                                                                                                                    23994071.514 7 124943475.21007      1322.330 7        43.274                                                                    23994079.482 5 101526813.29605      1074.514 5        34.881
C26        48.000                                                                                                                                    23476769.507 6 122249686.74406      1256.412 6        37.856                                                                    23476767.597 6  99337909.95106      1021.116 6        36.325
C14        53.000                                                                                                                                    25307526.138 6 131782976.59906       652.334 6        38.943    25307527.003 7 101902950.82107       504.442 7        42.305    25307521.289 6 107084451.30306       530.034 6        38.171
C21        55.000                                                                                                                                    24346910.473 6 126780794.88006     -3438.966 6        41.914                                                                    24346935.943 4 103019676.79604     -2793.659 4        25.098
I06        58.000    38426051.749 6 150792090.72906      -750.247 6        37.331
I02        59.000    37018097.965 7 145266937.67007      -607.728 7        44.254
> 2025 01 02 11 15 40.0000000  0 38
G13         1.000    23536083.667 5 123683055.82405     -4644.525 5        30.385                                    23536093.275 1  96376357.35301     -3619.070 1        11.556
G17         2.000    22667921.759 7 119120632.09907     -2700.947 7        45.869                                    22667924.306 6  92821300.11006     -2104.632 6        36.480    22667923.668 6  92821372.09606     -2104.573 6        39.823
G19         4.000    21383933.180 7 112373483.15907      -226.815 7        43.693                                    21383928.045 4  87563611.74004      -176.735 4        25.759
E25         6.000    26401743.338 4                      1609.140 4        27.018                                                                    26401758.084 5 103606216.53905      1201.340 5        30.823    26401755.784 6 106309014.52206      1233.126 6        36.454
G15         9.000    22148829.721 5 116393089.94005     -4110.617 5        34.319                                    22148830.030 2  90695786.99602     -3203.061 2        13.091
G23        10.000    24340012.524 4                     -3310.577 4        25.985                                                                                                    24340039.585 5                     -2579.806 5        33.377
G24        12.000    20238676.303 6 106355566.29906      -182.009 6        40.048                                    20238679.099 6  82874033.16106      -141.819 6        37.928    20238678.551 7  82874007.15507      -141.837 7        43.994
E31        13.000    24835902.395 6 130513613.50506     -2796.987 6        41.690                                                                    24835907.219 7  97461421.91607     -2088.581 7        43.649    24835906.580 6 100003878.79906     -2143.064 6        39.604
G12        15.000    21845276.408 7 114798183.08107      1789.605 7        42.900                                    21845359.601 1  89452828.62701      1394.506 1         8.857    21845276.177 6  89452768.32106      1394.508 6        39.366
E24        16.000    23748731.806 8 124800399.70108      -336.949 8        50.993                                                                    23748733.385 7  93195171.66507      -251.605 7        47.354    23748732.696 8  95626375.65008      -258.142 8        48.905
G32        17.000    26055167.862 4 136920970.39204      2624.531 4        27.042                                    26055187.736 1 106691640.68201      2045.009 1         6.125
E05        18.000    22374962.922 6 117581231.09006     -1188.750 6        40.307                                                                    22374967.923 8  87804161.49308      -887.784 8        50.220    22374966.465 8  90094707.93808      -910.949 8        48.141
E09        21.000    25847953.974 6 135831824.86906     -3658.258 6        36.223                                                                    25847944.029 6 101432877.90106     -2731.804 6        40.136    25847945.568 6 104078919.86806     -2802.981 6        38.757
R14        23.000    20094211.044 7 107113391.13907       629.349 7        42.205                                                                    20094218.175 7  83310487.13707       489.594 7        44.250
S23        24.000    38265106.915 6 201084535.01606      -860.272 6        36.121
R23        25.000    21979223.521 6 117573968.71906      1539.477 6        39.492
E03        26.000    26268817.213 6 138043706.09206      1393.731 6        41.528                                                                    26268825.419 6 103084538.51206      1040.761 6        41.046    26268824.197 7 105773712.38207      1067.792 7        45.288
R13        27.000    20515459.627 6 109551384.88806     -3045.129 6        36.340
R04        29.000    20180238.291 8 108064290.18508     -1435.129 8        50.400                                                                    20180239.274 7  84049985.15307     -1116.237 7        45.567
R15        30.000    23790752.560 4 127130618.70904      2440.478 4        27.952
S36        31.000    38330056.906 5 201425941.44305      -856.818 5        34.357
C07        32.000                                                                                                                                    39442123.019 5 205385443.28705     -1586.889 5        30.423    39442114.120 6 158817061.34006     -1227.092 6        37.403
C10        33.000                                                                                                                                    38761366.235 6 201840600.90106     -1249.943 6        37.467    38761368.327 6 156075975.31706      -966.569 6        37.724    38761366.786 6 164012013.78706     -1015.806 6        39.604
C36        34.000                                                                                                                                    24557917.639 4 127879392.44604     -3388.108 4        29.735                                                                    24557944.850 5 103912570.31805     -2753.613 5        30.589
R03        36.000    21654477.074 6 115918249.84216     -4828.021 6        37.701                                                                    21654473.870 5  90158512.40805     -3755.000 5        33.509
C45        37.000                                                                                                                                    21841126.223 8 113732466.90108     -1462.462 8        50.350                                                                    21841120.464 7  92416961.35007     -1188.393 7        45.508
C33        39.000                                                                                                                                    27058624.308 5                      1684.782 5        30.558                                                                    27058640.774 4                      1369.052 4        28.047
C40        40.000                                                                                                                                    39692626.668 5 206689928.31105     -1851.399 5        31.434
R22        41.000    22536952.963 5 120303845.06015     -1770.997 5        35.057                                                                    22536938.113 5                     -1377.345 5        32.826
C30        43.000                                                                                                                                    24724826.486 5 128748645.48805     -1577.585 5        35.362                                                                    24724866.903 4                     -1282.180 4        26.467
R05        44.000    22327135.560 7 119351479.32007      2240.863 7        42.885                                                                    22327135.133 5  92828817.44705      1743.033 5        35.319
C42        45.000                                                                                                                                    24164519.875 6 125830994.74606      -790.872 6        38.868                                                                    24164538.927 6 102248107.01506      -642.783 6        37.584
C29        46.000                                                                                                                                    23992802.676 7 124936869.19107      1320.265 7        43.071                                                                    23992809.542 5 101521445.36105      1072.720 5        34.862
C26        48.000                                                                                                                                    23475560.965 6 122243406.92006      1255.428 6        37.100                                                                    23475561.575 6  99332807.11206      1020.152 6        37.081
C14        53.000                                                                                                                                    25306903.553 6 131779721.77906       649.553 6        40.348    25306905.269 7 101900434.02107       502.283 7        43.945    25306895.764 6 107081806.53206       527.724 6        38.000
C21        55.000                                                                                                                                    24350212.118 6 126797994.29006     -3440.748 6        41.869
I06        58.000    38427008.026 6 150795842.35106      -750.280 6        37.516
I02        59.000    37018872.101 7 145269976.38707      -607.806 7        44.265
> 2025 01 02 11 15 45.0000000  0 39
G13         1.000    23540506.392 5 123706282.55605     -4645.695 5        33.186                                    23540513.093 1  96394456.09701     -3619.970 1        11.407
G17         2.000    22670493.077 7 119134143.43507     -2703.730 7        45.747                                    22670495.681 6  92831828.40606     -2106.800 6        36.972    22670494.690 6  92831900.40706     -2106.886 6        39.967
G19         4.000    21384152.039 7 112374626.41007      -230.459 7        45.547                                    21384146.108 4  87564502.58604      -179.572 4        27.186
E25         6.000    26400216.100 4                      1608.455 4        28.104                                                                    26400228.096 5 103600209.97705      1200.664 5        32.257    26400224.281 6 106302851.28506      1232.304 6        37.100
G10         7.000    24482598.121 5 128656634.00205     -1222.642 5        35.090                                    24482553.749 1 100251965.93401      -952.737 1        11.111    24482549.442 4 100252052.00204      -953.087 4        26.934
G15         9.000    22152742.993 5 116413647.91705     -4112.724 5        34.262                                    22152741.832 2  90711806.14002     -3204.727 2        13.636    22152736.815 4                     -3205.307 4        25.038
G23        10.000    24343164.035 4                     -3312.690 4        27.808                                                                                                    24343190.125 5                     -2581.113 5        30.830
G24        12.000    20238848.503 6 106356482.89406      -184.679 6        40.460                                    20238853.417 6  82874747.37406      -143.902 6        38.465    20238852.539 7  82874721.37807      -143.911 7        43.452
E31        13.000    24838564.160 6 130527600.96006     -2797.964 6        41.104                                                                    24838568.528 7  97471867.09207     -2089.435 7        43.134    24838568.301 6 100014596.45406     -2143.917 6        39.748
G12        15.000    21843575.006 7 114789239.41107      1787.817 7        42.470                                    21843659.821 1  89445859.36901      1393.182 1         4.857    21843574.226 6  89445799.22906      1393.071 6        39.216
E24        16.000    23749053.073 8 124802088.39008      -338.532 8        51.315                                                                    23749054.710 7  93196432.70307      -252.780 7        47.614    23749053.999 8  95627669.58708      -259.476 8        49.052
G32        17.000    26052671.436 4 136907848.65304      2623.631 4        27.365                                    26052690.639 1 106681415.90601      2044.438 1         5.143
E05        18.000    22376094.909 6 117587181.14306     -1191.210 6        38.252                                                                    22376100.175 8  87808604.69908      -889.588 8        50.426    22376098.583 8  90099267.05108      -912.778 8        48.179
E09        21.000    25851429.007 6 135850119.38906     -3659.656 6        38.081                                                                    25851425.480 6 101446539.30106     -2732.793 6        40.682    25851427.738 6 104092937.67206     -2804.042 6        39.078
R14        23.000    20093622.970 6 107110249.17606       627.205 6        37.807                                                                    20093627.943 7  83308043.40507       487.886 7        43.513
S23        24.000    38265926.505 6 201088836.83606      -860.325 6        36.057
R23        25.000    21977789.625 6 117566280.65306      1535.741 6        40.868
E03        26.000    26267491.928 6 138036741.42906      1392.220 6        41.063                                                                    26267499.906 6 103079337.63706      1039.590 6        41.633    26267499.083 7 105768375.82907      1066.676 7        45.281
R13        27.000    20518310.660 6 109566614.18606     -3046.665 6        36.518
R04        29.000    20181580.673 8 108071477.86008     -1439.990 8        51.546                                                                    20181581.232 7  84055575.53807     -1119.948 7        45.321
R15        30.000    23788467.944 5 127118412.56305      2441.021 5        30.641                                                                    23788502.315 4                      1898.531 4        27.186
S36        31.000    38330870.795 5 201430226.37605      -857.001 5        34.257
C07        32.000                                                                                                                                    39443649.280 5 205393378.88605     -1587.044 5        30.272    39443637.379 6 158823197.64706     -1227.588 6        37.546
C10        33.000                                                                                                                                    38762566.901 6 201846851.75106     -1250.447 6        37.013    38762568.753 6 156080808.85006      -967.070 6        38.213    38762567.151 6 164017093.08506     -1015.965 6        39.775
C36        34.000                                                                                                                                    24561180.412 5 127896336.09705     -3389.623 5        30.483                                                                    24561198.423 5 103926338.40005     -2753.899 5        31.215
R03        36.000    21658980.967 6 115942396.02906     -4830.329 6        37.406                                                                    21658980.495 4  90177292.76704     -3756.969 4        29.697
C45        37.000                                                                                                                                    21842530.652 8 113739783.15708     -1464.038 8        49.968                                                                    21842525.358 7  92422906.38207     -1189.586 7        44.984
C33        39.000                                                                                                                                                                                                                                                                    27057023.893 4                      1367.689 4        28.227
C40        40.000                                                                                                                                    39694403.889 5 206699188.05505     -1851.888 5        30.755
R22        41.000    22538617.945 3                     -1773.637 3        18.687                                                                    22538601.123 5                     -1380.708 5        32.659
C30        43.000                                                                                                                                    24726343.046 5 128756540.18605     -1580.386 5        35.410                                                                    24726387.522 4                     -1284.060 4        28.588
R05        44.000    22325038.989 7 119340283.05307      2237.632 7        44.217                                                                    22325040.942 5  92820109.25005      1740.352 5        33.347
C42        45.000                                                                                                                                    24165282.062 6 125834956.50106      -793.636 6        36.991                                                                    24165299.352 6 102251326.21606      -645.101 6        38.559
C29        46.000                                                                                                                                    23991534.951 7 124930273.34507      1318.283 7        42.789                                                                    23991541.388 5 101516085.66405      1070.960 5        34.476
C26        48.000                                                                                                                                    23474355.530 6 122237132.11906      1254.539 6        37.580                                                                    23474357.063 6  99327708.34106      1019.320 6        38.117
C14        53.000                                                                                                                                    25306280.540 6 131776480.14706       647.012 6        41.020    25306283.742 7 101897927.40007       500.293 7        45.384    25306272.848 6 107079172.44206       525.736 6        37.331
C21        55.000                                                                                                                                    24353516.516 6 126815202.73506     -3442.720 6        41.752                                                                    24353509.722 6 103047636.29306     -2797.431 6        36.510
I06        58.000    38427964.316 6 150799594.29906      -750.350 6        37.361
I02        59.000    37019647.148 7 145273016.30407      -608.007 7        44.203
> 2025 01 02 11 15 50.0000000  0 40
G13         1.000    23544928.813 5 123729513.37205     -4646.754 5        35.676                                    23544933.726 1  96412557.99501     -3620.843 1        11.852
G17         2.000    22673066.997 7 119147667.80207     -2706.211 7        45.467                                    22673069.248 6  92842366.85306     -2108.735 6        37.202    22673068.064 6  92842438.84506     -2108.766 6        39.381
G19         4.000    21384373.093 7 112375786.22707      -233.566 7        45.794                                    21384367.194 4  87565406.34704      -182.004 4        28.749
E25         6.000    26398691.227 4                      1607.783 4        29.886                                                                    26398697.808 5 103594206.40005      1200.421 5        32.251    26398693.929 6 106296691.09006      1231.780 6        37.119
G10         7.000                                                                                                                                                                    24483717.122 4 100256821.15404      -955.131 4        25.218
G15         9.000    22156657.682 5 116434215.06605     -4114.124 5        33.485                                    22156655.566 2  90727832.53002     -3205.809 2        15.952    22156658.392 4                     -3206.010 4        29.431
G23        10.000    24346319.337 5                     -3314.174 5        32.599                                                                                                    24346335.719 4                     -2582.101 4        25.248
E06        11.000    27563449.712 3                     -4036.391 3        22.800
G24        12.000    20239025.774 7 106357412.33607      -187.196 7        42.082                                    20239030.131 6  82875471.60706      -145.867 6        39.042    20239029.487 7  82875445.61807      -145.830 7        43.251
E31        13.000    24841226.590 6 130541592.66406     -2798.835 6        40.188                                                                    24841230.730 7  97482315.44107     -2089.990 7        42.760    24841231.103 6 100025317.36906     -2144.510 6        40.038
G12        15.000    21841874.429 6 114780304.90806      1785.902 6        41.738                                    21841961.557 1  89438897.29301      1391.707 1         4.571    21841873.906 6  89438837.27406      1391.773 6        39.213
E24        16.000    23749375.864 8 124803784.96008      -340.142 8        51.258                                                                    23749377.538 7  93197699.62607      -253.943 7        47.738    23749376.832 8  95628969.56008      -260.616 8        49.108
G32        17.000    26050176.126 4 136894730.11704      2623.478 4        26.551                                    26050194.217 1 106671193.59201      2044.015 1         4.143
E05        18.000    22377229.957 6 117593142.66806     -1193.556 6        36.601                                                                    22377234.564 8  87813056.48808      -891.232 8        50.485    22377232.852 8  90103834.98208      -914.493 8        48.203
E09        21.000    25854905.030 6 135868419.52706     -3660.575 6        39.150                                                                    25854907.868 6 101460204.91906     -2733.557 6        41.080    25854910.529 6 104106959.80306     -2804.991 6        39.559
R14        23.000    20093036.223 6 107107116.91306       625.437 6        40.250                                                                    20093040.274 7  83305607.20007       486.464 7        42.811
S23        24.000    38266745.773 6 201093138.84406      -860.325 6        36.147
R23        25.000    21976356.885 6 117558610.48706      1532.187 6        41.888
E03        26.000    26266168.372 6 138029783.61206      1390.912 6        40.658                                                                    26266175.649 6 103074141.88406      1038.612 6        41.783    26266175.372 7 105763044.53607      1065.630 7        45.409
R13        27.000    20521163.702 6 109581850.68206     -3048.013 6        38.069
R04        29.000    20182927.961 8 108078688.92808     -1444.607 8        52.328                                                                    20182927.931 7  84061184.13707     -1123.565 7        45.818
R15        30.000    23786186.483 5                      2440.363 5        31.177                                                                    23786226.858 4                      1897.860 4        29.109
S36        31.000    38331694.772 5 201434510.81705      -856.762 5        34.790
C07        32.000                                                                                                                                    39445173.729 5 205401316.21605     -1587.502 5        30.921    39445161.750 6 158829335.30606     -1227.718 6        37.384
C10        33.000                                                                                                                                    38763766.719 6 201853104.69706     -1250.709 6        37.017    38763769.958 6 156085644.01806      -967.190 6        38.438    38763768.062 6 164022174.13706     -1016.242 6        39.952
C36        34.000                                                                                                                                    24564439.594 5 127913282.27505     -3389.359 5        31.902                                                                    24564447.521 5 103940108.59305     -2754.283 5        31.253
R03        36.000    21663494.022 5 115966552.87205     -4832.669 5        34.619                                                                    21663493.927 4  90196081.32304     -3758.881 4        26.359
C45        37.000                                                                                                                                    21843936.349 8 113747106.60708     -1465.458 8        49.682                                                                    21843931.906 7  92428857.28807     -1190.745 7        44.704
C33        39.000                                                                                                                                    27055410.342 5                      1681.259 5        30.174                                                                    27055408.430 4                      1366.170 4        27.868
C40        40.000                                                                                                                                    39696183.875 5 206708449.78105     -1852.870 5        30.860
R22        41.000                                                                                                                                    22540265.532 5                     -1384.300 5        33.162
C30        43.000                                                                                                                                    24727865.807 5 128764448.70805     -1583.052 5        34.924                                                                    24727907.382 4                     -1286.276 4        28.009
R05        44.000    22322944.045 7 119329102.18707      2234.523 7        44.823                                                                    22322947.302 5  92811412.95405      1737.998 5        31.532
C42        45.000                                                                                                                                    24166048.503 5 125838932.84005      -796.877 5        34.886                                                                    24166062.725 6 102254557.24306      -647.319 6        39.378
C29        46.000                                                                                                                                    23990270.107 7 124923687.23107      1316.249 7        43.435                                                                    23990273.886 5 101510733.85705      1069.687 5        34.571
C26        48.000                                                                                                                                    23473150.512 6 122230861.92306      1253.532 6        36.684                                                                    23473153.417 6  99322613.33106      1018.717 6        39.036
C14        53.000                                                                                                                                    25305658.807 6 131773251.28006       644.522 6        41.526    25305665.056 7 101895430.65607       498.365 7        45.904    25305651.952 6 107076548.75306       523.637 6        37.278
C21        55.000                                                                                                                                    24356822.713 6 126832419.76606     -3444.253 6        41.323                                                                    24356821.271 6 103061626.53806     -2798.690 6        38.243
I06        58.000    38428920.038 6 150803346.19606      -750.527 6        37.308
I02        59.000    37020422.181 7 145276057.21107      -608.258 7        44.111
> 2025 01 02 11 15 55.0000000  0 40
G13         1.000    23549350.440 6 123752747.70906     -4647.614 6        37.618                                    23549355.034 1  96430662.64201     -3621.488 1        10.963
G17         2.000    22675643.247 7 119161204.67707     -2708.838 7        45.679                                    22675644.929 6  92852915.05406     -2110.779 6        36.824    22675643.566 6  92852987.03806     -2110.928 6        38.180
G19         4.000    21384595.807 7 112376962.13707      -237.091 7        46.057                                    21384591.415 4  87566322.65104      -184.750 4        29.981
E25         6.000    26397164.114 5                      1606.886 5        30.566                                                                    26397168.062 5 103588205.40505      1199.627 5        31.079    26397164.399 6 106290533.55706      1231.158 6        37.028
G10         7.000                                                                                                                                                                    24484884.149 3 100261601.83003      -957.366 3        23.676
G15         9.000    22160572.689 5 116454790.91505     -4116.313 5        32.868                                    22160571.446 2  90743865.62002     -3207.524 2        17.019    22160576.392 5                     -3207.258 5        33.174
G23        10.000    24349475.233 5 127957355.54415     -3315.704 5        34.052                                                                                                    24349485.297 3                     -2582.694 3        23.124
E06        11.000    27567287.567 3                     -4036.504 3        21.214
G24        12.000    20239206.579 7 106358354.08707      -189.848 7        42.914                                    20239209.139 6  82876205.44206      -147.932 6        39.261    20239208.907 7  82876179.44907      -147.905 7        43.196
E31        13.000    24843889.683 6 130555588.09006     -2799.674 6        40.043                                                                    24843893.719 7  97492766.56107     -2090.678 7        42.341    24843894.320 6 100036041.13106     -2145.117 6        40.572
G12        15.000    21840174.701 6 114771379.03106      1784.051 6        40.546                                    21840264.840 1  89431942.02201      1390.162 1         3.400    21840174.523 6  89431882.07206      1390.220 6        38.724
E24        16.000    23749700.135 8 124805488.82408      -341.739 8        51.111                                                                    23749701.662 7  93198971.99507      -255.200 7        47.793    23749701.034 8  95630275.12008      -261.862 8        49.181
G32        17.000    26047676.286 4 136881614.21604      2622.698 4        26.982                                    26047698.359 1 106660973.35201      2043.321 1         1.111
E05        18.000    22378366.417 5 117599115.16105     -1195.879 5        35.595                                                                    22378371.073 8  87817516.47708      -892.948 8        50.546    22378369.239 8  90108411.32008      -916.263 8        48.251
E09        21.000    25858388.404 6 135886724.72806     -3661.802 6        39.763                                                                    25858391.323 6 101473874.35706     -2734.487 6        41.192    25858393.946 6 104120985.84406     -2805.800 6        39.931
R14        23.000    20092452.696 7 107103993.97507       623.337 7        42.772                                                                    20092454.357 7  83303178.25607       484.794 7        42.768
S23        24.000    38267565.668 6 201097440.33006      -860.508 6        36.008
R23        25.000    21974924.978 6 117550957.83906      1528.553 6        41.600
E03        26.000    26264846.446 6 138022832.14806      1389.343 6        40.923                                                                    26264852.699 7 103068950.85607      1037.607 7        42.116    26264852.785 7 105757718.09507      1064.559 7        45.544
R13        27.000    20524019.929 6 109597094.04606     -3049.671 6        38.408
R04        29.000    20184278.965 8 108085922.87408     -1449.346 8        52.932                                                                    20184279.212 7  84066810.53107     -1127.232 7        46.322
R15        30.000    23783906.728 5 127094007.98915      2439.936 5        30.181                                                                    23783947.574 5                      1897.829 5        30.679
S36        31.000    38332508.106 5 201438795.15605      -856.964 5        34.862
C07        32.000                                                                                                                                    39446697.486 5 205409254.74205     -1588.010 5        30.362    39446686.216 6 158835473.85906     -1228.095 6        37.100
C10        33.000                                                                                                                                    38764967.451 6 201859359.24106     -1251.435 6        37.119    38764970.911 6 156090480.42406      -967.726 6        38.486    38764969.080 6 164027256.45706     -1016.552 6        39.709
C36        34.000                                                                                                                                                                                                                                                                    24567700.450 5 103953880.39005     -2754.262 5        31.313
R03        36.000    21668005.988 4 115990720.08104     -4834.942 4        28.891                                                                    21668009.309 4  90214878.09504     -3761.008 4        25.820
C45        37.000                                                                                                                                    21845344.280 8 113754436.73008     -1466.916 8        49.469                                                                    21845339.549 7  92434813.61907     -1191.849 7        44.387
C33        39.000                                                                                                                                    27053792.854 5                      1679.262 5        30.000                                                                    27053794.586 4                      1364.801 4        27.916
C40        40.000                                                                                                                                    39697963.205 5 206717713.02205     -1853.095 5        31.781
R22        41.000                                                                                                                                    22541939.475 5                     -1387.478 5        33.701
C30        43.000                                                                                                                                    24729389.058 5 128772370.50105     -1586.047 5        32.198                                                                    24729427.260 4                     -1288.346 4        27.413
R05        44.000    22320852.976 7 119317936.39107      2231.381 7        43.636                                                                    22320858.778 5  92802728.46705      1735.625 5        31.208
C42        45.000                                                                                                                                    24166813.025 5 125842923.14705      -799.414 5        32.629                                                                    24166828.483 6 102257799.64606      -649.556 6        39.450
C29        46.000                                                                                                                                    23989008.307 7 124917110.34307      1314.229 7        44.310                                                                    23989009.466 5 101505389.62405      1068.075 5        34.324
C26        48.000                                                                                                                                    23471945.754 6 122224595.83806      1252.614 6        36.287                                                                    23471950.090 6  99317521.62906      1017.866 6        39.465
C14        53.000                                                                                                                                    25305039.726 6 131770034.67706       641.875 6        41.032    25305048.050 7 101892943.38607       496.361 7        45.637    25305034.427 6 107073935.01806       521.719 6        37.353
C21        55.000                                                                                                                                    24360129.972 6 126849644.84806     -3446.123 6        40.422                                                                    24360130.760 6 103075623.33606     -2800.129 6        39.117
I06        58.000    38429876.076 6 150807097.69006      -750.289 6        37.240
I02        59.000    37021197.272 7 145279098.59807      -608.489 7        44.065
> 2025 01 02 11 16  0.0000000  0 40
G13         1.000    23553772.136 6 123775986.49806     -4647.985 6        39.276                                    23553777.147 1  96448770.72901     -3621.763 1        10.963
G17         2.000    22678222.222 7 119174754.94907     -2711.273 7        45.419                                    22678222.936 6  92863473.69606     -2112.678 6        36.333    22678222.234 6  92863545.68306     -2112.827 6        36.730
G19         4.000    21384821.901 7 112378155.01107      -240.140 7        46.684                                    21384818.900 5  87567252.17505      -187.126 5        30.543
E25         6.000    26395629.999 5                      1606.013 5        30.717                                                                    26395638.859 5 103582207.68705      1199.853 5        30.445    26395636.064 6 106284379.38806      1230.722 6        36.945
G10         7.000    24486041.111 6 128675040.40106     -1231.530 6        37.161                                    24486055.311 2 100266308.67802      -959.574 2        16.641    24486057.203 4 100266394.67004      -959.549 4        25.173
G15         9.000    22164486.044 5 116475376.40505     -4118.086 5        33.647                                    22164489.679 3  90759906.19603     -3208.908 3        18.896    22164496.650 5  90759903.17815     -3208.923 5        34.643
G23        10.000    24352633.054 5 127973938.95005     -3317.301 5        35.776
E06        11.000    27571127.903 3                     -4037.939 3        21.786
G24        12.000    20239387.994 7 106359309.10407      -192.306 7        42.624                                    20239390.646 6  82876949.60106      -149.849 6        39.129    20239390.095 7  82876923.61707      -149.833 7        43.153
E31        13.000    24846553.614 6 130569588.12506     -2800.373 6        39.931                                                                    24846557.823 6  97503221.13806     -2091.221 6        41.883    24846558.636 6 100046768.44506     -2145.732 6        41.063
G12        15.000    21838477.058 6 114762462.67106      1782.443 6        39.661                                    21838569.974 1  89424994.26901      1388.998 1         4.286    21838478.397 6  89424934.28706      1388.791 6        38.724
E24        16.000    23750025.714 8 124807200.90308      -343.108 8        50.773                                                                    23750027.387 7  93200250.50107      -256.266 7        47.577    23750026.663 8  95631586.97708      -262.935 8        49.250
G32        17.000    26045180.384 4 136868501.69904      2623.156 4        25.218
E05        18.000    22379506.041 5 117605099.52405     -1197.769 5        35.681                                                                    22379509.841 8  87821985.33608      -894.621 8        50.429    22379507.801 8  90112996.75708      -917.991 8        48.429
E09        21.000    25861873.850 6 135905035.94106     -3662.777 6        39.787                                                                    25861876.084 6 101487548.29506     -2735.175 6        41.116    25861878.006 6 104135016.50006     -2806.409 6        40.303
R14        23.000    20091868.012 6 107100881.16106       621.633 6        41.964                                                                    20091870.231 7  83300757.21007       483.491 7        42.025
S23        24.000    38268386.425 6 201101742.13506      -860.339 6        36.336
R23        25.000    21973492.785 6 117543323.32506      1525.239 6        39.556
E03        26.000    26263525.610 6 138015887.92506      1388.125 6        40.443                                                                    26263531.101 7 103063765.25907      1036.611 7        42.273    26263531.593 7 105752397.20507      1063.712 7        45.875
R13        27.000    20526873.407 5 109612345.03705     -3051.081 5        35.633
R04        29.000    20185634.794 8 108093180.69708     -1453.770 8        53.148                                                                    20185634.700 7  84072455.50607     -1130.801 7        46.432
R15        30.000                                                                                                                                    23781666.675 4                      1897.354 4        29.100
S36        31.000    38333324.830 5 201443080.22005      -856.919 5        35.181
C07        32.000                                                                                                                                    39448220.703 5 205417195.26505     -1588.155 5        30.717    39448211.554 6 158841613.97206     -1227.962 6        37.399
C10        33.000                                                                                                                                    38766169.345 6 201865616.31606     -1251.697 6        37.002    38766172.628 6 156095318.76006      -967.776 6        38.709    38766170.866 6 164032340.82406     -1017.156 6        39.688
C36        34.000                                                                                                                                                                                                                                                                    24570959.356 5 103967654.69905     -2754.987 5        30.347
R03        36.000    21672527.151 4 116014898.22604     -4836.351 4        28.076                                                                    21672528.818 4  90233683.29704     -3762.123 4        28.322
C45        37.000                                                                                                                                    21846753.753 8 113761774.40708     -1468.194 8        49.311                                                                    21846748.831 7  92440776.07507     -1193.143 7        44.274
C33        39.000                                                                                                                                    27052176.711 4                      1677.776 4        28.408                                                                    27052182.584 4                      1363.079 4        27.509
C40        40.000                                                                                                                                    39699741.555 5 206726978.63705     -1852.680 5        31.668
R22        41.000    22543740.193 4                     -1788.308 4        29.460                                                                    22543612.075 5  93597261.87815     -1390.764 5        34.171
C30        43.000                                                                                                                                                                                                                                                                    24730948.354 4                     -1291.232 4        29.109
R05        44.000    22318763.262 6 119306786.55406      2228.488 6        40.701                                                                    22318772.380 5  92794056.36905      1733.481 5        30.294
C42        45.000                                                                                                                                    24167577.664 5 125846928.31105      -802.629 5        30.634                                                                    24167597.366 6 102261054.15206      -652.131 6        39.805
C29        46.000                                                                                                                                    23987748.546 7 124910543.58907      1312.406 7        45.085                                                                    23987749.145 5 101500053.58305      1066.407 5        34.457
C26        48.000                                                                                                                                    23470743.621 6 122218334.72106      1252.005 6        36.370                                                                    23470747.352 6  99312433.98506      1017.167 6        39.763
C14        53.000                                                                                                                                    25304422.339 6 131766831.23806       639.649 6        40.787    25304429.955 7 101890466.29807       494.496 7        44.834    25304419.224 6 107071331.96706       519.713 6        37.622
C21        55.000                                                                                                                                    24363438.211 6 126866878.88806     -3447.540 6        39.778                                                                    24363440.453 6 103089627.36006     -2801.509 6        40.393
I06        58.000    38430831.942 6 150810849.43906      -750.448 6        37.482
I02        59.000    37021972.453 7 145282141.36307      -608.588 7        43.956
> 2025 01 02 11 16  5.0000000  0 39
G13         1.000    23558193.476 6 123799229.13306     -4648.662 6        40.138                                    23558200.055 1  96466881.84501     -3622.325 1        11.407
G17         2.000    22680803.453 7 119188317.98907     -2713.643 7        43.780                                    22680803.330 5  92874042.27905     -2114.521 5        35.810    22680804.033 5  92874114.26205     -2114.692 5        35.833
G19         4.000    21385051.904 7 112379364.21807      -243.144 7        46.587                                    21385049.202 5  87568194.43205      -189.468 5        30.913
E25         6.000    26394098.643 5                      1605.415 5        30.996                                                                    26394111.710 4 103576212.82004      1198.678 4        29.583    26394107.960 6 106278228.11206      1230.155 6        36.665
G10         7.000    24487219.481 6 128681206.04706     -1234.524 6        36.038                                    24487228.334 3 100271113.09103      -961.941 3        18.179    24487232.260 4 100271199.02104      -962.138 4        28.834
G15         9.000    22168406.145 5 116495970.80005     -4119.555 5        34.310                                    22168409.762 3  90775953.75903     -3210.046 3        20.619    22168413.932 6  90775950.79306     -3210.230 6        36.004
G23        10.000    24355789.810 5 127990530.62405     -3318.933 5        35.852
E06        11.000    27574966.872 3                     -4038.274 3        20.595
G24        12.000    20239570.921 6 106360276.78306      -194.672 6        41.199                                    20239574.564 6  82877703.62906      -151.690 6        38.571    20239574.437 7  82877677.63507      -151.602 7        43.082
E31        13.000    24849218.043 6 130583592.18106     -2800.997 6        40.002                                                                    24849222.748 6  97513678.72006     -2091.677 6        41.478    24849223.354 6 100057498.81706     -2146.151 6        41.650
G12        15.000    21836782.100 6 114753555.31806      1780.839 6        37.323                                    21836876.902 1  89418053.46301      1387.740 1         5.857    21836783.050 6  89417993.47806      1387.626 6        38.571
E24        16.000    23750352.994 8 124808920.58808      -344.450 8        50.395                                                                    23750354.417 7  93201534.67807      -257.172 7        47.619    23750353.834 8  95632904.65308      -263.850 8        49.358
G32        17.000    26042690.653 4 136855392.26704      2622.109 4        25.624
E05        18.000    22380651.485 6 117611095.16006     -1200.129 6        36.420                                                                    22380650.736 8  87826462.61208      -896.067 8        50.416    22380648.468 8  90117590.83208      -919.442 8        48.491
E09        21.000    25865358.736 6 135923352.58006     -3663.631 6        39.495                                                                    25865361.830 6 101501226.28006     -2735.762 6        41.263    25865363.263 6 104149051.30706     -2807.296 6        40.365
R14        23.000    20091285.205 7 107097777.85507       619.951 7        42.021                                                                    20091287.455 6  83298343.55906       482.148 6        40.965
S23        24.000    38269205.845 6 201106043.75806      -860.082 6        36.314
R23        25.000    21972059.873 6 117535706.65006      1521.735 6        36.544
E03        26.000    26262205.420 6 138008950.39006      1387.054 6        39.676                                                                    26262211.036 7 103058584.62107      1035.869 7        42.432    26262211.661 7 105747081.42307      1062.871 7        46.166
R13        27.000    20529730.820 5 109627603.17505     -3052.267 5        34.886
R04        29.000    20186994.210 8 108100461.71108     -1458.308 8        52.969                                                                    20186994.002 7  84078118.50007     -1134.177 7        45.974
S36        31.000    38334147.005 5 201447365.73105      -856.787 5        35.557
C07        32.000                                                                                                                                    39449745.427 5 205425137.33705     -1588.410 5        31.019    39449736.451 6 158847755.27006     -1228.150 6        37.191
C10        33.000                                                                                                                                    38767371.753 6 201871875.19906     -1251.873 6        37.161    38767374.964 6 156100158.50806      -967.871 6        38.916    38767372.880 6 164037426.67706     -1017.309 6        39.598
C36        34.000                                                                                                                                                                                                                                                                    24574220.921 4 103981430.90204     -2755.561 4        29.962
R03        36.000                                                                                                                                    21677048.528 5  90252496.80805     -3763.293 5        31.743
C45        37.000                                                                                                                                    21848164.763 8 113769119.06808     -1469.355 8        49.087                                                                    21848159.430 7  92446744.22507     -1194.209 7        44.271
C33        39.000                                                                                                                                    27050567.664 4                      1676.560 4        28.607                                                                    27050570.649 4                      1361.807 4        27.605
C40        40.000                                                                                                                                    39701521.767 5 206736246.13805     -1853.642 5        32.030
R22        41.000                                                                                                                                    22545289.035 5  93604224.16505     -1394.006 5        34.767
C30        43.000                                                                                                                                                                                                                                                                    24732472.703 5                     -1292.874 5        30.219
R05        44.000    22316679.110 6 119295651.90106      2225.524 6        36.015                                                                    22316690.577 5  92785396.10905      1731.024 5        31.509
C42        45.000                                                                                                                                    24168349.949 5 125850947.70805      -804.724 5        32.329                                                                    24168368.660 6 102264320.28606      -654.314 6        39.207
C29        46.000                                                                                                                                    23986490.356 7 124903986.40107      1310.766 7        45.791                                                                    23986490.719 5 101494725.30905      1065.328 5        35.095
C26        48.000                                                                                                                                    23469543.608 6 122212078.05106      1251.127 6        36.571                                                                    23469545.257 6  99307349.91306      1016.593 6        39.694
C14        53.000                                                                                                                                    25303809.257 6 131763640.35806       637.078 6        41.044    25303813.180 7 101887998.89607       492.723 7        43.211    25303807.013 6 107068739.14106       517.663 6        38.189
C21        55.000                                                                                                                                    24366747.997 6 126884121.27306     -3449.084 6        38.598                                                                    24366751.564 6 103103638.17706     -2802.740 6        41.418
I06        58.000    38431788.414 6 150814601.00206      -750.157 6        37.221
I02        59.000    37022747.681 7 145285184.95307      -608.591 7        44.000
> 2025 01 02 11 16 10.0000000  0 39
G13         1.000    23562617.082 6 123822475.39606     -4649.627 6        40.410                                    23562623.577 1  96484995.78201     -3623.055 1        11.704
G17         2.000    22683386.705 6 119201893.64806     -2716.442 6        41.728                                    22683386.171 5  92884620.69105     -2116.708 5        35.557    22683387.796 5  92884692.67405     -2116.626 5        35.657
G19         4.000    21385284.917 7 112380589.64707      -246.685 7        46.493                                    21385282.630 5  87569149.32705      -192.227 5        31.464
E25         6.000    26392574.821 5                      1604.764 5        31.826                                                                    26392585.948 5 103570220.58505      1198.443 5        30.015    26392580.872 6 106272079.62806      1229.390 6        36.060
G10         7.000    24488399.789 5 128687386.46905     -1237.412 5        33.353                                    24488404.228 3 100275928.99003      -964.229 3        20.095    24488408.499 5 100276014.98605      -964.290 5        32.114
G15         9.000    22172328.344 5 116516573.95905     -4121.374 5        35.081                                    22172331.313 3  90792008.16703     -3211.452 3        22.533    22172333.902 5  90792005.17905     -3211.410 5        35.581
G23        10.000    24358949.550 5 128007130.33705     -3320.899 5        34.743                                                                                                    24358993.420 4                     -2587.443 4        29.905
E06        11.000    27578811.260 3                     -4037.780 3        20.095
G24        12.000    20239757.238 6 106361256.94106      -197.283 6        37.788                                    20239760.897 6  82878467.38006      -153.723 6        38.042    20239760.848 7  82878441.38207      -153.732 7        43.172
E31        13.000    24851883.247 6 130597600.10606     -2801.838 6        39.937                                                                    24851888.383 6  97524139.16206     -2092.275 6        41.306    24851888.772 6 100068232.15006     -2146.791 6        41.621
G12        15.000    21835087.431 5 114744656.79305      1778.968 5        35.024                                    21835185.537 1  89411119.44001      1386.245 1         5.857    21835088.929 6  89411059.56006      1386.133 6        38.027
E24        16.000    23750681.894 8 124810647.74008      -346.138 8        50.499                                                                    23750683.039 7  93202824.44507      -258.462 7        47.620    23750682.447 8  95634228.06808      -265.221 8        49.097
E05        18.000    22381794.693 6 117617101.93506     -1202.326 6        36.333                                                                    22381793.820 8  87830948.19508      -897.916 8        50.456    22381791.384 8  90122193.43508      -921.375 8        48.107
E09        21.000    25868843.152 6 135941674.45306     -3665.019 6        38.664                                                                    25868848.711 6 101514908.16206     -2736.708 6        41.318    25868849.523 6 104163090.11106     -2808.193 6        39.919
R14        23.000    20090704.882 7 107094684.07207       617.740 7        42.379                                                                    20090707.157 6  83295937.28206       480.481 6        40.222
S23        24.000    38270026.858 6 201110345.03506      -860.023 6        36.726
R23        25.000    21970634.792 5 117528107.42105      1518.170 5        31.706
E03        26.000    26260886.079 6 138002019.34306      1385.392 6        39.787                                                                    26260892.017 7 103053408.84307      1034.654 7        42.711    26260892.827 7 105741770.62407      1061.699 7        46.209
R13        27.000    20532590.868 5 109642868.13105     -3053.827 5        34.243
R04        29.000    20188358.143 8 108107765.73608     -1463.061 8        52.860                                                                    20188357.818 7  84083799.41507     -1137.986 7        45.515
R15        30.000    23777124.460 3 127057419.88913      2438.406 3        23.619
S36        31.000    38334960.805 6 201451651.20306      -856.868 6        36.068
C07        32.000                                                                                                                                    39451271.432 5 205433080.73605     -1589.258 5        30.921    39451261.407 6 158853897.59606     -1228.402 6        37.051
C10        33.000                                                                                                                                    38768573.850 6 201878135.79106     -1252.303 6        36.688    38768577.103 6 156104999.60206      -968.296 6        39.174    38768574.974 6 164042513.93706     -1017.562 6        39.580
C36        34.000                                                                                                                                    24577412.590 5 127981091.10205     -3391.467 5        35.019                                                                    24577479.178 4 103995208.88504     -2755.729 4        29.744
R03        36.000    21681559.667 5 116063286.09005     -4840.872 5        35.124                                                                    21681569.349 5  90271318.24105     -3764.994 5        33.737
C45        37.000                                                                                                                                    21849576.485 8 113776470.54108     -1470.941 8        48.618                                                                    21849571.134 7  92452717.90807     -1195.326 7        44.185
C33        39.000                                                                                                                                    27048958.153 4                      1674.256 4        28.341                                                                    27048959.550 4                      1360.499 4        26.922
C40        40.000                                                                                                                                    39703302.088 5 206745515.25405     -1853.927 5        32.611
R22        41.000                                                                                                                                    22546970.951 5  93611202.85205     -1397.291 5        34.067
C30        43.000                                                                                                                                    24734004.174 4                     -1593.825 4        29.953                                                                    24733998.139 4                     -1294.814 4        29.526
R05        44.000    22314597.501 4 119284532.53004      2222.462 4        25.398                                                                    22314612.392 5  92776747.80105      1728.471 5        34.671
C42        45.000                                                                                                                                    24169125.373 5 125854981.35905      -808.348 5        31.834                                                                    24169142.813 6 102267597.93506      -656.658 6        38.883
C29        46.000                                                                                                                                    23985232.879 7 124897438.62807      1308.623 7        46.279                                                                    23985233.770 5 101489404.73205      1063.352 5        35.438
C26        48.000                                                                                                                                    23468347.806 6 122205825.59106      1250.186 6        37.652                                                                    23468344.439 6  99302269.30406      1015.630 6        39.300
C14        53.000                                                                                                                                    25303199.153 6 131760461.90306       634.452 6        41.442    25303201.828 7 101885541.13307       490.529 7        42.013    25303197.760 6 107066156.43506       515.556 6        38.775
C21        55.000                                                                                                                                    24370059.240 6 126901371.78506     -3450.931 6        37.183                                                                    24370064.507 7 103117655.63207     -2804.176 7        42.110
I06        58.000    38432743.635 6 150818352.24406      -750.439 6        37.225
I02        59.000    37023523.666 7 145288229.40307      -609.021 7        44.093
> 2025 01 02 11 16 15.0000000  0 37
G13         1.000    23567041.140 6 123845726.21706     -4650.631 6        40.536                                    23567047.992 2  96503113.25402     -3623.858 2        12.364
G17         2.000    22685973.131 7 119215482.82707     -2719.247 7        42.457                                    22685971.757 5  92895209.65905     -2118.897 5        35.400    22685973.735 6  92895281.64906     -2118.948 6        36.994
G19         4.000    21385521.327 7 112381832.22607      -250.323 7        46.277                                    21385519.268 5  87570117.58105      -195.061 5        32.090
E25         6.000    26391050.293 5                      1603.528 5        31.985                                                                    26391060.713 5 103564231.82605      1197.442 5        30.981    26391053.980 5 106265934.59105      1228.511 5        35.424
G10         7.000    24489580.248 5 128693582.66105     -1241.041 5        34.529                                    24489583.502 3 100280757.15503      -967.042 3        21.714    24489587.255 5 100280843.14605      -966.815 5        33.503
G15         9.000    22176252.161 6 116537186.82006     -4123.714 6        37.856                                    22176254.433 4  90808070.13604     -3213.281 4        24.150    22176255.061 5  90808067.15205     -3213.151 5        34.652
G23        10.000                                                                                                                                                                    24362153.091 5                     -2588.866 5        31.004
E06        11.000    27582651.977 3                     -4036.864 3        19.881
G24        12.000    20239946.050 5 106362250.47305      -199.981 5        35.438                                    20239949.778 6  82879241.56506      -155.822 6        37.323    20239949.583 7  82879215.58207      -155.949 7        43.179
E31        13.000    24854549.215 6 130611612.81606     -2803.111 6        39.402                                                                    24854554.941 6  97534603.18506     -2093.152 6        41.099    24854555.423 7 100078969.16407     -2147.920 7        42.074
G12        15.000    21833396.429 5 114735767.90505      1776.666 5        33.425                                    21833496.082 1  89404192.99201      1384.516 1         4.857    21833397.249 6  89404133.20206      1384.484 6        37.656
E24        16.000    23751012.210 8 124812383.24608      -348.017 8        50.230                                                                    23751013.315 7  93204120.44807      -259.861 7        47.669    23751012.666 8  95635557.87708      -266.664 8        48.988
E05        18.000    22382934.380 6 117623120.74206     -1205.121 6        36.310                                                                    22382939.196 8  87835442.76608      -899.862 8        50.317    22382936.710 8  90126805.26208      -923.378 8        48.015
E09        21.000    25872328.031 6 135960002.47906     -3666.274 6        37.319                                                                    25872336.505 6 101528594.65006     -2737.826 6        41.333    25872336.739 6 104177133.63306     -2809.206 6        39.595
R14        23.000    20090126.408 6 107091600.31806       615.522 6        41.533                                                                    20090128.917 6  83293538.84106       478.849 6        40.017
S23        24.000    38270838.748 6 201114646.80606      -860.541 6        36.416
E03        26.000    26259567.338 6 137995095.70006      1384.008 6        39.688                                                                    26259574.692 7 103048238.61407      1033.537 7        42.783    26259575.373 7 105736465.52907      1060.395 7        46.367
R13        27.000    20535450.082 5 109658140.97805     -3055.437 5        34.286
R04        29.000    20189725.797 8 108115093.72508     -1468.079 8        51.848                                                                    20189726.893 7  84089498.95407     -1141.843 7        45.658
S36        31.000    38335772.878 5 201455937.13705      -857.083 5        35.767
C07        32.000                                                                                                                                    39452795.677 5 205441026.30805     -1589.549 5        31.192    39452787.508 6 158860041.64406     -1228.750 6        37.149
C10        33.000                                                                                                                                    38769776.073 6 201884399.08406     -1253.089 6        36.185    38769780.072 6 156109842.75206      -968.886 6        39.607    38769777.899 6 164047603.33606     -1017.961 6        39.610
C36        34.000                                                                                                                                    24580674.823 5 127998049.93305     -3392.173 5        34.576                                                                    24580734.549 4 104008989.24804     -2755.961 4        28.436
R03        36.000    21686084.559 6 116087496.37806     -4843.321 6        39.814                                                                    21686090.635 5  90290148.40405     -3766.852 5        34.176
C45        37.000                                                                                                                                    21850989.490 8 113783829.73308     -1472.681 8        48.220                                                                    21850984.479 7  92458697.84307     -1196.673 7        44.135
C33        39.000                                                                                                                                    27047353.163 4                      1671.901 4        28.692                                                                    27047350.763 4                      1358.857 4        27.293
C40        40.000                                                                                                                                    39705082.284 5 206754786.96305     -1854.546 5        31.540
R22        41.000                                                                                                                                    22548656.521 5  93618198.65205     -1400.722 5        34.090
C30        43.000                                                                                                                                                                                                                                                                    24735525.739 4                     -1297.578 4        29.014
R05        44.000                                                                                                                                    22312536.129 5  92768112.13205      1725.946 5        35.986
C42        45.000                                                                                                                                    24169900.461 5 125859029.99405      -811.084 5        30.589                                                                    24169920.328 6 102270887.80306      -659.135 6        38.012
C29        46.000                                                                                                                                    23983977.833 7 124890901.16407      1306.373 7        46.593                                                                    23983978.520 5 101484092.48805      1061.744 5        35.843
C26        48.000                                                                                                                                    23467155.946 6 122199578.36106      1248.992 6        38.853                                                                    23467144.890 6  99297192.85106      1014.986 6        39.297
C14        53.000                                                                                                                                    25302591.601 6 131757296.74506       631.611 6        41.788    25302594.316 6 101883093.63606       488.462 6        40.968    25302590.348 6 107063584.49806       513.302 6        39.694
C21        55.000                                                                                                                                    24373373.758 6 126918631.38406     -3452.896 6        36.964                                                                    24373378.996 7 103131680.41907     -2805.642 7        42.743
I06        58.000    38433700.068 6 150822103.85206      -750.574 6        37.270
I02        59.000    37024299.943 7 145291275.26207      -609.332 7        44.017
> 2025 01 02 11 16 20.0000000  0 38
G13         1.000    23571466.746 6 123868981.63106     -4651.560 6        40.377                                    23571473.222 2  96521234.28702     -3624.568 2        12.242
G17         2.000    22688562.451 7 119229085.58307     -2721.897 7        44.621                                    22688560.142 5  92905809.19405     -2120.956 5        35.176    22688562.435 6  92905881.19406     -2121.052 6        37.645
G19         4.000    21385760.917 7 112383091.98107      -253.656 7        46.038                                    21385759.251 5  87571099.21905      -197.657 5        32.126
E25         6.000    26389523.905 5                      1602.621 5        32.293                                                                    26389535.506 5 103558246.43005      1196.783 5        30.815    26389528.712 5 106259793.07005      1228.311 5        34.824
G10         7.000    24490760.703 5 128699794.51705     -1243.904 5        32.766                                    24490765.951 3 100285597.53503      -969.290 3        22.476    24490770.161 5 100285683.56305      -969.280 5        34.562
G15         9.000    22180177.029 6 116557809.40706     -4125.406 6        40.050                                    22180179.131 4  90824139.68704     -3214.610 4        25.353    22180177.323 5  90824136.73305     -3214.794 5        33.533
G23        10.000                                                                                                                                                                    24365315.798 5                     -2590.281 5        31.494
E06        11.000    27586495.716 3                     -4038.208 3        21.357
G24        12.000    20240139.475 6 106363257.52006      -202.784 6        37.800                                    20240141.275 6  82880026.27306      -158.007 6        36.752    20240141.335 7  82880000.25507      -158.035 7        42.605
E31        13.000    24857216.451 6 130625630.30106     -2804.073 6        39.021                                                                    24857222.585 6  97545070.77906     -2093.948 6        41.232    24857222.759 7 100089709.81407     -2148.532 7        42.472
G12        15.000    21831707.573 5 114726888.75805      1774.926 5        35.490                                    21831808.385 1  89397274.00101      1383.073 1         7.875    21831707.705 6  89397214.42206      1383.147 6        37.331
E24        16.000    23751343.920 8 124814127.14708      -349.630 8        50.125                                                                    23751345.183 7  93205422.71207      -261.121 7        47.799    23751344.451 8  95636894.11508      -267.935 8        49.021
E05        18.000    22384080.409 6 117629151.63206     -1207.379 6        36.386                                                                    22384086.834 8  87839946.34608      -901.626 8        50.471    22384084.413 8  90131426.33008      -925.179 8        48.016
E09        21.000    25875815.960 6 135978336.68406     -3667.499 6        36.314                                                                    25875825.590 6 101542285.75606     -2738.712 6        41.549    25875825.163 6 104191181.90606     -2810.150 6        39.093
R14        23.000    20089549.645 7 107088527.12707       613.590 7        42.112                                                                    20089552.641 6  83291148.59706       477.313 6        40.586
S23        24.000    38271655.118 5 201118949.01505      -860.526 5        35.743
E03        26.000    26258251.043 6 137988179.55206      1382.361 6        40.188                                                                    26258258.639 7 103043073.96407      1032.318 7        43.007    26258259.450 7 105731166.15007      1059.220 7        46.510
R13        27.000    20538312.038 6 109673421.70106     -3056.844 6        38.306
R04        29.000    20191098.567 8 108122445.81608     -1472.804 8        51.359                                                                    20191100.258 7  84095217.24307     -1145.539 7        46.299
R15        30.000    23772495.143 3                      2435.918 3        22.838
S36        31.000    38336589.410 5 201460223.63405      -857.283 5        35.257
C07        32.000                                                                                                                                    39454320.971 5 205448974.19505     -1590.202 5        31.057    39454314.121 6 158866187.46906     -1229.496 6        37.316
C10        33.000                                                                                                                                    38770979.088 5 201890664.97005     -1253.470 5        35.805    38770983.246 6 156114687.93406      -969.255 6        39.979    38770981.225 6 164052694.86006     -1018.421 6        39.535
C36        34.000                                                                                                                                    24583932.900 5 128015011.84905     -3392.636 5        34.400                                                                    24583992.354 4 104022772.24404     -2756.399 4        27.377
R03        36.000    21690613.418 6 116111718.08606     -4845.462 6        41.671                                                                    21690614.544 5  90308987.44105     -3768.762 5        34.157
C45        37.000                                                                                                                                    21852404.549 8 113791196.67508     -1474.143 8        48.226                                                                    21852399.056 7  92464684.08007     -1197.905 7        44.178
C33        39.000                                                                                                                                    27045750.234 4                      1670.792 4        28.171                                                                    27045743.389 4                      1357.394 4        27.305
C40        40.000                                                                                                                                    39706862.751 5 206764061.26705     -1855.140 5        32.078
R22        41.000                                                                                                                                    22550350.326 5  93625211.73105     -1404.344 5        32.695
C30        43.000                                                                                                                                                                                                                                                                    24737057.024 4                     -1299.925 4        28.114
R05        44.000    22310476.802 5                      2215.790 5        31.034                                                                    22310460.814 6                      1723.336 6        37.267
C42        45.000                                                                                                                                    24170684.109 5 125863093.78605      -814.343 5        33.413                                                                    24170700.719 6 102274189.93506      -661.653 6        36.975
C29        46.000                                                                                                                                    23982725.275 7 124884374.07207      1304.386 7        46.571                                                                    23982725.105 6 101478788.69006      1059.779 6        36.144
C26        48.000                                                                                                                                    23465959.815 6 122193336.26306      1248.014 6        38.946                                                                    23465946.206 6  99292120.64706      1013.893 6        39.541
C14        53.000                                                                                                                                    25301986.911 7 131754144.97007       629.015 7        42.514    25301989.781 6 101880656.49706       486.375 6        40.710    25301985.518 6 107061023.45006       511.024 6        40.570
C21        55.000                                                                                                                                    24376691.343 6 126935900.03106     -3454.542 6        37.535                                                                    24376695.397 7 103145712.59307     -2807.157 7        43.236
I06        58.000    38434656.167 6 150825855.87406      -750.420 6        37.361
I02        59.000    37025076.360 7 145294322.49907      -609.555 7        44.066
> 2025 01 02 11 16 25.0000000  0 40
G13         1.000    23575893.510 6 123892241.70706     -4652.230 6        39.520                                    23575899.475 1  96539358.97701     -3625.107 1        11.556
G17         2.000    22691153.399 7 119242702.03707     -2724.522 7        46.277                                    22691151.363 5  92916419.40105     -2122.998 5        35.357    22691153.411 6  92916491.38006     -2122.927 6        38.114
G19         4.000    21386003.923 7 112384369.04907      -256.975 7        45.970                                    21386002.507 5  87572094.34305      -200.238 5        32.138
E25         6.000    26387997.659 5                      1601.684 5        32.503                                                                    26388010.977 5 103552264.57405      1196.199 5        30.845    26388004.705 5 106253655.15505      1227.340 5        34.371
G10         7.000    24491946.001 5 128706022.20505     -1247.092 5        34.276                                    24491951.553 3 100290450.25503      -971.763 3        23.314    24491955.300 5 100290536.28105      -971.846 5        34.710
G15         9.000    22184103.557 6 116578441.79506     -4127.286 6        41.015                                    22184105.216 4  90840216.88704     -3216.064 4        26.491    22184105.486 5  90840213.87405     -3216.031 5        33.587
G23        10.000    24368485.310 5 128056983.67905     -3325.991 5        33.892                                                                                                    24368482.709 5                     -2591.873 5        31.389
E06        11.000    27590338.580 3                     -4040.026 3        20.786
G24        12.000    20240335.032 6 106364278.08306      -205.388 6        39.619                                    20240335.388 6  82880821.51106      -160.045 6        36.764    20240335.296 7  82880795.52107      -160.115 7        42.252
E31        13.000    24859884.743 6 130639652.68206     -2804.917 6        38.252                                                                    24859891.066 6  97555542.03106     -2094.628 6        41.330    24859891.188 7 100100454.23607     -2149.134 7        42.766
G12        15.000    21830021.910 6 114718019.56806      1773.025 6        37.047                                    21830122.462 1  89390362.85601      1381.581 1         7.125    21830020.486 6  89390303.35906      1381.468 6        37.577
E24        16.000    23751677.133 8 124815879.59208      -351.181 8        49.710                                                                    23751678.765 8  93206731.35608      -262.252 8        48.041    23751677.961 8  95638236.89808      -269.119 8        49.051
G32        17.000    26032796.546 4 136802988.12704      2618.859 4        25.143
E05        18.000    22385232.491 5 117635194.73505     -1209.976 5        35.448                                                                    22385236.822 8  87844459.03708      -903.445 8        50.492    22385234.575 8  90136056.74408      -926.994 8        48.095
E09        21.000    25879306.080 5 135996677.18805     -3668.695 5        35.890                                                                    25879315.750 6 101555981.55606     -2739.565 6        41.850    25879314.973 6 104205234.97106     -2811.023 6        38.559
R14        23.000    20088976.894 7 107085464.30407       611.568 7        43.181                                                                    20088976.783 6  83288766.41106       475.665 6        39.498
S23        24.000    38272473.694 5 201123251.85105      -860.654 5        35.986
R23        25.000    21966433.299 5                      1506.811 5        32.515
E03        26.000    26256936.329 6 137981270.94406      1381.042 6        40.248                                                                    26256944.106 7 103037914.97707      1031.310 7        43.234    26256944.863 7 105725872.56707      1058.293 7        46.716
R13        27.000    20541176.679 6 109688710.40506     -3058.503 6        41.087
R04        29.000    20192476.046 8 108129822.04708     -1477.604 8        51.538                                                                    20192477.412 7  84100954.28807     -1149.256 7        46.071
R15        30.000    23770209.692 4                      2436.015 4        24.376
S36        31.000    38337402.284 5 201464510.36105      -857.252 5        35.195
C07        32.000                                                                                                                                    39455850.407 5 205456924.44005     -1590.499 5        31.540    39455841.380 6 158872335.07006     -1229.507 6        36.888
C10        33.000                                                                                                                                    38772182.422 5 201896933.61405     -1253.846 5        35.648    38772187.076 6 156119535.24906      -969.753 6        40.093    38772184.904 6 164057788.65906     -1018.921 6        39.784
C36        34.000                                                                                                                                    24587189.638 5 128031977.02605     -3393.307 5        35.267                                                                    24587254.216 4 104036557.91804     -2757.677 4        26.299
R03        36.000    21695147.959 7 116135951.16207     -4847.607 7        42.019                                                                    21695142.510 5  90327835.32305     -3770.415 5        34.567
C45        37.000                                                                                                                                    21853821.004 8 113798571.47408     -1475.650 8        48.078                                                                    21853815.142 7  92470676.71707     -1199.029 7        44.134
C33        39.000                                                                                                                                    27044146.763 4                      1668.635 4        27.880                                                                    27044136.225 4                      1356.040 4        27.150
C40        40.000                                                                                                                                    39708644.840 5 206773338.25805     -1855.422 5        32.695
R22        41.000                                                                                                                                    22552044.638 5  93632241.94205     -1407.821 5        30.385
C30        43.000                                                                                                                                    24738570.698 5                     -1602.608 5        34.686                                                                    24738588.805 4                     -1302.306 4        26.647
R05        44.000    22308381.494 5                      2212.669 5        34.524                                                                    22308389.921 6  92750878.70316      1720.907 6        37.474
C42        45.000                                                                                                                                    24171470.426 6 125867172.76206      -817.218 6        36.121                                                                    24171483.918 6 102277504.44106      -664.375 6        36.170
C29        46.000                                                                                                                                    23981474.539 7 124877857.48407      1302.385 7        46.290                                                                    23981473.509 6 101473493.41806      1058.166 6        36.631
C26        48.000                                                                                                                                    23464759.590 6 122187099.45306      1247.073 6        38.429                                                                    23464748.276 6  99287052.73106      1013.248 6        39.255
C14        53.000                                                                                                                                    25301385.134 7 131751006.67707       626.420 7        43.052    25301387.026 6 101878229.79006       484.393 6        40.470    25301383.350 6 107058473.35406       509.003 6        41.690
C21        55.000                                                                                                                                    24380010.826 6 126953177.85306     -3456.576 6        38.156                                                                    24380013.616 7 103159752.23607     -2808.685 7        43.623
I06        58.000    38435611.991 6 150829608.35806      -750.278 6        37.361
I02        59.000    37025853.071 7 145297371.11407      -609.892 7        43.886
> 2025 01 02 11 16 30.0000000  0 39
G13         1.000    23580320.386 6 123915505.74706     -4653.514 6        38.030                                    23580326.494 1  96557486.77201     -3626.101 1        11.778
G17         2.000    22693746.493 7 119256331.38807     -2727.362 7        46.879                                    22693745.185 5  92927039.65605     -2125.209 5        35.705    22693746.474 6  92927111.64106     -2125.293 6        38.012
G19         4.000    21386249.889 7 112385662.65207      -260.557 7        45.907                                    21386249.037 5  87573102.34405      -203.030 5        31.834
E25         6.000    26386472.241 5                      1600.848 5        31.789                                                                    26386487.065 5 103546285.64205      1195.378 5        31.668    26386480.685 5 106247520.29005      1226.338 5        34.167
G10         7.000    24493137.800 6 128712264.98906     -1250.171 6        38.039                                    24493140.244 3 100295314.74103      -974.159 3        23.486    24493141.677 5 100295400.77805      -974.274 5        33.772
G14         8.000    24668253.530 3                     -4177.416 3        19.284
G15         9.000    22188031.196 7 116599083.23607     -4129.401 7        42.415                                    22188033.170 4  90856301.13304     -3217.718 4        27.856    22188034.455 5  90856298.15405     -3218.232 5        34.300
G23        10.000                                                                                                                                                                    24371649.172 5                     -2593.326 5        30.332
E06        11.000    27594180.973 3                     -4041.293 3        22.000
G24        12.000    20240531.976 6 106365311.46506      -208.282 6        40.834                                    20240531.997 6  82881626.75406      -162.300 6        37.550    20240532.439 7  82881600.76107      -162.258 7        42.275
E31        13.000    24862554.191 6 130653679.18106     -2805.991 6        37.467                                                                    24862560.656 6  97566016.36406     -2095.354 6        41.435    24862560.505 7 100111201.82707     -2149.963 7        43.300
G12        15.000    21828335.201 6 114709159.46406      1770.879 6        37.580                                    21828438.279 1  89383458.84801      1380.023 1         5.143    21828334.698 6  89383399.38506      1379.892 6        38.276
E24        16.000    23752012.054 8 124817639.75508      -352.964 8        49.263                                                                    23752013.878 8  93208045.76508      -263.574 8        48.223    23752012.950 8  95639585.59208      -270.436 8        49.081
E05        18.000    22386387.862 5 117641249.20905     -1212.119 5        35.090                                                                    22386389.001 8  87848980.25708      -905.233 8        50.528    22386386.998 8  90140695.91008      -928.818 8        48.239
E09        21.000    25882797.722 5 136015023.22105     -3669.916 5        35.743                                                                    25882806.921 6 101569681.47306     -2740.456 6        41.957    25882805.582 6 104219292.26806     -2811.946 6        37.724
R14        23.000    20088403.947 6 107082411.13506       609.479 6        40.899                                                                    20088404.255 6  83286391.75406       474.051 6        37.887
S23        24.000    38273288.745 5 201127554.29505      -860.498 5        35.581
E03        26.000    26255623.201 6 137974369.20506      1379.455 6        40.703                                                                    26255630.828 7 103032761.10507      1030.047 7        43.454    26255631.532 7 105720584.25007      1056.940 7        47.095
R13        27.000    20544043.380 7 109704006.31807     -3060.161 7        43.245
R04        29.000    20193857.335 8 108137221.61008     -1482.493 8        50.530                                                                    20193858.893 7  84106709.48607     -1153.083 7        45.887
R15        30.000                                                                                                                                    23768008.707 3                      1898.741 3        20.452
S36        31.000    38338223.895 5 201468796.90705      -857.552 5        35.405
C07        32.000                                                                                                                                    39457380.110 5 205464876.26105     -1590.978 5        31.238    39457368.612 6 158878483.92006     -1229.856 6        36.779
C10        33.000                                                                                                                                    38773386.748 5 201903204.30805     -1254.548 5        35.295    38773391.130 6 156124384.09906      -970.042 6        40.236    38773389.040 6 164062884.08606     -1019.262 6        39.757
C36        34.000                                                                                                                                    24590449.699 5 128048944.64505     -3393.891 5        35.305
R03        36.000    21699683.403 6 116160194.73906     -4850.058 6        40.984                                                                    21699670.642 5  90346691.40305     -3772.239 5        34.767
C45        37.000                                                                                                                                    21855238.601 7 113805953.39807     -1477.309 7        47.299                                                                    21855232.415 7  92476675.13707     -1200.265 7        43.465
C33        39.000                                                                                                                                    27042539.662 4                      1666.755 4        28.720                                                                    27042532.058 4                      1354.999 4        26.766
C40        40.000                                                                                                                                    39710426.971 5 206782617.19605     -1856.271 5        32.156
R22        41.000    22553736.787 5 120393922.16315     -1814.119 5        33.683
C30        43.000                                                                                                                                    24740105.447 5 128828250.10415     -1605.446 5        34.633
R05        44.000    22306316.574 6 119240025.46916      2209.246 6        39.111                                                                    22306321.647 6  92742280.49106      1718.195 6        37.645
C42        45.000                                                                                                                                    24172257.744 6 125871266.19406      -820.449 6        38.718                                                                    24172270.194 5 102280830.66205      -666.455 5        34.781
C29        46.000                                                                                                                                    23980224.816 7 124871350.62807      1300.163 7        45.935                                                                    23980223.857 6 101468206.05206      1056.711 6        36.594
C26        48.000                                                                                                                                    23463559.237 6 122180867.20306      1245.866 6        37.365                                                                    23463551.369 6  99281988.54306      1012.489 6        39.375
C14        53.000                                                                                                                                    25300785.018 7 131747881.14507       623.573 7        43.399    25300786.183 6 101875812.92906       482.328 6        40.386    25300783.158 7 107055933.61807       506.939 7        42.373
C21        55.000                                                                                                                                    24383333.178 6 126970464.07206     -3458.248 6        38.207                                                                    24383333.547 7 103173798.71607     -2809.986 7        43.863
I06        58.000    38436569.205 6 150833360.78006      -750.624 6        37.418
I02        59.000    37026630.357 7 145300421.03307      -610.229 7        43.839
> 2025 01 02 11 16 35.0000000  0 40
G13         1.000    23584748.421 6 123938773.81606     -4654.184 6        36.340                                    23584754.263 1  96575617.70101     -3626.611 1        11.185
G17         2.000    22696341.848 7 119269973.75407     -2729.848 7        46.528                                    22696341.441 6  92937670.05206     -2127.149 6        36.329    22696342.649 6  92937742.02806     -2127.230 6        36.979
G19         4.000    21386499.277 7 112386972.95407      -263.822 7        44.978                                    21386498.661 5  87574123.34405      -205.569 5        31.457
E25         6.000    26384947.651 4                      1600.016 4        29.507                                                                    26384963.915 5 103540309.78905      1194.570 5        31.404    26384957.521 5 106241388.52205      1225.789 5        33.335
G10         7.000    24494330.762 6 128718522.97306     -1253.275 6        39.529                                    24494331.896 3 100300191.06903      -976.588 3        23.905    24494331.130 5 100300277.05505      -976.049 5        32.928
G15         9.000    22191961.418 7 116619733.81807     -4131.107 7        42.356                                    22191962.840 4  90872392.48504     -3219.045 4        28.976    22191963.888 5  90872389.46705     -3219.117 5        34.024
G23        10.000                                                                                                                                                                    24374812.407 4                     -2594.012 4        27.305
E06        11.000    27598029.475 3                     -4040.263 3        22.457
G24        12.000    20240730.198 7 106366357.81107      -210.757 7        42.650                                    20240731.123 6  82882442.09506      -164.226 6        38.508    20240731.922 7  82882416.08707      -164.258 7        42.313
E31        13.000    24865225.178 5 130667709.98505     -2806.464 5        35.095                                                                    24865230.930 6  97576493.90806     -2095.946 6        41.812    24865230.572 7 100121952.69207     -2150.466 7        43.826
G12        15.000    21826650.276 6 114700308.68806      1769.185 6        36.507                                    21826755.907 1  89376561.84301      1378.602 1         4.000    21826650.627 6  89376502.69306      1378.564 6        38.727
E24        16.000    23752348.420 8 124819407.84408      -354.490 8        49.338                                                                    23752350.446 8  93209366.09208      -264.712 8        48.472    23752349.395 8  95640940.36508      -271.615 8        49.041
G32        17.000    26027818.010 4 136776807.13104      2617.449 4        24.481
E05        18.000    22387541.924 5 117647315.30205     -1214.494 5        34.957                                                                    22387543.288 8  87853510.11308      -906.924 8        50.504    22387541.547 8  90145343.94208      -930.575 8        48.300
E09        21.000    25886290.353 6 136033374.91006     -3670.850 6        36.272                                                                    25886299.329 6 101583385.63906     -2741.294 6        41.483    25886297.275 6 104233353.92006     -2813.024 6        36.480
R14        23.000    20087827.264 6 107079367.87906       607.412 6        36.367                                                                    20087834.396 6  83284024.80406       472.571 6        37.074
S23        24.000    38274106.569 5 201131856.61605      -860.228 5        35.181
R23        25.000    21963606.393 5                      1499.429 5        34.414
E03        26.000    26254311.418 6 137967474.46006      1378.159 6        40.663                                                                    26254318.992 7 103027612.44707      1029.072 7        43.407    26254319.459 7 105715301.27007      1056.041 7        46.830
R13        27.000    20546911.373 7 109719309.41007     -3061.461 7        43.429
R04        29.000    20195242.613 8 108144644.57308     -1487.085 8        49.850                                                                    20195244.947 7  84112482.89307     -1156.681 7        45.285
R15        30.000    23765636.009 4                      2435.791 4        24.346
S36        31.000    38339038.365 5 201473083.22405      -856.959 5        35.343
C07        32.000                                                                                                                                    39458912.075 5 205472829.85605     -1590.523 5        30.649    39458895.969 6 158884634.14506     -1230.315 6        36.824
C10        33.000                                                                                                                                    38774590.836 5 201909477.14205     -1254.831 5        34.829    38774595.865 6 156129234.65306      -970.263 6        40.605    38774593.935 6 164067981.27406     -1019.343 6        39.724
C36        34.000                                                                                                                                    24593710.873 5 128065914.92905     -3394.611 5        35.224
R03        36.000    21704215.117 6 116184449.04206     -4852.006 6        39.706                                                                    21704200.731 5  90365555.78505     -3773.793 5        35.652
C45        37.000                                                                                                                                    21856657.310 7 113813342.58407     -1478.623 7        45.985                                                                    21856651.235 7  92482679.44907     -1201.195 7        43.448
C33        39.000                                                                                                                                    27040939.295 4                      1665.197 4        28.360                                                                    27040933.081 4                      1353.310 4        26.359
C40        40.000                                                                                                                                    39712208.650 5 206791898.21105     -1856.788 5        32.641
R22        41.000    22555444.221 5 120403004.14705     -1818.625 5        33.359                                                                    22555426.415 5  93646352.72405     -1414.439 5        30.634
C30        43.000                                                                                                                                    24741646.469 5 128836283.68005     -1608.126 5        34.295                                                                    24741640.053 5                     -1306.814 5        33.126
R05        44.000    22304251.709 7 119228986.28407      2206.104 7        42.353                                                                    22304256.025 6  92733694.42906      1715.768 6        37.550
C42        45.000                                                                                                                                    24173047.219 6 125875374.19606      -823.142 6        40.882                                                                    24173059.306 5 102284168.71705      -668.773 5        32.503
C29        46.000                                                                                                                                    23978976.678 7 124864853.67407      1298.269 7        44.932                                                                    23978976.124 6 101462926.73406      1055.308 6        36.994
C26        48.000                                                                                                                                    23462359.525 6 122174639.65206      1244.977 6        36.960                                                                    23462355.474 6  99276928.15006      1012.016 6        39.631
C14        53.000                                                                                                                                    25300186.265 7 131744768.52307       621.125 7        43.172    25300188.316 6 101873406.07806       480.271 6        40.541    25300185.382 7 107053404.37807       505.038 7        42.982
C21        55.000                                                                                                                                    24386655.967 6 126987758.84206     -3459.882 6        37.422                                                                    24386655.039 7 103187852.13507     -2811.097 7        43.871
I06        58.000    38437525.107 6 150837113.21606      -750.469 6        37.342
I02        59.000    37027407.832 7 145303471.79707      -610.381 7        44.078
> 2025 01 02 11 16 40.0000000  0 39
G13         1.000    23589178.027 5 123962046.60305     -4655.027 5        35.471                                    23589182.886 1  96593752.26001     -3627.293 1        11.704
G17         2.000    22698940.452 7 119283629.82507     -2732.537 7        46.536                                    22698940.182 6  92948311.12806     -2129.248 6        36.824    22698941.576 6  92948383.11206     -2129.260 6        37.263
G19         4.000    21386752.010 7 112388300.62107      -267.258 7        44.397                                    21386751.508 5  87575157.88705      -208.249 5        30.596
E25         6.000    26383421.727 4                      1599.151 4        29.156                                                                    26383441.400 5 103534337.48905      1193.809 5        32.760    26383435.707 5 106235260.42205      1225.294 5        33.862
G10         7.000    24495522.328 6 128724796.82606     -1256.415 6        38.559                                    24495526.544 4 100305079.77004      -979.016 4        24.301    24495525.208 5 100305165.79805      -979.067 5        32.269
G15         9.000    22195892.963 6 116640394.21006     -4132.949 6        41.809                                    22195894.322 5  90888491.49405     -3220.485 5        30.136    22195895.272 5  90888488.49005     -3220.746 5        33.353
G23        10.000    24377950.989 5 128106914.83805     -3331.285 5        35.705                                                                                                    24377979.353 3                     -2596.514 3        22.095
E06        11.000    27601871.829 3                     -4041.074 3        22.152
G24        12.000    20240931.909 7 106367417.78507      -213.334 7        44.295                                    20240932.815 6  82883268.05706      -166.239 6        39.859    20240933.831 7  82883242.07207      -166.291 7        42.212
E31        13.000    24867895.036 5 130681745.72405     -2807.750 5        32.988                                                                    24867902.177 6  97586975.12206     -2096.493 6        41.604    24867901.726 7 100132707.34907     -2151.293 7        44.345
G12        15.000    21824966.857 5 114691468.03305      1767.331 5        33.210                                    21825075.597 1  89369672.85501      1377.133 1         3.000    21824967.552 6  89369613.84806      1377.072 6        38.270
E24        16.000    23752686.539 8 124821184.47408      -356.151 8        48.934                                                                    23752688.565 8  93210692.80208      -265.948 8        48.451    23752687.489 8  95642301.69008      -272.939 8        48.857
E05        18.000    22388695.996 5 117653393.60305     -1217.138 5        34.019                                                                    22388700.073 8  87858049.11708      -908.643 8        50.425    22388698.439 8  90150001.36008      -932.388 8        48.482
E09        21.000    25889784.584 6 136051732.94306     -3672.171 6        36.503                                                                    25889792.549 6 101597094.51006     -2742.173 6        41.182    25889790.426 5 104247420.40705     -2813.648 5        35.719
R14        23.000    20087256.481 5 107076335.12305       605.278 5        30.317                                                                    20087265.945 6  83281666.08406       471.123 6        37.070
S23        24.000    38274935.492 5 201136159.65205      -860.812 5        35.848
R23        25.000    21962207.933 5 117482994.40715      1495.939 5        33.156
E03        26.000    26253001.228 6 137960587.41206      1376.515 6        41.035                                                                    26253008.638 7 103022469.52307      1027.990 7        43.397    26253008.812 7 105710024.18307      1054.886 7        46.900
R13        27.000    20549778.567 6 109734620.54706     -3063.012 6        41.912
R04        29.000    20196633.075 8 108152091.70808     -1491.759 8        49.452                                                                    20196635.297 7  84118275.10207     -1160.283 7        45.362
R15        30.000    23763364.925 4                      2434.573 4        29.280
S36        31.000    38339851.932 5 201477370.30105      -857.302 5        34.933
C07        32.000                                                                                                                                    39460443.197 4 205480785.85004     -1591.716 4        29.829    39460423.223 6 158890786.23406     -1230.394 6        36.953
C10        33.000                                                                                                                                    38775796.160 5 201915752.81605     -1255.353 5        34.224    38775801.105 6 156134087.39606      -970.754 6        40.794    38775799.093 6 164073080.76806     -1019.977 6        39.919
C36        34.000                                                                                                                                    24596970.280 5 128082888.45905     -3395.180 5        33.168                                                                    24597037.125 3                     -2760.212 3        23.257
R03        36.000    21708748.237 6 116208714.61506     -4854.085 6        36.616                                                                    21708735.938 5  90384428.98805     -3775.583 5        35.390
C45        37.000                                                                                                                                    21858077.990 7 113820739.68407     -1480.208 7        45.618                                                                    21858071.693 7  92488690.17807     -1202.645 7        42.948
C33        39.000                                                                                                                                    27039346.092 5                      1663.597 5        31.819                                                                    27039336.551 4                      1352.027 4        27.713
C40        40.000                                                                                                                                    39713991.369 5 206801181.99705     -1857.007 5        32.665
R22        41.000    22557144.723 5 120412108.33805     -1822.910 5        33.275                                                                    22557134.686 5  93653433.73505     -1418.327 5        32.138
C30        43.000                                                                                                                                    24743195.648 5 128844331.77105     -1611.055 5        34.690                                                                    24743191.093 5                     -1309.021 5        34.295
R05        44.000    22302190.425 7 119217963.70507      2202.961 7        42.624                                                                    22302195.700 6  92725121.31406      1713.239 6        37.720
C42        45.000                                                                                                                                    24173837.993 7 125879497.45207      -826.098 7        42.140                                                                    24173851.394 5 102287519.19305      -671.377 5        31.132
C29        46.000                                                                                                                                    23977730.786 7 124858367.28907      1296.277 7        43.752                                                                    23977730.533 6 101457656.01906      1053.352 6        37.890
C26        48.000                                                                                                                                    23461155.303 5 122168417.47305      1243.875 5        34.838                                                                    23461160.289 6  99271872.14206      1010.861 6        40.002
C14        53.000                                                                                                                                    25299591.242 7 131741669.48207       618.471 7        43.255    25299592.068 6 101871009.70006       478.199 6        40.572    25299590.327 7 107050886.16207       502.758 7        43.657
C21        55.000                                                                                                                                    24389978.368 5 127005062.85805     -3461.819 5        35.248                                                                    24389978.182 7 103201913.06007     -2812.852 7        44.402
I06        58.000    38438481.549 6 150840866.16606      -750.554 6        37.440
I02        59.000    37028185.503 7 145306523.97207      -610.520 7        43.854
> 2025 01 02 11 16 45.0000000  0 39
G13         1.000    23593608.082 6 123985323.09106     -4655.386 6        36.200                                    23593612.243 1  96611889.74401     -3627.524 1        10.741
G17         2.000    22701541.793 7 119297298.58607     -2734.906 7        46.112                                    22701541.321 6  92958962.09906     -2131.086 6        36.847    22701543.479 6  92959034.08506     -2131.326 6        36.204
G19         4.000    21387007.896 7 112389644.69307      -270.267 7        44.698                                    21387007.343 4  87576205.20004      -210.593 4        29.564
E25         6.000    26381898.728 4                      1598.835 4        27.509                                                                    26381919.394 5 103528367.97005      1193.537 5        31.917    26381914.810 5 106229135.21605      1224.424 5        33.048
G10         7.000    24496718.347 6 128731085.53906     -1259.090 6        40.088                                    24496723.431 4 100309980.07804      -981.104 4        24.075    24496722.105 5 100310066.12105      -981.123 5        32.084
G15         9.000    22199825.643 6 116661063.46406     -4134.640 6        41.790                                    22199827.503 5  90904597.39305     -3221.795 5        30.340    22199827.980 5  90904594.37705     -3221.763 5        33.174
G23        10.000    24381120.544 6 128123575.52406     -3332.903 6        36.658
E06        11.000    27605719.602 3                     -4039.272 3        22.019
G24        12.000    20241136.431 7 106368490.41407      -215.739 7        45.430                                    20241136.828 6  82884103.87806      -168.110 6        40.970    20241137.440 6  82884077.87806      -168.014 6        41.609
E31        13.000    24870567.809 5 130695785.44105     -2808.151 5        34.319                                                                    24870573.871 6  97597459.32006     -2097.109 6        41.845    24870573.361 7 100143465.04207     -2151.761 7        44.709
G12        15.000                                                                                                                                                                    21823286.768 6  89362731.96806      1375.763 6        38.177
E24        16.000    23753026.218 8 124822968.69108      -357.516 8        48.970                                                                    23753028.133 8  93212025.17808      -266.982 8        48.820    23753026.950 8  95643668.82708      -273.937 8        49.096
E05        18.000    22389852.489 5 117659483.19005     -1219.202 5        32.970                                                                    22389858.949 8  87862596.53108      -910.229 8        50.487    22389857.420 8  90154667.40508      -933.963 8        48.859
E09        21.000    25893279.696 6 136070096.28506     -3673.060 6        37.093                                                                    25893286.810 6 101610807.38706     -2743.016 6        40.818    25893284.391 5 104261490.99005     -2814.621 5        34.500
R14        23.000                                                                                                                                    20086699.472 6  83279314.73406       469.646 6        37.214
S23        24.000    38275755.556 5 201140462.29605      -860.430 5        35.405
R23        25.000    21960808.880 5 117475523.77905      1492.180 5        31.479
E03        26.000    26251691.800 6 137953707.03506      1375.520 6        41.077                                                                    26251699.441 7 103017331.60007      1027.138 7        43.312    26251699.391 7 105704752.22907      1053.991 7        46.887
R13        27.000    20552642.733 6 109749938.63606     -3064.251 6        38.838
R04        29.000    20198029.042 8 108159562.12108     -1496.327 8        49.803                                                                    20198031.209 7  84124085.40107     -1163.798 7        45.425
R15        30.000    23761095.997 5                      2434.268 5        32.090
S36        31.000    38340669.940 5 201481656.94905      -857.271 5        35.433
C07        32.000                                                                                                                                    39461972.962 5 205488743.33305     -1591.631 5        31.366    39461951.815 6 158896939.45006     -1230.614 6        37.172
C10        33.000                                                                                                                                    38777001.734 5 201922030.34605     -1255.271 5        34.652    38777006.836 6 156138941.57606      -971.015 6        41.161    38777004.825 6 164078181.75806     -1020.165 6        39.682
C36        34.000                                                                                                                                    24600224.603 5 128099864.31105     -3395.415 5        33.030
R03        36.000    21713287.973 6 116232990.72206     -4856.081 6        38.108                                                                    21713274.497 5  90403310.31105     -3777.377 5        33.228
C45        37.000                                                                                                                                    21859500.624 7 113828143.73207     -1481.382 7        45.046                                                                    21859493.541 7  92494706.56607     -1203.732 7        42.912
C33        39.000                                                                                                                                    27037750.684 5                      1661.588 5        30.951                                                                    27037740.329 4                      1349.920 4        26.647
C40        40.000                                                                                                                                    39715774.045 5 206810467.50405     -1857.153 5        32.904
R22        41.000    22558847.864 5 120421233.74805     -1826.874 5        35.967                                                                    22558845.369 5  93660531.24205     -1420.975 5        31.419
C30        43.000                                                                                                                                    24744745.471 5 128852393.30405     -1613.491 5        34.695                                                                    24744739.577 5 104703073.18415     -1310.881 5        34.481
R05        44.000    22300131.486 7 119206956.55707      2200.047 7        44.030                                                                    22300135.928 6  92716560.19806      1711.150 6        37.769
C42        45.000                                                                                                                                    24174632.143 7 125883634.98807      -828.722 7        42.591                                                                    24174650.919 4 102290881.30604      -673.247 4        26.707
C29        46.000                                                                                                                                    23976486.623 7 124851890.52407      1294.484 7        43.795                                                                    23976487.169 6 101452393.12206      1051.781 6        38.483
C26        48.000                                                                                                                                    23459959.521 6 122162199.66606      1243.156 6        37.856                                                                    23459965.993 6  99266819.67806      1010.444 6        39.793
C14        53.000                                                                                                                                    25298999.561 7 131738583.03007       616.102 7        43.994    25298999.508 6 101868623.06406       476.503 6        41.385    25298997.682 7 107048378.18607       500.720 7        44.113
C21        55.000                                                                                                                                    24393301.754 5 127022375.12205     -3463.132 5        33.222                                                                    24393302.913 7 103215980.64007     -2814.086 7        44.250
I06        58.000    38439437.329 6 150844618.95106      -750.487 6        37.928
I02        59.000    37028963.677 7 145309577.10707      -610.648 7        44.033
> 2025 01 02 11 16 50.0000000  0 39
G13         1.000    23598039.189 6 124008603.35406     -4656.628 6        37.664                                    23598042.476 1  96630030.17701     -3628.513 1        10.963
G17         2.000    22704144.539 7 119310980.10707     -2737.628 7        44.603                                    22704144.820 6  92969623.01606     -2133.213 6        36.624    22704147.077 6  92969694.99806     -2133.228 6        36.749
G19         4.000    21387266.705 7 112391005.20807      -273.772 7        44.307                                    21387266.134 4  87577265.32604      -213.319 4        28.645
E25         6.000    26380379.843 4                      1597.579 4        27.713                                                                    26380398.235 5 103522401.34705      1193.254 5        32.677    26380394.555 5 106223012.92005      1224.089 5        33.491
G10         7.000    24497917.660 6 128737389.20506     -1262.310 6        38.168                                    24497922.859 3 100314892.01903      -983.620 3        23.314    24497921.297 5 100314978.04305      -983.372 5        31.887
G15         9.000    22203761.471 7 116681741.57707     -4136.536 7        42.428                                    22203762.317 5  90920710.18705     -3223.280 5        30.362    22203763.888 5  90920707.15905     -3223.282 5        32.719
G23        10.000    24384295.239 6 128140244.25906     -3334.552 6        37.664
E06        11.000    27609561.732 3                     -4041.212 3        19.910
G24        12.000    20241342.541 7 106369575.78507      -218.472 7        46.690                                    20241343.180 6  82884949.62706      -170.243 6        41.952    20241343.870 6  82884923.61506      -170.261 6        41.037
E31        13.000    24873241.236 5 130709829.16105     -2809.140 5        34.338                                                                    24873246.795 7  97607946.48907     -2097.731 7        42.157    24873245.579 7 100154225.80307     -2152.546 7        44.921
G12        15.000    21821601.809 4 114673813.51204      1763.765 4        29.848                                                                                                    21821607.660 6  89355857.08906      1374.059 6        38.171
E24        16.000    23753367.099 8 124824760.54808      -359.231 8        48.430                                                                    23753369.062 8  93213363.25608      -268.272 8        48.956    23753367.971 8  95645041.80508      -275.208 8        49.071
G32        17.000    26020318.844 4 136737561.61004      2615.423 4        26.503
E05        18.000    22391013.902 5 117665584.04205     -1221.294 5        33.551                                                                    22391019.859 8  87867152.40308      -912.081 8        50.342    22391018.442 8  90159342.13008      -935.880 8        49.102
E09        21.000    25896775.474 6 136088465.02006     -3674.305 6        37.285                                                                    25896782.065 6 101624524.27306     -2743.862 6        40.405    25896779.495 5 104275565.70605     -2815.500 5        33.449
R14        23.000                                                                                                                                    20086134.770 6  83276970.80706       468.032 6        37.887
S23        24.000    38276572.016 5 201144764.68205      -860.498 5        35.662
E03        26.000    26250383.546 6 137946833.43106      1373.978 6        41.356                                                                    26250391.326 7 103012198.72507      1025.996 7        43.314    26250391.067 7 105699485.45307      1052.739 7        46.634
R13        27.000    20555510.314 6 109765263.77706     -3065.817 6        38.174
R04        29.000    20199429.560 8 108167055.64708     -1501.146 8        49.695                                                                    20199431.053 7  84129913.68207     -1167.559 7        45.120
R15        30.000    23758826.752 5 126959959.91115      2433.605 5        35.105                                                                    23758944.867 4                      1893.098 4        29.043
S36        31.000    38341488.533 5 201485943.08005      -857.159 5        35.467
C07        32.000                                                                                                                                    39463497.603 5 205496702.30405     -1591.994 5        30.989    39463480.135 6 158903093.85506     -1230.965 6        36.957
C10        33.000                                                                                                                                    38778208.373 5 201928309.74605     -1256.080 5        34.105    38778212.997 6 156143797.20306      -971.337 6        41.287    38778210.459 6 164083284.29406     -1020.781 6        39.988
C36        34.000                                                                                                                                    24603480.039 5 128116842.55605     -3395.504 5        31.396
R03        36.000    21717832.871 5 116257277.20405     -4858.368 5        34.857                                                                    21717810.132 5  90422199.72205     -3779.041 5        30.355
C45        37.000                                                                                                                                    21860924.493 7 113835554.75707     -1482.965 7        44.998                                                                    21860916.744 7  92500728.63407     -1205.029 7        42.455
C33        39.000                                                                                                                                    27036156.041 5                      1660.057 5        31.645                                                                    27036145.445 4                      1349.460 4        26.814
C40        40.000                                                                                                                                    39717557.651 5 206819754.89205     -1857.641 5        32.245
R22        41.000    22560562.091 6 120430380.48006     -1831.573 6        38.414                                                                    22560554.436 4  93667645.34304     -1424.566 4        29.469
C30        43.000                                                                                                                                    24746296.666 5 128860468.49305     -1616.644 5        32.862                                                                    24746290.906 5 104709634.94105     -1313.312 5        34.667
R05        44.000    22298077.474 7 119195964.86007      2196.634 7        45.681                                                                    22298079.749 5  92708011.12605      1708.526 5        35.876
C42        45.000                                                                                                                                    24175429.021 7 125887786.88807      -831.804 7        42.544
C29        46.000                                                                                                                                    23975244.755 7 124845423.45307      1292.343 7        44.065                                                                    23975245.539 6 101447138.09506      1050.077 6        39.589
C26        48.000                                                                                                                                    23458773.884 6 122155986.34506      1242.237 6        39.895                                                                    23458772.942 6  99261770.86306      1009.326 6        39.856
C14        53.000                                                                                                                                    25298409.571 7 131735509.21907       613.464 7        44.196    25298409.556 7 101866246.23007       474.355 7        42.542    25298407.653 7 107045880.49007       498.410 7        44.662
C21        55.000                                                                                                                                    24396625.976 5 127039695.65005     -3464.939 5        32.503                                                                    24396628.942 7 103230054.94707     -2815.601 7        44.122
I06        58.000    38440393.645 6 150848371.52906      -750.412 6        37.588
I02        59.000    37029742.064 7 145312630.89807      -610.832 7        44.024
> 2025 01 02 11 16 55.0000000  0 40
G13         1.000    23602469.626 6 124031887.22306     -4657.139 6        37.134                                    23602473.353 1  96648173.43501     -3628.918 1        11.481
G17         2.000    22706749.281 7 119324674.32107     -2740.105 7        42.809                                    22706750.689 5  92980293.81105     -2135.142 5        35.952    22706753.118 6  92980365.80606     -2135.276 6        36.938
G19         4.000    21387528.331 7 112392382.01607      -276.823 7        43.583                                    21387527.751 4  87578338.14604      -215.696 4        27.162
E25         6.000    26378861.898 4                      1596.850 4        27.365                                                                    26378877.286 5 103516437.50105      1192.485 5        32.383    26378876.126 5 106216893.47905      1223.628 5        33.940
G10         7.000    24499118.948 5 128743707.67905     -1265.201 5        35.910                                    24499124.536 3 100319815.51803      -985.865 3        22.057    24499124.379 5 100319901.56705      -986.018 5        30.279
G15         9.000    22207698.258 7 116702428.43007     -4138.306 7        42.241                                    22207698.695 4  90936829.78304     -3224.644 4        29.621    22207699.382 5  90936826.73805     -3224.606 5        32.874
G23        10.000    24387467.324 6 128156921.02306     -3336.031 6        36.900                                                                                                    24387538.712 3                     -2602.737 3        18.060
E06        11.000    27613402.274 3                     -4042.335 3        19.164
G24        12.000    20241551.442 8 106370673.73308      -220.834 8        48.016                                    20241551.831 7  82885805.17407      -172.082 7        42.373    20241552.625 6  82885779.18506      -172.240 6        40.093
E31        13.000    24875914.430 5 130723876.70205     -2809.766 5        34.181                                                                    24875919.950 7  97618436.57307     -2098.365 7        42.573    24875918.609 7 100164989.53407     -2153.087 7        45.040
G12        15.000    21819928.041 5 114664999.62205      1761.935 5        33.096                                                                                                    21819931.379 6  89348989.14306      1372.982 6        38.742
E24        16.000    23753709.105 7 124826559.89807      -360.609 7        47.967                                                                    23753711.371 8  93214706.92608      -269.308 8        49.139    23753710.365 8  95646420.53508      -276.331 8        49.375
G32        17.000    26017828.865 4 136724485.88004      2614.656 4        27.916
E05        18.000    22392175.569 5 117671696.14005     -1223.980 5        30.272                                                                    22392182.989 8  87871716.62908      -913.692 8        50.343    22392181.495 8  90164025.42108      -937.473 8        49.446
E09        21.000    25900271.811 6 136106839.01606     -3675.417 6        37.006                                                                    25900278.238 6 101638245.08406     -2744.645 6        40.010    25900275.649 5 104289644.45605     -2816.133 5        32.892
R14        23.000    20085584.564 5 107067294.03005       600.108 5        33.569                                                                    20085567.803 5  83274634.24305       466.280 5        34.619
S23        24.000    38277385.677 5 201149066.59905      -860.288 5        35.562
R23        25.000    21958009.062 4 117460636.26704      1485.320 4        26.802
E03        26.000    26249076.870 6 137939966.47906      1372.623 6        41.290                                                                    26249084.526 7 103007070.80307      1025.164 7        43.355    26249083.918 7 105694223.75907      1051.834 7        46.399
R13        27.000    20558382.286 6 109780595.92906     -3067.077 6        38.054
R04        29.000    20200833.331 8 108174572.23208     -1505.613 8        49.267                                                                    20200834.378 7  84135759.91207     -1170.964 7        44.898
R15        30.000    23756551.986 5                      2433.301 5        33.527
S36        31.000    38342305.006 5 201490228.81305      -857.181 5        35.871
C07        32.000                                                                                                                                    39465022.720 5 205504662.70705     -1592.052 5        30.785    39465009.320 6 158909249.28106     -1231.062 6        37.013
C10        33.000                                                                                                                                    38779415.170 5 201934590.93905     -1256.430 5        34.505    38779419.013 6 156148654.18506      -971.433 6        41.783    38779416.844 6 164088388.26906     -1020.952 6        39.802
C36        34.000                                                                                                                                    24606740.290 5 128133823.02905     -3396.232 5        32.665                                                                    24606790.982 4                     -2759.833 4        28.967
R03        36.000                                                                                                                                    21722342.036 4  90441096.99804     -3780.363 4        29.346
C45        37.000                                                                                                                                    21862348.892 7 113842972.65907     -1484.251 7        45.232                                                                    21862341.499 7  92506756.29907     -1206.029 7        42.286
C33        39.000                                                                                                                                    27034558.540 5                      1658.364 5        30.732                                                                    27034557.218 4                      1347.927 4        26.695
C40        40.000                                                                                                                                    39719340.753 5 206829043.99505     -1857.964 5        32.641
R22        41.000    22562281.503 6 120439548.28606     -1835.734 6        36.306
C30        43.000                                                                                                                                    24747854.068 5 128868557.08205     -1618.997 5        33.042                                                                    24747844.830 5 104716207.66405     -1315.483 5        34.848
R05        44.000    22296024.159 7 119184988.64007      2193.767 7        47.004                                                                    22296026.086 5  92699474.10205      1706.326 5        33.299
C42        45.000                                                                                                                                    24176226.746 6 125891953.01506      -834.497 6        41.590
C29        46.000                                                                                                                                    23974004.940 7 124838965.91907      1290.517 7        44.813                                                                    23974005.621 6 101441890.83606      1048.714 6        40.319
C26        48.000                                                                                                                                    23457588.692 6 122149777.36706      1241.227 6        41.416                                                                    23457580.557 6  99256725.56506      1008.814 6        39.865
C14        53.000                                                                                                                                    25297820.547 7 131732447.97807       610.999 7        43.771    25297822.399 7 101863879.09507       472.466 7        43.716    25297819.589 7 107043393.00107       496.471 7        44.831
C21        55.000                                                                                                                                    24399954.150 5 127057024.26405     -3466.613 5        35.119                                                                    24399956.624 7 103244135.86107     -2816.782 7        43.799
I06        58.000    38441349.862 6 150852123.86606      -750.264 6        37.618
I02        59.000    37030520.177 7 145315685.65007      -611.062 7        44.126
> 2025 01 02 11 17  0.0000000  0 39
G13         1.000    23606900.431 5 124055174.83905     -4658.007 5        35.952                                    23606904.928 1  96666319.58401     -3629.580 1        10.148
G17         2.000    22709358.344 6 119338381.25606     -2742.617 6        40.899                                    22709359.032 5  92990974.52505     -2137.099 5        35.190    22709361.856 6  92991046.52706     -2137.229 6        38.595
G19         4.000    21387793.394 7 112393775.24607      -280.351 7        42.533                                    21387792.301 4  87579423.77104      -218.451 4        25.008
E25         6.000    26377346.120 4                      1596.404 4        26.120                                                                    26377356.963 5 103510476.49405      1191.865 5        32.257    26377358.419 5 106210776.99105      1222.925 5        33.874
G10         7.000    24500322.879 5 128750041.09305     -1268.098 5        32.934                                    24500329.165 3 100324750.62203      -988.129 3        19.373
G15         9.000    22211636.580 7 116723124.14607     -4140.104 7        42.201                                    22211636.540 4  90952956.27404     -3226.047 4        28.398    22211637.307 5  90952953.25405     -3226.147 5        33.222
E06        11.000    27617249.023 3                     -4041.969 3        20.714
G24        12.000    20241762.942 8 106371784.38708      -223.356 8        48.698                                    20241762.789 7  82886670.62307      -174.043 7        42.681    20241764.739 6  82886644.61206      -174.094 6        39.117
E31        13.000    24878588.975 5 130737928.24605     -2810.809 5        35.462                                                                    24878594.035 7  97628929.60307     -2098.894 7        43.022    24878592.663 7 100175756.30207     -2153.638 7        45.321
G12        15.000    21818254.134 5 114656194.68805      1760.396 5        34.705                                                                                                    21818255.540 6  89342128.18806      1371.601 6        38.844
E24        16.000    23754052.624 7 124828366.85107      -362.164 7        47.672                                                                    23754055.242 8  93216056.27208      -270.406 8        49.568    23754054.354 8  95647805.08908      -277.529 8        49.641
G32        17.000    26015339.177 4 136711413.20804      2613.817 4        28.976
E05        18.000    22393339.400 4 117677819.50704     -1225.699 4        28.161                                                                    22393348.163 8  87876289.28608      -915.396 8        50.373    22393346.797 8  90168717.36708      -939.252 8        49.706
E09        21.000    25903769.710 6 136125218.35206     -3676.440 6        37.115                                                                    25903775.531 6 101651969.87906     -2745.210 6        39.273    25903772.182 5 104303727.29705     -2817.037 5        32.353
R14        23.000    20085014.846 5 107064299.68405       598.161 5        34.786                                                                    20085007.167 5  83272305.17205       465.169 5        33.952
S23        24.000    38278208.711 5 201153368.09005      -860.497 5        35.648
R23        25.000    21956627.979 4 117453219.34204      1481.122 4        26.719
E03        26.000    26247771.408 6 137933106.24306      1371.411 6        41.990                                                                    26247779.273 7 103001947.93707      1023.950 7        43.488    26247777.991 7 105688967.24207      1050.769 7        46.118
R13        27.000    20561256.889 6 109795935.09206     -3068.477 6        36.340
R04        29.000    20202241.055 8 108182112.05708     -1510.298 8        48.942                                                                    20202243.710 7  84141624.22607     -1174.685 7        45.335
R15        30.000    23754284.109 3 126935626.71013      2433.564 3        23.124
S36        31.000    38343110.341 5 201494514.76905      -856.999 5        35.000
C07        32.000                                                                                                                                    39466549.422 4 205512624.46404     -1592.112 4        29.924    39466538.534 6 158915405.85106     -1231.353 6        36.491
C10        33.000                                                                                                                                    38780621.567 5 201940873.94005     -1256.896 5        34.062    38780625.909 7 156153512.59407      -971.680 7        42.203    38780623.466 6 164093493.73406     -1021.293 6        39.898
C36        34.000                                                                                                                                    24610003.787 5 128150805.77405     -3396.593 5        32.754                                                                    24610055.275 5                     -2760.247 5        30.000
R03        36.000    21726937.181 5 116305881.06205     -4862.823 5        33.078
C45        37.000                                                                                                                                    21863774.582 7 113850397.52107     -1485.656 7        45.401                                                                    21863767.427 7  92512789.63407     -1207.238 7        42.108
C33        39.000                                                                                                                                    27032958.366 4                      1656.438 4        28.540                                                                    27032976.384 4                      1346.050 4        27.138
C40        40.000                                                                                                                                    39721124.041 5 206838334.91105     -1858.525 5        31.766
R22        41.000    22564002.364 6 120448737.37716     -1840.025 6        36.820
C30        43.000                                                                                                                                                                                                                                                                    24749401.112 5 104722791.36605     -1317.768 5        34.971
R05        44.000    22293972.782 8 119174027.97208      2190.569 8        48.283                                                                    22293977.048 5  92690949.15505      1703.690 5        34.657
C42        45.000                                                                                                                                    24177029.336 6 125896133.45006      -837.440 6        41.709                                                                    24177092.081 5 102301037.47905      -680.345 5        32.766
C29        46.000                                                                                                                                    23972766.147 7 124832518.05507      1288.582 7        45.159                                                                    23972767.453 6 101436651.44406      1047.182 6        41.085
C26        48.000                                                                                                                                    23456397.024 6 122143572.80706      1240.416 6        41.611                                                                    23456389.115 6  99251683.86706      1008.086 6        39.393
C14        53.000                                                                                                                                    25297234.064 7 131729399.38107       608.458 7        43.338    25297237.412 7 101861521.74507       470.464 7        44.757    25297234.254 7 107040915.80407       494.391 7        45.216
C21        55.000                                                                                                                                    24403283.113 6 127074361.09806     -3468.261 6        36.541                                                                    24403285.738 7 103258223.46407     -2818.175 7        43.166
I06        58.000    38442305.510 6 150855875.99606      -750.453 6        37.841
I02        59.000    37031298.940 7 145318741.11907      -611.135 7        43.727
> 2025 01 02 11 17  5.0000000  0 38
G13         1.000    23611332.261 5 124078467.17005     -4658.721 5        33.994                                    23611337.352 1  96684469.37901     -3630.191 1        10.296
G17         2.000    22711969.892 6 119352101.92106     -2745.277 6        40.501                                    22711970.093 5  93001665.92905     -2139.179 5        34.848    22711972.363 6  93001737.92206     -2139.086 6        39.069
G19         4.000    21388061.749 6 112395185.88806      -283.606 6        40.167                                    21388060.102 3  87580522.96503      -220.997 3        22.648
E25         6.000                                                                                                                                    26375838.765 5 103504519.13905      1191.268 5        33.018    26375840.126 5 106204664.21505      1222.543 5        33.766
G10         7.000    24501530.790 5 128756390.44605     -1271.073 5        34.157                                    24501536.825 3 100329698.18403      -990.413 3        19.701
G14         8.000    24696088.781 3                     -4177.820 3        20.952
G15         9.000    22215576.446 7 116743829.72107     -4141.837 7        42.172                                    22215576.187 4  90969090.44104     -3227.397 4        27.054    22215576.668 5  90969087.43505     -3227.830 5        32.958
G23        10.000    24393802.547 6 128190299.72306     -3339.404 6        36.302                                                                                                    24393851.131 4                     -2602.299 4        25.429
G24        12.000    20241976.975 8 106372908.78708      -226.043 8        48.643                                    20241976.317 7  82887546.78107      -176.136 7        42.603    20241978.485 6  82887520.77406      -176.306 6        38.408
E31        13.000    24881263.564 6 130751984.81006     -2811.664 6        36.072                                                                    24881268.852 7  97639426.39207     -2099.506 7        43.642    24881267.852 7 100186526.93307     -2154.318 7        45.762
G12        15.000    21816582.605 6 114647399.84206      1757.953 6        38.279                                                                                                    21816581.234 6  89335275.05706      1369.958 6        38.477
E24        16.000    23754398.317 7 124830182.46407      -363.678 7        47.463                                                                    23754400.819 8  93217412.09408      -271.601 8        49.857    23754399.953 8  95649196.27808      -278.704 8        49.866
G32        17.000    26012851.767 4 136698344.61004      2613.667 4        28.199
E05        18.000    22394506.208 4 117683955.24304     -1228.687 4        25.579                                                                    22394515.719 8  87880871.17608      -917.127 8        50.370    22394514.394 8  90173418.78908      -941.044 8        49.961
E09        21.000    25907268.762 6 136143604.10806     -3677.790 6        36.938                                                                    25907274.015 6 101665699.48606     -2746.260 6        38.790    25907271.258 5 104317815.04405     -2817.486 5        32.180
R14        23.000    20084449.872 5 107061315.99905       595.899 5        32.353                                                                    20084446.920 5  83269984.40105       463.646 5        32.976
S23        24.000    38279024.039 5 201157670.37405      -860.362 5        34.976
E03        26.000    26246467.798 7 137926253.84507      1369.915 7        42.601                                                                    26246475.234 7 102996830.88407      1023.045 7        43.498    26246473.704 7 105683716.70207      1049.724 7        45.919
R13        27.000    20564128.725 5 109811282.41505     -3069.962 5        34.952
R04        29.000    20203653.803 8 108189676.15108     -1514.955 8        49.433                                                                    20203657.039 7  84147507.39807     -1178.261 7        46.264
S36        31.000    38343926.426 5 201498801.71305      -857.061 5        35.343
C07        32.000                                                                                                                                    39468081.357 4 205520588.81504     -1592.967 4        29.545    39468067.589 6 158921564.35706     -1231.652 6        36.287
C10        33.000                                                                                                                                    38781828.963 5 201947159.90205     -1257.111 5        33.934    38781832.796 7 156158373.29407      -972.184 7        42.584    38781830.596 6 164098601.55406     -1021.476 6        39.781
C36        34.000                                                                                                                                    24613265.886 5 128167791.93705     -3396.996 5        31.826                                                                    24613320.185 4                     -2760.597 4        29.763
R03        36.000    21731480.825 6 116330199.46306     -4864.419 6        37.089
C45        37.000                                                                                                                                    21865202.244 7 113857830.40807     -1487.172 7        45.744                                                                    21865195.052 7  92518829.42107     -1208.317 7        42.021
C33        39.000                                                                                                                                                                                                                                                                    27031389.897 4                      1344.367 4        27.018
C40        40.000                                                                                                                                    39722908.384 5 206847628.67805     -1858.791 5        30.219
R22        41.000    22565728.723 6 120457948.83006     -1844.162 6        38.162
C30        43.000                                                                                                                                    24750997.746 6 128884775.95106     -1624.575 6        36.284                                                                    24750960.038 5 104729386.87705     -1319.864 5        34.838
R05        44.000    22291925.836 8 119163084.01908      2187.388 8        49.393                                                                    22291932.178 5  92682437.22105      1701.138 5        35.729
C42        45.000                                                                                                                                    24177836.991 7 125900329.22507      -840.429 7        42.411                                                                    24177888.363 5 102304446.75705      -682.773 5        30.340
C29        46.000                                                                                                                                    23971529.793 7 124826080.94207      1286.577 7        45.866                                                                    23971531.137 6 101431420.76006      1045.368 6        41.743
C26        48.000                                                                                                                                    23455203.422 6 122137373.75806      1239.509 6        41.738                                                                    23455198.657 6  99246646.61906      1007.174 6        39.640
C14        53.000                                                                                                                                    25296650.092 7 131726364.47107       605.849 7        43.431    25296654.854 7 101859174.99107       468.471 7        45.810    25296651.623 7 107038449.68807       492.365 7        45.543
C21        55.000                                                                                                                                    24406614.539 6 127091707.19706     -3470.032 6        38.141                                                                    24406616.402 7 103272318.54207     -2819.559 7        42.099
I06        58.000    38443262.693 6 150859628.75406      -750.307 6        37.716
I02        59.000    37032077.868 7 145321798.23107      -611.345 7        43.640
> 2025 01 02 11 17 10.0000000  0 39
G13         1.000    23615764.502 5 124101763.22605     -4659.461 5        32.784                                    23615770.519 1  96702622.12801     -3630.749 1        10.074
G17         2.000    22714584.044 7 119365835.22507     -2747.866 7        42.129                                    22714583.707 5  93012367.19705     -2141.196 5        34.981    22714585.501 6  93012439.21206     -2141.182 6        39.523
G19         4.000    21388333.324 6 112396612.97606      -287.054 6        36.250                                    21388330.711 3  87581634.96003      -223.662 3        19.761
E25         6.000    26374333.101 5                      1594.445 5        32.497                                                                    26374320.871 5 103498564.65205      1190.916 5        32.234    26374322.998 5 106198554.39905      1221.618 5        33.060
G10         7.000    24502745.873 6 128762754.66106     -1274.422 6        39.676                                    24502747.584 3 100334657.33103      -993.075 3        19.791    24502784.059 4 100334743.47204      -993.308 4        29.517
G14         8.000    24700048.193 3                     -4176.278 3        18.328
G15         9.000    22219519.692 7 116764544.06607     -4143.700 7        42.510                                    22219517.444 4  90985231.46504     -3228.848 4        25.955    22219518.125 5  90985228.45305     -3229.065 5        31.872
G23        10.000    24396981.322 6 128207001.66806     -3341.111 6        36.072                                    24396992.773 1  99901609.25111     -2603.454 1         6.500    24397032.874 4                     -2603.528 4        28.910
E06        11.000    27624956.786 4                     -4041.809 4        24.045
G24        12.000    20242192.970 8 106374045.91408      -228.645 8        48.389                                    20242192.292 7  82888432.85207      -178.163 7        42.455    20242195.266 6  82888406.84106      -178.245 6        38.168
E31        13.000    24883939.217 6 130766045.36606     -2812.294 6        36.854                                                                    24883944.381 7  97649926.14507     -2100.230 7        43.771    24883943.647 7 100197300.60007     -2155.049 7        45.664
G12        15.000    21814912.478 6 114638613.95906      1756.198 6        39.739                                                                                                    21814909.748 6  89328428.95506      1368.541 6        38.595
E24        16.000    23754745.481 7 124832005.68707      -365.270 7        47.021                                                                    23754747.769 8  93218773.59808      -272.769 8        49.916    23754746.984 8  95650593.29608      -279.874 8        50.061
G32        17.000    26010366.150 4 136685279.17804      2613.708 4        26.323
E05        18.000    22395676.034 4 117690102.23804     -1230.147 4        26.958                                                                    22395685.449 8  87885461.49408      -918.862 8        50.366    22395684.154 8  90178128.85808      -942.872 8        50.078
E09        21.000    25910769.087 6 136161995.19906     -3678.686 6        37.240                                                                    25910773.631 6 101679433.05506     -2747.237 6        38.231    25910772.008 5 104331906.91205     -2818.775 5        32.180
R14        23.000                                                                                                                                    20083889.018 5  83267671.06005       461.934 5        33.868
S23        24.000    38279840.616 5 201161972.51205      -860.367 5        35.248
R23        25.000    21953881.244 6 117438441.59706      1474.297 6        36.715
E03        26.000    26245165.299 7 137919408.21207      1368.468 7        43.111                                                                    26245172.363 7 102991718.89107      1021.953 7        43.266    26245170.284 7 105678471.35107      1048.620 7        45.290
R13        27.000    20567003.130 5 109826636.66205     -3071.147 5        32.491
R04        29.000    20205071.287 8 108197263.38408     -1519.694 8        50.659                                                                    20205073.543 7  84153408.56307     -1181.950 7        46.345
S36        31.000    38344739.139 5 201503088.47205      -857.234 5        34.305
C07        32.000                                                                                                                                                                                                    39469597.066 6 158927724.04606     -1232.082 6        36.359
C10        33.000                                                                                                                                    38783037.400 5 201953447.82005     -1257.828 5        34.605    38783040.428 7 156163235.47207      -972.538 7        42.773    38783037.918 6 164103710.99206     -1022.114 6        39.592
C36        34.000                                                                                                                                    24616528.377 5 128184780.43505     -3397.760 5        30.196                                                                    24616584.009 4                     -2760.818 4        28.645
C45        37.000                                                                                                                                    21866630.712 7 113865270.26207     -1488.537 7        45.813                                                                    21866624.091 7  92524874.93607     -1209.676 7        42.290
C33        39.000                                                                                                                                    27029769.768 4                      1653.015 4        28.588                                                                    27029798.044 4                      1342.996 4        26.491
C40        40.000                                                                                                                                    39724695.672 5 206856924.17205     -1859.016 5        31.215
R22        41.000    22567460.073 6 120467181.51716     -1848.448 6        36.957                                                                    22567480.355 4                     -1437.450 4        28.512
C30        43.000                                                                                                                                    24752567.887 5 128892906.24705     -1627.391 5        35.638                                                                    24752520.946 5 104735993.46705     -1322.443 5        34.467
R05        44.000    22289881.709 8 119152155.67808      2184.214 8        49.381                                                                    22289888.424 5  92673937.37705      1698.907 5        35.962
C42        45.000                                                                                                                                    24178646.988 7 125904539.32007      -843.357 7        42.573                                                                    24178692.529 4 102307867.80104      -685.170 4        27.952
C29        46.000                                                                                                                                    23970295.813 7 124819653.51107      1284.643 7        46.081                                                                    23970296.811 7 101426197.95807      1043.795 7        42.339
C26        48.000                                                                                                                                    23454012.677 7 122131179.15407      1238.543 7        42.413                                                                    23454008.914 6  99241612.99806      1006.398 6        39.517
C14        53.000                                                                                                                                    25296070.472 7 131723342.22107       603.260 7        43.852    25296074.636 7 101856838.02207       466.481 7        46.620    25296071.222 7 107035993.90107       490.138 7        45.821
C21        55.000                                                                                                                                    24409948.626 6 127109061.49806     -3471.622 6        39.357                                                                    24409948.683 6 103286420.33206     -2820.980 6        41.228
I06        58.000    38444218.802 6 150863381.33906      -750.466 6        37.486
I02        59.000    37032857.143 7 145324856.07307      -611.512 7        43.416
> 2025 01 02 11 17 15.0000000  0 38
G13         1.000    23620199.401 5 124125063.25305     -4660.937 5        33.449                                    23620204.459 1  96720777.92601     -3631.910 1         8.095
G17         2.000    22717200.144 7 119379581.42007     -2750.760 7        43.043                                    22717199.892 5  93023078.51805     -2143.447 5        35.371    22717200.772 6  93023150.52906     -2143.557 6        39.462
G19         4.000    21388603.710 5 112398056.79105      -290.785 5        31.841                                    21388604.665 3  87582759.96303      -226.591 3        18.149
E25         6.000    26372812.602 5                      1593.437 5        32.737                                                                    26372803.590 5 103492613.19705      1190.064 5        31.781    26372807.421 5 106192447.68105      1220.898 5        31.660
G10         7.000    24503961.536 7 128769134.02407     -1277.662 7        42.436                                    24503960.578 3 100339628.24803      -995.583 3        19.463
G14         8.000    24704033.951 3                     -4183.894 3        20.643
G15         9.000    22223466.573 7 116785267.44207     -4145.841 7        43.376                                    22223460.512 4  91001379.50604     -3230.510 4        24.962    22223459.938 5  91001376.47205     -3230.258 5        30.725
G23        10.000    24400164.331 5 128223711.85505     -3343.075 5        33.844                                    24400170.674 1  99914630.25301     -2604.883 1         4.571    24400204.180 5                     -2604.946 5        32.108
E06        11.000    27628802.086 4                     -4042.764 4        25.083
G24        12.000    20242411.459 8 106375196.00108      -231.675 8        48.017                                    20242410.879 7  82889329.02507      -180.526 7        42.157    20242414.490 6  82889303.02006      -180.586 6        38.727
E31        13.000    24886615.153 6 130780110.13306     -2813.662 6        37.285                                                                    24886620.750 7  97660429.03607     -2101.112 7        44.140    24886620.080 7 100208077.47807     -2155.910 7        45.621
G12        15.000    21813241.382 6 114629837.37606      1754.004 6        40.701                                    21813352.742 1  89322032.08711      1366.776 1         7.875    21813239.643 6  89321590.06706      1366.833 6        38.589
E24        16.000    23755094.283 7 124833836.74907      -367.333 7        47.166                                                                    23755096.191 8  93220140.95308      -274.249 8        50.199    23755095.554 8  95651996.32408      -281.434 8        50.163
G32        17.000    26007875.486 4 136672217.20704      2611.953 4        26.204
E05        18.000    22396849.670 4 117696260.88704     -1232.660 4        28.825                                                                    22396857.288 8  87890060.43708      -920.847 8        50.433    22396856.145 8  90182847.77008      -944.848 8        50.114
E09        21.000    25914269.572 6 136180391.86506     -3680.169 6        37.459                                                                    25914274.376 6 101693170.79906     -2748.159 6        38.156    25914273.410 5 104346003.00505     -2819.565 5        32.760
R14        23.000    20083324.813 6 107055377.05306       591.713 6        36.378                                                                    20083331.724 5  83265365.40405       459.882 5        33.060
S23        24.000    38280662.970 5 201166274.73205      -860.566 5        35.319
E03        26.000    26243863.833 7 137912569.59107      1366.695 7        44.050                                                                    26243870.942 7 102986612.14407      1020.557 7        43.276    26243868.546 7 105673231.38107      1047.315 7        44.671
R13        27.000    20569879.233 5 109841998.09805     -3073.666 5        31.185
R04        29.000    20206492.270 8 108204874.04908     -1524.756 8        51.361                                                                    20206493.812 7  84159327.95007     -1185.970 7        46.130
S36        31.000    38345557.861 5 201507374.32605      -857.460 5        34.348
C07        32.000                                                                                                                                    39471158.442 4 205536522.22904     -1593.290 4        27.545    39471127.242 6 158933885.06306     -1232.588 6        36.329
C10        33.000                                                                                                                                    38784247.118 5 201959737.79505     -1258.393 5        35.424    38784248.456 7 156168099.27507      -973.156 7        43.098    38784245.827 6 164108822.11006     -1022.664 6        39.718
C36        34.000                                                                                                                                    24619791.167 4 128201771.49004     -3399.086 4        28.227                                                                    24619842.686 4                     -2762.070 4        27.461
C45        37.000                                                                                                                                    21868060.238 7 113872717.31107     -1490.390 7        46.175                                                                    21868054.412 7  92530926.26607     -1211.078 7        42.366
C33        39.000                                                                                                                                    27028189.085 4                      1651.227 4        29.062                                                                    27028209.339 4                      1340.439 4        25.323
C40        40.000                                                                                                                                    39726481.121 5 206866221.75405     -1860.078 5        32.222
R22        41.000    22569193.828 5 120476435.72005     -1853.449 5        33.575                                                                    22569213.140 5                     -1441.447 5        33.132
C30        43.000                                                                                                                                    24754137.020 5 128901050.39305     -1630.606 5        35.448                                                                    24754084.397 5 104742611.18705     -1324.758 5        33.844
R05        44.000    22287837.876 8 119141243.08808      2180.639 8        48.607                                                                    22287843.778 5  92665449.83505      1696.197 5        35.600
C42        45.000                                                                                                                                    24179457.674 6 125908763.99906      -846.715 6        41.790                                                                    24179506.222 4 102311300.62204      -687.791 4        26.683
C29        46.000                                                                                                                                    23969063.013 7 124813236.04007      1282.267 7        45.463                                                                    23969064.322 7 101420983.22507      1041.839 7        42.665
C26        48.000                                                                                                                                    23452823.315 7 122124989.22907      1237.225 7        42.093                                                                    23452820.340 6  99236583.15506      1005.405 6        39.577
C14        53.000                                                                                                                                    25295493.273 7 131720332.88507       600.293 7        44.521    25295497.001 7 101854511.02707       464.210 7        47.468    25295493.212 7 107033548.58307       487.768 7        46.044
C21        55.000                                                                                                                                    24413284.174 6 127126424.21806     -3473.677 6        40.362                                                                    24413282.789 6 103300528.96006     -2822.740 6        40.646
I06        58.000    38445174.740 6 150867133.90506      -750.681 6        37.210
I02        59.000    37033636.600 7 145327914.95107      -612.140 7        43.270
> 2025 01 02 11 17 20.0000000  0 39
G13         1.000    23624634.656 5 124148367.69005     -4661.252 5        34.033                                    23624639.119 1  96738937.25501     -3632.156 1         6.375
G17         2.000    22719818.689 7 119393341.15207     -2753.408 7        43.816                                    22719818.756 5  93033800.37805     -2145.513 5        35.986    22719819.181 6  93033872.38806     -2145.459 6        39.940
G19         4.000    21388880.450 4 112399517.78904      -293.898 4        28.986                                    21388882.313 3  87583898.42103      -229.016 3        18.388
E25         6.000                                                                                                                                    26371286.979 5 103486665.26405      1188.954 5        30.891    26371293.587 5 106186344.50505      1220.345 5        31.034
G10         7.000    24505177.770 7 128775529.09207     -1280.601 7        42.154                                    24505176.113 2 100344611.41702      -997.871 2        17.887
G14         8.000    24708021.235 3                     -4175.465 3        21.667
G15         9.000    22227414.111 7 116806000.36907     -4147.595 7        44.181                                    22227405.462 4  91017534.98904     -3231.893 4        24.556    22227403.234 5  91017531.97605     -3231.697 5        30.189
G23        10.000    24403348.748 5 128240430.91305     -3344.757 5        31.177                                    24403351.755 1  99927658.03501     -2606.318 1         5.714    24403381.232 5                     -2606.527 5        32.802
E06        11.000    27632649.730 4                     -4043.656 4        26.659
G24        12.000    20242633.247 7 106376359.61707      -234.210 7        47.107                                    20242632.269 6  82890235.73606      -182.501 6        41.888    20242634.804 6  82890209.73606      -182.474 6        40.024
E31        13.000    24889292.662 6 130794179.63006     -2814.386 6        37.951                                                                    24889297.988 7  97670935.49407     -2101.835 7        44.506    24889297.368 7 100218858.01007     -2156.546 7        45.573
G12        15.000    21811572.531 7 114621070.65807      1752.226 7        42.214                                    21811686.311 1  89315200.80201      1365.312 1         8.095    21811571.898 6  89314758.86706      1365.503 6        39.060
E24        16.000    23755444.293 7 124835676.21907      -368.799 7        47.344                                                                    23755446.218 8  93221514.59208      -275.488 8        50.320    23755445.683 8  95653405.79508      -282.662 8        50.379
G32        17.000    26005376.305 4 136659159.16104      2610.722 4        26.359
E05        18.000    22398024.602 5 117702431.64505     -1236.136 5        30.460                                                                    22398031.302 8  87894668.42908      -922.627 8        50.485    22398030.548 8  90187575.97008      -946.679 8        50.297
E09        21.000    25917771.885 6 136198794.66806     -3681.260 6        38.267                                                                    25917776.426 6 101706913.10006     -2748.927 6        37.493    25917775.245 5 104360103.86205     -2820.707 5        33.497
R14        23.000    20082776.608 6 107052422.90306       589.725 6        41.330                                                                    20082777.428 5  83263067.63505       458.791 5        31.789
S23        24.000    38281483.020 5 201170577.45205      -860.599 5        35.338
E03        26.000    26242563.936 7 137905738.55107      1365.331 7        44.894                                                                    26242570.791 7 102981511.06407      1019.581 7        43.327    26242568.085 7 105667997.24107      1046.112 7        44.095
R13        27.000    20572759.039 5 109857367.41205     -3074.779 5        32.874
R04        29.000    20207917.311 8 108212508.59608     -1529.458 8        51.464                                                                    20207919.239 7  84165265.90807     -1189.548 7        45.527
R15        30.000    23745274.189 4                      2429.444 4        25.158                                                                    23745164.359 5                      1889.819 5        34.376
S36        31.000    38346377.595 5 201511660.20505      -857.139 5        34.600
C07        32.000                                                                                                                                    39472691.036 4 205544492.07304     -1594.616 4        26.311    39472657.936 6 158940047.81806     -1232.675 6        36.306
C10        33.000                                                                                                                                    38785455.365 5 201966030.39505     -1258.924 5        35.957    38785457.062 7 156172965.09907      -973.462 7        43.153    38785454.250 6 164113935.32706     -1022.842 6        39.601
C36        34.000                                                                                                                                    24623055.969 4 128218765.59604     -3399.239 4        26.515                                                                    24623100.143 4                     -2762.319 4        26.551
C45        37.000                                                                                                                                    21869491.778 7 113880172.14307     -1491.805 7        46.351                                                                    21869486.117 7  92536983.88907     -1212.182 7        42.500
C33        39.000                                                                                                                                    27026603.059 4                      1649.118 4        27.928                                                                    27026624.922 4                      1340.452 4        24.722
C40        40.000                                                                                                                                    39728268.267 5 206875521.90405     -1860.404 5        31.441
R22        41.000                                                                                                                                    22570947.410 5                     -1444.888 5        34.267
C30        43.000                                                                                                                                    24755697.804 5 128909208.87305     -1633.254 5        35.700                                                                    24755650.335 5 104749240.54905     -1326.862 5        32.347
R05        44.000    22285796.471 7 119130347.15707      2177.457 7        47.046                                                                    22285807.357 5  92656975.28505      1693.554 5        35.890
C42        45.000                                                                                                                                    24180270.502 6 125913003.81906      -849.622 6        40.431                                                                    24180322.231 4 102314745.79004      -690.602 4        27.222
C29        46.000                                                                                                                                    23967831.710 7 124806829.11507      1280.178 7        44.185                                                                    23967833.940 7 101415777.01607      1040.295 7        43.069
C26        48.000                                                                                                                                    23451633.508 6 122118804.57006      1236.218 6        40.617                                                                    23451632.574 6  99231557.57506      1004.604 6        39.769
C14        53.000                                                                                                                                    25294919.257 7 131717337.00207       597.744 7        44.707    25294922.562 8 101852194.45808       462.167 8        48.009    25294917.898 7 107031114.19607       485.715 7        46.123
C21        55.000                                                                                                                                    24416620.604 6 127143795.90506     -3475.322 6        40.050                                                                    24416618.778 6 103314644.85406     -2824.051 6        39.550
I06        58.000    38446130.903 6 150870886.89606      -750.822 6        37.176
I02        59.000    37034416.395 7 145330975.33607      -612.166 7        43.443
> 2025 01 02 11 17 25.0000000  0 41
G13         1.000    23629069.372 5 124171675.20905     -4661.746 5        34.638                                    23629074.343 1  96757098.92101     -3632.401 1         7.875
G17         2.000    22722439.094 7 119407112.97207     -2755.515 7        44.778                                    22722439.981 6  93044531.65706     -2147.153 6        36.204    22722439.702 6  93044603.67006     -2147.195 6        39.907
G19         4.000    21389162.578 4 112400994.63704      -297.154 4        28.227                                    21389163.081 3  87585049.20103      -231.521 3        18.179
E25         6.000                                                                                                                                    26369771.074 4 103480719.63504      1189.141 4        29.128    26369781.306 5 106180243.77405      1220.048 5        30.415
G10         7.000    24506395.727 7 128781938.43307     -1283.365 7        42.487                                    24506394.518 2 100349605.64902      -999.997 2        15.667
G14         8.000    24711998.479 3                     -4180.249 3        21.500
G15         9.000    22231361.407 7 116826741.36207     -4149.000 7        44.131                                    22231351.960 3  91033696.76803     -3232.983 3        23.390    22231349.017 4  91033693.71304     -3232.682 4        28.076
G23        10.000    24406545.645 4 128257157.55504     -3346.696 4        26.970                                    24406534.307 1  99940691.64601     -2607.641 1         2.800    24406562.568 5                     -2607.246 5        33.066
E06        11.000    27636496.810 4                     -4043.223 4        25.158
G24        12.000    20242856.750 7 106377535.31607      -236.448 7        46.118                                    20242856.199 6  82891151.86906      -184.244 6        41.497    20242858.222 6  82891125.87206      -184.148 6        40.882
E31        13.000    24891971.079 6 130808252.47706     -2814.844 6        38.946                                                                    24891975.956 7  97681444.41507     -2102.080 7        44.581    24891975.321 7 100229641.08507     -2156.823 7        45.407
G12        15.000    21809906.630 7 114612312.33307      1750.861 7        42.360                                    21810019.679 1  89308376.09101      1364.318 1         6.500    21809905.015 6  89307934.22006      1364.165 6        39.147
E24        16.000    23755795.549 8 124837522.65508      -369.972 8        48.066                                                                    23755797.548 8  93222893.41708      -276.263 8        50.235    23755797.054 8  95654820.59508      -283.524 8        50.585
G32        17.000    26002885.418 4 136646103.58904      2611.198 4        28.265
E05        18.000    22399201.595 5 117708612.95605     -1237.308 5        32.563                                                                    22399207.572 8  87899284.37608      -923.973 8        50.422    22399206.893 8  90192312.33608      -948.135 8        50.413
E09        21.000    25921275.606 6 136217202.16306     -3682.004 6        39.988                                                                    25921279.580 6 101720658.92906     -2749.396 6        37.293    25921278.112 5 104374208.27805     -2821.376 5        33.976
R14        23.000    20082225.284 7 107049477.70207       588.128 7        43.134                                                                    20082225.670 5  83260776.98505       456.893 5        32.245
S23        24.000    38282296.739 5 201174879.36705      -860.212 5        35.257
R23        25.000    21949732.558 3                      1464.196 3        19.134
E03        26.000    26241265.444 7 137898913.67007      1364.399 7        45.956                                                                    26241271.852 7 102976414.58207      1018.783 7        43.026    26241269.161 7 105662767.79807      1045.445 7        43.352
R13        27.000    20575640.368 5 109872743.07905     -3075.903 5        34.714
R04        29.000    20209346.946 8 108220165.80408     -1533.694 8        50.687                                                                    20209348.739 7  84171221.51607     -1192.833 7        45.154
R15        30.000                                                                                                                                    23742893.914 5  98680397.70715      1889.961 5        33.677
S36        31.000    38347186.274 5 201515944.53705      -856.745 5        34.090
C07        32.000                                                                                                                                    39474220.507 4 205552462.72404     -1593.952 4        25.955    39474188.220 5 158946211.22405     -1232.768 5        35.986
C10        33.000                                                                                                                                    38786663.507 6 201972324.18906     -1258.978 6        36.563    38786665.615 7 156177831.85007      -973.461 7        43.460    38786662.996 6 164119049.57106     -1022.851 6        39.610
C36        34.000                                                                                                                                    24626321.270 4 128235761.42004     -3399.204 4        25.805                                                                    24626365.254 4                     -2761.718 4        25.654
R03        36.000    21749597.913 5 116427576.69305     -4872.966 5        34.071
C45        37.000                                                                                                                                    21870924.716 7 113887633.28807     -1492.906 7        46.610                                                                    21870919.087 7  92543046.70507     -1213.077 7        42.722
C33        39.000                                                                                                                                    27025018.343 4                      1647.888 4        28.493                                                                    27025045.205 4                      1339.164 4        24.992
C40        40.000                                                                                                                                    39730052.811 5 206884823.26505     -1860.597 5        31.487
R22        41.000                                                                                                                                    22572682.283 5  93717987.27615     -1448.077 5        34.124
C30        43.000                                                                                                                                                                                                                                                                    24757219.095 5 104755880.44905     -1328.645 5        31.683
R05        44.000    22283759.751 7 119119466.10407      2174.651 7        45.523                                                                    22283770.623 5  92648512.29305      1691.209 5        34.890
C42        45.000                                                                                                                                    24181086.353 6 125917257.28006      -851.968 6        39.799                                                                    24181140.434 4 102318202.07204      -692.464 4        26.479
C29        46.000                                                                                                                                    23966601.880 7 124800431.26607      1278.723 7        43.738                                                                    23966605.441 7 101410578.23907      1039.049 7        43.416
C26        48.000                                                                                                                                    23450446.205 6 122112623.67406      1235.877 6        39.811                                                                    23450446.144 6  99226535.14806      1004.320 6        40.074
C14        53.000                                                                                                                                    25294346.741 7 131714353.20307       595.490 7        44.924    25294349.420 8 101849887.21008       460.462 8        48.540    25294344.954 7 107028689.66507       483.840 7        46.295
C21        55.000                                                                                                                                    24419955.920 6 127161175.13806     -3476.638 6        40.031                                                                    24419955.977 6 103328766.91306     -2825.049 6        39.081
I06        58.000    38447087.130 6 150874639.22906      -750.361 6        36.900
I02        59.000    37035196.686 7 145334036.11507      -612.316 7        43.319
> 2025 01 02 11 17 30.0000000  0 38
G13         1.000    23633505.222 5 124194987.32905     -4663.197 5        33.695                                    23633510.591 1  96775264.11401     -3633.673 1         8.571
G17         2.000    22725061.999 7 119420898.35507     -2758.737 7        45.342                                    22725063.768 6  93055273.50506     -2149.663 6        36.537    22725062.934 6  93055345.50206     -2149.768 6        39.859
G19         4.000    21389447.675 4 112402488.80604      -300.550 4        28.900                                    21389447.325 2  87586213.49302      -234.206 2        17.811
E25         6.000                                                                                                                                    26368254.907 4 103474777.56404      1188.518 4        28.066    26368270.305 4 106174146.68804      1218.911 4        29.081
G10         7.000    24507618.072 7 128788363.57407     -1286.868 7        42.112                                    24507615.794 2 100354612.22202     -1002.769 2        14.619    24507677.525 5                     -1002.560 5        30.392
G15         9.000    22235308.826 7 116847492.04207     -4151.457 7        42.531                                    22235300.398 3  91049866.08903     -3234.882 3        21.929    22235295.273 4  91049863.08204     -3235.015 4        26.036
G23        10.000                                                                                                                                                                    24409752.369 5                     -2608.456 5        32.371
E06        11.000    27640343.827 4                     -4043.911 4        25.895
G24        12.000    20243083.278 7 106378724.68707      -239.508 7        46.008                                    20243082.928 6  82892078.65106      -186.630 6        41.414    20243084.688 6  82892052.66006      -186.654 6        41.914
E31        13.000    24894650.181 6 130822330.22306     -2816.334 6        39.246                                                                    24894654.915 7  97691956.99907     -2103.164 7        44.816    24894654.073 7 100240427.91707     -2157.992 7        45.318
G12        15.000    21808240.540 6 114603564.00406      1748.254 6        41.502                                    21808353.772 1  89301559.01301      1362.240 1         3.800    21808239.739 6  89301117.34106      1362.324 6        39.694
E24        16.000    23756148.653 8 124839377.62408      -372.183 8        48.026                                                                    23756150.535 8  93224278.61708      -277.913 8        50.180    23756149.969 8  95656241.93508      -285.167 8        50.798
G32        17.000    26000400.945 4 136633052.12604      2609.130 4        28.161
E05        18.000    22400381.876 5 117714806.57505     -1240.511 5        34.200                                                                    22400386.136 8  87903909.47308      -926.191 8        50.255    22400385.511 8  90197058.08608      -950.319 8        50.508
E09        21.000    25924780.428 6 136235615.92206     -3683.645 6        40.307                                                                    25924783.769 6 101734409.41306     -2750.664 6        36.813    25924782.149 5 104388317.48105     -2822.703 5        35.052
R14        23.000    20081673.427 7 107046542.97307       585.558 7        43.469                                                                    20081676.103 5  83258494.37905       455.667 5        34.795
S23        24.000    38283124.531 6 201179181.93806      -860.825 6        36.302
E03        26.000    26239968.506 7 137892096.53507      1362.372 7        46.200                                                                    26239974.501 7 102971323.88307      1017.339 7        42.891    26239972.169 7 105657544.30307      1043.835 7        42.631
R13        27.000    20578521.638 5 109888126.59805     -3077.490 5        35.495
R04        29.000    20210781.430 8 108227847.08808     -1538.981 8        50.769                                                                    20210783.514 7  84177195.85007     -1197.025 7        45.109
R15        30.000                                                                                                                                    23740621.481 5  98670949.18815      1889.416 5        34.157
S36        31.000    38348005.453 5 201520229.79305      -857.582 5        34.357
C07        32.000                                                                                                                                    39475749.782 4 205560435.75704     -1595.394 4        25.353    39475719.485 5 158952376.46805     -1233.251 5        35.619
C10        33.000                                                                                                                                    38787872.368 6 201978620.83906     -1259.941 6        36.571    38787874.775 7 156182700.82007      -974.242 7        43.742    38787872.088 6 164124166.13006     -1023.780 6        39.387
C36        34.000                                                                                                                                    24629587.696 4 128252760.48504     -3400.415 4        25.068                                                                    24629633.765 4                     -2762.492 4        26.994
R03        36.000    21754166.553 6 116451947.55906     -4875.391 6        36.699                                                                    21754162.652 4                     -3791.436 4        24.015
C45        37.000                                                                                                                                    21872359.356 7 113895102.35607     -1494.935 7        46.775                                                                    21872353.493 7  92549115.93007     -1214.753 7        42.840
C33        39.000                                                                                                                                    27023439.448 5                      1645.820 5        30.762                                                                    27023460.489 4                      1338.547 4        24.496
C40        40.000                                                                                                                                    39731840.511 5 206894127.31305     -1861.512 5        31.026
C30        43.000                                                                                                                                                                                                                                                                    24758791.466 5 104762532.13005     -1331.541 5        31.185
R05        44.000    22281727.236 7 119108601.80107      2170.936 7        43.960                                                                    22281739.335 5  92640062.34905      1688.318 5        35.848
C42        45.000                                                                                                                                    24181905.366 6 125921526.00406      -855.538 6        38.291                                                                    24181956.798 4 102321670.66604      -695.373 4        25.880
C29        46.000                                                                                                                                    23965375.187 7 124794044.08207      1276.149 7        43.691                                                                    23965379.103 7 101405388.14307      1036.859 7        43.687
C26        48.000                                                                                                                                    23449260.323 6 122106448.19006      1234.296 6        39.072                                                                    23449260.263 6  99221517.08106      1002.968 6        39.985
C14        53.000                                                                                                                                    25293775.980 7 131711383.02007       592.336 7        44.921    25293778.940 8 101847590.50408       458.037 8        48.826    25293774.532 7 107026276.18107       481.362 7        46.185
C21        55.000                                                                                                                                    24423292.082 6 127178563.50406     -3478.888 6        39.468                                                                    24423294.959 6 103342896.37206     -2826.988 6        37.720
I06        58.000    38448043.757 6 150878392.08506      -750.821 6        37.338
I02        59.000    37035976.889 7 145337098.30307      -612.814 7        43.464
> 2025 01 02 11 17 35.0000000  0 40
G13         1.000    23637942.011 5 124218302.91805     -4663.351 5        33.701                                    23637947.326 1  96793431.99701     -3633.686 1         8.095
G17         2.000    22727687.294 7 119434696.13107     -2760.681 7        46.135                                    22727689.840 6  93066025.00406     -2151.172 6        36.276    22727688.043 6  93066096.99306     -2151.181 6        39.450
G19         4.000    21389736.457 5 112403999.22105      -303.557 5        32.772                                    21389734.846 3  87587390.47103      -236.553 3        18.090
E25         6.000                                                                                                                                    26366739.395 4 103468838.18704      1187.737 4        25.880    26366760.543 4 106168052.37104      1218.915 4        27.269
G10         7.000    24508843.306 6 128794803.39306     -1289.418 6        41.361                                    24508839.932 2 100359630.18902     -1004.726 2        13.818    24508906.989 5                     -1004.589 5        32.515
G15         9.000    22239256.659 6 116868251.17906     -4152.543 6        40.329                                    22239250.602 3  91066042.00103     -3235.721 3        20.095
G23        10.000                                                                                                                                                                    24412945.022 5                     -2609.728 5        31.306
E06        11.000    27644193.013 4                     -4044.065 4        24.526
G24        12.000    20243312.207 7 106379926.55307      -241.468 7        46.477                                    20243312.116 6  82893015.17506      -188.162 6        41.089    20243312.716 7  82892989.18707      -188.191 7        42.150
E31        13.000    24897329.276 6 130836411.63706     -2816.555 6        39.279                                                                    24897334.332 7  97702472.33507     -2103.224 7        45.106    24897333.551 7 100251217.56907     -2158.053 7        44.891
G12        15.000    21806575.552 6 114594824.55906      1747.089 6        41.001                                    21806689.014 1  89294748.89901      1361.397 1         2.000    21806576.867 6  89294307.40406      1361.302 6        40.217
E24        16.000    23756502.946 8 124841239.99008      -373.164 8        48.111                                                                    23756504.882 8  93225669.34108      -278.595 8        50.061    23756504.341 8  95657668.93908      -285.887 8        50.769
G32        17.000    25997915.066 4 136620003.52504      2609.168 4        27.473
E05        18.000    22401563.542 5 117721011.26405     -1242.066 5        35.867                                                                    22401566.872 8  87908542.83808      -927.407 8        50.291    22401566.176 8  90201812.31908      -951.597 8        50.456
E09        21.000    25928286.481 6 136254034.74506     -3684.203 6        41.507                                                                    25928288.955 6 101748163.68706     -2751.107 6        36.340    25928287.148 5 104402430.59005     -2822.917 5        35.990
R14        23.000    20081124.502 7 107043617.56707       584.239 7        45.223                                                                    20081128.066 6  83256219.06706       454.367 6        36.677
S23        24.000    38283943.996 6 201183483.94606      -860.100 6        36.491
R23        25.000    21947039.438 4                      1455.940 4        27.198
E03        26.000    26238672.565 7 137885285.96907      1361.547 7        46.390                                                                    26238678.318 7 102966238.09107      1016.806 7        42.809    26238676.383 7 105652325.83507      1043.304 7        42.015
R13        27.000    20581402.781 6 109903516.91806     -3078.607 6        36.091
R04        29.000    20212220.199 8 108235551.30208     -1543.026 8        51.117                                                                    20212221.948 7  84183188.01507     -1200.185 7        45.049
R15        30.000                                                                                                                                    23738349.264 5  98661502.33505      1889.081 5        33.479
S36        31.000    38348824.409 5 201524514.97405      -856.565 5        34.476
C07        32.000                                                                                                                                    39477280.089 4 205568410.07004     -1595.456 4        26.934    39477250.878 5 158958542.68105     -1233.383 5        35.510
C10        33.000                                                                                                                                    38789082.825 6 201984919.14706     -1259.825 6        37.036    38789084.203 7 156187571.05707      -974.129 7        43.674    38789081.491 6 164129283.98106     -1023.498 6        39.297
C36        34.000                                                                                                                                    24632854.914 4 128269761.69404     -3399.749 4        24.662                                                                    24632902.212 4                     -2763.215 4        25.820
R03        36.000    21758724.087 6 116476328.15906     -4877.071 6        38.108                                                                    21758725.272 4                     -3793.289 4        28.749
C45        37.000                                                                                                                                    21873795.196 7 113902578.13207     -1495.697 7        47.039                                                                    21873788.984 7  92555190.57807     -1215.346 7        43.137
C33        39.000                                                                                                                                    27021863.193 5                      1644.424 5        30.868                                                                    27021878.366 4                      1335.517 4        24.857
C40        40.000                                                                                                                                    39733627.907 5 206903432.94605     -1861.662 5        30.377
R22        41.000                                                                                                                                    22576160.728 6  93732499.62116     -1454.317 6        36.427
C30        43.000                                                                                                                                                                                                                                                                    24760365.957 5 104769194.57405     -1333.620 5        31.042
R05        44.000    22279697.000 7 119097752.86907      2168.353 7        42.595                                                                    22279713.508 6  92631624.29106      1686.423 6        36.631
C42        45.000                                                                                                                                    24182726.633 6 125925808.83306      -857.937 6        38.414
C29        46.000                                                                                                                                    23964150.339 7 124787666.39707      1274.719 7        44.131                                                                    23964154.520 7 101400205.71507      1035.731 7        43.983
C26        48.000                                                                                                                                    23448076.332 6 122100276.90706      1233.939 6        40.358                                                                    23448075.191 6  99216502.41206      1002.608 6        40.255
C14        53.000                                                                                                                                    25293207.471 7 131708425.30107       590.321 7        44.886    25293210.466 8 101845303.42908       456.527 8        49.010    25293206.577 7 107023872.79407       479.772 7        46.512
C21        55.000                                                                                                                                    24426632.477 6 127195959.77606     -3479.946 6        38.925                                                                    24426635.651 6 103357032.19806     -2827.599 6        37.274
I06        58.000    38449000.412 6 150882144.58706      -750.576 6        37.660
I02        59.000    37036757.242 7 145340161.17507      -612.619 7        43.570
