     3.04           OBSERVATION DATA    M                   RINEX VERSION / TYPE
ssrcrin-15.6.1x                         20250102 173000 UTC PGM / RUN BY / DATE 
(00000000023479385599111004) Septentrio proprietary         COMMENT             
ract                                                        MARKER NAME         
01                                                          MARKER NUMBER       
geodetic                                                    MARKER TYPE         
NFB                 CLIMERS@TUW                             OBSERVER / AGENCY   
3296359             SEPT ASTERX SB3 PROB4.14.4              REC # / TYPE / VERS 
Unknown             Unknown                                 ANT # / TYPE        
  4127445.7401  1206914.7184  4695542.7804                  APPROX POSITION XYZ 
        0.0000        0.0000        0.0000                  ANTENNA: DELTA H/E/N
G   23 X1  C1C L1C D1C S1C C1W S1W C2W L2W D2W S2W C2L L2L  SYS / # / OBS TYPES 
       D2L S2L C5Q L5Q D5Q S5Q C1L L1L D1L S1L              SYS / # / OBS TYPES 
E   21 X1  C1C L1C D1C S1C C6C L6C D6C S6C C5Q L5Q D5Q S5Q  SYS / # / OBS TYPES 
       C7Q L7Q D7Q S7Q C8Q L8Q D8Q S8Q                      SYS / # / OBS TYPES 
S    9 X1  C1C L1C D1C S1C C5I L5I D5I S5I                  SYS / # / OBS TYPES 
R   17 X1  C1C L1C D1C S1C C2P L2P D2P S2P C2C L2C D2C S2C  SYS / # / OBS TYPES 
       C3Q L3Q D3Q S3Q                                      SYS / # / OBS TYPES 
C   25 X1  C1P L1P D1P S1P C5P L5P D5P S5P C2I L2I D2I S2I  SYS / # / OBS TYPES 
       C7I L7I D7I S7I C6I L6I D6I S6I C7D L7D D7D S7D      SYS / # / OBS TYPES 
J   17 X1  C1C L1C D1C S1C C2L L2L D2L S2L C5Q L5Q D5Q S5Q  SYS / # / OBS TYPES 
       C1L L1L D1L S1L                                      SYS / # / OBS TYPES 
I    5 X1  C5A L5A D5A S5A                                  SYS / # / OBS TYPES 
SEPTENTRIO RECEIVERS OUTPUT ALIGNED CARRIER PHASES.         COMMENT             
NO FURTHER PHASE SHIFT APPLIED IN THE RINEX ENCODER.        COMMENT             
G L1C                                                       SYS / PHASE SHIFT   
G L2W                                                       SYS / PHASE SHIFT   
G L2L  0.00000                                              SYS / PHASE SHIFT   
G L5Q  0.00000                                              SYS / PHASE SHIFT   
G L1L  0.00000                                              SYS / PHASE SHIFT   
E L1C  0.00000                                              SYS / PHASE SHIFT   
E L6C  0.00000                                              SYS / PHASE SHIFT   
E L5Q  0.00000                                              SYS / PHASE SHIFT   
E L7Q  0.00000                                              SYS / PHASE SHIFT   
E L8Q  0.00000                                              SYS / PHASE SHIFT   
S L1C                                                       SYS / PHASE SHIFT   
S L5I                                                       SYS / PHASE SHIFT   
R L1C                                                       SYS / PHASE SHIFT   
R L2P  0.00000                                              SYS / PHASE SHIFT   
R L2C                                                       SYS / PHASE SHIFT   
R L3Q  0.00000                                              SYS / PHASE SHIFT   
C L1P  0.00000                                              SYS / PHASE SHIFT   
C L5P  0.00000                                              SYS / PHASE SHIFT   
C L2I                                                       SYS / PHASE SHIFT   
C L7I                                                       SYS / PHASE SHIFT   
C L6I                                                       SYS / PHASE SHIFT   
C L7D                                                       SYS / PHASE SHIFT   
J L1C                                                       SYS / PHASE SHIFT   
J L2L  0.00000                                              SYS / PHASE SHIFT   
J L5Q  0.00000                                              SYS / PHASE SHIFT   
J L1L  0.00000                                              SYS / PHASE SHIFT   
I L5A                                                       SYS / PHASE SHIFT   
  2025     1     2    17    30    0.0000000     GPS         TIME OF FIRST OBS   
 C1C    0.000 C2C    0.000 C2P    0.000                     GLONASS COD/PHS/BIS 
DBHZ                                                        SIGNAL STRENGTH UNIT
    18                                                      LEAP SECONDS        
 24 R01  1 R02 -4 R03  5 R04  6 R05  1 R06 -4 R07  5 R08  6 GLONASS SLOT / FRQ #
    R09 -2 R10 -7 R11  0 R12 -1 R13 -2 R14 -7 R15  0 R16 -1 GLONASS SLOT / FRQ #
    R17  4 R18 -3 R19  3 R20  2 R21  4 R22 -3 R23  3 R24  2 GLONASS SLOT / FRQ #
                                                            END OF HEADER       
> 2025 01 02 17 30  0.0000000  0 41
G25         3.000    24147411.828 3                     -4641.219 3        23.295                                                                                                    24147379.032 3                     -3616.576 3        22.343
G05         4.000    22955960.773 4                     -2008.193 4        29.735
E25         6.000    25591167.642 4                     -3411.043 4        25.323                                                                    25591171.305 7 100425258.06607     -2547.299 7        42.197    25591170.387 6 103045074.88106     -2613.755 6        40.114
G31         7.000    22720896.842 7 119399736.38907     -3464.540 7        43.970                                    22720895.057 5  93038129.93105     -2699.640 5        35.419    22720894.609 6  93038304.91006     -2699.719 6        40.536
G28         8.000    23923510.612 4 125718948.24504     -4263.692 4        27.305                                                                                                    23923508.199 4  97962784.95604     -3321.961 4        26.455
G29         9.000    21685015.693 7 113955617.91607     -3103.141 7        47.357                                    21685010.585 6  88796593.71406     -2418.031 6        37.267    21685014.196 6  88796494.75306     -2418.160 6        37.543
E11        10.000    25238273.238 5                     -3092.845 5        33.862                                                                    25238269.845 5  99040406.81705     -2309.721 5        33.563    25238279.116 4 101624055.37304     -2369.225 4        26.575
E10        11.000                                                                                                                                    27821067.856 4                     -2809.013 4        27.186
G18        12.000    20463127.750 7 107534683.71607      -256.748 7        46.863                                    20463120.273 5  83793137.44805      -200.061 5        30.762    20463123.573 6  83793101.44006      -200.158 6        41.302
G27        13.000    24198994.909 5 127166805.90705      2484.952 5        30.377
G26        17.000    20462542.806 7 107531427.36607      -222.906 7        45.074                                                                                                    20462542.260 6  83790694.22806      -173.399 6        38.610
R02        18.000    23187318.576 5                       209.021 5        33.784                                                                    23187302.772 3                       163.400 3        21.190
E30        19.000    25577074.696 7 134408575.11407      1377.583 7        45.916                                                                    25577074.352 7 100370091.99007      1028.670 7        44.238    25577075.864 8 102988383.83608      1055.525 8        48.882
R20        20.000                                                                                                                                    22835112.994 5                      2143.082 5        32.689
E02        21.000    23090992.440 8 121344242.18808     -1149.091 8        51.181                                                                    23090991.910 8  90614114.19408      -858.093 8        51.994    23090990.764 8  92977968.65608      -880.458 8        50.431
S23        22.000    38063623.275 6 200025718.12706      -866.156 6        38.814
R10        23.000    21931999.306 6 116909894.95606      2729.186 6        41.881
E36        24.000    23304589.877 6 122466464.30706      -567.165 6        41.926                                                                    23304588.612 7  91452395.92107      -423.546 7        45.661    23304588.515 7  93838092.52607      -434.525 7        46.562
R18        25.000    20259094.384 7 108144392.95007     -3561.573 7        47.937                                                                    20259092.802 6  84112320.22706     -2770.108 6        40.605
G16        26.000    21766387.722 7 114383212.17307      1832.818 7        45.770                                    21766384.897 4  89129762.19704      1428.167 4        27.138
S21        27.000    38339176.342 5 201473908.51005      -863.434 5        34.976
R01        28.000                                                                                                                                    24042789.027 4                     -2281.821 4        24.195
R19        29.000    19236163.814 5 102900573.18205      -649.249 5        34.033                                                                    19236160.498 5  80034054.28005      -504.833 5        31.517
C05        30.000                                                                                                                                                                                                    39252716.284 5 158054453.51105      -613.103 5        32.892
S36        31.000    38110025.137 5 200269532.23105      -863.052 5        35.595
E34        32.000    25545308.238 5 134241488.85005      1812.352 5        32.790                                                                    25545305.895 6 100245316.06306      1353.320 6        36.053    25545308.607 6 102860414.90706      1388.684 6        40.768
R16        34.000    20696551.850 7 110557200.59907     -4425.044 7        47.808                                                                    20696544.477 3                     -3441.691 3        22.781
C44        35.000                                                                                                                                    22376730.036 7 116521443.33707     -2801.636 7        46.399                                                                    22376727.579 7  94683442.17707     -2276.656 7        43.198
R09        37.000    19338484.725 7 103266518.45107      -236.829 7        44.680                                                                    19338483.970 7  80318436.46807      -184.326 7        42.398
C11        38.000                                                                                                                                    22858386.601 7 119029643.80707      1178.969 7        43.482    22858385.794 7  92041381.07307       911.667 7        47.378    22858383.095 7  96721308.76607       957.933 7        43.107
C43        39.000                                                                                                                                    24711911.025 5 128681460.70405      1876.901 5        34.824                                                                    24711917.956 4                      1525.009 4        28.066
C12        41.000                                                                                                                                    21659623.751 8 112787440.36908     -1600.932 8        48.253    21659620.058 8  87214412.43508     -1237.895 8        49.862    21659619.778 7  91649025.29907     -1300.810 7        47.872
C19        42.000                                                                                                                                    26300318.116 4                     -1053.313 4        24.030
C13        43.000                                                                                                                                    37630466.835 7 195951717.41607      -462.067 7        43.761    37630466.629 6 151522316.30006      -357.177 6        39.123    37630464.814 6 159226820.43506      -375.350 6        39.189
C38        44.000                                                                                                                                                                                                                                                                    38558800.327 4                      -992.795 4        28.673
C25        45.000                                                                                                                                    22121626.240 8 115193174.26608     -1418.527 8        48.202                                                                    22121623.368 7  93604065.84407     -1152.704 7        44.307
C08        46.000                                                                                                                                    37623401.195 6 195914975.09906      -702.266 6        37.357    37623395.484 5 151493934.90305      -542.580 5        32.557    37623396.424 6 159196940.80606      -570.640 6        39.592
C23        47.000                                                                                                                                    24829040.331 7 129291653.39507      1488.773 7        44.476                                                                    24829031.425 6 105059926.34906      1209.769 6        39.372
C24        51.000                                                                                                                                    23800936.405 6 123937772.96006     -3995.546 6        37.180                                                                    23800941.779 6 100709579.15306     -3246.916 6        38.165
C34        52.000                                                                                                                                    21502960.759 8 111971628.02008        69.553 8        49.530                                                                    21502960.689 7  90986201.40307        56.502 7        45.895
I06        58.000    38624683.475 5 151571669.48405      -643.066 5        35.652
> 2025 01 02 17 30  5.0000000  0 40
G25         3.000    24151838.981 4                     -4641.958 4        25.203                                                                                                    24151789.335 3                     -3616.431 3        20.905
G05         4.000    22957872.396 5                     -2011.563 5        30.355
E25         6.000    25594415.064 4                     -3412.024 4        29.156                                                                    25594417.266 7 100437996.22707     -2548.034 7        42.447    25594416.291 6 103058145.33506     -2614.692 6        40.157
G31         7.000    22724194.358 7 119417063.71707     -3466.675 7        44.438                                    22724192.212 6  93051631.74006     -2701.304 6        36.340    22724191.449 6  93051806.70806     -2701.333 6        40.448
G28         8.000    23927569.485 4 125740264.79604     -4264.026 4        27.665                                                                                                    23927561.795 4  97979395.30404     -3322.408 4        25.789
G29         9.000    21687968.518 7 113971136.23007     -3104.459 7        47.139                                    21687964.580 6  88808685.90906     -2419.060 6        37.970    21687966.744 6  88808586.94306     -2419.052 6        38.348
E11        10.000    25241213.316 5 132643486.77015     -3094.107 5        34.038                                                                    25241213.538 5  99051956.55805     -2310.552 5        34.095    25241222.888 4 101635906.46504     -2370.681 4        27.940
E10        11.000    27824669.174 3                     -3762.541 3        21.310                                                                    27824647.605 4                     -2809.419 4        26.383
G18        12.000    20463373.130 7 107535973.96807      -259.625 7        47.182                                    20463366.230 5  83794142.84505      -202.303 5        31.026    20463369.364 6  83794106.82206      -202.252 6        41.831
G27        13.000    24196625.738 4 127154382.22204      2484.182 4        29.640                                                                                                    24196606.941 4                      1934.347 4        24.256
G26        17.000    20462755.595 7 107532548.18207      -225.754 7        43.293                                    20462861.348 2  83791997.58512      -175.878 2        16.755    20462755.475 6  83791567.60206      -176.060 6        38.799
R02        18.000    23187121.291 6 123730938.80616       204.961 6        36.155                                                                    23187112.974 4                       159.376 4        24.767
E30        19.000    25575763.881 7 134401688.94707      1376.611 7        46.068                                                                    25575763.921 7 100364949.73307      1028.002 7        44.400    25575765.597 8 102983107.43508      1054.763 8        49.066
R20        20.000                                                                                                                                    22832544.597 5                      2141.957 5        33.509
E02        21.000    23092086.384 8 121349991.59608     -1150.977 8        50.789                                                                    23092085.952 8  90618407.59308      -859.506 8        51.968    23092084.769 8  92982374.05408      -881.906 8        50.239
S23        22.000    38064448.719 6 200030048.25806      -866.095 6        39.177
R10        23.000    21929441.395 7 116896254.47007      2726.953 7        42.006
E36        24.000    23305130.541 7 122469304.57007      -569.232 7        42.290                                                                    23305129.186 7  91454516.89807      -425.140 7        45.564    23305128.913 7  93840268.83607      -436.174 7        46.478
R18        25.000    20262430.966 7 108162204.48107     -3563.365 7        47.516                                                                    20262429.780 6  84126173.64906     -2771.515 6        41.740
G16        26.000    21764645.273 7 114374052.45407      1830.861 7        45.539                                    21764641.631 4  89122624.77104      1426.637 4        27.916
S21        27.000    38339992.610 5 201478225.44205      -863.430 5        35.019
R01        28.000    24045526.064 3                     -2937.713 3        23.714                                                                    24045531.826 4                     -2284.254 4        24.241
R19        29.000    19236773.708 5 102903825.81505      -652.295 5        34.057                                                                    19236769.160 5  80036584.18705      -507.562 5        30.657
C05        30.000                                                                                                                                                                                                    39253477.604 5 158057517.06905      -612.679 5        32.958
S36        31.000    38110847.706 5 200273846.45805      -862.866 5        35.562
E34        32.000    25543584.645 5 134232429.08105      1811.110 5        34.224                                                                    25543581.361 5 100238550.65405      1352.718 5        35.305    25543584.705 6 102853473.01206      1387.987 6        40.107
R16        34.000    20700693.517 7 110579331.90217     -4427.769 7        46.373
C44        35.000                                                                                                                                    22379420.693 7 116535453.48007     -2802.664 7        45.571                                                                    22379418.336 7  94694826.55307     -2277.439 7        43.672
R09        37.000    19338708.526 7 103267713.48807      -241.279 7        44.510                                                                    19338707.888 7  80319365.95007      -187.683 7        43.685
C11        38.000                                                                                                                                    22857255.301 7 119023751.83607      1177.562 7        43.901    22857253.943 7  92036825.04407       910.536 7        47.077    22857251.612 7  96716521.07107       956.842 7        42.984
C43        39.000                                                                                                                                    24710107.024 5 128672078.35105      1876.291 5        33.689                                                                    24710115.677 4                      1524.385 4        28.332
C12        41.000                                                                                                                                    21661161.599 8 112795448.27308     -1602.578 8        48.209    21661158.071 8  87220604.65508     -1239.192 8        50.259    21661157.300 7  91655532.37007     -1302.212 7        47.860
C13        43.000                                                                                                                                    37630910.834 7 195954029.48907      -462.977 7        44.009    37630910.950 6 151524104.16506      -358.125 6        39.357    37630908.854 6 159228699.21406      -376.293 6        39.378
C38        44.000                                                                                                                                                                                                                                                                    38559971.284 4                      -992.810 4        27.964
C25        45.000                                                                                                                                    22122989.625 7 115200273.50107     -1421.299 7        47.841                                                                    22122986.737 7  93609834.54807     -1154.972 7        44.361
C08        46.000                                                                                                                                    37624075.728 6 195918488.29006      -703.203 6        36.805    37624069.627 5 151496651.54605      -543.617 5        32.545    37624071.266 6 159199795.56406      -571.564 6        40.048
C23        47.000                                                                                                                                    24827611.382 7 129284213.54307      1486.905 7        44.116                                                                    24827602.916 6 105053880.86706      1208.279 6        39.279
C24        51.000                                                                                                                                    23804775.764 6 123957753.83406     -3996.883 6        36.129                                                                    23804778.422 6 100725815.22806     -3247.922 6        38.315
C34        52.000                                                                                                                                    21502894.792 8 111971283.80108        67.890 8        49.350                                                                    21502894.498 7  90985921.70607        55.039 7        45.943
I06        58.000    38625502.035 6 151574883.61106      -642.949 6        36.000
> 2025 01 02 17 30 10.0000000  0 41
G25         3.000    24156259.045 4                     -4642.134 4        25.203                                                                                                    24156197.680 3                     -3618.288 3        21.548
G05         4.000    22959790.605 4                     -2015.111 4        26.970                                                                                                    22959741.103 5                     -1570.130 5        30.008
E25         6.000    25597660.424 5                     -3413.272 5        31.260                                                                    25597664.277 7 100450738.38007     -2548.776 7        42.432    25597663.031 6 103071219.88006     -2615.405 6        39.682
G31         7.000    22727494.045 7 119434401.37507     -3468.552 7        44.733                                    22727491.250 6  93065141.59606     -2702.757 6        37.028    22727490.456 6  93065316.56406     -2702.771 6        40.117
G28         8.000    23931627.804 4 125761585.03404     -4264.469 4        28.976                                                                                                    23931617.391 4  97996008.54804     -3323.650 4        25.729
G29         9.000    21690922.992 7 113986660.99207     -3105.611 7        46.861                                    21690919.817 6  88820783.13006     -2419.952 6        38.201    21690920.614 6  88820684.15506     -2419.894 6        38.643
E11        10.000    25244157.837 5 132658959.35805     -3095.067 5        33.695                                                                    25244158.040 5  99063510.77105     -2311.199 5        35.052    25244166.890 4 101647762.11904     -2371.190 4        28.597
E10        11.000    27828245.381 3                     -3761.109 3        20.238                                                                    27828227.353 4                     -2809.144 4        26.204
G18        12.000    20463621.257 7 107537278.84407      -262.417 7        47.662                                    20463615.071 5  83795159.63205      -204.480 5        31.623    20463617.903 7  83795123.61207      -204.455 7        42.118
G27        13.000    24194261.583 4 127141960.83204      2483.103 4        27.090                                                                                                    24194239.673 3                      1936.105 3        22.190
G26        17.000    20462971.751 7 107533683.92107      -228.651 7        43.154                                    20463077.202 2  83792882.44402      -178.116 2        14.000    20462970.766 6  83792452.60606      -177.983 6        37.652
R02        18.000    23186930.569 5 123729923.44505       201.133 5        35.652                                                                    23186917.368 4                       156.348 4        26.599
E30        19.000    25574454.268 7 134394807.62107      1375.686 7        45.862                                                                    25574454.517 7 100359811.09607      1027.259 7        44.963    25574456.151 8 102977834.73808      1054.179 8        49.126
R20        20.000                                                                                                                                    22829968.969 5                      2140.930 5        33.719
E02        21.000    23093182.379 8 121355750.56908     -1152.766 8        50.378                                                                    23093181.822 8  90622708.13508      -860.827 8        52.061    23093180.688 8  92986786.77808      -883.330 8        50.021
S23        22.000    38065273.081 6 200034378.29706      -866.031 6        39.063
R10        23.000    21926885.767 6 116882624.65006      2724.904 6        40.246
E36        24.000    23305672.777 7 122472155.52307      -571.343 7        42.282                                                                    23305671.796 7  91456645.87007      -426.604 7        45.571    23305671.308 7  93842453.34507      -437.650 7        46.221
R18        25.000    20265768.927 8 108180024.88008     -3565.009 8        48.158                                                                    20265769.070 7  84140033.96607     -2772.794 7        42.263
G16        26.000    21762904.825 7 114364902.29007      1829.136 7        46.485                                    21762900.274 4  89115494.78204      1425.298 4        28.739
S21        27.000    38340814.829 5 201482542.24805      -863.219 5        34.752
R01        28.000    24048285.449 4                     -2940.814 4        28.976                                                                    24048286.167 3                     -2286.473 3        22.381
R19        29.000    19237385.751 5 102907094.41505      -655.347 5        33.192                                                                    19237382.463 5  80039126.40205      -509.413 5        30.234
C05        30.000                                                                                                                                                                                                    39254238.826 5 158060580.63405      -612.822 5        32.737
S36        31.000    38111669.281 5 200278160.62205      -862.867 5        35.462
E34        32.000    25541862.133 5 134223375.24805      1809.984 5        35.710                                                                    25541858.482 5 100231789.65505      1351.863 5        35.248    25541861.833 6 102846535.63906      1387.051 6        39.141
R16        34.000    20704836.317 7 110601476.76207     -4430.390 7        44.560                                                                    20704845.790 5                     -3446.097 5        34.252
C44        35.000                                                                                                                                    22382112.338 7 116549469.32407     -2803.778 7        45.484                                                                    22382110.211 7  94706215.54607     -2278.370 7        43.898
R09        37.000    19338937.186 7 103268930.39007      -245.582 7        44.918                                                                    19338935.427 7  80320312.43307      -190.995 7        44.299
C11        38.000                                                                                                                                    22856127.009 7 119017866.76907      1176.298 7        44.441    22856123.727 7  92032274.34707       909.612 7        46.995    22856121.617 7  96711738.97907       955.789 7        42.736
C43        39.000                                                                                                                                    24708303.470 5 128662699.92605      1875.398 5        31.389                                                                    24708311.154 4                      1523.633 4        28.009
C12        41.000                                                                                                                                    21662701.206 8 112803464.52908     -1604.090 8        48.266    21662697.621 8  87226803.33708     -1240.361 8        50.213    21662696.608 7  91662046.22407     -1303.554 7        47.662
C19        42.000                                                                                                                                    26302324.542 4                     -1057.883 4        26.084
C13        43.000                                                                                                                                    37631356.978 7 195956346.73407      -463.971 7        43.708    37631355.889 6 151525895.99806      -358.788 6        39.736    37631354.052 6 159230582.13506      -377.044 6        39.462
C38        44.000                                                                                                                                    38561116.724 4                     -1223.344 4        27.713                                                                    38561145.027 4                      -994.135 4        28.095
C25        45.000                                                                                                                                    22124354.948 7 115207386.78507     -1424.055 7        46.992                                                                    22124352.656 7  93615614.65407     -1157.272 7        44.146
C08        46.000                                                                                                                                    37624751.695 6 195922006.92406      -704.203 6        36.854    37624747.244 5 151499372.38605      -544.371 5        32.168    37624747.112 6 159202654.73406      -572.397 6        39.898
C23        47.000                                                                                                                                    24826184.240 7 129276783.05107      1485.215 7        43.689                                                                    24826176.370 6 105047842.98606      1206.788 6        39.441
C24        51.000                                                                                                                                    23808617.067 5 123977740.34805     -3997.796 5        35.695                                                                    23808616.582 6 100742055.91006     -3248.709 6        37.970
C34        52.000                                                                                                                                    21502830.704 8 111970948.24308        66.292 8        49.175                                                                    21502830.023 7  90985649.03007        53.714 7        45.913
I06        58.000    38626321.108 5 151578097.60605      -642.888 5        35.843
> 2025 01 02 17 30 15.0000000  0 41
G25         3.000    24160673.851 3                     -4642.206 3        22.267                                                                                                    24160619.985 3                     -3618.390 3        20.214
G05         4.000    22961714.190 3                     -2019.272 3        23.181
E25         6.000    25600907.636 5                     -3414.404 5        32.114                                                                    25600912.272 7 100463484.54007     -2549.714 7        42.690    25600910.999 6 103084298.54206     -2616.502 6        39.099
G31         7.000    22730794.981 7 119451749.36107     -3470.815 7        45.866                                    22730792.215 6  93078659.50006     -2704.526 6        37.327    22730792.373 6  93078834.48406     -2704.527 6        39.652
G28         8.000    23935685.149 5 125782908.84105     -4265.682 5        30.015                                                                                                    23935679.091 4  98012624.36904     -3323.103 4        25.158
G29         9.000    21693878.196 7 114002192.21507     -3107.061 7        46.044                                    21693876.212 6  88832885.39406     -2421.087 6        37.732    21693876.621 6  88832786.43306     -2421.000 6        39.513
E11        10.000    25247103.455 5 132674437.97105     -3096.511 5        33.910                                                                    25247103.270 5  99075069.48705     -2312.185 5        35.743    25247112.514 4 101659622.38304     -2372.366 4        28.597
E10        11.000    27831823.417 3                     -3763.586 3        19.433                                                                    27831805.729 4                     -2809.614 4        26.778
G18        12.000    20463872.083 7 107538598.36507      -265.462 7        47.397                                    20463866.658 5  83796187.82605      -206.853 5        31.736    20463868.689 7  83796151.83107      -206.964 7        42.527
G27        13.000    24191896.227 4 127129541.63604      2482.901 4        26.731                                                                                                    24191879.626 3                      1934.813 3        22.267
G26        17.000    20463191.091 7 107534834.60507      -231.770 7        44.680                                    20463294.796 2  83793778.76502      -180.572 2        13.758    20463190.114 6  83793349.25506      -180.708 6        37.233
R02        18.000    23186741.658 5 123728928.13215       196.956 5        34.400                                                                    23186737.309 4                       153.181 4        28.844
E30        19.000    25573145.974 7 134387931.17107      1374.635 7        45.567                                                                    25573145.998 7 100354676.09907      1026.574 7        45.151    25573147.496 8 102972565.78708      1053.311 8        49.203
R20        20.000                                                                                                                                    22827390.391 5  94942039.65815      2140.013 5        33.808
E02        21.000    23094279.912 8 121361519.12908     -1154.830 8        49.819                                                                    23094279.516 8  90627015.82608      -862.382 8        52.045    23094278.376 8  92991206.83908      -884.831 8        49.825
S23        22.000    38066094.826 6 200038708.48606      -866.259 6        38.589
R10        23.000    21924330.203 6 116869005.71106      2722.526 6        38.772
E36        24.000    23306216.824 7 122475017.22407      -573.577 7        42.387                                                                    23306216.509 7  91458782.84507      -428.302 7        45.553    23306215.894 7  93844646.07407      -439.445 7        46.207
R18        25.000    20269109.651 8 108197854.12108     -3566.867 8        48.470                                                                    20269109.804 7  84153901.15207     -2774.246 7        42.421
G16        26.000    21761165.905 7 114355761.74107      1827.018 7        46.887                                    21761160.593 4  89108372.28104      1423.649 4        28.787
S21        27.000    38341633.270 5 201486859.05705      -863.521 5        34.714
R01        28.000    24051041.614 4                     -2944.146 4        27.210                                                                    24051031.627 3                     -2289.649 3        22.419
R19        29.000    19238000.165 5 102910378.85705      -658.680 5        33.832                                                                    19237999.957 4  80041681.00304      -512.426 4        28.948
C05        30.000                                                                                                                                                                                                    39254999.888 5 158063644.27905      -612.936 5        32.551
S36        31.000    38112490.709 5 200282474.39505      -862.812 5        35.029
E34        32.000    25540141.067 6 134214327.30306      1808.881 6        36.919                                                                    25540137.310 5 100225033.10405      1350.797 5        35.167    25540140.071 6 102839602.78806      1386.003 6        38.114
R16        34.000    20708983.098 7 110623635.37207     -4433.292 7        42.104                                                                    20708991.315 6  86040680.21316     -3447.994 6        36.533
C44        35.000                                                                                                                                    22384805.373 7 116563490.90607     -2805.128 7        45.887                                                                    22384803.080 7  94717609.20707     -2279.297 7        44.181
R09        37.000    19339169.872 7 103270169.20007      -250.131 7        45.488                                                                    19339167.150 7  80321275.93507      -194.410 7        44.269
C11        38.000                                                                                                                                    22854999.879 7 119011988.68907      1174.810 7        44.877    22854995.334 7  92027729.05907       908.397 7        47.126    22854992.822 7  96706962.56307       954.641 7        42.487
C43        39.000                                                                                                                                    24706503.814 4 128653325.46704      1874.596 4        28.445                                                                    24706508.236 4                      1523.469 4        25.353
C12        41.000                                                                                                                                    21664242.300 8 112811489.20808     -1605.868 8        48.130    21664238.441 8  87233008.53008     -1241.792 8        50.051    21664237.746 7  91668566.91307     -1304.855 7        47.492
C19        42.000                                                                                                                                    26303347.717 4                     -1060.662 4        26.419
C13        43.000                                                                                                                                    37631802.685 7 195958669.09707      -465.112 7        43.818    37631802.393 6 151527691.80206      -359.536 6        40.093    37631800.152 6 159232469.24106      -377.922 6        39.646
C38        44.000                                                                                                                                    38562291.943 4                     -1224.255 4        29.024                                                                    38562320.715 4                      -994.920 4        27.245
C25        45.000                                                                                                                                    22125722.844 7 115214514.12607     -1427.059 7        46.271                                                                    22125721.450 7  93621406.18107     -1159.539 7        44.015
C08        46.000                                                                                                                                    37625429.314 6 195925531.17006      -705.763 6        36.900    37625422.973 5 151502097.51205      -545.391 5        31.796    37625423.889 6 159205518.44506      -573.163 6        40.055
C23        47.000                                                                                                                                    24824759.265 7 129269361.94307      1483.085 7        43.790                                                                    24824751.774 6 105041812.73606      1205.087 6        39.751
C24        51.000                                                                                                                                    23812458.498 6 123997732.58506     -3999.301 6        36.877                                                                    23812455.436 6 100758301.23006     -3249.458 6        37.066
C34        52.000                                                                                                                                    21502768.362 8 111970621.40708        64.350 8        49.114                                                                    21502767.371 7  90985383.42507        52.377 7        45.752
I06        58.000    38627140.317 5 151581311.44305      -642.881 5        35.876
> 2025 01 02 17 30 20.0000000  0 39
E25         6.000    25604156.520 5                     -3415.431 5        32.683                                                                    25604161.296 7 100476234.57707     -2550.288 7        42.464    25604160.210 6 103097381.17606     -2616.876 6        39.204
G31         7.000    22734099.195 7 119469107.51007     -3472.634 7        46.800                                    22734095.027 6  93092185.32006     -2705.948 6        37.868    22734094.892 6  93092360.30906     -2705.865 6        38.796
G28         8.000    23939743.237 5 125804236.01905     -4265.194 5        30.913                                                                                                    23939736.234 4  98029243.03104     -3324.205 4        26.144
G29         9.000    21696834.821 7 114017729.85807     -3108.042 7        45.187                                    21696833.703 6  88844992.66506     -2421.858 6        37.444    21696833.959 6  88844893.70906     -2421.895 6        39.811
E11        10.000    25250050.281 5 132689922.40805     -3097.230 5        33.922                                                                    25250049.778 5  99086632.54205     -2312.803 5        35.700    25250058.856 4 101671487.09104     -2372.911 4        29.261
E10        11.000                                                                                                                                    27835384.221 4                     -2810.473 4        26.467
G18        12.000    20464126.181 7 107539932.35907      -268.210 7        46.996                                    20464121.040 5  83797227.30505      -208.991 5        31.985    20464122.839 7  83797191.29307      -208.920 7        43.048
G27        13.000    24189534.441 4 127117124.58904      2483.037 4        27.737                                                                                                    24189515.725 4                      1934.802 4        24.241
G26        17.000    20463413.786 7 107536000.06507      -234.483 7        45.604                                    20463516.503 2  83794686.78902      -182.705 2        14.810    20463412.747 6  83794257.37506      -182.732 6        38.114
R02        18.000    23186564.526 5 123727952.55215       193.237 5        35.700                                                                    23186558.001 5                       150.141 5        30.226
E30        19.000    25571838.484 7 134381059.44907      1373.840 7        45.308                                                                    25571838.504 7 100349544.63007      1025.890 7        45.710    25571839.735 8 102967300.45208      1052.676 8        49.384
R20        20.000                                                                                                                                    22824816.437 5  94931342.90005      2139.034 5        33.401
E02        21.000    23095379.184 8 121367297.09808     -1156.498 8        49.238                                                                    23095379.006 8  90631330.55208      -863.641 8        51.922    23095377.982 8  92995634.12208      -886.195 8        49.728
S23        22.000    38066918.521 6 200043038.79406      -866.089 6        39.057
R10        23.000    21921775.929 6 116855397.51406      2720.795 6        37.157
E36        24.000    23306763.206 7 122477889.46607      -575.469 7        43.183                                                                    23306763.263 7  91460927.69807      -429.758 7        45.422    23306762.445 7  93846846.89007      -440.956 7        45.997
R18        25.000    20272451.011 8 108215692.07708     -3568.461 8        48.926                                                                    20272451.338 6  84167775.11806     -2775.301 6        41.998
G16        26.000    21759428.553 7 114346630.66307      1825.254 7        46.470                                    21759422.635 4  89101257.15904      1422.274 4        28.986
S21        27.000    38342456.420 5 201491175.67205      -863.032 5        35.005
R01        28.000    24053804.196 4                     -2947.689 4        26.000                                                                    24053782.757 3                     -2296.470 3        19.672
R19        29.000    19238614.115 5 102913678.98205      -661.564 5        33.844                                                                    19238616.237 5  80044247.72505      -514.464 5        30.317
C05        30.000                                                                                                                                                                                                    39255760.788 5 158066707.77105      -612.765 5        32.778
S36        31.000    38113302.819 5 200286787.94005      -862.705 5        35.081
E34        32.000    25538421.397 6 134205285.13006      1807.878 6        38.240                                                                    25538417.523 5 100218280.83405      1350.053 5        35.833    25538419.107 6 102832674.37206      1385.223 6        37.089
R16        34.000    20713133.900 6 110645807.39806     -4435.756 6        41.955                                                                    20713138.616 6  86057925.08206     -3449.911 6        38.574
C44        35.000                                                                                                                                    22387499.718 7 116577518.03307     -2805.968 7        46.188                                                                    22387496.982 7  94729007.40607     -2280.156 7        44.366
R09        37.000    19339405.857 7 103271429.59507      -254.162 7        45.761                                                                    19339403.402 7  80322256.26707      -197.704 7        44.960
C11        38.000                                                                                                                                    22853872.604 7 119006117.42607      1173.604 7        44.989    22853868.132 7  92023189.03507       907.472 7        47.539    22853865.345 7  96702191.69607       953.595 7        42.178
C43        39.000                                                                                                                                    24704709.818 5 128643954.80805      1873.745 5        30.151                                                                    24704705.063 3                      1522.858 3        22.705
C12        41.000                                                                                                                                    21665784.966 8 112819522.07508     -1607.341 8        48.327    21665781.071 8  87239220.05708     -1242.884 8        50.181    21665780.391 7  91675094.28607     -1306.163 7        47.347
C19        42.000                                                                                                                                    26304373.744 4                     -1063.659 4        25.594
C13        43.000                                                                                                                                    37632249.636 7 195960996.44507      -465.934 7        43.856    37632248.982 6 151529491.45206      -360.305 6        40.052    37632246.879 6 159234360.41206      -378.712 6        39.111
C38        44.000                                                                                                                                    38563469.227 5                     -1225.120 5        30.302                                                                    38563494.807 4                      -995.565 4        25.534
C25        45.000                                                                                                                                    22127093.953 7 115221655.37007     -1429.546 7        46.049                                                                    22127092.725 7  93627209.04307     -1161.778 7        43.513
C08        46.000                                                                                                                                    37626106.132 6 195929060.74706      -706.548 6        36.843    37626100.862 5 151504826.82005      -546.120 5        31.192    37626101.507 6 159208386.53506      -574.163 6        39.988
C23        47.000                                                                                                                                    24823335.738 7 129261950.07507      1481.519 7        44.301                                                                    24823328.699 6 105035790.01206      1203.640 6        40.179
C24        51.000                                                                                                                                    23816300.320 6 124017730.35606     -4000.051 6        37.342                                                                    23816294.954 6 100774551.06906     -3250.547 6        36.514
C34        52.000                                                                                                                                    21502707.432 8 111970303.08708        62.829 8        49.277                                                                    21502706.282 7  90985124.77807        50.941 7        45.756
I06        58.000    38627959.015 6 151584525.03306      -642.622 6        36.095
> 2025 01 02 17 30 25.0000000  0 40
G05         4.000    22965564.937 3                     -2027.761 3        18.179                                                                                                    22965543.226 5  94040077.84715     -1577.793 5        34.305
E25         6.000    25607407.430 5                     -3416.253 5        33.503                                                                    25607410.985 6 100488988.66106     -2551.189 6        41.881    25607410.269 6 103110467.98006     -2617.678 6        39.102
G31         7.000    22737404.632 7 119486476.04907     -3474.607 7        46.956                                    22737399.771 6  93105719.24306     -2707.485 6        37.830    22737399.730 6  93105894.23306     -2707.593 6        38.441
G28         8.000    23943801.768 5 125825566.82105     -4266.491 5        32.665                                                                                                    23943797.818 4  98045864.34704     -3324.416 4        26.970
G29         9.000    21699792.843 7 114033273.99507     -3109.317 7        44.202                                    21699792.205 6  88857105.00506     -2422.849 6        36.711    21699790.733 6  88857006.03206     -2422.742 6        39.267
E11        10.000    25252998.198 5 132705412.90805     -3098.570 5        32.820                                                                    25252996.742 5  99098200.12405     -2313.843 5        35.514    25253006.914 4 101683356.42404     -2373.978 4        28.834
E10        11.000    27838987.891 3                     -3762.906 3        19.433                                                                    27838963.746 4                     -2810.151 4        27.114
G18        12.000    20464382.766 7 107541281.05307      -271.067 7        46.935                                    20464378.265 5  83798278.24705      -211.225 5        32.317    20464379.450 7  83798242.23107      -211.234 7        43.537
G27        13.000    24187171.063 4 127104709.74904      2483.157 4        29.640                                                                                                    24187159.574 4                      1934.792 4        27.760
G26        17.000    20463638.091 7 107537180.53807      -237.430 7        46.447                                    20463740.643 1  83795606.49601      -185.061 1        11.111    20463636.996 6  83795177.25306      -185.024 6        38.913
R02        18.000    23186391.802 5 123726997.00405       189.124 5        34.095                                                                    23186380.523 5                       147.190 5        30.468
E30        19.000    25570532.046 7 134374192.66807      1372.912 7        44.698                                                                    25570531.984 7 100344416.84507      1025.278 7        46.104    25570532.840 8 102962038.89908      1052.001 8        49.585
R20        20.000                                                                                                                                    22822247.131 5  94920651.49805      2137.792 5        33.084
E02        21.000    23096480.530 8 121373084.72208     -1158.379 8        48.826                                                                    23096480.266 8  90635652.48208      -865.022 8        51.888    23096479.365 8  93000068.78708      -887.567 8        49.654
S23        22.000    38067744.962 6 200047369.20606      -865.948 6        38.763
R10        23.000    21919218.910 5 116841800.25205      2718.444 5        35.105
E36        24.000    23307311.571 7 122480772.49507      -577.741 7        42.995                                                                    23307311.881 7  91463080.60607      -431.304 7        45.193    23307311.005 7  93849055.97007      -442.589 7        45.705
R18        25.000    20275794.404 8 108233538.92508     -3570.135 8        49.508                                                                    20275794.896 6  84181656.00306     -2776.830 6        41.082
G16        26.000    21757692.641 7 114337509.27107      1823.446 7        46.056                                    21757686.635 4  89094149.59404      1420.863 4        28.739
S21        27.000    38343276.055 5 201495492.75405      -863.150 5        34.376
R01        28.000    24056554.445 4                     -2951.366 4        24.556                                                                    24056533.708 3                     -2295.196 3        21.595
R19        29.000    19239235.152 5 102916994.99805      -664.528 5        35.743                                                                    19239235.439 5  80046826.88705      -517.358 5        30.589
C05        30.000                                                                                                                                                                                                    39256520.829 5 158069771.35905      -612.798 5        32.904
S36        31.000    38114132.314 5 200291101.29905      -862.793 5        35.181
E34        32.000    25536702.120 6 134196248.92406      1806.835 6        38.781                                                                    25536698.839 6 100211533.06006      1349.275 6        36.749    25536699.059 6 102825750.54506      1384.383 6        36.125
R16        34.000    20717287.601 7 110667993.06107     -4438.363 7        42.313                                                                    20717290.806 6  86075180.57606     -3452.009 6        39.985
C44        35.000                                                                                                                                    22390194.642 7 116591550.94607     -2807.077 7        46.170                                                                    22390191.944 7  94740410.27607     -2280.815 7        44.951
R09        37.000    19339645.741 7 103272711.97507      -258.591 7        45.043                                                                    19339643.990 7  80323253.67807      -201.065 7        45.657
C11        38.000                                                                                                                                    22852745.910 7 119000253.17607      1172.266 7        44.662    22852742.305 7  92018654.43107       906.463 7        47.684    22852739.292 7  96697426.52307       952.605 7        42.070
C43        39.000                                                                                                                                    24702913.925 5 128634588.15905      1873.058 5        30.543                                                                    24702903.724 3                      1523.220 3        20.857
C12        41.000                                                                                                                                    21667329.901 8 112827563.37208     -1608.989 8        48.675    21667325.630 8  87245438.10108     -1244.152 8        50.361    21667324.696 7  91681628.47707     -1307.347 7        47.293
C19        42.000                                                                                                                                    26305389.934 3                     -1065.185 3        23.448
C13        43.000                                                                                                                                    37632697.111 7 195963329.01307      -466.988 7        44.044    37632697.082 6 151531295.13706      -360.923 6        40.019    37632694.845 6 159236255.79106      -379.226 6        39.541
C38        44.000                                                                                                                                    38564646.436 5                     -1225.976 5        31.434                                                                    38564669.591 4                      -996.506 4        26.623
C25        45.000                                                                                                                                    22128467.592 7 115228810.76607     -1432.331 7        45.374                                                                    22128467.048 7  93633023.36707     -1163.688 7        43.412
C08        46.000                                                                                                                                    37626785.347 6 195932595.93406      -707.367 6        36.873    37626779.749 5 151507560.44705      -547.033 5        30.898    37626780.392 6 159211259.18106      -574.803 6        40.143
C23        47.000                                                                                                                                    24821914.075 7 129254547.66407      1479.654 7        45.005                                                                    24821907.458 6 105029774.93206      1202.500 6        40.839
C24        51.000                                                                                                                                    23820141.603 6 124037733.87706     -4001.115 6        38.553                                                                    23820135.686 6 100790805.56306     -3251.072 6        36.242
C34        52.000                                                                                                                                    21502648.111 8 111969993.51008        61.175 8        49.340                                                                    21502646.886 7  90984873.21407        49.826 7        45.932
I06        58.000    38628777.272 5 151587738.50605      -642.423 5        35.686
> 2025 01 02 17 30 30.0000000  0 38
G05         4.000                                                                                                                                                                    22967469.376 5  94047974.46705     -1580.414 5        35.390
E25         6.000    25610658.760 5 134584920.39815     -3417.096 5        33.784                                                                    25610661.801 6 100501746.49706     -2551.994 6        41.359    25610661.679 6 103123558.63006     -2618.608 6        39.282
G31         7.000    22740711.150 7 119503854.56007     -3476.685 7        46.296                                    22740706.527 6  93119260.94106     -2709.101 6        37.577    22740706.632 6  93119435.92806     -2709.012 6        37.955
G28         8.000    23947862.381 5 125846900.85505     -4267.152 5        33.970                                                                                                    23947858.636 4  98062488.21204     -3325.024 4        27.868
G29         9.000    21702751.915 7 114048824.25407     -3110.608 7        42.902                                    21702751.654 6  88869222.11506     -2423.858 6        36.348    21702749.357 6  88869123.12906     -2423.791 6        39.045
E11        10.000    25255946.967 5 132720909.08405     -3099.688 5        32.425                                                                    25255944.970 5  99109771.92105     -2314.670 5        35.476    25255956.737 4 101695230.14604     -2374.742 4        29.052
E10        11.000                                                                                                                                    27842543.535 4                     -2810.449 4        27.557
G18        12.000    20464641.868 7 107542644.05907      -273.982 7        46.836                                    20464638.263 5  83799340.32805      -213.496 5        32.844    20464638.754 7  83799304.32107      -213.526 7        44.190
G26        17.000    20463865.311 7 107538375.63207      -240.410 7        46.693                                    20463969.125 1  83796537.49601      -187.325 1         6.500    20463864.284 6  83796108.51606      -187.320 6        39.544
R02        18.000    23186215.272 5 123726061.18215       185.359 5        32.006                                                                    23186208.656 5                       143.876 5        31.238
E30        19.000    25569225.909 7 134367330.46607      1371.994 7        44.278                                                                    25569226.415 7 100339292.47807      1024.548 7        46.797    25569226.808 8 102956780.84308      1051.287 8        49.229
R20        20.000                                                                                                                                    22819677.021 5  94909965.16305      2136.939 5        31.600
E02        21.000    23097583.790 8 121378881.59708     -1160.218 8        48.651                                                                    23097583.353 8  90639981.32108      -866.430 8        51.845    23097582.426 8  93004510.55308      -889.033 8        49.363
S23        22.000    38068567.651 6 200051699.33606      -865.965 6        38.643
R10        23.000    21916667.387 5 116828213.50205      2715.781 5        30.521
E36        24.000    23307861.935 7 122483665.88607      -579.639 7        43.001                                                                    23307862.580 7  91465241.26707      -432.869 7        45.387    23307861.666 7  93851272.99707      -444.243 7        45.138
R18        25.000    20279139.361 8 108251394.27708     -3571.902 8        49.789                                                                    20279139.630 6  84195543.46606     -2778.041 6        40.589
G16        26.000    21755959.248 7 114328397.19007      1821.453 7        46.088                                    21755952.405 4  89087049.28404      1419.323 4        28.882
S21        27.000    38344099.182 5 201499809.69205      -863.447 5        34.900
R01        28.000    24059312.774 3                     -2954.331 3        21.810
R19        29.000    19239859.445 6 102920326.57206      -667.731 6        36.416                                                                    19239860.265 4  80049418.04704      -519.452 4        29.175
C05        30.000                                                                                                                                                                                                    39257281.783 5 158072834.71605      -612.614 5        32.527
S36        31.000    38114953.456 5 200295414.33005      -862.578 5        34.852
E34        32.000    25534984.436 6 134187218.35106      1805.568 6        38.961                                                                    25534980.942 6 100204789.48106      1348.166 6        37.395    25534980.099 5 102818831.02205      1383.271 5        35.571
R16        34.000    20721443.320 7 110690192.12407     -4441.055 7        42.036                                                                    20721445.980 6  86092446.47006     -3454.180 6        41.287
C44        35.000                                                                                                                                    22392890.765 7 116605589.24707     -2808.160 7        46.313                                                                    22392888.047 7  94751817.55207     -2281.933 7        45.430
R09        37.000    19339889.088 7 103274015.80907      -262.829 7        45.231                                                                    19339888.207 7  80324267.79107      -204.390 7        46.475
C11        38.000                                                                                                                                    22851620.386 7 118994395.58507      1170.836 7        43.429    22851617.197 7  92014124.97707       905.387 7        47.830    22851614.316 6  96692666.75006       951.416 6        41.778
C43        39.000                                                                                                                                    24701112.288 5 128625225.12605      1872.382 5        30.800                                                                    24701106.824 3                      1519.290 3        20.476
C12        41.000                                                                                                                                    21668876.600 8 112835612.73208     -1610.663 8        48.658    21668871.943 8  87251662.37608     -1245.473 8        51.104    21668870.580 7  91688169.24407     -1308.771 7        47.378
C13        43.000                                                                                                                                    37633145.367 7 195965666.36107      -467.901 7        43.989    37633146.064 6 151533102.54506      -361.870 6        40.296    37633143.728 6 159238155.07506      -380.174 6        39.592
C38        44.000                                                                                                                                    38565824.829 5                     -1227.040 5        32.281                                                                    38565845.212 4                      -997.009 4        25.940
C25        45.000                                                                                                                                    22129844.088 7 115235979.87807     -1435.240 7        45.335                                                                    22129844.011 7  93638848.85907     -1166.194 7        43.437
C08        46.000                                                                                                                                    37627465.133 6 195936136.30506      -708.685 6        36.219    37627459.377 5 151510298.04905      -547.798 5        30.453    37627460.132 6 159214136.01206      -575.737 6        40.093
C23        47.000                                                                                                                                    24820494.119 7 129247154.32507      1477.806 7        45.859                                                                    24820487.758 6 105023767.24706      1200.753 6        41.600
C24        51.000                                                                                                                                    23823984.430 6 124057742.76106     -4002.218 6        39.096                                                                    23823977.757 5 100807064.41305     -3252.311 5        35.195
C34        52.000                                                                                                                                    21502590.191 8 111969692.30908        59.484 8        49.446                                                                    21502589.042 7  90984628.47607        48.231 7        46.069
I06        58.000    38629597.406 5 151590951.57805      -642.385 5        35.262
> 2025 01 02 17 30 35.0000000  0 38
G05         4.000    22969393.147 4                     -2032.085 4        28.019                                                                                                    22969400.333 5  94055884.41605     -1583.146 5        35.933
E25         6.000    25613913.636 5 134602010.42205     -3418.560 5        34.419                                                                    25613913.859 6 100514508.51306     -2552.771 6        40.953    25613914.204 6 103136653.55006     -2619.363 6        39.748
G31         7.000    22744019.481 7 119521243.59107     -3478.784 7        45.907                                    22744015.376 6  93132810.83206     -2710.738 6        36.658    22744015.157 6  93132985.81906     -2710.840 6        37.429
G28         8.000    23951923.059 5 125868238.65205     -4268.157 5        34.800                                                                                                    23951918.401 4  98079115.05304     -3325.875 4        28.882
G29         9.000    21705711.965 7 114064381.23607     -3112.002 7        42.995                                    21705712.266 5  88881344.45705     -2424.942 5        35.738    21705710.058 6  88881245.47306     -2425.043 6        38.856
E11        10.000    25258897.408 5 132736411.48605     -3101.013 5        31.223                                                                    25258894.176 5  99121348.40105     -2315.828 5        34.933    25258906.719 4 101707108.70404     -2376.786 4        28.114
E10        11.000                                                                                                                                    27846122.581 4                     -2810.634 4        28.455
G18        12.000    20464904.310 7 107544021.94007      -276.980 7        46.463                                    20464901.025 5  83800414.00705      -215.829 5        33.036    20464901.115 7  83800378.01307      -215.909 7        44.588
G26        17.000    20464095.400 7 107539585.93207      -243.560 7        46.583                                    20464200.281 1  83797480.21301      -189.786 1         9.143    20464094.658 6  83797051.59406      -189.737 6        39.796
R02        18.000    23186040.104 4 123725145.68004       180.884 4        28.360                                                                    23186038.944 5                       141.047 5        31.192
E30        19.000    25567920.811 7 134360473.40207      1370.921 7        44.036                                                                    25567921.514 7 100334171.95307      1023.741 7        47.105    25567921.757 8 102951526.73308      1050.439 8        49.349
R20        20.000                                                                                                                                    22817107.116 4  94899284.28004      2135.622 4        29.270
E02        21.000    23098688.961 8 121384688.31808     -1162.291 8        48.493                                                                    23098688.284 8  90644317.51408      -867.951 8        51.912    23098687.458 8  93008959.86208      -890.654 8        49.514
S23        22.000    38069394.320 6 200056029.90906      -866.185 6        38.976
R10        23.000    21914121.418 4 116814637.90704      2713.734 4        29.109
E36        24.000    23308413.580 7 122486570.24307      -581.833 7        42.610                                                                    23308415.214 7  91467410.11007      -434.520 7        45.421    23308414.218 7  93853498.42007      -445.907 7        44.992
R18        25.000    20282485.980 8 108269258.67108     -3573.755 8        48.943                                                                    20282486.717 6  84209438.00606     -2779.550 6        40.298
G16        26.000    21754227.710 7 114319294.99807      1819.501 7        46.781                                    21754220.130 4  89079956.67704      1417.791 4        28.957
S21        27.000    38344924.590 5 201504126.97905      -863.512 5        35.400
R01        28.000    24062080.579 3                     -2959.000 3        20.643
R19        29.000    19240487.216 6 102923674.30906      -671.266 6        36.681                                                                    19240484.302 4  80052021.79604      -522.012 4        29.782
C05        30.000                                                                                                                                                                                                    39258041.691 5 158075898.28705      -612.362 5        32.054
S36        31.000    38115775.568 5 200299727.66005      -862.665 5        35.300
E34        32.000    25533267.511 6 134178193.94006      1804.328 6        38.928                                                                    25533263.994 6 100198050.50406      1347.330 6        38.339    25533262.421 5 102811916.23805      1382.453 5        35.552
R16        34.000    20725600.680 6 110712404.96306     -4443.912 6        39.949                                                                    20725606.085 7  86109723.10707     -3456.470 7        42.288
C44        35.000                                                                                                                                    22395587.696 7 116619633.50607     -2809.363 7        46.756                                                                    22395585.100 7  94763229.67207     -2282.994 7        45.588
R09        37.000    19340137.520 7 103275341.82407      -267.487 7        46.139                                                                    19340136.698 7  80325299.13107      -207.965 7        46.846
C11        38.000                                                                                                                                    22850494.938 7 118988545.19707      1169.371 7        42.563    22850492.835 7  92009601.07907       904.279 7        47.313    22850490.628 6  96687912.85206       950.152 6        40.951
C43        39.000                                                                                                                                    24699312.095 4 128615866.31704      1871.903 4        28.275                                                                    24699307.895 3                      1522.326 3        20.405
C12        41.000                                                                                                                                    21670424.281 8 112843670.68308     -1612.435 8        48.582    21670419.730 8  87257893.30008     -1246.849 8        51.725    21670418.177 7  91694717.00907     -1310.363 7        47.307
C13        43.000                                                                                                                                    37633595.196 7 195968009.15207      -469.034 7        43.803    37633596.159 6 151534914.13606      -362.732 6        40.853    37633593.553 6 159240058.81606      -381.283 6        39.568
C38        44.000                                                                                                                                    38567003.830 5                     -1227.920 5        32.665                                                                    38567021.736 4                      -998.388 4        26.383
C25        45.000                                                                                                                                    22131223.679 7 115243163.30207     -1438.062 7        45.398                                                                    22131223.730 7  93644686.01907     -1168.751 7        43.234
C08        46.000                                                                                                                                    37628144.994 6 195939682.53606      -709.789 6        36.079    37628139.748 4 151513040.21404      -548.818 4        29.090    37628141.185 6 159217017.64006      -576.979 6        40.014
C23        47.000                                                                                                                                    24819076.412 7 129239770.66207      1475.741 7        46.674                                                                    24819069.618 6 105017767.46106      1199.057 6        41.905
C24        51.000                                                                                                                                    23827827.165 6 124077757.56406     -4003.415 6        40.086                                                                    23827820.989 5 100823328.10105     -3253.405 5        34.567
C34        52.000                                                                                                                                    21502533.823 8 111969400.05308        57.604 8        49.886                                                                    21502532.888 7  90984391.00607        46.677 7        45.958
I06        58.000    38630415.836 5 151594164.70405      -642.240 5        35.314
> 2025 01 02 17 30 40.0000000  0 39
G05         4.000    22971333.818 5                     -2035.305 5        32.928                                                                                                    22971335.265 5  94063807.48105     -1585.729 5        35.667
E25         6.000    25617166.197 5 134619105.69805     -3419.464 5        35.190                                                                    25617166.720 6 100527274.46306     -2553.519 6        40.317    25617167.301 6 103149752.53006     -2620.234 6        40.169
G31         7.000    22747330.003 7 119538642.82107     -3480.830 7        45.503                                    22747326.214 5  93146368.66705     -2712.333 5        35.529    22747325.750 6  93146543.63806     -2712.173 6        36.159
G28         8.000    23955982.551 5 125889579.89705     -4268.972 5        34.962                                                                                                    23955980.208 5  98095744.54105     -3326.275 5        30.234
G29         9.000    21708674.487 7 114079944.57807     -3113.289 7        43.647                                    21708673.916 5  88893471.75805     -2425.939 5        35.186    21708671.035 6  88893372.74506     -2425.933 6        38.402
E11        10.000    25261847.649 4 132751919.79704     -3102.536 4        29.488                                                                    25261844.550 5  99132929.27105     -2316.994 5        34.367    25261859.510 4 101718991.66704     -2377.621 4        27.629
E10        11.000                                                                                                                                    27849704.029 4                     -2811.185 4        28.635
G18        12.000    20465169.213 7 107545414.40407      -279.942 7        46.324                                    20465166.420 5  83801499.05505      -218.139 5        33.108    20465166.085 7  83801463.05107      -218.139 7        44.715
G27        13.000    24180111.915 5 127067478.46805      2481.502 5        33.359
G26        17.000    20464328.170 7 107540811.14107      -246.485 7        45.387                                    20464432.855 2  83798434.93402      -192.073 2        13.151    20464327.836 6  83798006.31506      -192.166 6        40.582
R02        18.000                                                                                                                                    23185876.003 5                       137.852 5        31.374
E30        19.000    25566616.823 7 134353621.15607      1369.929 7        44.271                                                                    25566617.500 7 100329055.03007      1023.017 7        47.393    25566617.525 8 102946276.32308      1049.684 8        49.278
R20        20.000                                                                                                                                    22814539.302 4  94888608.69904      2134.014 4        24.872
E02        21.000    23099795.645 8 121390504.56208     -1164.162 8        48.111                                                                    23099795.048 8  90648660.81608      -869.357 8        51.818    23099794.282 8  93013416.45908      -892.041 8        49.389
S23        22.000    38070215.583 6 200060360.51706      -866.023 6        38.634
R10        23.000    21911582.833 5 116801073.00405      2711.964 5        33.826
E36        24.000    23308968.071 6 122489485.24506      -583.998 6        41.461                                                                    23308969.830 7  91469586.90807      -436.185 7        45.238    23308968.926 7  93855732.00607      -447.489 7        44.825
R18        25.000    20285833.462 7 108287131.80007     -3575.495 7        46.882                                                                    20285835.643 6  84223339.33106     -2780.921 6        41.032
G16        26.000    21752497.441 7 114310202.41407      1817.552 7        46.881                                    21752489.724 4  89072871.55504      1416.270 4        29.175
S21        27.000    38345744.954 5 201508444.27705      -863.565 5        34.971
R01        28.000                                                                                                                                    24064878.328 3                     -2301.979 3        22.781
R19        29.000    19241114.222 6 102927037.89106      -674.532 6        36.586                                                                    19241115.159 5  80054637.93905      -524.122 5        32.060
C05        30.000                                                                                                                                                                                                    39258802.725 5 158078961.87705      -612.609 5        31.977
S36        31.000    38116598.002 5 200304041.17705      -862.981 5        35.105
E34        32.000    25531550.371 6 134169175.37706      1803.182 6        38.441                                                                    25531548.070 6 100191315.94806      1346.280 6        38.754    25531546.216 6 102805005.93606      1381.538 6        36.117
R16        34.000    20729759.925 5 110734631.24705     -4446.654 5        34.952                                                                    20729766.552 7  86127010.23507     -3458.549 7        42.887
C44        35.000                                                                                                                                    22398285.759 7 116633683.39107     -2810.552 7        46.692                                                                    22398283.030 7  94774646.36007     -2283.720 7        45.694
R09        37.000    19340390.018 7 103276689.63107      -271.690 7        45.833                                                                    19340389.291 7  80326347.44407      -211.387 7        46.504
C11        38.000                                                                                                                                    22849371.038 6 118982701.67906      1167.951 6        41.654    22849370.392 7  92005082.50807       903.235 7        47.111    22849367.868 6  96683164.52306       949.149 6        40.555
C43        39.000                                                                                                                                    24697513.275 4 128606511.52804      1869.900 4        26.910                                                                    24697507.624 3                      1520.628 3        19.463
C12        41.000                                                                                                                                    21671972.759 8 112851736.93708     -1614.081 8        48.071    21671968.752 8  87264130.64608     -1248.107 8        51.983    21671967.199 7  91701271.50007     -1311.441 7        47.144
C13        43.000                                                                                                                                    37634045.958 7 195970357.00907      -470.101 7        43.863    37634046.943 6 151536729.64906      -363.469 6        41.161    37634044.300 6 159241966.64806      -381.983 6        39.468
C38        44.000                                                                                                                                    38568183.149 5                     -1228.803 5        33.401                                                                    38568202.736 4                      -998.594 4        25.805
C25        45.000                                                                                                                                    22132605.808 7 115250360.73007     -1440.819 7        44.918                                                                    22132606.033 7  93650534.50607     -1170.733 7        43.369
C08        46.000                                                                                                                                    37628827.308 6 195943234.15506      -711.011 6        36.280    37628821.326 4 151515786.57604      -550.192 4        29.232    37628823.045 6 159219903.63106      -577.583 6        39.694
C23        47.000                                                                                                                                    24817660.588 7 129232396.37707      1473.863 7        46.834                                                                    24817653.610 7 105011775.25807      1197.811 7        42.662
C24        51.000                                                                                                                                    23831671.418 6 124097777.96006     -4004.506 6        40.813                                                                    23831665.720 5 100839596.32005     -3254.088 5        34.519
C34        52.000                                                                                                                                    21502479.220 8 111969116.40708        55.891 8        49.932                                                                    21502478.348 7  90984160.52807        45.457 7        46.024
I06        58.000    38631234.171 5 151597377.65505      -642.642 5        35.629
> 2025 01 02 17 30 45.0000000  0 40
G25         3.000    24187127.774 3                     -4646.833 3        20.333                                                                                                    24187144.187 3                     -3620.958 3        22.343
G05         4.000    22973277.507 5 120725372.44215     -2038.852 5        34.890                                                                                                    22973272.034 5  94071743.98205     -1588.971 5        34.609
E25         6.000    25620420.499 6 134636206.68706     -3420.818 6        36.291                                                                    25620420.385 6 100540044.68006     -2554.558 6        39.132    25620421.601 6 103162855.87106     -2621.200 6        40.293
G31         7.000    22750642.956 7 119556052.72207     -3483.234 7        45.791                                    22750639.038 5  93159934.81605     -2714.209 5        34.490    22750637.617 5  93160109.81605     -2714.351 5        35.214
G28         8.000    23960043.943 5 125910924.98105     -4269.568 5        35.329                                                                                                    23960041.703 5  98112377.06105     -3327.031 5        30.558
G29         9.000    21711637.153 7 114095514.72807     -3114.840 7        44.618                                    21711636.616 5  88905604.36405     -2427.150 5        34.438    21711632.292 6  88905505.34306     -2427.104 6        37.501
E11        10.000    25264799.877 4 132767434.41904     -3103.831 4        27.748                                                                    25264796.513 5  99144514.84605     -2317.776 5        34.124    25264812.016 4 101730879.53904     -2378.081 4        26.707
E10        11.000                                                                                                                                    27853285.727 4                     -2811.300 4        29.166
G18        12.000    20465437.340 7 107546821.88607      -283.135 7        46.320                                    20465434.525 5  83802595.79905      -220.623 5        32.916    20465433.491 7  83802559.78607      -220.610 7        44.147
G27        13.000    24177746.574 5 127055073.03005      2480.516 5        32.701                                                                                                    24177765.093 4                      1932.928 4        28.474
G26        17.000    20464563.841 7 107542051.68307      -249.661 7        44.615                                    20464667.369 1  83799401.65301      -194.428 1         9.429    20464563.427 6  83798972.98406      -194.597 6        41.006
R02        18.000    23185705.100 4 123723374.68404       173.386 4        27.353                                                                    23185714.944 4                       134.472 4        28.512
E30        19.000    25565313.945 7 134346774.19107      1368.741 7        44.301                                                                    25565314.562 7 100323942.05807      1022.103 7        47.369    25565314.304 8 102941029.96308      1048.819 8        49.084
R20        20.000                                                                                                                                    22811970.402 4                      2133.636 4        26.455
E02        21.000    23100904.452 8 121396330.77508     -1166.353 8        48.150                                                                    23100903.782 8  90653011.56508      -871.011 8        51.633    23100902.921 8  93017880.70608      -893.733 8        49.297
S23        22.000    38071038.500 6 200064691.49006      -866.346 6        38.517
R10        23.000    21909043.699 6 116787519.56206      2709.266 6        38.880
E36        24.000    23309524.979 6 122492411.32906      -586.409 6        41.802                                                                    23309526.647 7  91471771.97007      -437.901 7        45.035    23309525.607 7  93857974.07307      -449.374 7        44.454
R18        25.000    20289182.040 7 108305014.09707     -3577.501 7        45.532                                                                    20289185.403 6  84237247.80806     -2782.491 6        41.430
G16        26.000    21750768.985 7 114301119.90007      1815.371 7        47.757                                    21750761.232 4  89065794.28804      1414.571 4        29.450
S21        27.000    38346562.291 5 201512761.99805      -863.811 5        34.990
R01        28.000                                                                                                                                    24067659.154 3                     -2308.402 3        20.738
R19        29.000    19241747.482 6 102930417.67306      -677.559 6        36.994                                                                    19241744.037 5  80057266.67905      -526.920 5        32.563
C05        30.000                                                                                                                                                                                                    39259562.919 5 158082025.74805      -612.706 5        32.174
S36        31.000    38117420.240 5 200308355.39405      -863.090 5        34.600
E34        32.000    25529834.237 6 134160163.16606      1801.638 6        39.189                                                                    25529833.261 6 100184586.07606      1345.342 6        39.084    25529831.458 6 102798100.51306      1380.474 6        36.446
R16        34.000    20733925.205 4 110756871.43204     -4448.966 4        27.162                                                                    20733929.750 7  86144308.19607     -3460.817 7        43.215
C44        35.000                                                                                                                                    22400984.232 7 116647739.34407     -2811.894 7        46.047                                                                    22400982.126 7  94786067.97607     -2284.711 7        45.964
R09        37.000    19340646.889 7 103278059.77707      -276.324 7        46.631                                                                    19340645.628 7  80327413.11107      -214.952 7        46.571
C11        38.000                                                                                                                                    22848248.973 6 118976865.51906      1166.453 6        40.932    22848249.669 7  92000569.60907       901.912 7        46.605    22848246.345 6  96678422.13806       948.025 6        39.877
C43        39.000                                                                                                                                    24695710.729 4                      1870.050 4        26.683                                                                    24695715.747 3                      1520.371 3        20.286
C12        41.000                                                                                                                                    21673522.680 7 112859811.92407     -1616.025 7        47.331    21673518.956 8  87270374.74208     -1249.591 8        51.626    21673517.868 7  91707833.08607     -1313.002 7        47.212
C13        43.000                                                                                                                                    37634497.463 7 195972710.36307      -471.313 7        43.676    37634498.619 6 151538549.41006      -364.401 6        41.070    37634496.072 6 159243878.92506      -382.929 6        39.583
C38        44.000                                                                                                                                    38569363.099 5                     -1229.759 5        33.144                                                                    38569383.231 4                      -999.708 4        26.192
C25        45.000                                                                                                                                    22133990.628 7 115257572.60707     -1443.878 7        44.075                                                                    22133990.850 7  93656394.73607     -1173.212 7        43.426
C08        46.000                                                                                                                                    37629510.629 5 195946791.67105      -712.350 5        35.919    37629503.651 4 151518537.48104      -550.590 4        29.469    37629506.165 6 159222794.40606      -578.681 6        39.964
C23        47.000                                                                                                                                    24816245.800 7 129225031.89607      1471.785 7        46.459                                                                    24816239.480 7 105005791.00407      1196.086 7        43.151
C24        51.000                                                                                                                                    23835517.041 6 124117804.37706     -4006.002 6        41.082                                                                    23835512.039 5 100855869.42305     -3255.027 5        34.743
C34        52.000                                                                                                                                    21502426.300 8 111968841.84108        53.844 8        49.594                                                                    21502425.343 7  90983937.40507        43.896 7        46.140
I06        58.000    38632053.449 5 151600590.68805      -642.572 5        35.762
> 2025 01 02 17 30 50.0000000  0 39
G25         3.000    24191552.784 3                     -4645.155 3        19.284
G05         4.000    22975218.115 5 120735574.13505     -2042.247 5        33.413                                    22975206.152 2  94079623.38312     -1591.365 2        15.000    22975213.802 5  94079693.41205     -1591.174 5        33.760
E25         6.000    25623675.684 6 134653312.75006     -3421.425 6        36.767                                                                    25623675.434 6 100552818.70206     -2555.040 6        38.300    25623676.983 6 103175963.13206     -2621.753 6        41.008
G31         7.000    22753957.678 7 119573472.60107     -3484.836 7        45.229                                    22753953.610 5  93173508.75005     -2715.457 5        33.210    22753952.338 5  93173683.72805     -2715.499 5        33.539
G28         8.000    23964106.089 5 125932273.32205     -4269.902 5        35.386                                                                                                    23964103.690 5  98129012.10605     -3327.144 5        31.381
G29         9.000    21714600.804 7 114111091.05707     -3115.795 7        44.447                                    21714600.180 5  88917741.78105     -2427.891 5        33.760    21714596.937 6  88917642.75406     -2427.854 6        36.389
E11        10.000    25267753.262 4 132782954.78204     -3104.942 4        26.527                                                                    25267749.823 5  99156104.70505     -2318.229 5        33.395    25267763.481 4 101742771.84404     -2379.318 4        27.748
E10        11.000                                                                                                                                    27856867.649 4                     -2811.640 4        29.251
G18        12.000    20465707.883 7 107548243.74407      -285.639 7        45.521                                    20465705.300 5  83803703.74305      -222.581 5        32.874    20465703.946 7  83803667.72707      -222.605 7        43.638
G27        13.000                                                                                                                                                                    24175396.631 4                      1932.681 4        28.076
G26        17.000    20464802.775 7 107543306.96207      -252.464 7        44.805                                    20464905.577 1  83800379.37001      -196.728 1        11.704    20464802.246 6  83799951.11506      -196.763 6        41.035
R02        18.000    23185550.101 4 123722519.34214       169.063 4        28.711
E30        19.000    25564012.093 7 134339931.90407      1368.179 7        44.066                                                                    25564012.504 7 100318832.57607      1021.598 7        47.549    25564012.003 8 102935787.18908      1048.278 8        48.977
E02        21.000    23102015.055 8 121402166.33708     -1167.967 8        48.259                                                                    23102014.232 8  90657369.29008      -872.151 8        51.522    23102013.357 8  93022352.10608      -894.883 8        49.311
S23        22.000    38071863.076 6 200069022.34606      -865.961 6        38.883
R10        23.000    21906502.420 6 116773976.79606      2707.679 6        41.290
E36        24.000    23310084.298 7 122495347.87107      -588.211 7        42.042                                                                    23310085.545 7  91473964.84507      -439.270 7        45.067    23310084.457 7  93860224.15707      -450.791 7        44.346
R18        25.000    20292533.699 7 108322904.93107     -3578.906 7        46.178                                                                    20292536.341 6  84251162.89506     -2783.595 6        41.106
G16        26.000    21749042.434 8 114292046.83408      1813.819 8        48.250                                    21749034.747 4  89058724.38304      1413.359 4        29.526
S21        27.000    38347387.725 5 201517079.86005      -863.481 5        35.086
R01        28.000    24070462.090 3                     -2967.304 3        21.143
R19        29.000    19242382.639 6 102933813.11706      -680.493 6        38.036                                                                    19242380.643 5  80059907.56305      -529.492 5        33.653
C05        30.000                                                                                                                                                                                                    39260324.870 5 158085089.49005      -612.790 5        32.419
S36        31.000    38118238.327 5 200312669.55005      -862.695 5        35.381
E34        32.000    25528119.789 6 134151156.66106      1800.917 6        40.317                                                                    25528119.564 6 100177860.49106      1344.755 6        39.330    25528118.803 6 102791199.47706      1379.880 6        37.168
R16        34.000                                                                                                                                    20738095.742 7  86161616.51817     -3462.523 7        43.274
C44        35.000                                                                                                                                    22403682.618 7 116661800.75407     -2812.659 7        44.503                                                                    22403682.358 7  94797494.00607     -2285.574 7        45.889
R09        37.000    19340908.895 8 103279451.54008      -280.378 8        48.144                                                                    19340906.492 7  80328495.59407      -218.027 7        47.112
C11        38.000                                                                                                                                    22847129.200 6 118971036.08506      1165.269 6        40.114    22847129.895 7  91996061.92807       901.076 7        46.548    22847126.333 6  96673685.23906       946.705 6        39.655
C43        39.000                                                                                                                                    24693912.739 4                      1869.029 4        28.275                                                                    24693921.075 3                      1521.181 3        21.500
C12        41.000                                                                                                                                    21675074.522 7 112867895.03607     -1617.312 7        46.634    21675070.773 8  87276625.12008     -1250.602 8        51.075    21675070.132 7  91714401.27207     -1314.225 7        47.302
C13        43.000                                                                                                                                    37634950.236 7 195975068.60207      -472.015 7        43.609    37634951.384 6 151540372.95106      -364.981 6        41.080    37634948.965 6 159245795.17906      -383.642 6        39.411
C38        44.000                                                                                                                                    38570544.126 5                     -1230.627 5        32.796                                                                    38570561.213 4                      -999.699 4        26.719
C25        45.000                                                                                                                                    22135378.914 7 115264798.25907     -1446.470 7        44.689                                                                    22135378.275 7  93662266.17507     -1175.323 7        43.566
C08        46.000                                                                                                                                    37630195.203 6 195950354.49606      -713.032 6        36.163    37630187.840 4 151521292.48704      -550.992 4        27.820    37630190.336 6 159225689.49606      -579.344 6        39.964
C23        47.000                                                                                                                                    24814832.657 7 129217676.61907      1470.250 7        45.949                                                                    24814827.034 7 104999814.22107      1194.647 7        43.488
C24        51.000                                                                                                                                    23839363.043 6 124137836.18106     -4006.753 6        41.020                                                                    23839359.502 5 100872146.89305     -3255.653 5        35.352
C34        52.000                                                                                                                                    21502374.919 8 111968575.71108        52.472 8        49.040                                                                    21502374.151 7  90983721.13807        42.570 7        46.099
I06        58.000    38632872.109 5 151603803.42505      -642.462 5        35.557
> 2025 01 02 17 30 55.0000000  0 39
G25         3.000    24195973.667 3                     -4646.879 3        20.524                                                                                                    24195996.578 3                     -3621.822 3        22.800
G05         4.000    22977165.726 4 120745793.09104     -2045.597 4        29.801                                    22977152.479 2  94087586.24002     -1594.014 2        12.364    22977160.102 5  94087656.31505     -1593.986 5        33.994
E25         6.000    25626932.371 6 134670424.59606     -3423.001 6        37.406                                                                    25626931.677 6 100565597.04906     -2556.442 6        36.922    25626933.361 6 103189074.80806     -2622.904 6        41.068
G31         7.000    22757274.842 7 119590903.12007     -3487.230 7        44.745                                    22757269.963 5  93187090.97605     -2717.327 5        31.804    22757269.642 5  93187265.93605     -2716.769 5        30.702
G28         8.000    23968171.178 5 125953625.57405     -4270.878 5        35.410                                    23968164.473 1  98145626.25111     -3327.994 1         6.625    23968167.133 5  98145650.19105     -3327.667 5        32.168
G29         9.000    21717565.428 7 114126674.26307     -3117.454 7        44.098                                    21717564.932 5  88929884.54605     -2429.193 5        33.198    21717562.008 5  88929785.50105     -2428.981 5        35.671
E11        10.000    25270709.509 4 132798481.50404     -3105.767 4        25.398                                                                    25270704.349 5  99167699.34305     -2319.717 5        32.946    25270710.148 4 101754668.94804     -2380.536 4        28.256
E10        11.000                                                                                                                                    27860450.004 4                     -2812.018 4        29.289
G18        12.000    20465981.294 7 107549680.68107      -289.030 7        45.857                                    20465978.905 5  83804823.43605      -225.224 5        32.605    20465978.059 7  83804787.43407      -225.259 7        43.759
G27        13.000    24173008.433 5 127030268.81005      2479.944 5        33.808                                                                                                    24173035.927 4                      1932.571 4        27.784
G26        17.000    20465045.579 7 107544577.61907      -255.722 7        45.437                                    20465146.477 2  83801369.46802      -199.236 2        12.000    20465043.799 6  83800941.24406      -199.279 6        41.111
R02        18.000                                                                                                                                    23185379.219 3                       130.979 3        20.643
E30        19.000    25562711.411 7 134333094.98807      1366.789 7        44.328                                                                    25562711.413 7 100313727.09707      1020.577 7        47.439    25562710.793 8 102930548.52208      1047.247 8        48.818
E02        21.000    23103127.414 8 121408011.92108     -1170.215 8        48.622                                                                    23103126.578 8  90661734.50608      -873.884 8        51.360    23103125.696 8  93026831.19708      -896.691 8        49.253
S23        22.000    38072687.827 6 200073353.78306      -866.298 6        38.901
R10        23.000    21903962.131 6 116760445.37206      2705.093 6        41.921
E36        24.000    23310645.541 7 122498295.56707      -590.756 7        42.840                                                                    23310646.736 7  91476166.04207      -441.065 7        44.778    23310645.550 7  93862482.78007      -452.659 7        44.301
R18        25.000    20295888.216 7 108340804.96807     -3581.072 7        47.383                                                                    20295889.064 6  84265085.10506     -2785.326 6        39.438
G16        26.000    21747317.641 8 114282983.87208      1811.473 8        49.009                                    21747310.266 4  89051662.34404      1411.533 4        29.839
S21        27.000    38348210.522 5 201521398.20205      -864.087 5        34.981
R19        29.000    19243021.061 6 102937224.72306      -684.097 6        37.773                                                                    19243017.189 5  80062561.01405      -532.061 5        35.276
C05        30.000                                                                                                                                                                                                    39261086.119 5 158088153.58705      -612.834 5        32.156
S36        31.000    38119059.961 5 200316983.52705      -862.824 5        35.757
E34        32.000    25526407.689 6 134142156.57006      1799.208 6        41.225                                                                    25526407.014 6 100171139.66506      1343.800 6        39.781    25526406.800 6 102784303.33206      1378.500 6        37.716
R16        34.000    20742275.634 4                     -4454.937 4        29.488                                                                    20742262.583 6  86178935.75806     -3465.009 6        41.421
C44        35.000                                                                                                                                    22406382.021 7 116675868.29907     -2814.235 7        43.725                                                                    22406383.945 7  94808925.04907     -2286.760 7        45.872
R09        37.000    19341174.142 7 103280865.62507      -285.171 7        47.814                                                                    19341171.187 7  80329595.44107      -221.843 7        47.126
C11        38.000                                                                                                                                    22846011.950 6 118965214.07606      1163.431 6        41.271    22846011.988 7  91991559.98007       899.722 7        46.885    22846008.675 6  96668954.37206       945.523 6        39.697
C43        39.000                                                                                                                                                                                                                                                                    24692129.188 3                      1518.323 3        21.810
C12        41.000                                                                                                                                    21676627.964 7 112875986.90407     -1619.331 7        45.964    21676624.618 8  87282882.27108     -1252.153 8        50.789    21676624.040 7  91720976.59607     -1315.852 7        47.199
C19        42.000                                                                                                                                    26311598.880 3                     -1086.679 3        21.000
C13        43.000                                                                                                                                    37635404.131 7 195977432.43007      -473.436 7        43.560    37635405.536 6 151542200.81506      -366.117 6        41.128    37635402.932 6 159247715.99106      -384.717 6        39.604
C38        44.000                                                                                                                                    38571726.847 5                     -1231.784 5        33.030                                                                    38571742.768 4                     -1000.969 4        24.887
C25        45.000                                                                                                                                    22136770.524 7 115272038.40407     -1449.680 7        45.989                                                                    22136768.554 7  93668149.41407     -1177.918 7        43.456
C08        46.000                                                                                                                                    37630881.783 6 195953923.33306      -714.359 6        36.026    37630873.362 4 151524052.13704      -552.456 4        28.929    37630875.571 6 159228589.49506      -580.766 6        39.925
C23        47.000                                                                                                                                    24813421.813 7 129210331.23507      1467.981 7        45.419                                                                    24813416.457 7 104993845.49107      1192.904 7        43.664
C24        51.000                                                                                                                                    23843210.147 6 124157874.06406     -4008.371 6        40.381                                                                    23843208.401 6 100888429.30606     -3256.926 6        36.306
C34        52.000                                                                                                                                    21502325.782 8 111968318.68708        50.360 8        48.959                                                                    21502324.735 7  90983512.30407        40.946 7        46.057
I06        58.000    38633690.568 5 151607016.33005      -642.782 5        35.343
> 2025 01 02 17 31  0.0000000  0 38
G25         3.000    24200396.285 3                     -4647.503 3        22.171                                                                                                    24200410.356 4                     -3621.528 4        24.902
G05         4.000                                                                                                                                                                    22979112.362 5  94095632.27505     -1596.291 5        33.838
E25         6.000    25630189.241 6 134687541.71206     -3423.948 6        37.667                                                                    25630188.733 5 100578379.29505     -2556.829 5        35.529    25630190.702 6 103202190.50406     -2623.527 6        41.161
G31         7.000    22760593.465 7 119608343.81607     -3489.049 7        44.197                                    22760587.880 5  93200681.12205     -2718.741 5        30.453    22760589.518 4  93200856.12904     -2719.014 4        28.275
G28         8.000    23972238.119 5 125974981.23605     -4271.529 5        35.171                                    23972229.080 1  98162267.00401     -3328.438 1         4.286    23972231.019 5  98162290.90605     -3328.099 5        32.269
G29         9.000    21720531.845 7 114142263.81107     -3118.433 7        43.365                                    21720530.942 5  88942032.25205     -2429.948 5        32.677    21720528.768 5  88941933.20605     -2429.885 5        35.481
E11        10.000    25273663.963 4 132814014.07104     -3107.485 4        25.820                                                                    25273660.337 5  99179298.32005     -2320.212 5        32.048    25273659.440 4 101766570.48304     -2380.861 4        28.900
E10        11.000                                                                                                                                    27864032.494 4                     -2811.875 4        29.100
G18        12.000    20466257.543 7 107551132.18807      -291.736 7        46.837                                    20466255.243 5  83805954.48305      -227.325 5        32.389    20466254.156 7  83805918.48107      -227.320 7        43.873
G27        13.000    24170652.858 5 127017870.34805      2479.830 5        33.449                                                                                                    24170675.621 4                      1931.522 4        25.173
G26        17.000    20465290.031 7 107545863.21207      -258.501 7        46.035                                    20465391.182 1  83802371.42501      -201.385 1         6.500    20465288.386 6  83801943.01306      -201.398 6        41.058
E30        19.000    25561411.216 7 134326262.94007      1366.006 7        44.409                                                                    25561411.239 7 100308625.25007      1020.067 7        47.152    25561410.546 8 102925313.58408      1046.673 8        48.614
R20        20.000                                                                                                                                    22804325.891 5                      2130.316 5        32.641
E02        21.000    23104241.701 8 121413867.04908     -1171.846 8        48.909                                                                    23104240.789 8  90666106.84108      -875.093 8        51.264    23104239.818 8  93031317.59408      -897.917 8        49.098
S23        22.000    38073514.446 6 200077685.05406      -866.198 6        38.994
R10        23.000    21901424.478 6 116746924.91406      2703.056 6        41.528
E36        24.000    23311208.673 7 122501253.89407      -592.558 7        43.649                                                                    23311209.634 7  91478375.18707      -442.560 7        44.385    23311208.593 7  93864749.55207      -454.105 7        44.390
R18        25.000    20299244.421 8 108358713.70808     -3582.546 8        49.147                                                                    20299245.019 6  84279014.06106     -2786.162 6        37.422
G16        26.000    21745594.629 8 114273930.57208      1809.762 8        49.107                                    21745587.774 5  89044607.83505      1410.206 5        30.174
S21        27.000    38349031.494 5 201525716.50605      -863.724 5        35.048
R19        29.000    19243660.937 6 102940652.10306      -686.954 6        36.412                                                                    19243657.862 6  80065226.79606      -534.574 6        36.166
C05        30.000                                                                                                                                                                                                    39261846.062 5 158091217.64605      -612.659 5        32.174
S36        31.000    38119880.388 5 200321296.37205      -862.505 5        35.243
E34        32.000    25524695.790 6 134133162.37906      1798.402 6        41.800                                                                    25524695.581 6 100164423.27506      1342.791 6        39.769    25524695.692 6 102777411.71106      1377.957 6        38.438
R16        34.000    20746445.766 6 110823791.09616     -4457.628 6        36.253                                                                    20746431.983 6  86196265.33316     -3466.960 6        39.529
C44        35.000                                                                                                                                    22409083.497 7 116689941.44507     -2815.094 7        42.669                                                                    22409086.496 7  94820360.60607     -2287.371 7        45.672
R09        37.000    19341441.380 7 103282301.63007      -289.302 7        47.782                                                                    19341439.859 7  80330712.34907      -224.995 7        47.437
C11        38.000                                                                                                                                    22844896.999 7 118959398.94407      1162.419 7        42.428    22844895.403 7  91987063.36507       898.861 7        47.468    22844892.380 6  96664229.08306       944.620 6        39.616
C43        39.000                                                                                                                                    24690351.721 5 128569133.35215      1867.332 5        32.850                                                                    24690342.811 3                      1517.579 3        22.914
C12        41.000                                                                                                                                    21678182.954 7 112884087.07207     -1620.781 7        45.308    21678180.444 8  87289145.84208     -1253.304 8        50.586    21678179.693 7  91727558.61007     -1316.920 7        47.096
C13        43.000                                                                                                                                    37635859.377 7 195979801.37107      -474.347 7        43.818    37635860.559 6 151544032.62106      -366.691 6        41.435    37635857.930 6 159249640.90006      -385.218 6        39.150
C38        44.000                                                                                                                                    38572908.778 5                     -1232.511 5        32.623                                                                    38572924.998 4                     -1001.579 4        27.605
C25        45.000                                                                                                                                    22138163.755 7 115279292.53607     -1452.072 7        46.625                                                                    22138161.491 7  93674043.97807     -1179.885 7        43.454
C08        46.000                                                                                                                                    37631568.174 5 195957497.64305      -715.310 5        35.790    37631560.096 4 151526815.96204      -552.747 4        29.801    37631562.012 6 159231493.83606      -581.159 6        39.523
C23        47.000                                                                                                                                    24812013.289 7 129202995.26007      1466.319 7        44.579                                                                    24812007.631 7 104987884.37807      1191.653 7        43.651
C24        51.000                                                                                                                                    23847058.600 6 124177917.49606     -4009.097 6        39.667                                                                    23847058.271 6 100904716.22006     -3257.690 6        37.577
C34        52.000                                                                                                                                    21502278.530 8 111968070.29908        48.873 8        48.857                                                                    21502277.128 7  90983310.43907        39.826 7        46.054
I06        58.000    38634509.226 5 151610229.01405      -642.256 5        35.267
> 2025 01 02 17 31  5.0000000  0 39
G25         3.000    24204820.781 3                     -4648.206 3        23.162                                                                                                    24204833.224 3                     -3620.911 3        23.143
G05         4.000                                                                                                                                                                    22981066.267 5  94103621.28505     -1599.276 5        33.042
E25         6.000    25633446.922 6 134704664.00906     -3425.134 6        37.414                                                                    25633446.881 5 100591165.44105     -2557.768 5        33.683    25633449.284 6 103215310.19306     -2624.450 6        40.801
G31         7.000    22763914.992 7 119625794.57807     -3491.362 7        44.271                                    22763907.277 4  93214279.10904     -2720.546 4        29.005    22763909.463 4  93214454.15704     -2720.414 4        24.526
G28         8.000    23976306.083 5 125996340.21505     -4272.340 5        34.233                                    23976294.026 1  98178910.23401     -3328.893 1         3.400    23976295.281 5  98178934.22505     -3329.036 5        31.857
G29         9.000    21723500.721 7 114157859.66507     -3119.997 7        42.762                                    21723498.082 5  88954184.86005     -2431.171 5        32.311    21723494.925 5  88954085.81505     -2431.015 5        35.171
E11        10.000    25276622.985 4 132829552.45604     -3108.441 4        25.414                                                                    25276617.850 5  99190901.64105     -2320.821 5        31.970    25276616.905 4 101778476.51704     -2381.900 4        29.517
E10        11.000                                                                                                                                    27867615.511 4                     -2812.307 4        28.739
G18        12.000    20466536.685 7 107552598.19707      -294.876 7        46.766                                    20466534.182 5  83807096.83505      -229.772 5        32.347    20466532.751 7  83807060.83507      -229.788 7        43.892
G27        13.000    24168297.745 5 127005474.01605      2479.277 5        31.457                                                                                                    24168313.912 3                      1931.660 3        22.476
G26        17.000    20465536.948 7 107547163.66607      -261.726 7        45.714                                    20465638.570 1  83803385.12301      -203.960 1         7.375    20465536.289 6  83802956.36806      -204.013 6        41.290
E30        19.000    25560111.904 7 134319435.69107      1364.764 7        44.743                                                                    25560112.059 7 100303526.99407      1019.116 7        47.089    25560111.253 8 102920082.32408      1045.683 8        48.496
R20        20.000                                                                                                                                    22801766.526 4                      2129.368 4        29.441
E02        21.000    23105357.688 8 121419731.64408     -1174.100 8        48.875                                                                    23105356.767 8  90670486.25108      -876.772 8        51.140    23105355.776 8  93035811.24608      -899.644 8        48.975
S23        22.000    38074338.629 6 200082016.30606      -866.484 6        39.342
R10        23.000    21898889.709 6 116733415.37306      2700.611 6        41.328
E36        24.000    23311773.590 7 122504222.79707      -595.133 7        44.039                                                                    23311774.687 7  91480592.22807      -444.387 7        44.155    23311773.613 7  93867024.43607      -456.131 7        44.442
R18        25.000    20302601.704 8 108376631.03208     -3584.587 8        50.146                                                                    20302599.571 5  84292949.71405     -2788.103 5        35.233
G16        26.000    21743873.690 8 114264886.87008      1807.568 8        48.826                                    21743867.286 5  89037560.80305      1408.495 5        30.558
S21        27.000    38349853.302 5 201530034.51305      -863.827 5        35.690
R19        29.000    19244302.840 5 102944095.13605      -690.376 5        34.248                                                                    19244301.925 6  80067904.71406      -537.005 6        36.578
C05        30.000                                                                                                                                                                                                    39262607.374 5 158094281.66205      -612.653 5        32.240
S36        31.000    38120703.533 5 200325609.14705      -862.830 5        35.376
E34        32.000    25522984.612 7 134124174.02707      1796.750 7        42.233                                                                    25522985.357 6 100157711.21306      1342.014 6        39.568    25522985.678 6 102770524.56806      1376.779 6        38.459
R16        34.000    20750619.923 6 110846085.59206     -4460.537 6        40.324                                                                    20750607.611 6  86213605.34106     -3469.272 6        38.195
C44        35.000                                                                                                                                    22411787.147 6 116704020.15006     -2816.568 6        41.688                                                                    22411790.285 7  94831800.74607     -2288.653 7        45.682
R09        37.000    19341713.773 7 103283759.37507      -293.930 7        46.704                                                                    19341712.361 7  80331846.15707      -228.623 7        47.217
C11        38.000                                                                                                                                    22843783.163 7 118953590.67507      1160.667 7        43.253    22843780.294 8  91982572.05008       897.537 8        48.141    22843776.978 6  96659509.40506       943.338 6        39.592
C43        39.000                                                                                                                                    24688558.844 5 128559798.76505      1866.228 5        32.323                                                                    24688561.593 4                      1516.561 4        28.152
C12        41.000                                                                                                                                    21679739.268 7 112892195.44307     -1622.756 7        45.053    21679737.935 8  87295415.76008     -1254.812 8        50.561    21679736.979 7  91734147.35707     -1318.531 7        47.299
C19        42.000                                                                                                                                    26313688.635 3                     -1088.476 3        21.619
C13        43.000                                                                                                                                    37636315.456 7 195982175.30107      -475.566 7        44.146    37636316.169 6 151545868.30406      -367.708 6        41.707    37636313.816 6 159251569.96306      -386.504 6        39.345
C38        44.000                                                                                                                                    38574093.472 5                     -1233.275 5        32.341                                                                    38574108.104 4                     -1001.901 4        27.545
C25        45.000                                                                                                                                    22139558.519 7 115286560.61607     -1455.239 7        46.760                                                                    22139557.282 7  93679949.92607     -1182.495 7        43.566
C08        46.000                                                                                                                                    37632254.689 5 195961077.29705      -716.468 5        35.852    37632248.574 4 151529584.04204      -554.379 4        29.716    37632249.539 6 159234402.67306      -582.333 6        39.733
C23        47.000                                                                                                                                    24810606.609 7 129195668.64607      1464.109 7        44.403                                                                    24810600.726 7 104981930.92307      1189.734 7        43.718
C24        51.000                                                                                                                                    23850908.960 6 124197966.43106     -4010.673 6        38.865                                                                    23850908.820 6 100921007.63606     -3258.781 6        38.919
C34        52.000                                                                                                                                    21502232.834 8 111967830.47408        46.904 8        48.702                                                                    21502231.137 7  90983115.58607        38.153 7        46.077
I06        58.000    38635327.342 5 151613441.50905      -642.676 5        35.252
> 2025 01 02 17 31 10.0000000  0 41
G23         2.000    23772865.488 5 124927254.38515      2639.536 5        32.060
G25         3.000    24209245.506 3                     -4647.849 3        23.181                                                                                                    24209263.203 3                     -3620.585 3        23.505
G05         4.000                                                                                                                                                                    22983019.587 5  94111623.01205     -1601.985 5        32.569
E25         6.000    25636705.765 6 134721791.10306     -3425.899 6        37.040                                                                    25636705.308 5 100603955.15505     -2558.177 5        31.970    25636708.502 6 103228433.57906     -2625.131 6        40.408
G31         7.000    22767237.796 7 119643255.01407     -3493.101 7        44.525                                    22767228.069 4  93227884.63104     -2721.895 4        28.009
G28         8.000    23980374.173 5 126017702.05805     -4273.010 5        33.808                                    23980358.101 1  98195555.93001     -3329.684 1         3.000    23980359.978 5  98195579.79605     -3329.283 5        31.517
G29         9.000    21726470.013 7 114173461.44607     -3121.030 7        42.853                                    21726466.296 5  88966342.09405     -2431.969 5        31.932    21726465.397 5  88966243.06005     -2431.870 5        35.410
E11        10.000    25279580.300 4 132845096.21704     -3109.288 4        25.158                                                                    25279576.413 5  99202509.07705     -2321.940 5        32.419    25279576.136 4 101790386.67104     -2382.391 4        29.678
E10        11.000                                                                                                                                    27871198.953 4                     -2812.274 4        28.882
G18        12.000    20466817.771 7 107554078.32207      -297.477 7        46.444                                    20466815.662 5  83808250.18605      -231.803 5        32.329    20466814.491 7  83808214.18707      -231.854 7        43.674
G27        13.000    24165941.244 5 126993079.47305      2479.015 5        30.672                                    24165970.142 1  98955607.04611      1931.606 1         6.375    24165957.004 3                      1930.467 3        23.867
G26        17.000    20465787.176 7 107548478.59607      -264.482 7        44.500                                    20465888.672 1  83804410.10001      -206.098 1         6.125    20465786.861 6  83803980.98506      -206.059 6        41.683
R02        18.000    23184941.953 3                       154.427 3        19.015
E30        19.000    25558813.174 7 134312612.86707      1364.049 7        44.903                                                                    25558813.953 7 100298432.03507      1018.573 7        47.035    25558812.830 8 102914854.45508      1045.139 8        48.349
R20        20.000                                                                                                                                    22799199.681 4                      2128.329 4        29.213
E02        21.000    23106475.389 8 121425605.32008     -1175.730 8        48.860                                                                    23106474.483 8  90674872.43908      -877.981 8        51.221    23106473.483 8  93040311.85708      -900.908 8        48.990
S23        22.000    38075160.182 6 200086347.16406      -866.034 6        38.892
R10        23.000    21896357.482 6 116719916.44906      2698.535 6        40.844
E36        24.000    23312339.918 7 122507201.87107      -596.892 7        44.454                                                                    23312341.697 7  91482816.87607      -445.749 7        43.979    23312340.502 7  93869307.10707      -457.411 7        44.497
R18        25.000    20305960.012 8 108394556.54608     -3585.992 8        50.729                                                                    20305956.496 5  84306891.80105     -2789.054 5        34.271
G16        26.000    21742154.546 8 114255852.36608      1805.897 8        48.155                                    21742148.502 5  89030520.93705      1407.195 5        30.943
S21        27.000    38350677.377 5 201534351.79705      -863.615 5        35.776
R19        29.000    19244947.019 5 102947553.56305      -693.369 5        33.904                                                                    19244948.955 6  80070594.58706      -539.080 6        37.006
C05        30.000                                                                                                                                                                                                    39263369.052 5 158097345.32905      -612.830 5        31.872
S36        31.000    38121520.096 5 200329922.70205      -862.908 5        35.533
E34        32.000    25521275.093 7 134115191.11907      1796.094 7        42.855                                                                    25521276.127 6 100151003.24806      1341.027 6        39.646    25521277.284 6 102763641.58206      1376.126 6        38.712
R16        34.000    20754797.736 6 110868392.89606     -4462.769 6        40.043                                                                    20754785.864 5  86230955.38005     -3471.112 5        35.819
C44        35.000                                                                                                                                    22414490.583 6 116718104.01706     -2817.289 6        40.360                                                                    22414494.948 7  94843245.03907     -2289.397 7        45.764
R09        37.000    19341990.375 7 103285238.48507      -298.053 7        45.914                                                                    19341988.945 7  80332996.59607      -231.792 7        46.650
C11        38.000                                                                                                                                    22842669.083 7 118947788.83507      1159.675 7        43.020    22842666.549 8  91978085.71408       896.759 8        48.209    22842662.628 6  96654794.96306       942.262 6        39.462
C43        39.000                                                                                                                                    24686761.474 5 128550467.66905      1865.992 5        31.751                                                                    24686773.499 4                      1516.188 4        28.938
C12        41.000                                                                                                                                    21681298.314 7 112900311.62507     -1624.020 7        45.210    21681296.739 8  87301691.71808     -1255.875 8        50.303    21681295.672 7  91740742.43007     -1319.749 7        47.472
C19        42.000                                                                                                                                    26314732.544 3                     -1090.960 3        20.357
C13        43.000                                                                                                                                    37636772.749 7 195984553.86707      -476.198 7        44.155    37636772.825 6 151547707.55506      -368.281 6        41.702    37636770.433 6 159253502.72206      -386.977 6        39.435
C38        44.000                                                                                                                                    38575279.234 5                     -1234.056 5        33.006                                                                    38575292.660 4                     -1002.854 4        27.940
C25        45.000                                                                                                                                    22140956.166 7 115293842.22607     -1457.737 7        46.801                                                                    22140955.793 7  93685866.83007     -1184.599 7        43.953
C08        46.000                                                                                                                                    37632944.079 5 195964662.01305      -717.513 5        35.890    37632936.538 5 151532355.99405      -555.338 5        30.445    37632937.990 6 159237315.54106      -583.251 6        39.970
C23        47.000                                                                                                                                    24809201.501 7 129188350.97007      1462.561 7        43.687                                                                    24809195.424 7 104975984.70607      1188.442 7        43.708
C24        51.000                                                                                                                                    23854760.708 6 124218020.44206     -4011.310 6        37.856                                                                    23854760.367 6 100937303.16506     -3259.798 6        40.291
C34        52.000                                                                                                                                    21502188.552 8 111967598.81008        45.466 8        48.977                                                                    21502186.879 7  90982927.35207        36.851 7        46.279
I06        58.000    38636145.203 5 151616653.40905      -642.285 5        35.190
> 2025 01 02 17 31 15.0000000  0 39
G23         2.000    23770355.676 4 124914060.16104      2638.860 4        27.868
G25         3.000    24213670.409 3                     -4648.840 3        22.876                                                                                                    24213686.491 4                     -3622.375 4        25.023
G05         4.000    22985084.276 5                     -2058.645 5        30.241                                                                                                    22984975.000 5  94119637.84205     -1604.137 5        30.257
E25         6.000    25639966.299 6 134738923.73406     -3427.238 6        37.376                                                                    25639965.014 4 100616748.99104     -2559.130 4        29.251    25639968.835 6 103241561.17306     -2625.924 6        39.625
G31         7.000    22770562.089 7 119660725.86807     -3495.224 7        45.068                                    22770550.351 4  93241498.26704     -2723.553 4        26.683
G28         8.000                                                                                                                                                                    23984427.726 5  98212228.15305     -3329.732 5        31.570
G29         9.000    21729440.084 7 114189069.84207     -3122.284 7        42.174                                    21729435.659 5  88978504.48205     -2432.951 5        30.921    21729434.918 5  88978405.46705     -2432.845 5        35.529
E11        10.000    25282537.476 3 132860646.15203     -3109.933 3        23.181                                                                    25282535.919 5  99214121.00205     -2322.464 5        32.138    25282534.628 4 101802301.52804     -2383.409 4        29.820
E10        11.000    27874812.290 3                     -3768.529 3        20.786                                                                    27874783.052 4                     -2812.361 4        28.607
G18        12.000    20467101.820 7 107555573.28307      -300.540 7        46.692                                    20467099.673 5  83809415.09705      -234.184 5        31.932    20467099.138 7  83809379.08107      -234.106 7        42.586
G27        13.000    24163582.213 5 126980687.47905      2477.829 5        30.317                                    24163612.966 1  98945951.00701      1930.738 1         4.000
G26        17.000    20466039.965 7 107549808.71707      -267.529 7        44.215                                    20466141.466 1  83805446.24301      -208.452 1         6.250    20466039.757 6  83805017.43806      -208.419 6        41.983
E30        19.000    25557515.517 7 134305795.17307      1363.108 7        44.999                                                                    25557516.600 7 100293340.90607      1017.882 7        47.017    25557515.384 8 102909630.51508      1044.444 8        48.071
E02        21.000    23107594.971 8 121431488.78808     -1177.612 8        48.811                                                                    23107594.036 8  90679265.94308      -879.391 8        51.123    23107592.985 8  93044819.97308      -902.302 8        48.894
S23        22.000    38075982.245 6 200090678.07506      -866.176 6        38.817
R10        23.000    21893826.545 6 116706428.64406      2696.486 6        40.279
E36        24.000    23312908.917 7 122510191.83307      -599.020 7        44.582                                                                    23312910.628 7  91485049.64807      -447.333 7        43.805    23312909.432 7  93871598.12207      -458.960 7        44.659
R18        25.000    20309319.635 8 108412490.96408     -3587.740 8        50.288                                                                    20309316.378 5  84320840.80705     -2790.398 5        33.647
G16        26.000    21740437.044 7 114246827.79607      1803.953 7        47.946                                    21740431.631 5  89023488.82405      1405.678 5        30.823
S21        27.000    38351503.393 5 201538669.27505      -863.602 5        35.314
R19        29.000    19245596.987 5 102951028.00105      -696.449 5        31.223                                                                    19245597.998 6  80073296.94406      -541.793 6        36.703
C05        30.000                                                                                                                                                                                                    39264128.978 5 158100409.13305      -612.845 5        31.970
S36        31.000    38122340.594 5 200334237.06605      -863.095 5        35.367
E34        32.000    25519566.846 7 134106214.40107      1794.707 7        43.204                                                                    25519568.121 6 100144299.88406      1340.118 6        39.438    25519570.052 6 102756763.34606      1375.093 6        38.676
R16        34.000    20758971.547 6 110890713.90106     -4465.596 6        40.698                                                                    20758963.372 5  86248316.01205     -3473.133 5        33.844
C44        35.000                                                                                                                                    22417196.844 6 116732193.74506     -2818.508 6        38.805                                                                    22417200.795 7  94854694.10207     -2290.341 7        45.454
R09        37.000    19342271.633 7 103286739.80407      -302.388 7        45.415                                                                    19342269.875 7  80334164.30107      -235.207 7        46.471
C11        38.000                                                                                                                                    22841555.218 7 118941994.19307      1158.202 7        42.463    22841554.124 8  91973604.94308       895.659 8        48.083    22841549.597 6  96650086.33806       941.167 6        38.949
C43        39.000                                                                                                                                    24684971.434 5 128541140.73405      1864.975 5        31.555                                                                    24684978.724 4                      1515.158 4        29.772
C12        41.000                                                                                                                                    21682859.305 7 112908436.34007     -1625.727 7        45.654    21682856.995 8  87307974.26908     -1257.122 8        50.209    21682856.104 7  91747344.43707     -1321.191 7        47.216
C19        42.000                                                                                                                                    26315781.569 3                     -1094.482 3        20.762
C13        43.000                                                                                                                                    37637230.870 7 195986937.71907      -477.320 7        44.163    37637230.373 6 151549550.89606      -369.085 6        41.971    37637227.874 6 159255439.81506      -388.014 6        38.880
C38        44.000                                                                                                                                    38576467.054 5                     -1235.242 5        33.126                                                                    38576477.170 4                     -1004.055 4        28.455
C25        45.000                                                                                                                                    22142357.172 7 115301138.07907     -1460.479 7        46.546                                                                    22142357.067 7  93691795.32407     -1186.853 7        43.683
C08        46.000                                                                                                                                    37633633.967 6 195968252.46306      -718.568 6        36.026    37633626.567 5 151535132.34605      -556.109 5        30.272    37633627.480 6 159240233.10106      -584.087 6        39.865
C23        47.000                                                                                                                                    24807798.116 7 129181042.99607      1460.722 7        43.327                                                                    24807792.320 7 104970046.37707      1186.828 7        43.735
C24        51.000                                                                                                                                    23858613.960 6 124238080.23406     -4012.472 6        37.652                                                                    23858613.191 6 100953603.38506     -3260.531 6        41.051
C34        52.000                                                                                                                                    21502145.739 8 111967376.02308        43.704 8        49.405                                                                    21502144.027 7  90982746.33107        35.450 7        46.261
I06        58.000    38636965.139 5 151619865.33805      -642.348 5        35.224
> 2025 01 02 17 31 20.0000000  0 40
G23         2.000    23767839.054 3                      2637.821 3        19.134
G25         3.000    24218091.663 4                     -4649.136 4        24.195
G05         4.000                                                                                                                                                                    22986933.167 4  94127665.74804     -1607.195 4        24.647
E25         6.000    25643227.593 6 134756061.60106     -3427.946 6        37.463                                                                    25643224.656 4 100629546.79304     -2559.992 4        26.503    25643230.296 6 103254692.81206     -2626.632 6        38.553
G31         7.000    22773888.868 7 119678206.83507     -3497.126 7        45.878                                    22773874.855 4  93255119.78404     -2725.033 4        26.156
G28         8.000    23988524.653 5 126060436.12905     -4273.848 5        32.275                                    23988491.387 1  98228855.21201     -3330.337 1         4.429    23988493.922 5  98228879.13305     -3330.454 5        30.717
G29         9.000    21732411.627 6 114204684.63206     -3123.502 6        41.461                                    21732406.118 5  88990671.84605     -2433.907 5        30.370    21732405.257 5  88990572.82605     -2433.740 5        35.086
E11        10.000    25285495.159 4 132876201.89204     -3111.576 4        24.180                                                                    25285496.613 5  99225737.34905     -2323.733 5        32.377    25285494.864 4 101814220.85904     -2384.373 4        29.630
E10        11.000                                                                                                                                    27878367.778 4                     -2812.646 4        28.483
G18        12.000    20467389.219 7 107557082.80907      -303.285 7        46.558                                    20467386.331 5  83810591.35105      -236.325 5        31.668    20467386.443 6  83810555.34206      -236.387 6        41.435
G27        13.000    24161227.210 4 126968297.65304      2477.621 4        27.928                                    24161256.806 1  98936296.77501      1930.579 1         4.429    24161261.215 3                      1932.099 3        20.690
G26        17.000    20466295.969 7 107551153.76407      -270.429 7        44.889                                    20466396.926 2  83806494.21402      -210.696 2        12.182    20466295.468 6  83806065.54206      -210.668 6        41.812
R02        18.000                                                                                                                                    23184681.114 4                       109.754 4        25.444
E30        19.000    25556218.986 7 134298982.39207      1362.121 7        44.983                                                                    25556220.279 7 100288253.44807      1017.200 7        47.008    25556218.844 7 102904410.34207      1043.762 7        47.750
E02        21.000    23108716.262 8 121437381.80308     -1179.413 8        48.238                                                                    23108715.488 8  90683666.57508      -880.740 8        51.000    23108714.334 8  93049335.41208      -903.754 8        48.814
S23        22.000    38076809.464 6 200095008.92806      -866.268 6        38.577
R10        23.000    21891297.663 6 116692951.59706      2694.370 6        39.186
E36        24.000    23313480.059 7 122513192.42807      -601.095 7        44.111                                                                    23313481.620 7  91487290.36007      -448.864 7        43.793    23313480.258 7  93873897.29507      -460.612 7        44.947
R18        25.000    20312680.434 8 108430433.98808     -3589.403 8        49.271                                                                    20312677.898 5  84334796.44805     -2791.665 5        32.407
G16        26.000    21738721.908 8 114237812.90108      1802.134 8        48.093                                    21738716.724 5  89016464.24205      1404.256 5        30.913
S21        27.000    38352320.332 5 201542986.89505      -863.402 5        35.562
R01        28.000    24087179.416 4                     -2989.893 4        24.857
R19        29.000    19246249.525 4 102954518.13104      -698.716 4        29.374                                                                    19246249.700 6  80076011.50106      -544.144 6        36.250
C05        30.000                                                                                                                                                                                                    39264890.245 5 158103472.90505      -612.127 5        32.341
S36        31.000    38123159.411 5 200338552.10805      -862.759 5        35.105
E34        32.000    25517859.356 7 134097243.59107      1793.632 7        42.654                                                                    25517861.033 6 100137600.92906      1339.390 6        38.952    25517864.254 6 102749889.64706      1374.220 6        38.282
R16        34.000    20763144.026 6 110913048.17506     -4468.087 6        40.689                                                                    20763142.449 5  86265687.17305     -3475.013 5        34.024
C44        35.000                                                                                                                                    22419905.829 6 116746289.07606     -2819.458 6        37.800                                                                    22419907.732 7  94866147.71907     -2291.165 7        45.255
R09        37.000    19342556.634 7 103288262.81207      -306.728 7        44.513                                                                    19342555.120 7  80335348.87107      -238.491 7        46.379
C11        38.000                                                                                                                                    22840443.806 7 118936206.44007      1156.990 7        42.627    22840441.981 7  91969129.50207       894.629 7        47.168    22840437.872 6  96645383.33906       940.076 6        38.510
C43        39.000                                                                                                                                    24683182.131 5 128531817.69505      1864.404 5        30.362                                                                    24683186.591 4                      1514.730 4        29.280
C12        41.000                                                                                                                                    21684421.588 7 112916569.30707     -1627.300 7        46.267    21684418.900 8  87314263.20308     -1258.376 8        50.272    21684418.007 7  91753953.14607     -1322.452 7        47.133
C13        43.000                                                                                                                                    37637689.319 7 195989326.68807      -478.236 7        43.884    37637689.609 7 151551398.20607      -369.829 7        42.047    37637686.957 6 159257381.04706      -388.529 6        39.000
C38        44.000                                                                                                                                    38577651.935 5                     -1236.072 5        33.311                                                                    38577662.338 4                     -1004.541 4        28.882
C25        45.000                                                                                                                                    22143760.985 7 115308447.92307     -1463.248 7        45.595                                                                    22143760.974 7  93697735.18707     -1189.158 7        43.678
C08        46.000                                                                                                                                    37634324.614 6 195971848.32606      -719.792 6        36.163    37634316.521 5 151537912.87105      -556.043 5        30.777    37634318.045 6 159243155.02406      -584.870 6        39.931
C23        47.000                                                                                                                                    24806396.380 7 129173744.48007      1458.781 7        43.185                                                                    24806390.928 7 104964115.73507      1185.364 7        43.554
C24        51.000                                                                                                                                    23862468.215 6 124258145.56106     -4013.732 6        37.153                                                                    23862466.735 6 100969908.10606     -3261.342 6        41.695
C34        52.000                                                                                                                                    21502104.349 8 111967161.86308        42.083 8        49.421                                                                    21502103.103 7  90982572.32707        34.051 7        46.392
I06        58.000    38637783.121 5 151623077.11505      -642.673 5        35.538
> 2025 01 02 17 31 25.0000000  0 39
G25         3.000    24222517.791 4                     -4649.889 4        25.338                                                                                                    24222550.879 4                     -3622.721 4        24.316
E25         6.000    25646490.031 6 134773204.55106     -3429.144 6        37.732                                                                    25646485.716 4 100642348.33204     -2560.396 4        24.451    25646492.975 6 103267828.31606     -2627.366 6        37.508
G31         7.000    22777217.191 7 119695697.70207     -3499.095 7        46.136                                    22777201.836 4  93268749.01204     -2726.565 4        25.865    22777299.152 4                     -2726.527 4        27.725
G28         8.000    23992593.668 5 126081808.03005     -4274.682 5        30.558                                    23992557.304 1  98245508.68101     -3330.707 1         3.600    23992562.818 5  98245532.51505     -3330.747 5        30.732
G29         9.000    21735384.560 6 114220305.61906     -3124.740 6        41.354                                    21735377.815 4  89002844.02104     -2434.861 4        29.915    21735378.215 5  89002745.01605     -2434.790 5        34.738
E11        10.000    25288457.132 4 132891763.40204     -3113.088 4        25.188                                                                    25288457.515 5  99237357.87705     -2324.586 5        32.647    25288456.158 4 101826144.55904     -2385.358 4        29.336
E10        11.000    27881987.313 3                     -3764.869 3        19.075                                                                    27881952.937 4                     -2813.203 4        27.437
G18        12.000    20467679.183 7 107558606.71307      -306.199 7        45.433                                    20467675.828 5  83811778.81105      -238.593 5        31.321    20467676.635 6  83811742.79906      -238.492 6        41.364
G26        17.000    20466554.611 7 107552513.56807      -273.365 7        44.465                                    20466654.898 2  83807553.62702      -212.951 2        13.939    20466554.297 7  83807125.15907      -213.154 7        42.256
R02        18.000                                                                                                                                    23184547.471 4                       109.895 4        26.072
E30        19.000    25554923.424 7 134292174.29707      1361.233 7        44.781                                                                    25554924.784 7 100283169.49907      1016.449 7        46.950    25554923.344 7 102899193.76807      1042.998 7        47.461
R20        20.000                                                                                                                                    22791498.715 4                      2125.281 4        26.467
E02        21.000    23109839.524 8 121443284.18008     -1181.355 8        48.226                                                                    23109838.707 8  90688074.19708      -882.233 8        50.862    23109837.454 8  93053858.01208      -905.293 8        48.750
S23        22.000    38077632.534 6 200099339.64806      -866.085 6        38.886
R10        23.000    21888770.630 6 116679485.48506      2692.068 6        37.047
E36        24.000    23314052.497 7 122516203.46107      -603.284 7        43.283                                                                    23314054.574 7  91489538.86607      -450.380 7        43.928    23314053.123 7  93876204.45907      -462.198 7        45.046
R18        25.000    20316042.713 8 108448385.47608     -3591.077 8        48.187                                                                    20316041.452 5  84348758.68105     -2792.724 5        31.079
G16        26.000    21737008.482 8 114228807.52108      1800.178 8        48.408                                    21737003.444 5  89009447.07205      1402.733 5        30.891
S21        27.000    38353138.997 5 201547304.35805      -863.414 5        35.438
R01        28.000    24089974.672 4                     -2992.865 4        24.120
R19        29.000    19246907.993 4 102958023.89804      -702.604 4        29.848                                                                    19246904.401 6  80078738.20906      -546.719 6        36.299
C05        30.000                                                                                                                                                                                                    39265650.859 5 158106536.58605      -612.540 5        32.042
S36        31.000    38123978.473 5 200342866.59205      -862.689 5        35.257
E34        32.000    25516153.119 7 134088278.51907      1792.418 7        42.061                                                                    25516154.755 6 100130906.25306      1338.480 6        38.724    25516159.885 6 102743020.32406      1373.443 6        37.970
R16        34.000    20767325.628 6 110935395.69306     -4470.799 6        41.211                                                                    20767324.661 5  86283068.64605     -3477.324 5        35.748
C44        35.000                                                                                                                                    22422616.098 6 116760389.79006     -2820.427 6        36.930                                                                    22422615.540 7  94877605.73607     -2292.057 7        45.236
R09        37.000    19342845.056 7 103289807.66107      -311.106 7        42.565                                                                    19342844.867 7  80336550.43107      -242.025 7        46.539
C11        38.000                                                                                                                                    22839334.866 7 118930425.43807      1155.509 7        43.433    22839330.481 7  91964659.27007       893.462 7        45.854    22839327.863 6  96640685.83006       938.798 6        38.249
C43        39.000                                                                                                                                    24681393.947 4 128522498.40204      1863.394 4        26.778                                                                    24681396.239 4                      1514.084 4        29.223
C12        41.000                                                                                                                                    21685985.523 7 112924710.35107     -1628.990 7        46.512    21685982.488 8  87320558.38408     -1259.636 8        50.065    21685981.351 7  91760568.43107     -1323.767 7        47.146
C19        42.000                                                                                                                                    26317876.457 4                     -1099.817 4        24.195
C13        43.000                                                                                                                                    37638148.545 7 195991720.54207      -479.283 7        43.581    37638149.015 7 151553249.29207      -370.624 7        42.045    37638146.651 6 159259326.25706      -389.490 6        38.973
C38        44.000                                                                                                                                    38578840.953 5                     -1236.891 5        33.353                                                                    38578849.710 4                     -1005.339 4        29.763
C25        45.000                                                                                                                                    22145167.535 7 115315771.57307     -1466.052 7        44.466                                                                    22145167.361 7  93703686.24607     -1191.399 7        43.850
C08        46.000                                                                                                                                    37635015.924 6 195975449.53706      -720.866 6        36.170    37635007.716 5 151540697.57505      -557.284 5        31.366    37635009.700 6 159246081.34006      -585.762 6        40.124
C23        47.000                                                                                                                                    24804996.848 7 129166455.22407      1456.862 7        43.247                                                                    24804991.244 7 104958192.61507      1183.876 7        43.602
C24        51.000                                                                                                                                    23866323.450 6 124278216.20406     -4014.810 6        37.951                                                                    23866321.104 7 100986217.16807     -3262.270 7        42.190
C34        52.000                                                                                                                                    21502064.258 8 111966956.14408        40.351 8        48.930                                                                    21502063.785 7  90982405.16807        32.722 7        46.735
I06        58.000    38638600.490 5 151626288.48705      -642.389 5        35.624
> 2025 01 02 17 31 30.0000000  0 38
G25         3.000    24226946.634 4                     -4650.986 4        26.850                                                                                                    24226976.230 3                     -3624.719 3        23.124
E25         6.000    25649754.446 6 134790353.92706     -3430.622 6        37.679                                                                                                                                    25649756.772 6 103280968.75506     -2628.574 6        36.299
G31         7.000    22780547.667 7 119713199.84807     -3501.684 7        45.994                                    22780531.580 4  93282387.03604     -2728.579 4        25.970
G28         8.000    23996661.948 4 126103184.40804     -4276.029 4        28.739                                    23996625.676 1  98262165.53001     -3331.973 1         1.333    23996628.163 4  98262189.46604     -3331.536 4        29.886
G29         9.000    21738358.458 6 114235934.14806     -3126.615 6        41.485                                    21738351.069 4  89015022.08604     -2436.328 4        29.602    21738353.052 5  89014923.06805     -2436.143 5        34.014
E11        10.000    25291420.999 4 132907331.87404     -3114.291 4        26.994                                                                    25291420.020 5  99248983.66305     -2325.897 5        33.168    25291417.328 4 101838073.65004     -2386.785 4        28.322
E10        11.000    27885566.239 3                     -3768.453 3        20.262                                                                    27885537.175 4                     -2812.928 4        26.898
G18        12.000    20467972.212 7 107560146.39007      -309.592 7        44.770                                    20467968.536 5  83812978.56605      -241.240 5        31.102    20467969.985 7  83812942.56007      -241.279 7        42.819
G26        17.000    20466816.112 7 107553889.51007      -276.833 7        43.507                                    20466916.278 1  83808625.64001      -215.695 1        10.444    20466816.433 7  83808197.31707      -215.775 7        42.783
R02        18.000                                                                                                                                    23184408.904 4                       106.243 4        25.188
E30        19.000    25553629.150 7 134285372.32907      1359.679 7        44.327                                                                    25553630.448 7 100278090.12107      1015.256 7        46.983    25553629.039 7 102893981.88507      1041.829 7        47.321
E02        21.000    23110964.851 8 121449197.31108     -1183.815 8        48.068                                                                    23110963.959 8  90692489.84708      -884.054 8        50.611    23110962.750 8  93058388.85708      -907.138 8        48.803
S23        22.000    38078454.154 6 200103671.46206      -866.609 6        38.393
R10        23.000    21886247.526 6 116666031.72206      2689.466 6        36.098
E36        24.000    23314627.834 7 122519226.33407      -605.958 7        42.389                                                                    23314629.792 7  91491796.21507      -452.408 7        44.193    23314628.267 7  93878520.68707      -464.256 7        45.236
R18        25.000    20319407.322 7 108466346.80107     -3593.280 7        46.507                                                                    20319405.073 5  84362728.70405     -2794.658 5        31.336
G16        26.000    21735296.843 8 114219813.09908      1797.678 8        48.926                                    21735292.226 5  89002438.44205      1400.786 5        30.891
S21        27.000    38353962.482 5 201551623.08805      -863.947 5        35.129
R01        28.000    24092772.544 3                     -2996.265 3        23.105
R19        29.000    19247567.606 4 102961546.60804      -706.556 4        28.227                                                                    19247563.645 6  80081478.09306      -549.336 6        36.110
C05        30.000                                                                                                                                                                                                    39266411.102 5 158109601.13205      -613.148 5        32.132
S36        31.000    38124805.504 5 200347182.08005      -863.143 5        35.214
E34        32.000    25514449.149 6 134079320.58506      1790.697 6        41.919                                                                    25514449.145 6 100124216.91106      1337.064 6        38.459    25514456.600 6 102736156.46206      1372.147 6        37.293
R16        34.000    20771515.511 6 110957757.76406     -4474.060 6        39.805                                                                    20771510.119 6  86300461.34006     -3479.728 6        36.420
C44        35.000                                                                                                                                    22425326.997 6 116774497.28306     -2822.213 6        38.643                                                                    22425324.768 7  94889069.24507     -2293.240 7        44.922
R09        37.000    19343139.328 7 103291375.56307      -315.994 7        43.708                                                                    19343138.322 7  80337769.92307      -245.781 7        45.836
C11        38.000                                                                                                                                    22838226.856 7 118924652.52407      1153.670 7        43.934    22838221.428 7  91960195.30807       892.061 7        45.257    22838219.345 6  96635994.87806       937.639 6        37.595
C43        39.000                                                                                                                                    24679607.463 4                      1862.774 4        24.090                                                                    24679605.662 4                      1513.590 4        27.545
C12        41.000                                                                                                                                    21687550.901 7 112932860.84707     -1631.147 7        46.507    21687547.680 8  87326860.87008     -1261.268 8        49.912    21687546.487 7  91767191.36007     -1325.281 7        46.696
C19        42.000                                                                                                                                    26318935.552 3                     -1104.059 3        19.373
C13        43.000                                                                                                                                    37638609.045 7 195994120.61607      -480.695 7        43.365    37638609.989 7 151555105.17107      -371.702 7        42.229    37638607.457 6 159261276.50006      -390.370 6        38.712
C38        44.000                                                                                                                                    38580030.275 5                     -1237.929 5        33.431                                                                    38580037.319 4                     -1005.461 4        29.166
C25        45.000                                                                                                                                    22146578.021 7 115323110.40007     -1469.315 7        43.156                                                                    22146576.611 7  93709649.62007     -1193.776 7        43.511
C08        46.000                                                                                                                                    37635708.437 6 195979057.39206      -722.363 6        36.212    37635700.450 5 151543487.41405      -558.400 5        30.989    37635702.656 6 159249012.99706      -586.742 6        40.043
C23        47.000                                                                                                                                    24803599.034 7 129159176.60907      1454.537 7        43.464                                                                    24803593.618 7 104952278.12907      1182.133 7        43.164
C24        51.000                                                                                                                                    23870179.653 6 124298293.53206     -4016.285 6        38.850                                                                    23870176.827 7 101002531.62807     -3263.361 7        42.265
C34        52.000                                                                                                                                    21502026.211 8 111966760.24008        38.098 8        48.097                                                                    21502026.240 7  90982245.96407        31.108 7        46.526
I06        58.000    38639419.580 5 151629500.58205      -642.662 5        35.543
> 2025 01 02 17 31 35.0000000  0 40
G25         3.000    24231375.740 4                     -4651.013 4        27.713                                                                                                    24231402.470 3                     -3624.941 3        21.833
E25         6.000    25653019.687 6 134807508.79806     -3431.402 6        37.989                                                                    25653043.288 5 100667964.74705     -2562.168 5        31.162    25653021.660 5 103294113.43505     -2629.134 5        34.986
G31         7.000    22783879.983 7 119730712.29207     -3503.475 7        45.162                                    22783863.936 4  93296033.09504     -2729.976 4        25.368
G28         8.000    24000737.249 4 126124564.49504     -4277.345 4        25.895                                    24000693.837 1  98278825.35301     -3332.917 1         4.429    24000697.499 4  98278849.12504     -3332.364 4        27.198
G29         9.000    21741333.562 6 114251569.24506     -3127.688 6        41.461                                    21741325.708 4  89027205.26604     -2437.161 4        28.825    21741327.975 5  89027106.26805     -2436.947 5        33.341
E11        10.000    25294385.209 4 132922906.38904     -3115.105 4        27.725                                                                    25294383.490 5  99260614.00705     -2326.584 5        33.778    25294380.480 4 101850007.32404     -2386.984 4        28.825
E10        11.000    27889151.514 3                     -3769.980 3        19.672                                                                    27889122.965 4                     -2813.300 4        26.491
G18        12.000    20468268.563 7 107561700.88707      -312.344 7        44.545                                    20468264.316 5  83814189.86005      -243.385 5        31.072    20468266.069 7  83814153.84807      -243.424 7        44.757
G27        13.000    24154136.115 5                      2476.302 5        31.396
G26        17.000    20467081.312 7 107555280.67007      -279.707 7        42.815                                    20467180.824 1  83809709.33301      -217.830 1         7.875    20467081.306 7  83809281.32607      -217.921 7        42.832
R02        18.000                                                                                                                                    23184290.106 3                        99.503 3        20.381
E30        19.000    25552335.792 7 134278575.50307      1358.851 7        43.983                                                                    25552337.101 7 100273014.57007      1014.720 7        46.875    25552335.796 7 102888773.93407      1041.183 7        47.115
R20        20.000                                                                                                                                    22786426.057 4                      2122.883 4        27.641
E02        21.000    23112091.802 7 121455120.23407     -1185.557 7        47.872                                                                    23112091.075 8  90696912.80908      -885.315 8        50.555    23112089.859 8  93062927.20308      -908.458 8        48.938
S23        22.000    38079280.921 6 200108003.60206      -866.517 6        38.763
R10        23.000    21883726.262 5 116652589.44905      2687.302 5        35.852
E36        24.000    23315205.383 6 122522260.05806      -607.690 6        41.821                                                                    23315207.024 7  91494061.66907      -453.818 7        44.441    23315205.774 7  93880845.23707      -465.698 7        45.312
R18        25.000    20322772.334 7 108484316.92507     -3594.942 7        43.465                                                                    20322772.545 5  84376705.42505     -2795.834 5        32.479
G16        26.000    21733586.855 8 114210828.59808      1795.892 8        49.679                                    21733582.684 5  88995437.54505      1399.400 5        30.853
S21        27.000    38354781.857 5 201555941.95605      -863.798 5        35.433
R01        28.000    24095571.225 3                     -3005.563 3        19.851
R19        29.000    19248226.389 4 102965085.28704      -708.966 4        28.588                                                                    19248225.267 6  80084230.43906      -551.653 6        36.571
C05        30.000                                                                                                                                                                                                    39267172.910 5 158112665.83805      -612.817 5        31.736
S36        31.000    38125622.644 5 200351497.97305      -863.228 5        35.424
E34        32.000    25512745.951 6 134070368.84106      1789.736 6        41.943                                                                    25512745.050 6 100117532.17006      1336.523 6        39.054    25512754.451 5 102729297.35705      1371.190 5        35.624
R16        34.000    20775704.889 6 110980133.39606     -4476.426 6        37.898                                                                    20775699.049 6  86317864.61606     -3481.534 6        37.607
C44        35.000                                                                                                                                    22428039.452 6 116788610.58606     -2823.183 6        40.760                                                                    22428035.171 7  94900537.49407     -2294.114 7        44.754
R09        37.000    19343438.073 7 103292965.67107      -320.239 7        44.989                                                                    19343436.215 7  80339006.67107      -249.119 7        44.983
C11        38.000                                                                                                                                    22837120.542 7 118918886.76707      1152.486 7        44.707    22837115.046 7  91955736.87807       891.039 7        45.282    22837111.999 6  96631309.74806       936.451 6        37.346
C43        39.000                                                                                                                                    24677818.644 4                      1861.367 4        26.910                                                                    24677812.577 4                      1513.347 4        24.842
C12        41.000                                                                                                                                    21689117.205 7 112941019.83707     -1632.647 7        46.445    21689114.549 8  87333169.91608     -1262.450 8        49.266    21689113.247 7  91773821.20607     -1326.634 7        46.386
C19        42.000                                                                                                                                    26319983.968 3                     -1107.276 3        19.493
C13        43.000                                                                                                                                    37639070.206 7 195996526.04507      -481.612 7        42.811    37639071.751 7 151556965.20207      -372.516 7        42.171    37639069.433 6 159263231.11006      -391.434 6        38.736
C38        44.000                                                                                                                                    38581218.828 5                     -1238.898 5        32.545                                                                    38581226.534 4                     -1006.823 4        29.962
C25        45.000                                                                                                                                    22147990.833 7 115330463.44807     -1472.032 7        42.237                                                                    22147988.509 7  93715624.56807     -1196.237 7        43.308
C08        46.000                                                                                                                                    37636400.893 5 195982670.93105      -723.257 5        35.871    37636393.384 5 151546281.62105      -559.247 5        31.600    37636396.607 6 159251949.31106      -587.814 6        40.210
C23        47.000                                                                                                                                    24802202.400 7 129151907.69507      1452.878 7        44.129                                                                    24802197.535 7 104946371.55107      1180.623 7        42.789
C24        51.000                                                                                                                                    23874036.758 6 124318376.59006     -4017.095 6        40.112                                                                    23874033.765 7 101018850.77207     -3264.259 7        42.252
C34        52.000                                                                                                                                    21501990.276 7 111966573.21007        36.540 7        47.088                                                                    21501990.431 7  90982093.98307        29.686 7        46.616
I06        58.000    38640237.934 5 151632712.65805      -642.426 5        35.586
> 2025 01 02 17 31 40.0000000  0 40
G25         3.000    24235803.804 4                     -4651.421 4        26.994                                                                                                    24235817.888 3                     -3625.083 3        19.493
E25         6.000    25656285.279 6 134824668.15806     -3432.076 6        38.417                                                                    25656302.015 5 100680778.59705     -2563.013 5        32.653    25656288.378 5 103307261.58505     -2629.966 5        34.405
G31         7.000    22787213.275 7 119748234.04107     -3505.200 7        43.856                                    22787198.407 4  93309686.39504     -2731.332 4        25.143
G28         8.000    24004811.810 3                     -4277.874 3        22.438                                                                                                    24004760.957 3  98295510.83603     -3332.874 3        22.190
G29         9.000    21744309.453 6 114267209.97006     -3128.799 6        40.758                                    21744301.569 4  89039392.83304     -2438.014 4        28.455    21744306.234 5  89039293.80105     -2437.451 5        34.019
E11        10.000    25297351.889 4 132938486.06604     -3116.440 4        27.066                                                                    25297348.109 5  99272248.12405     -2327.143 5        33.371    25297345.030 4 101861944.94604     -2388.155 4        28.483
E10        11.000                                                                                                                                    27892708.508 4                     -2813.359 4        26.096
G18        12.000    20468567.209 7 107563269.21307      -314.898 7        44.682                                    20468562.922 5  83815411.93105      -245.374 5        31.494    20468564.300 7  83815375.92607      -245.437 7        45.648
G27        13.000    24151784.453 5                      2476.095 5        30.702
G26        17.000    20467349.152 7 107556686.04807      -282.335 7        42.830                                    20467447.972 1  83810804.14401      -219.984 1         9.238    20467347.982 7  83810376.43007      -220.027 7        42.770
R02        18.000    23184202.079 4                       128.889 4        28.512
E30        19.000    25551043.160 7 134271782.87607      1358.204 7        44.081                                                                    25551044.431 7 100267942.16207      1014.208 7        46.806    25551043.304 7 102883569.20407      1040.693 7        46.906
R20        20.000                                                                                                                                    22783868.486 4                      2121.645 4        27.820
E02        21.000    23113220.260 7 121461051.97407     -1187.081 7        47.438                                                                    23113219.787 8  90701342.35508      -886.526 8        50.361    23113218.713 8  93067472.30008      -909.641 8        48.980
S23        22.000    38080105.157 6 200112335.12706      -866.102 6        38.736
R10        23.000    21881206.530 5 116639157.33405      2685.630 5        35.967
E36        24.000    23315784.816 6 122525303.68406      -609.596 6        41.571                                                                    23315786.249 7  91496334.50807      -455.257 7        44.870    23315785.254 7  93883177.36507      -467.108 7        45.421
R18        25.000    20326139.615 7 108502294.92407     -3596.273 7        42.368                                                                    20326140.593 5  84390688.35905     -2797.016 5        33.623
G16        26.000    21731878.630 8 114201853.07408      1794.313 8        50.023                                    21731874.636 5  88988443.64005      1398.167 5        30.687
S21        27.000    38355605.226 5 201560259.81105      -863.321 5        35.514
R19        29.000    19248891.133 4 102968638.93504      -712.205 4        28.190                                                                    19248890.439 6  80086994.37806      -553.682 6        37.278
C05        30.000                                                                                                                                                                                                    39267933.372 5 158115729.96605      -612.743 5        32.054
S36        31.000    38126442.498 5 200355813.02005      -862.916 5        35.286
E34        32.000    25511043.257 6 134061422.28806      1788.824 6        41.933                                                                    25511042.788 6 100110851.32906      1335.844 6        39.270    25511053.848 5 102722442.16605      1370.784 5        33.898
R16        34.000                                                                                                                                    20779889.906 6  86335277.72006     -3483.509 6        39.766
C44        35.000                                                                                                                                    22430752.107 7 116802728.78007     -2824.093 7        42.878                                                                    22430746.428 7  94912009.70107     -2294.706 7        45.025
R09        37.000    19343739.530 7 103294576.95807      -324.310 7        44.504                                                                    19343738.506 7  80340259.90107      -252.253 7        45.237
C11        38.000                                                                                                                                    22836015.323 7 118913127.22407      1151.406 7        44.828    22836010.098 7  91951283.25307       890.309 7        45.717    22836005.701 6  96626629.67306       935.632 6        37.017
C43        39.000                                                                                                                                    24676027.455 5                      1861.098 5        30.136
C12        41.000                                                                                                                                    21690685.040 7 112949186.33707     -1633.963 7        46.575    21690682.741 8  87339484.76708     -1263.486 8        48.351    21690681.285 7  91780457.16407     -1327.682 7        46.261
C19        42.000                                                                                                                                    26321053.165 3                     -1109.972 3        20.690
C13        43.000                                                                                                                                    37639532.093 7 195998935.81407      -482.329 7        42.317    37639534.444 6 151558828.58606      -372.958 6        41.952    37639532.391 6 159265189.23006      -391.822 6        38.838
C38        44.000                                                                                                                                    38582406.750 5                     -1239.451 5        32.862                                                                    38582416.509 5                     -1007.318 5        30.543
C25        45.000                                                                                                                                    22149405.180 7 115337829.74107     -1474.470 7        42.191                                                                    22149403.282 7  93721610.28907     -1198.136 7        43.403
C08        46.000                                                                                                                                    37637096.050 5 195986289.22305      -723.977 5        35.514    37637087.603 5 151549079.53105      -559.596 5        32.455    37637091.507 6 159254889.48806      -588.229 6        40.737
C23        47.000                                                                                                                                    24800808.186 7 129144647.49607      1451.265 7        44.889                                                                    24800803.206 7 104940472.04907      1179.324 7        42.502
C24        51.000                                                                                                                                    23877893.710 6 124338464.42006     -4018.017 6        40.961                                                                    23877891.465 7 101035173.78707     -3264.898 7        42.152
C34        52.000                                                                                                                                    21501956.304 7 111966394.08107        35.071 7        46.512                                                                    21501955.997 7  90981948.42407        28.576 7        46.913
I06        58.000    38641056.639 5 151635923.99905      -642.278 5        35.705
I02        59.000    38512715.402 6 151132167.65216     -1203.920 6        37.962
> 2025 01 02 17 31 45.0000000  0 38
G23         2.000    23755310.136 5 124835032.72915      2635.041 5        34.833
G25         3.000    24240224.808 4                     -4652.151 4        26.156                                                                                                    24240236.500 3                     -3624.575 3        19.493
E25         6.000    25659550.865 6 134841832.12306     -3433.176 6        38.240                                                                    25659561.766 5 100693595.85905     -2563.841 5        31.547    25659556.667 5 103320413.24305     -2630.656 5        34.071
G31         7.000    22790549.645 7 119765765.15407     -3507.087 7        42.950                                    22790535.280 4  93323346.99204     -2732.791 4        25.489    22790537.377 4                     -2733.351 4        27.988
G29         9.000    21747286.159 6 114282856.32806     -3129.911 6        39.444                                    21747278.757 4  89051584.79404     -2438.896 4        28.190    21747283.797 5  89051485.81605     -2438.741 5        34.057
E11        10.000    25300321.759 4 132954070.79004     -3116.753 4        26.862                                                                    25300313.493 5  99283886.04405     -2327.552 5        33.066    25300310.292 4 101873886.51704     -2388.412 4        28.464
E10        11.000                                                                                                                                    27896294.620 4                     -2814.735 4        25.895
G18        12.000    20468868.616 7 107564851.41707      -317.754 7        44.769                                    20468864.381 5  83816644.82205      -247.607 5        31.894    20468864.269 7  83816608.82207      -247.623 7        45.037
G27        13.000    24149427.286 4                      2475.538 4        27.677                                                                                                    24149447.796 3                      1928.437 3        23.314
G26        17.000    20467620.075 7 107558105.69707      -285.249 7        42.645                                    20467717.946 1  83811910.28101      -222.210 1        10.444    20467618.320 7  83811482.65007      -222.366 7        42.423
R02        18.000    23184079.521 4                       125.274 4        27.413
E30        19.000    25549751.401 7 134264994.48407      1357.283 7        44.427                                                                    25549752.681 7 100262872.91007      1013.574 7        46.812    25549751.676 7 102878367.71107      1040.048 7        46.678
E02        21.000    23114350.753 7 121466992.59707     -1188.985 7        47.231                                                                    23114350.207 8  90705778.52708      -887.846 8        50.054    23114349.290 8  93072024.20008      -910.995 8        49.016
S23        22.000    38080930.091 6 200116665.80406      -865.924 6        38.778
R10        23.000    21878689.662 6 116625735.52906      2683.530 6        37.369
E36        24.000    23316366.549 6 122528357.24306      -611.564 6        41.490                                                                    23316367.202 7  91498614.77607      -456.696 7        45.115    23316366.455 7  93885517.11207      -468.644 7        45.359
R18        25.000    20329509.345 7 108520280.81907     -3597.940 7        43.426                                                                    20329510.363 6  84404677.38306     -2798.359 6        36.575
G16        26.000    21730172.109 8 114192886.63908      1792.462 8        49.752                                    21730168.001 5  88981456.81505      1396.716 5        30.257
S21        27.000    38356424.141 5 201564576.96505      -863.498 5        35.267
R19        29.000    19249556.035 4 102972207.68504      -715.201 4        27.796                                                                    19249558.462 6  80089770.12606      -556.215 6        38.153
C05        30.000                                                                                                                                                                                                    39268694.876 5 158118793.58505      -612.710 5        32.341
S36        31.000    38127263.765 5 200360127.17905      -863.128 5        35.857
E34        32.000    25509341.274 7 134052481.00807      1787.845 7        42.006                                                                    25509341.571 6 100104174.41206      1335.100 6        40.074    25509354.141 5 102715591.01705      1369.972 5        33.216
R16        34.000    20784076.843 4 111024922.63704     -4481.666 4        29.536                                                                    20784083.204 6  86352700.57106     -3485.451 6        41.185
C44        35.000                                                                                                                                    22433464.244 7 116816851.87607     -2825.119 7        44.247                                                                    22433458.673 7  94923485.88707     -2295.604 7        44.772
R09        37.000    19344044.058 7 103296209.50007      -328.451 7        43.799                                                                    19344043.932 7  80341529.65707      -255.529 7        45.937
C11        38.000                                                                                                                                    22834910.489 7 118907373.90907      1150.084 7        44.662    22834905.955 7  91946834.44307       889.345 7        46.421    22834900.150 6  96621954.66806       934.515 6        36.140
C43        39.000                                                                                                                                    24674239.119 5                      1860.444 5        31.260                                                                    24674225.603 4                      1509.641 4        24.211
C12        41.000                                                                                                                                    21692254.718 7 112957360.42907     -1635.531 7        46.997    21692252.513 7  87345805.48507     -1264.671 7        47.451    21692250.876 7  91787099.29507     -1329.023 7        45.792
C13        43.000                                                                                                                                    37639995.364 6 196001350.00606      -483.258 6        41.528    37639997.876 7 151560695.37707      -373.637 7        42.006    37639995.921 6 159267150.95106      -392.470 6        38.709
C38        44.000                                                                                                                                    38583598.147 5                     -1240.677 5        32.635                                                                    38583606.926 5                     -1008.186 5        30.475
C25        45.000                                                                                                                                    22150823.190 7 115345209.29207     -1477.157 7        43.710                                                                    22150820.548 7  93727606.81707     -1200.394 7        42.929
C08        46.000                                                                                                                                    37637792.530 5 195989912.30405      -724.851 5        35.129    37637784.505 5 151551881.16005      -560.983 5        33.395    37637787.336 6 159257833.55806      -589.216 6        40.539
C23        47.000                                                                                                                                    24799416.181 7 129137396.12007      1449.463 7        45.735                                                                    24799410.288 6 104934579.74306      1177.856 6        41.876
C24        51.000                                                                                                                                    23881751.669 6 124358557.04706     -4019.002 6        41.709                                                                    23881750.029 6 101051500.71406     -3265.846 6        41.588
C34        52.000                                                                                                                                    21501923.100 7 111966222.89007        33.419 7        46.607                                                                    21501923.025 7  90981809.33007        27.163 7        46.836
I06        58.000    38641875.148 5 151639134.65505      -641.868 5        35.243
I02        59.000    38514247.966 6 151138188.48106     -1204.121 6        37.849
> 2025 01 02 17 31 50.0000000  0 39
G25         3.000    24244649.711 4                     -4652.696 4        25.744
G05         4.000    22998790.904 5                     -2082.392 5        32.018
E25         6.000    25662817.674 6 134859001.38806     -3433.995 6        36.715                                                                    25662826.643 5 100706417.13705     -2564.972 5        30.672    25662825.487 5 103333569.00505     -2631.568 5        34.790
G31         7.000    22793888.682 7 119783306.40507     -3509.061 7        42.317                                    22793874.437 4  93337015.49604     -2734.325 4        25.955    22793882.468 4                     -2734.490 4        29.697
G29         9.000    21750265.325 6 114298509.13806     -3130.818 6        36.888                                    21750257.533 4  89063781.78504     -2439.598 4        28.142    21750263.614 5  89063682.81005     -2439.892 5        34.790
E11        10.000                                                                                                                                    25303279.676 5  99295528.45505     -2328.875 5        32.623    25303277.464 4 101885832.61804     -2389.831 4        28.616
E10        11.000    27899927.923 3                     -3768.985 3        19.522                                                                    27899882.417 4                     -2814.282 4        25.669
G18        12.000    20469171.698 7 107566448.31107      -320.624 7        45.804                                    20469168.599 5  83817889.16005      -249.839 5        32.401    20469167.771 7  83817853.15807      -249.916 7        44.773
G27        13.000    24147067.146 4                      2476.020 4        24.090                                                                                                    24147090.464 4                      1928.307 4        24.932
G26        17.000    20467892.856 7 107559540.42807      -288.175 7        43.136                                    20467990.572 1  83813028.01201      -224.529 1        10.296    20467891.706 7  83812600.62407      -224.597 7        42.133
R02        18.000    23183958.197 5                       120.867 5        32.090
E30        19.000    25548460.852 7 134258211.12707      1356.342 7        44.840                                                                    25548461.771 7 100257807.43207      1012.832 7        46.882    25548461.045 7 102873170.09707      1039.295 7        46.571
R20        20.000                                                                                                                                    22778751.545 4                      2119.782 4        29.175
E02        21.000    23115483.345 7 121472942.89407     -1190.788 7        47.117                                                                    23115482.468 8  90710221.93008      -889.248 8        49.997    23115481.717 8  93076583.52508      -912.465 8        49.219
S23        22.000    38081752.651 6 200120996.62406      -865.802 6        38.736
R10        23.000    21876173.996 6 116612324.92206      2681.020 6        38.426
E36        24.000    23316949.757 6 122531421.55206      -613.678 6        41.054                                                                    23316950.356 7  91500903.07207      -458.383 7        45.422    23316949.951 7  93887865.09207      -470.343 7        45.505
R18        25.000    20332880.453 7 108538275.37907     -3599.621 7        42.936                                                                    20332880.718 6  84418673.16806     -2799.543 6        38.333
G16        26.000    21728467.293 8 114183930.06308      1790.518 8        48.931                                    21728462.958 4  88974477.67004      1395.214 4        29.820
S21        27.000    38357249.196 5 201568894.26205      -863.389 5        35.138
R19        29.000    19250230.903 4 102975792.35304      -718.699 4        29.517                                                                    19250228.014 6  80092558.16706      -558.655 6        38.162
C05        30.000                                                                                                                                                                                                    39269454.998 5 158121857.22805      -612.349 5        31.917
S36        31.000    38128092.563 5 200364442.35205      -863.110 5        35.900
E34        32.000    25507640.377 6 134043545.79206      1786.539 6        41.638                                                                    25507641.798 6 100097502.03906      1334.155 6        40.756    25507656.662 5 102708744.48705      1369.212 5        33.275
R16        34.000    20788279.112 6 111047336.96806     -4484.031 6        36.060                                                                    20788279.120 6  86370133.95106     -3487.450 6        41.128
C44        35.000                                                                                                                                    22436177.350 7 116830980.65107     -2826.142 7        45.559                                                                    22436172.050 7  94934966.68507     -2296.552 7        44.704
R09        37.000    19344353.974 7 103297864.08107      -332.847 7        43.069                                                                    19344354.114 7  80342816.54907      -258.931 7        46.080
C11        38.000                                                                                                                                    22833805.690 7 118901627.64907      1148.681 7        43.824    22833802.526 7  91942391.10007       888.217 7        47.065    22833796.168 5  96617285.37405       933.433 5        35.114
C43        39.000                                                                                                                                    24672452.500 5                      1859.510 5        32.671                                                                    24672438.644 4                      1511.539 4        24.256
C12        41.000                                                                                                                                    21693826.514 7 112965542.85607     -1637.170 7        47.423    21693823.790 7  87352132.65207     -1265.950 7        46.475    21693822.025 7  91793748.17507     -1330.364 7        45.228
C13        43.000                                                                                                                                    37640459.538 6 196003769.40006      -484.240 6        40.901    37640462.624 6 151562566.20306      -374.441 6        41.809    37640460.469 6 159269116.91106      -393.505 6        38.432
C38        44.000                                                                                                                                    38584788.457 5                     -1241.469 5        33.090                                                                    38584798.113 5                     -1008.849 5        31.366
C25        45.000                                                                                                                                    22152242.467 7 115352602.92507     -1479.964 7        45.362                                                                    22152240.370 7  93733614.76707     -1202.566 7        42.408
C08        46.000                                                                                                                                    37638488.445 5 195993541.00005      -725.929 5        34.586    37638482.141 5 151554687.07805      -561.515 5        34.510    37638484.089 6 159260782.14606      -590.010 6        40.639
C23        47.000                                                                                                                                    24798025.783 7 129130154.39007      1447.592 7        46.403                                                                    24798019.278 6 104928695.26506      1176.182 6        41.249
C24        51.000                                                                                                                                    23885611.018 7 124378655.24307     -4020.031 7        42.118                                                                    23885609.636 6 101067832.14206     -3266.569 6        40.896
C34        52.000                                                                                                                                    21501891.757 7 111966060.41207        31.891 7        47.240                                                                    21501891.708 7  90981677.30907        25.819 7        46.668
I06        58.000    38642693.099 5 151642345.18105      -641.693 5        35.000
I02        59.000    38515782.283 6 151144209.80006     -1204.127 6        37.414
> 2025 01 02 17 31 55.0000000  0 40
G23         2.000    23750282.638 5 124808688.78905      2633.707 5        33.455
G25         3.000    24249071.144 4                     -4652.326 4        24.797
E25         6.000    25666085.408 5 134876175.64605     -3435.418 5        34.567                                                                    25666094.039 5 100719242.07105     -2565.080 5        30.408    25666093.141 5 103346728.52905     -2632.238 5        35.605
G31         7.000    22797228.353 6 119800857.42406     -3511.149 6        41.154                                    22797215.781 4  93350691.60604     -2735.962 4        26.659    22797222.511 5                     -2735.753 5        31.947
G28         8.000                                                                                                                                                                    24017023.823 4                     -3333.865 4        25.699
G29         9.000    21753244.279 5 114314168.07405     -3132.530 5        32.731                                    21753237.726 4  89075983.54204     -2440.927 4        27.844    21753243.082 5  89075884.53005     -2440.782 5        35.790
E11        10.000                                                                                                                                    25306247.133 5  99307174.95005     -2329.626 5        32.437    25306245.670 4 101897782.97304     -2390.527 4        29.251
E10        11.000                                                                                                                                    27903467.434 4                     -2814.890 4        25.368
G18        12.000    20469478.265 7 107568059.51407      -323.653 7        46.140                                    20469475.504 5  83819144.65205      -252.205 5        32.748    20469475.386 7  83819108.63507      -252.209 7        45.267
G27        13.000    24144707.279 3                      2481.592 3        19.851                                                                                                    24144731.312 3                      1928.467 3        23.905
G26        17.000    20468168.712 7 107560989.86007      -291.372 7        44.068                                    20468266.279 2  83814157.31102      -226.999 2        12.000    20468167.437 6  83813730.06906      -227.006 6        41.285
R02        18.000    23183843.499 5                       116.978 5        32.970
E30        19.000    25547170.956 7 134251432.45607      1355.302 7        45.345                                                                    25547171.816 7 100252745.45507      1012.082 7        47.028    25547171.174 7 102867976.06307      1038.442 7        46.593
R20        20.000                                                                                                                                    22776205.319 4                      2118.635 4        28.834
E02        21.000    23116617.572 7 121478902.48007     -1192.833 7        47.457                                                                    23116616.524 8  90714672.26808      -890.744 8        49.879    23116615.790 8  93081149.95508      -913.943 8        49.303
S23        22.000    38082578.009 6 200125327.32106      -866.113 6        39.096
R10        23.000    21873660.675 6 116598925.27406      2678.902 6        40.212
E36        24.000    23317534.658 6 122534496.19406      -615.971 6        41.468                                                                    23317535.383 7  91503199.08207      -459.984 7        45.890    23317535.233 7  93890221.00507      -471.987 7        45.755
R18        25.000    20336252.312 7 108556278.22407     -3601.314 7        43.033                                                                    20336253.121 6  84432675.40206     -2801.010 6        39.354
G16        26.000    21726764.703 8 114174982.96408      1788.495 8        48.339                                    21726759.498 4  88967505.91504      1393.628 4        29.071
S21        27.000    38358067.404 5 201573211.15505      -863.306 5        35.424
R19        29.000    19250904.749 5 102979392.45305      -721.746 5        32.473                                                                    19250899.316 6  80095358.20806      -561.262 6        37.781
C05        30.000                                                                                                                                                                                                    39270215.397 5 158124920.71005      -612.531 5        32.192
S36        31.000    38128907.552 5 200368757.44005      -863.153 5        35.414
E34        32.000    25505940.762 6 134034616.24606      1785.333 6        40.973                                                                    25505942.791 6 100090833.89206      1333.298 6        41.378    25505958.068 5 102701902.36305      1368.065 5        33.904
R16        34.000    20792481.998 6 111069764.29906     -4486.701 6        37.652                                                                    20792476.765 6  86387577.44406     -3489.634 6        40.615
C44        35.000                                                                                                                                    22438891.199 7 116845114.73107     -2827.328 7        46.290                                                                    22438886.368 7  94946451.80307     -2297.440 7        44.662
R09        37.000    19344667.710 7 103299540.27807      -337.332 7        43.128                                                                    19344667.699 7  80344120.25007      -262.317 7        45.716
C11        38.000                                                                                                                                    22832703.205 7 118895888.07307      1147.264 7        43.454    22832699.849 7  91937952.90907       887.161 7        47.450    22832693.566 5  96612621.54705       932.255 5        35.005
C43        39.000                                                                                                                                    24670666.673 5                      1858.687 5        33.281                                                                    24670652.477 4                      1510.970 4        24.526
C12        41.000                                                                                                                                    21695399.698 7 112973733.27107     -1638.919 7        47.604    21695396.841 7  87358465.99407     -1267.334 7        45.698    21695394.854 7  91800403.55807     -1331.744 7        44.876
C13        43.000                                                                                                                                    37640924.698 6 196006193.58806      -485.302 6        40.420    37640928.072 6 151564440.72606      -375.208 6        41.757    37640926.095 6 159271086.75806      -394.381 6        38.694
C38        44.000                                                                                                                                    38585978.767 5                     -1242.317 5        33.234                                                                    38585990.391 5                     -1009.461 5        31.419
C25        45.000                                                                                                                                    22153664.760 7 115360010.30907     -1482.875 7        46.084                                                                    22153662.802 7  93739633.89507     -1204.887 7        42.301
C08        46.000                                                                                                                                    37639185.275 5 195997174.83005      -727.536 5        34.252    37639179.827 5 151557496.96005      -562.298 5        35.424    37639181.960 6 159263734.94806      -591.143 6        40.858
C23        47.000                                                                                                                                    24796637.223 7 129122921.89807      1445.531 7        46.758                                                                    24796630.152 6 104922818.28806      1174.744 6        40.832
C24        51.000                                                                                                                                    23889471.792 6 124398758.63206     -4021.184 6        41.661                                                                    23889470.261 6 101084167.79906     -3267.444 6        40.246
C34        52.000                                                                                                                                    21501862.239 7 111965906.29807        29.983 7        47.939                                                                    21501862.061 7  90981552.10007        24.376 7        46.728
I06        58.000    38643511.667 5 151645555.34005      -641.876 5        35.567
I02        59.000    38517316.430 6 151150231.36306     -1204.320 6        37.361
> 2025 01 02 17 32  0.0000000  0 42
G23         2.000    23747781.501 5 124795521.36105      2633.372 5        33.365
G25         3.000    24253499.111 4                     -4652.478 4        24.707
G05         4.000    23002731.812 5                     -2088.991 5        34.129
E25         6.000    25669353.683 5 134893355.20705     -3436.350 5        31.796                                                                    25669362.142 5 100732071.01405     -2565.809 5        30.770    25669361.058 6 103359892.14906     -2633.206 6        36.276
G31         7.000    22800569.654 6 119818418.52106     -3513.166 6        40.999                                    22800559.065 4  93364375.56604     -2737.532 4        27.521    22800565.205 5                     -2737.470 5        33.707
G28         8.000                                                                                                                                                                    24021090.661 4                     -3334.640 4        27.269
G29         9.000    21756222.621 4 114329833.36804     -3133.823 4        26.874                                    21756219.190 4  89088190.24904     -2441.964 4        27.078    21756223.877 6  89088091.28206     -2441.742 6        36.227
E11        10.000    25309274.867 4 133000859.90004     -3120.867 4        27.329                                                                    25309215.261 5  99318825.87405     -2330.479 5        32.305    25309214.994 4 101909737.81204     -2391.467 4        28.976
E10        11.000                                                                                                                                    27907053.903 4                     -2813.948 4        24.752
G18        12.000    20469786.776 7 107569685.34507      -326.467 7        46.130                                    20469785.088 5  83820411.54905      -254.392 5        33.084    20469784.899 7  83820375.54807      -254.478 7        45.768
G27        13.000                                                                                                                                                                    24142377.553 3                      1928.286 3        22.476
G26        17.000    20468447.436 7 107562454.35707      -294.180 7        45.181                                    20468545.138 2  83815298.32802      -229.189 2        14.143    20468446.053 6  83814871.23606      -229.338 6        40.787
R02        18.000    23183736.404 5                       113.029 5        32.479                                                                    23183696.691 3                        89.084 3        19.403
E30        19.000    25545882.322 7 134244658.82107      1354.311 7        45.610                                                                    25545882.793 7 100247687.22807      1011.319 7        47.247    25545882.288 7 102862785.88507      1037.703 7        46.473
R20        20.000                                                                                                                                    22773658.989 4                      2117.275 4        26.958
E02        21.000    23117753.410 7 121484871.72407     -1194.661 7        47.649                                                                    23117752.373 8  90719129.82208      -892.171 8        50.006    23117751.727 8  93085723.79908      -915.410 8        49.358
S23        22.000    38083401.647 6 200129658.08906      -866.033 6        39.069
R10        23.000    21871149.580 6 116585536.92206      2676.699 6        41.411
E36        24.000    23318121.777 7 122537581.55607      -618.011 7        42.053                                                                    23318122.457 7  91505503.09207      -461.527 7        46.148    23318122.471 7  93892585.11507      -473.498 7        45.997
R18        25.000    20339626.665 7 108574289.72507     -3603.054 7        43.073                                                                    20339626.544 6  84446684.34006     -2802.423 6        39.922
G16        26.000    21725064.109 7 114166045.76307      1786.604 7        47.145                                    21725058.032 4  88960541.87404      1392.157 4        28.540
S21        27.000    38358889.177 5 201577528.23705      -863.178 5        35.500
R01        28.000                                                                                                                                    24109603.605 3                     -2344.741 3        20.000
R19        29.000    19251578.471 5 102983008.36005      -724.600 5        32.970                                                                    19251576.275 6  80098170.62606      -563.710 6        37.380
C05        30.000                                                                                                                                                                                                    39270976.883 5 158127984.19705      -612.506 5        32.353
S36        31.000    38129728.676 6 200373072.70806      -862.980 6        36.136
E34        32.000    25504242.081 6 134025692.76206      1784.297 6        40.005                                                                    25504244.691 6 100084170.27906      1332.316 6        41.926    25504254.507 5 102695064.87105      1367.158 5        33.898
R16        34.000    20796681.050 6 111092204.95106     -4489.171 6        36.843                                                                    20796677.367 6  86405031.28406     -3491.867 6        39.712
C44        35.000                                                                                                                                    22441606.318 7 116859254.45807     -2828.391 7        46.943                                                                    22441601.707 7  94957941.49207     -2298.265 7        44.781
R09        37.000    19344986.481 7 103301238.54307      -341.799 7        42.982                                                                    19344985.517 7  80345441.13907      -265.807 7        45.594
C11        38.000                                                                                                                                    22831602.884 7 118890155.49607      1145.961 7        43.517    22831598.769 7  91933520.13207       886.089 7        47.907    22831592.421 5  96607963.39105       931.118 5        34.638
C43        39.000                                                                                                                                    24668878.918 5                      1858.073 5        33.132                                                                    24668870.517 4                      1509.624 4        25.188
C12        41.000                                                                                                                                    21696974.918 7 112981932.01007     -1640.505 7        47.800    21696971.311 7  87364805.78207     -1268.472 7        45.329    21696969.409 7  91807065.69507     -1332.968 7        44.725
C13        43.000                                                                                                                                    37641391.049 6 196008622.93006      -486.286 6        40.260    37641394.641 6 151566319.24306      -375.999 6        41.433    37641392.822 6 159273060.79706      -395.139 6        38.892
C38        44.000                                                                                                                                    38587172.596 5                     -1243.028 5        33.168                                                                    38587183.746 5                     -1010.134 5        32.162
C25        45.000                                                                                                                                    22155089.787 7 115367431.76707     -1485.580 7        46.366                                                                    22155088.202 7  93745664.44307     -1207.115 7        42.358
C08        46.000                                                                                                                                    37639884.810 5 196000814.19405      -728.445 5        33.958    37639878.793 6 151560311.14006      -563.125 6        36.412    37639880.808 6 159266692.21506      -591.846 6        41.156
C23        47.000                                                                                                                                    24795250.114 7 129115698.98807      1443.763 7        46.811                                                                    24795242.571 6 104916949.10106      1173.217 6        40.331
C24        51.000                                                                                                                                    23893332.881 6 124418867.56106     -4022.280 6        40.720                                                                    23893331.712 6 101100507.97106     -3268.265 6        39.240
C34        52.000                                                                                                                                    21501834.113 8 111965760.90108        28.347 8        48.303                                                                    21501834.036 7  90981433.96607        23.025 7        46.735
I06        58.000    38644329.674 5 151648765.35805      -641.845 5        35.924
I02        59.000    38518851.477 6 151156253.49506     -1204.404 6        37.399
> 2025 01 02 17 32  5.0000000  0 42
G23         2.000    23745281.818 5 124782356.96205      2632.847 5        30.717
G25         3.000    24257927.327 3                     -4654.300 3        23.657
G05         4.000    23004717.955 5 120890620.75915     -2092.266 5        34.400                                                                                                    23004731.287 3                     -1629.249 3        22.629
E25         6.000    25672623.309 5 134910540.04205     -3437.246 5        30.121                                                                    25672633.817 5 100744903.86205     -2566.641 5        31.698    25672630.248 6 103373059.75006     -2633.875 6        36.106
G31         7.000    22803913.465 6 119835989.59406     -3515.078 6        40.391                                    22803904.291 4  93378067.32004     -2739.029 4        27.341    22803908.102 5  93378194.35015     -2738.994 5        34.976
G28         8.000                                                                                                                                                                    24025159.207 4                     -3335.120 4        27.150
G29         9.000                                                                                                                                                                    21759206.496 6  89100302.95406     -2442.803 6        36.541
E11        10.000                                                                                                                                    25312185.181 5  99330481.12905     -2331.475 5        32.245    25312185.526 4 101921697.09504     -2392.129 4        29.081
E10        11.000                                                                                                                                    27910639.880 4                     -2814.776 4        24.902
G18        12.000    20470098.588 7 107571325.79107      -329.409 7        46.597                                    20470097.355 5  83821689.82905      -256.688 5        33.371    20470097.314 7  83821653.80907      -256.683 7        46.210
G27        13.000                                                                                                                                                                    24140031.520 3                      1928.507 3        20.786
G26        17.000    20468728.792 7 107563933.85307      -297.267 7        45.591                                    20468826.926 2  83816450.96102      -231.638 2        13.030    20468728.128 6  83816024.10806      -231.646 6        40.358
R02        18.000    23183629.819 4                       108.463 4        25.414                                                                    23183588.813 3                        83.726 3        21.381
E30        19.000    25544594.205 7 134237890.14907      1353.310 7        45.777                                                                    25544594.661 7 100242632.70707      1010.620 7        47.543    25544594.388 7 102857599.51107      1036.931 7        46.354
R20        20.000                                                                                                                                    22771119.031 4                      2116.439 4        25.173
E02        21.000    23118891.039 7 121490850.55507     -1196.703 7        47.541                                                                    23118890.130 8  90723594.52908      -893.562 8        50.025    23118889.434 8  93090304.98008      -916.890 8        49.365
S23        22.000    38084225.655 6 200133988.83506      -866.088 6        39.138
R10        23.000    21868640.209 6 116572159.55206      2674.504 6        41.271
E36        24.000    23318711.124 7 122540677.56007      -620.093 7        42.489                                                                    23318711.628 7  91507815.04407      -463.109 7        46.577    23318711.817 7  93894957.38007      -475.224 7        46.177
R18        25.000    20343002.691 7 108592309.76007     -3604.794 7        42.163                                                                    20343003.064 6  84460699.93006     -2803.789 6        40.939
G16        26.000    21723365.436 7 114157118.36607      1784.585 7        46.100                                    21723358.503 4  88953585.46404      1390.575 4        27.868
S21        27.000    38359713.391 5 201581845.43205      -863.375 5        35.767
R19        29.000    19252254.938 5 102986639.92305      -727.816 5        32.204                                                                    19252254.839 6  80100995.17206      -566.094 6        37.898
C05        30.000                                                                                                                                                                                                    39271738.199 5 158131047.72705      -612.494 5        32.251
S36        31.000    38130549.862 6 200377387.65506      -862.850 6        36.280
E34        32.000    25502544.895 6 134016775.29706      1782.949 6        38.691                                                                    25502547.691 7 100077511.13507      1331.461 7        42.258    25502556.596 5 102688231.95205      1366.096 5        32.778
R16        34.000    20800879.321 5 111114658.94205     -4491.978 5        32.874                                                                    20800881.186 6  86422495.49606     -3493.878 6        39.538
C44        35.000                                                                                                                                    22444322.676 7 116873399.78107     -2829.597 7        47.045                                                                    22444318.190 7  94969435.70707     -2299.166 7        45.044
R09        37.000    19345306.715 6 103302958.73906      -346.158 6        40.048                                                                    19345307.903 7  80346779.07007      -269.156 7        46.301
C11        38.000                                                                                                                                    22830502.658 7 118884429.89707      1144.460 7        44.140    22830499.160 8  91929092.74608       884.950 8        48.388    22830492.388 5  96603310.83705       930.185 5        34.781
C43        39.000                                                                                                                                    24667092.500 5                      1857.147 5        32.569                                                                    24667088.750 4                      1509.380 4        27.030
C12        41.000                                                                                                                                    21698551.055 7 112990138.99807     -1642.162 7        47.619    21698546.908 7  87371151.94607     -1269.750 7        44.957    21698545.538 7  91813734.51707     -1334.328 7        44.534
C19        42.000                                                                                                                                    26326542.609 3                     -1122.014 3        21.429
C13        43.000                                                                                                                                    37641858.514 6 196011057.35206      -487.276 6        39.649    37641862.025 6 151568201.69406      -376.864 6        41.251    37641860.239 6 159275038.92506      -395.852 6        38.895
C38        44.000                                                                                                                                    38588366.462 5                     -1244.220 5        33.958                                                                    38588377.678 5                     -1011.005 5        32.006
C25        45.000                                                                                                                                    22156518.047 7 115374867.23307     -1488.397 7        46.727                                                                    22156516.106 6  93751706.34206     -1209.441 6        41.917
C08        46.000                                                                                                                                    37640583.379 5 196004459.06805      -729.397 5        33.407    37640579.562 6 151563129.58806      -564.099 6        37.130    37640580.764 6 159269653.94506      -592.731 6        41.456
C23        47.000                                                                                                                                    24793864.229 7 129108485.65807      1441.761 7        46.599                                                                    24793856.652 6 104911087.68006      1171.615 6        39.730
C24        51.000                                                                                                                                    23897194.721 6 124438981.94706     -4023.308 6        39.772                                                                    23897194.375 6 101116852.54506     -3269.273 6        37.970
C34        52.000                                                                                                                                    21501807.843 8 111965624.16108        26.547 8        48.527                                                                    21501807.721 7  90981322.82707        21.638 7        46.718
I06        58.000    38645147.223 5 151651975.22305      -641.978 5        35.662
I02        59.000    38520384.981 6 151162276.42106     -1204.581 6        37.108
> 2025 01 02 17 32 10.0000000  0 40
G25         3.000    24262353.674 3                     -4653.271 3        22.914
G05         4.000    23006705.378 5 120901091.06605     -2095.564 5        34.910                                                                                                    23006719.268 4                     -1633.035 4        26.850
E25         6.000    25675896.338 4 134927730.86804     -3438.717 4        27.293                                                                    25675907.107 5 100757741.14605     -2567.788 5        32.036    25675900.587 6 103386231.88706     -2634.821 6        36.412
G31         7.000    22807258.918 6 119853571.34306     -3517.355 6        40.656                                    22807251.470 4  93391767.38604     -2740.815 4        26.898    22807254.448 5  93391894.44205     -2740.745 5        35.252
G28         8.000                                                                                                                                                                    24029229.407 4                     -3335.425 4        25.669
G29         9.000                                                                                                                                                                    21762189.938 6  89112520.11006     -2443.825 6        37.263
E11        10.000    25315157.856 4                     -3123.241 4        26.335                                                                    25315155.970 5  99342141.21605     -2332.433 5        31.147    25315156.545 5 101933661.38505     -2393.120 5        30.158
E10        11.000                                                                                                                                    27914226.654 4                     -2815.287 4        25.128
G18        12.000    20470414.126 7 107572981.50107      -332.515 7        46.924                                    20470412.546 5  83822980.00205      -259.106 5        33.904    20470412.982 7  83822943.98707      -259.165 7        46.532
G26        17.000    20469013.493 7 107565429.04407      -300.443 7        46.944                                    20469111.849 2  83817615.90602      -234.114 2        15.810    20469013.096 6  83817189.18906      -234.083 6        40.443
R02        18.000    23183529.033 4                       104.269 4        24.602                                                                    23183490.026 3                        81.050 3        23.505
E30        19.000    25543307.381 7 134231127.14207      1352.248 7        45.958                                                                    25543307.677 7 100237582.41307      1009.742 7        47.655    25543307.484 7 102852417.47407      1036.076 7        46.408
R20        20.000                                                                                                                                    22768586.894 4                      2115.096 4        26.958
E02        21.000    23120030.674 7 121496839.64807     -1198.680 7        47.857                                                                    23120029.729 8  90728066.90108      -895.109 8        50.029    23120029.112 8  93094894.02508      -918.451 8        49.454
S23        22.000    38085052.279 6 200138320.48106      -866.390 6        39.291
R10        23.000    21866131.119 6 116558794.00106      2671.957 6        40.417
E36        24.000    23319302.140 7 122543784.88107      -622.507 7        42.614                                                                    23319302.917 7  91510135.44507      -464.848 7        46.727    23319303.219 7  93897338.31207      -476.948 7        46.649
R18        25.000    20346379.446 7 108610339.02207     -3606.669 7        42.017                                                                    20346379.934 6  84474722.70206     -2805.135 6        41.619
G16        26.000    21721669.203 7 114148201.49907      1782.460 7        45.409                                    21721661.356 4  88946637.26604      1388.942 4        27.353
S21        27.000    38360536.863 5 201586163.50905      -863.100 5        35.971
R19        29.000    19252935.681 5 102990287.80205      -730.824 5        32.353                                                                    19252937.643 6  80103832.46506      -568.782 6        38.333
C05        30.000                                                                                                                                                                                                    39272498.773 5 158134111.77205      -612.773 5        32.102
S36        31.000    38131374.067 6 200381703.93006      -863.088 6        36.140
E34        32.000    25500848.565 6 134007864.44606      1781.670 6        37.732                                                                    25500851.819 7 100070856.96007      1330.488 7        42.292    25500862.041 5 102681404.11705      1365.254 5        30.830
R16        34.000    20805080.310 4 111137126.81604     -4494.736 4        25.188                                                                    20805088.391 6  86439970.52606     -3495.971 6        40.336
C44        35.000                                                                                                                                    22447039.089 7 116887551.34607     -2830.805 7        46.341                                                                    22447035.958 7  94980935.03807     -2300.147 7        44.936
R09        37.000    19345633.347 6 103304701.59306      -350.727 6        40.267                                                                    19345634.530 7  80348134.63807      -272.744 7        47.150
C11        38.000                                                                                                                                    22829404.303 7 118878711.92707      1142.916 7        43.725    22829401.334 8  91924671.27208       883.801 8        48.934    22829394.771 5  96598664.57005       928.707 5        35.181
C43        39.000                                                                                                                                    24665312.571 5                      1856.325 5        30.174                                                                    24665308.713 4                      1508.426 4        27.581
C12        41.000                                                                                                                                    21700127.919 7 112998354.87607     -1643.929 7        47.322    21700123.910 7  87377504.97907     -1271.149 7        44.480    21700123.150 7  91820410.59807     -1335.735 7        44.119
C19        42.000                                                                                                                                    26327624.952 3                     -1124.213 3        21.119
C13        43.000                                                                                                                                    37642326.873 6 196013497.47806      -488.345 6        39.216    37642330.513 6 151570088.54106      -377.674 6        40.932    37642328.653 6 159277021.76006      -397.006 6        38.736
C38        44.000                                                                                                                                    38589563.013 5 200945973.24815     -1244.984 5        34.295                                                                    38589572.080 5                     -1011.810 5        31.872
C25        45.000                                                                                                                                    22157949.215 7 115382317.35507     -1491.446 7        46.932                                                                    22157946.728 6  93757760.19906     -1211.917 6        41.411
C08        46.000                                                                                                                                    37641283.287 5 196008110.08905      -730.825 5        32.509    37641281.020 6 151565952.81906      -565.001 6        37.902    37641282.018 6 159272620.72906      -593.698 6        41.364
C23        47.000                                                                                                                                    24792480.394 7 129101282.56207      1439.736 7        46.200                                                                    24792472.977 6 104905234.61706      1169.895 6        39.204
C24        51.000                                                                                                                                    23901056.258 6 124459102.46106     -4024.457 6        37.766                                                                    23901058.386 6 101133202.15506     -3270.097 6        36.113
C34        52.000                                                                                                                                    21501782.820 8 111965496.74108        24.643 8        48.292                                                                    21501783.191 7  90981219.30307        20.121 7        46.537
I06        58.000    38645965.378 5 151655185.39605      -642.077 5        35.638
I02        59.000    38521919.963 6 151168300.28106     -1204.766 6        36.601
> 2025 01 02 17 32 15.0000000  0 40
G25         3.000    24266783.841 3                     -4655.469 3        22.476
G05         4.000    23008696.606 5 120911577.94805     -2099.008 5        34.171                                                                                                    23008707.673 5                     -1635.716 5        30.257
E25         6.000                                                                                                                                    25679182.759 5 100770582.20905     -2568.278 5        32.234    25679171.917 5 103399407.91005     -2635.599 5        35.776
G31         7.000    22810605.849 6 119871162.89106     -3519.329 6        40.386                                    22810600.282 4  93405475.09804     -2742.344 4        26.168    22810601.509 5  93405602.12605     -2742.074 5        34.733
G28         8.000    24033263.684 4                     -4281.347 4        24.361                                                                                                    24033298.982 4                     -3336.437 4        25.654
G29         9.000    21765230.103 5 114376868.48405     -3137.734 5        31.932                                    21765199.880 2  89124840.91702     -2445.081 2        16.226    21765175.038 6  89124742.06806     -2444.797 6        38.670
E11        10.000    25318133.412 4                     -3124.616 4        27.892                                                                    25318128.805 5  99353805.51505     -2333.179 5        31.487    25318129.092 5 101945629.98205     -2394.369 5        30.574
E10        11.000                                                                                                                                    27917814.809 4                     -2815.842 4        24.331
G18        12.000    20470731.335 7 107574651.62607      -335.464 7        46.436                                    20470730.519 5  83824281.40505      -261.403 5        34.290    20470731.197 7  83824245.38107      -261.407 7        47.133
G27        13.000                                                                                                                                                                    24135300.830 4                      1926.349 4        24.195
G26        17.000    20469300.559 8 107566939.06508      -303.486 8        48.049                                    20469399.701 2  83818792.59902      -236.538 2        15.000    20469300.735 7  83818365.86107      -236.514 7        42.100
R02        18.000    23183443.262 4                       100.488 4        26.731                                                                    23183394.365 4                        78.710 4        26.539
E30        19.000    25542021.296 7 134224368.94607      1351.149 7        46.120                                                                    25542021.609 7 100232535.72207      1008.961 7        47.854    25542021.423 7 102847239.12607      1035.276 7        46.559
R20        20.000                                                                                                                                    22766048.117 4                      2115.045 4        28.123
E02        21.000    23121172.131 7 121502838.16707     -1200.712 7        47.847                                                                    23121171.230 8  90732546.32008      -896.565 8        50.040    23121170.656 8  93099490.29908      -920.046 8        49.537
S23        22.000    38085873.810 6 200142651.86406      -866.387 6        39.336
R10        23.000    21863624.228 6 116545439.75806      2669.591 6        38.673
E36        24.000    23319895.113 7 122546902.64407      -624.562 7        42.557                                                                    23319896.268 7  91512463.65407      -466.432 7        46.854    23319896.633 7  93899727.26407      -478.536 7        47.152
R18        25.000    20349759.359 7 108628376.63607     -3608.390 7        43.196                                                                    20349759.374 6  84488751.97806     -2806.599 6        41.821
G16        26.000    21719974.626 7 114139294.37707      1780.382 7        45.044                                    21719966.178 4  88939696.66404      1387.310 4        27.317
S21        27.000    38361354.186 5 201590481.54705      -863.617 5        35.929
R19        29.000    19253622.361 5 102993951.38705      -734.334 5        34.124                                                                    19253621.196 6  80106681.85506      -570.897 6        38.697
C05        30.000                                                                                                                                                                                                    39273259.539 5 158137175.70705      -612.841 5        32.078
S36        31.000    38132194.744 6 200386019.45106      -863.345 6        36.106
E34        32.000    25499153.829 6 133998959.44906      1780.223 6        37.043                                                                    25499157.380 7 100064207.14507      1329.524 7        42.138    25499167.189 4 102674580.75004      1364.046 4        29.991
R16        34.000                                                                                                                                    20809297.196 6  86457455.71506     -3498.075 6        41.578
C44        35.000                                                                                                                                    22449755.081 7 116901708.32707     -2831.976 7        45.223                                                                    22449754.678 7  94992438.74407     -2301.124 7        44.828
R09        37.000    19345964.960 6 103306466.23006      -355.313 6        41.101                                                                    19345965.166 7  80349507.13207      -276.200 7        47.841
C11        38.000                                                                                                                                    22828306.882 7 118873000.74907      1141.406 7        43.410    22828304.797 8  91920255.03108       882.751 8        49.611    22828298.454 5  96594023.79105       927.468 5        35.852
C43        39.000                                                                                                                                    24663537.596 4                      1855.749 4        26.838                                                                    24663529.509 4                      1507.547 4        29.147
C12        41.000                                                                                                                                    21701707.474 7 113006578.83107     -1645.651 7        47.397    21701702.782 7  87383864.26907     -1272.554 7        44.324    21701702.365 7  91827093.24007     -1337.192 7        43.894
C13        43.000                                                                                                                                    37642796.034 6 196015942.62206      -489.645 6        38.961    37642800.064 6 151571979.26906      -378.544 6        40.682    37642798.231 6 159279008.62406      -397.746 6        38.793
C38        44.000                                                                                                                                    38590758.328 5 200952201.06905     -1245.826 5        34.200                                                                    38590767.403 5                     -1012.755 5        31.268
C25        45.000                                                                                                                                    22159383.111 7 115389781.28007     -1494.244 7        47.194                                                                    22159380.105 6  93763825.25406     -1214.081 6        41.089
C08        46.000                                                                                                                                    37641985.057 5 196011766.44005      -732.410 5        31.592    37641983.248 6 151568780.13906      -565.781 6        38.459    37641984.101 6 159275591.82006      -594.539 6        41.321
C23        47.000                                                                                                                                    24791099.096 7 129094088.85807      1437.731 7        45.691                                                                    24791091.481 6 104899389.16206      1168.196 6        38.808
C24        51.000                                                                                                                                    23904917.353 5 124479228.31205     -4025.688 5        34.776                                                                    23904923.558 5 101149556.02505     -3270.904 5        33.731
C34        52.000                                                                                                                                    21501759.459 7 111965377.80607        22.858 7        47.793                                                                    21501760.417 7  90981122.65807        18.679 7        46.380
I06        58.000    38646782.621 5 151658395.28505      -641.913 5        35.767
I02        59.000    38523454.656 6 151174324.95806     -1205.025 6        36.333
> 2025 01 02 17 32 20.0000000  0 39
G25         3.000    24271211.717 3                     -4655.982 3        23.086
G05         4.000    23010695.955 5 120922081.57805     -2102.602 5        34.510                                    23010681.143 1  94224884.36011     -1638.401 1         9.333    23010705.143 5                     -1638.047 5        32.263
E25         6.000    25682439.978 3                     -3440.425 3        22.362                                                                    25682460.948 5 100783427.20305     -2569.342 5        32.383    25682445.144 5 103412587.93905     -2636.773 5        35.257
G31         7.000    22813954.338 6 119888764.36906     -3521.473 6        38.709                                    22813950.623 4  93419190.55204     -2744.008 4        24.992    22813951.182 5  93419317.57205     -2743.936 5        34.229
G28         8.000                                                                                                                                                                    24037366.262 4                     -3336.359 4        26.671
G29         9.000                                                                                                                                                                    21768160.341 6  89136968.95806     -2446.013 6        39.489
E11        10.000    25321110.131 5                     -3125.427 5        30.815                                                                    25321102.791 5  99365474.08705     -2334.421 5        31.026    25321102.028 5 101957602.95105     -2395.455 5        31.140
E10        11.000                                                                                                                                    27921400.576 4                     -2815.092 4        25.188
G18        12.000    20471051.287 7 107576336.32907      -338.651 7        46.758                                    20471051.232 5  83825594.16205      -263.882 5        34.686    20471052.012 7  83825558.12807      -263.852 7        47.309
G27        13.000                                                                                                                                                                    24132946.351 4                      1926.686 4        28.313
G26        17.000    20469590.942 8 107568464.08208      -306.803 8        48.986                                    20469689.592 2  83819981.23602      -239.125 2        14.048    20469590.994 7  83819554.18207      -239.038 7        43.860
R02        18.000    23183352.851 4                        96.633 4        28.095                                                                    23183303.550 4                        75.539 4        27.425
E30        19.000    25540736.392 7 134217615.72107      1349.887 7        46.245                                                                    25540736.429 7 100227492.73907      1008.088 7        47.744    25540736.440 7 102842064.59107      1034.328 7        46.624
E02        21.000    23122315.520 7 121508846.25607     -1202.824 7        47.724                                                                    23122314.529 8  90737032.88208      -898.226 8        49.836    23122313.971 8  93104093.89808      -921.686 8        49.594
S23        22.000    38086700.443 6 200146983.22106      -866.551 6        39.285
R10        23.000    21861120.790 6 116532096.73606      2667.352 6        38.610
E36        24.000    23320490.086 7 122550031.03407      -627.059 7        42.440                                                                    23320491.728 7  91514799.78507      -468.153 7        47.064    23320491.954 7  93902124.34407      -480.441 7        47.338
R18        25.000    20353140.735 7 108646422.75307     -3610.273 7        44.077                                                                    20353139.507 6  84502787.82906     -2808.077 6        41.547
G16        26.000    21718281.652 7 114130397.01507      1778.184 7        45.643                                    21718273.302 4  88932763.65904      1385.596 4        27.748
S21        27.000    38362178.404 5 201594799.88805      -864.086 5        35.510
R19        29.000    19254310.258 5 102997630.68705      -737.593 5        34.314                                                                    19254310.387 6  80109543.58706      -573.693 6        38.276
C05        30.000                                                                                                                                                                                                    39274020.372 5 158140239.58905      -612.876 5        32.437
S36        31.000    38133019.007 5 200390335.15505      -863.344 5        35.614
E34        32.000    25497460.277 5 133990060.39505      1779.047 5        35.710                                                                    25497463.664 6 100057561.77806      1328.517 6        41.774    25497471.794 5 102667761.95005      1362.988 5        31.072
R16        34.000    20813512.163 4 111182101.94504     -4499.717 4        28.493                                                                    20813508.466 7  86474951.19207     -3500.309 7        42.883
C44        35.000                                                                                                                                    22452473.295 7 116915870.84307     -2833.310 7        43.994                                                                    22452474.345 7  95003946.95907     -2302.319 7        44.891
R09        37.000    19346300.202 7 103308252.78507      -359.757 7        42.212                                                                    19346299.270 7  80350896.70007      -279.806 7        47.388
C11        38.000                                                                                                                                    22827211.460 7 118867296.52607      1139.887 7        42.627    22827208.947 8  91915844.17708       881.414 8        49.824    22827203.761 6  96589388.65206       926.324 6        37.100
C43        39.000                                                                                                                                                                                                                                                                    24661749.695 5                      1506.968 5        30.045
C12        41.000                                                                                                                                    21703289.264 7 113014811.02207     -1647.502 7        47.466    21703283.727 7  87390229.92007     -1273.943 7        44.077    21703283.134 7  91833782.55807     -1338.640 7        43.860
C13        43.000                                                                                                                                    37643266.853 6 196018392.80406      -490.790 6        38.583    37643270.781 6 151573873.91706      -379.564 6        40.746    37643268.826 6 159280999.61206      -398.893 6        38.700
C38        44.000                                                                                                                                    38591954.160 5 200958433.34205     -1247.028 5        34.014                                                                    38591963.472 5                     -1013.102 5        31.374
C25        45.000                                                                                                                                    22160819.505 7 115397259.17807     -1497.213 7        47.755                                                                    22160815.811 6  93769901.67206     -1216.688 6        40.717
C08        46.000                                                                                                                                    37642686.619 5 196015428.23105      -732.844 5        30.196    37642686.379 6 151571611.67306      -566.855 6        38.901    37642687.194 6 159278567.32806      -595.721 6        41.504
C23        47.000                                                                                                                                    24789719.475 7 129086904.70507      1435.594 7        45.097                                                                    24789711.926 6 104893551.47906      1166.522 6        38.414
C24        51.000                                                                                                                                    23908784.482 5 124499359.53105     -4026.472 5        31.011                                                                    23908792.243 5 101165914.35505     -3272.364 5        32.072
C34        52.000                                                                                                                                    21501738.296 7 111965267.47507        20.987 7        47.564                                                                    21501739.344 7  90981033.00907        16.990 7        46.317
I06        58.000    38647601.214 5 151661604.95805      -642.108 5        35.400
I02        59.000    38524990.355 5 151180349.76205     -1205.157 5        35.957
> 2025 01 02 17 32 25.0000000  0 41
G23         2.000    23735269.477 5                      2629.966 5        33.766
G25         3.000    24275641.530 3                     -4656.123 3        21.929                                                                                                    24275640.809 3                     -3626.656 3        21.429
G05         4.000    23012700.107 5 120932601.64005     -2105.778 5        35.348                                    23012686.349 2  94233081.79902     -1640.857 2        13.151    23012706.690 5                     -1640.760 5        33.856
E25         6.000    25685710.831 3                     -3440.951 3        20.476                                                                    25685737.620 5 100796276.08605     -2570.441 5        32.305    25685719.571 5 103425771.92505     -2637.664 5        34.109
G31         7.000    22817303.956 5 119906375.78805     -3523.722 5        35.681                                    22817302.537 3  93432913.74303     -2745.765 3        23.924    22817303.485 5  93433040.76105     -2745.502 5        34.781
G28         8.000    24041419.656 4                     -4281.967 4        25.805
G29         9.000                                                                                                                                                                    21771147.566 6  89149200.75606     -2447.125 6        40.060
E11        10.000    25324085.454 5                     -3126.918 5        33.234                                                                    25324077.226 5  99377147.01105     -2335.648 5        31.260    25324076.588 5 101969580.32705     -2395.753 5        32.090
E10        11.000                                                                                                                                    27924987.126 4                     -2815.481 4        25.008
G18        12.000    20471375.048 7 107578035.56807      -341.533 7        46.794                                    20471374.701 5  83826918.24405      -266.129 5        34.729    20471375.183 7  83826882.20407      -266.139 7        47.028
G27        13.000                                                                                                                                                                    24130597.595 5                      1926.260 5        30.370
G26        17.000    20469883.838 8 107570004.08608      -309.763 8        48.969                                    20469980.918 3  83821181.28703      -241.360 3        18.537    20469883.624 7  83820754.18707      -241.396 7        44.966
R02        18.000    23183265.100 5                        92.790 5        30.679                                                                    23183223.991 4                        71.840 4        27.988
E30        19.000    25539452.117 7 134210867.46207      1348.874 7        46.669                                                                    25539452.313 7 100222453.46207      1007.346 7        47.993    25539452.268 7 102836893.84907      1033.603 7        46.702
R20        20.000                                                                                                                                    22760948.992 5                      2112.244 5        30.174
E02        21.000    23123460.820 7 121514863.89707     -1204.686 7        47.968                                                                    23123459.649 8  90741526.57308      -899.652 8        49.906    23123459.158 8  93108704.81708      -923.117 8        49.465
S23        22.000    38087520.637 6 200151314.83506      -866.451 6        39.270
R10        23.000    21858620.281 6 116518764.91106      2664.935 6        39.192
E36        24.000    23321087.517 7 122553170.01107      -629.184 7        43.067                                                                    23321089.176 7  91517143.83707      -469.803 7        47.256    23321089.061 7  93904529.54007      -481.999 7        47.540
R18        25.000    20356523.488 7 108664477.32307     -3611.930 7        44.603                                                                    20356521.732 6  84516830.26606     -2809.285 6        41.352
G16        26.000    21716590.411 7 114121509.45007      1776.334 7        47.244                                    21716582.416 4  88925838.28804      1384.156 4        28.133
S21        27.000    38362998.531 5 201599118.26605      -864.071 5        35.367
R19        29.000    19255000.696 5 103001325.62305      -741.009 5        34.805                                                                    19255000.716 6  80112417.36206      -576.039 6        37.739
C05        30.000                                                                                                                                                                                                    39274781.742 5 158143303.46005      -612.817 5        32.006
S36        31.000    38133835.593 5 200394650.65905      -863.294 5        35.919
E34        32.000    25495768.472 5 133981167.31105      1777.837 5        34.976                                                                    25495771.047 6 100050920.87406      1327.573 6        41.316    25495777.626 5 102660947.73805      1361.984 5        33.802
R16        34.000    20817722.553 5 111204609.31705     -4502.810 5        30.604                                                                    20817722.509 7  86492456.90707     -3502.339 7        43.344
C44        35.000                                                                                                                                    22455193.888 7 116930038.89707     -2834.375 7        42.218                                                                    22455195.068 7  95015459.61407     -2302.966 7        44.832
R09        37.000    19346638.814 7 103310061.36907      -364.141 7        43.541                                                                    19346638.072 7  80352303.38507      -283.214 7        46.608
C11        38.000                                                                                                                                    22826116.921 6 118861599.22606      1138.518 6        41.661    22826114.335 8  91911438.66308       880.381 8        49.676    22826110.493 6  96584759.09906       925.366 6        38.339
C43        39.000                                                                                                                                                                                                                                                                    24659969.493 5                      1506.327 5        31.155
C12        41.000                                                                                                                                    21704871.425 7 113023051.40407     -1649.100 7        47.154    21704866.316 7  87396601.90307     -1275.176 7        43.873    21704865.458 7  91840478.50007     -1339.763 7        43.630
C13        43.000                                                                                                                                    37643738.045 6 196020848.05906      -491.682 6        38.589    37643741.969 6 151575772.46306      -380.318 6        40.732    37643740.340 6 159282994.66506      -399.389 6        38.886
C38        44.000                                                                                                                                    38593152.050 5 200964670.12305     -1248.074 5        34.029                                                                    38593160.333 5                     -1013.929 5        31.306
C25        45.000                                                                                                                                    22162258.665 7 115404751.01607     -1499.947 7        47.915                                                                    22162254.313 6  93775989.38306     -1218.606 6        40.095
C08        46.000                                                                                                                                    37643388.841 4 196019095.45904      -734.525 4        29.071    37643390.709 6 151574447.39206      -567.707 6        39.309    37643391.473 6 159281547.22806      -596.434 6        41.611
C23        47.000                                                                                                                                    24788341.804 7 129079730.10507      1433.722 7        44.506                                                                    24788334.437 6 104887721.52406      1165.231 6        38.631
C24        51.000                                                                                                                                    23912654.927 4 124519496.13804     -4027.353 4        28.663                                                                    23912667.509 5 101182277.09605     -3273.030 5        32.557
C34        52.000                                                                                                                                    21501719.160 7 111965165.75107        19.214 7        47.283                                                                    21501719.843 7  90980950.32207        15.937 7        46.231
I06        58.000    38648418.571 5 151664814.47105      -642.045 5        35.576
I02        59.000    38526525.008 6 151186375.09506     -1205.542 6        36.053
