     3.04           OBSERVATION DATA    M                   RINEX VERSION / TYPE
ssrcrin-15.6.1x                         20250102 001500 UTC PGM / RUN BY / DATE 
(00000000023479385599111004) Septentrio proprietary         COMMENT             
ract                                                        MARKER NAME         
01                                                          MARKER NUMBER       
geodetic                                                    MARKER TYPE         
NFB                 CLIMERS@TUW                             OBSERVER / AGENCY   
3296359             SEPT ASTERX SB3 PROB4.14.4              REC # / TYPE / VERS 
Unknown             Unknown                                 ANT # / TYPE        
  4127445.6967  1206914.4704  4695541.2373                  APPROX POSITION XYZ 
        0.0000        0.0000        0.0000                  ANTENNA: DELTA H/E/N
G   23 X1  C1C L1C D1C S1C C1W S1W C2W L2W D2W S2W C2L L2L  SYS / # / OBS TYPES 
       D2L S2L C5Q L5Q D5Q S5Q C1L L1L D1L S1L              SYS / # / OBS TYPES 
E   21 X1  C1C L1C D1C S1C C6C L6C D6C S6C C5Q L5Q D5Q S5Q  SYS / # / OBS TYPES 
       C7Q L7Q D7Q S7Q C8Q L8Q D8Q S8Q                      SYS / # / OBS TYPES 
S    9 X1  C1C L1C D1C S1C C5I L5I D5I S5I                  SYS / # / OBS TYPES 
R   17 X1  C1C L1C D1C S1C C2P L2P D2P S2P C2C L2C D2C S2C  SYS / # / OBS TYPES 
       C3Q L3Q D3Q S3Q                                      SYS / # / OBS TYPES 
C   25 X1  C1P L1P D1P S1P C5P L5P D5P S5P C2I L2I D2I S2I  SYS / # / OBS TYPES 
       C7I L7I D7I S7I C6I L6I D6I S6I C7D L7D D7D S7D      SYS / # / OBS TYPES 
J   17 X1  C1C L1C D1C S1C C2L L2L D2L S2L C5Q L5Q D5Q S5Q  SYS / # / OBS TYPES 
       C1L L1L D1L S1L                                      SYS / # / OBS TYPES 
I    5 X1  C5A L5A D5A S5A                                  SYS / # / OBS TYPES 
SEPTENTRIO RECEIVERS OUTPUT ALIGNED CARRIER PHASES.         COMMENT             
NO FURTHER PHASE SHIFT APPLIED IN THE RINEX ENCODER.        COMMENT             
G L1C                                                       SYS / PHASE SHIFT   
G L2W                                                       SYS / PHASE SHIFT   
G L2L  0.00000                                              SYS / PHASE SHIFT   
G L5Q  0.00000                                              SYS / PHASE SHIFT   
G L1L  0.00000                                              SYS / PHASE SHIFT   
E L1C  0.00000                                              SYS / PHASE SHIFT   
E L6C  0.00000                                              SYS / PHASE SHIFT   
E L5Q  0.00000                                              SYS / PHASE SHIFT   
E L7Q  0.00000                                              SYS / PHASE SHIFT   
E L8Q  0.00000                                              SYS / PHASE SHIFT   
S L1C                                                       SYS / PHASE SHIFT   
S L5I                                                       SYS / PHASE SHIFT   
R L1C                                                       SYS / PHASE SHIFT   
R L2P  0.00000                                              SYS / PHASE SHIFT   
R L2C                                                       SYS / PHASE SHIFT   
R L3Q  0.00000                                              SYS / PHASE SHIFT   
C L1P  0.00000                                              SYS / PHASE SHIFT   
C L5P  0.00000                                              SYS / PHASE SHIFT   
C L2I                                                       SYS / PHASE SHIFT   
C L7I                                                       SYS / PHASE SHIFT   
C L6I                                                       SYS / PHASE SHIFT   
C L7D                                                       SYS / PHASE SHIFT   
J L1C                                                       SYS / PHASE SHIFT   
J L2L  0.00000                                              SYS / PHASE SHIFT   
J L5Q  0.00000                                              SYS / PHASE SHIFT   
J L1L  0.00000                                              SYS / PHASE SHIFT   
I L5A                                                       SYS / PHASE SHIFT   
  2025     1     2     0    15    0.0000000     GPS         TIME OF FIRST OBS   
 C1C    0.000 C2C    0.000 C2P    0.000                     GLONASS COD/PHS/BIS 
DBHZ                                                        SIGNAL STRENGTH UNIT
    18                                                      LEAP SECONDS        
 24 R01  1 R02 -4 R03  5 R04  6 R05  1 R06 -4 R07  5 R08  6 GLONASS SLOT / FRQ #
    R09 -2 R10 -7 R11  0 R12 -1 R13 -2 R14 -7 R15  0 R16 -1 GLONASS SLOT / FRQ #
    R17  4 R18 -3 R19  3 R20  2 R21  4 R22 -3 R23  3 R24  2 GLONASS SLOT / FRQ #
                                                            END OF HEADER       
> 2025 01 02 00 15  0.0000000  0 35
G03         1.000    20630858.957 6 108416057.17306       882.284 6        41.011                                    20630854.058 6  84479887.81806       687.491 6        36.767    20630855.984 6  84480022.81806       687.581 6        41.333
G32         3.000    23207476.197 4                     -3530.085 4        28.673                                                                                                    23207462.179 5  95030617.91305     -2750.711 5        31.562
G14         4.000    25106707.314 5                     -3207.949 5        34.548
E07         5.000    24832483.291 7 130495632.57907     -2234.205 7        44.194                                                                    24832483.788 7  97448140.12307     -1668.480 7        46.496    24832482.936 7  99990125.56307     -1711.920 7        43.769
G08         6.000    24348509.986 4                     -4554.657 4        25.383                                                                                                    24348514.783 4                     -3549.077 4        27.269
G21         8.000    21303591.406 7 111951288.47707     -2500.862 7        43.403                                    21303587.818 4  87234535.39504     -1948.721 4        25.699
G02         9.000    20675916.690 7 108652900.83007     -1105.330 7        47.362                                    20675908.759 5  84664431.00905      -861.294 5        32.497
G17        11.000    22772376.296 8 119669629.36408       956.192 8        48.135                                    22772368.955 6  93248969.30506       745.078 6        41.187    22772369.752 6  93249051.29806       745.187 6        40.441
G04        12.000    23845522.347 5                      2899.366 5        30.445
E12        13.000    26808550.027 4                      1644.551 4        28.445                                                                    26808576.000 5                      1228.182 5        30.958    26808551.643 5 107946969.38005      1260.007 5        34.533
E29        14.000    24012713.588 6 126187701.12006       755.452 6        36.121                                                                    24012709.006 7  94231039.43907       564.141 7        44.266    24012706.751 6  96689209.72206       578.800 6        41.230
E24        15.000    28134025.490 4                     -2192.880 4        27.114                                                                    28134007.069 4                     -1638.004 4        28.351    28133991.153 6 113283927.68006     -1680.621 6        36.715
E26        19.000    24704417.088 5 129822554.98705     -2684.035 5        33.880                                                                    24704415.098 6  96945422.87106     -2004.363 6        40.906    24704416.849 7  99474451.82707     -2056.600 7        44.327
E19        20.000    26340495.269 6 138420232.79206      2273.224 6        37.864                                                                    26340492.391 5 103365775.59905      1697.328 5        34.048    26340493.645 6 106062270.15806      1741.795 6        36.095
R06        21.000    19283357.013 6 102899680.99006       102.205 6        38.727
S36        23.000    38195216.406 5 200717180.91305      -854.628 5        35.967
S23        24.000    38146620.064 6 200461837.65706      -851.949 6        40.248
R20        26.000                                                                                                                                    21665380.655 6  90109070.72906     -3457.830 6        36.389
R05        27.000    21337499.839 6 114061184.16206     -4381.399 6        41.812                                                                    21337495.547 6  88714223.76706     -3407.700 6        36.325
E33        28.000    23265865.345 7 122262934.74507      -345.120 7        46.415                                                                    23265862.301 8  91300290.42508      -257.766 8        48.591    23265862.411 8  93681991.56708      -264.535 8        48.713
E10        29.000    28869385.338 5                      1863.352 5        30.075                                                                    28869359.981 4 113289581.95204      1391.159 4        25.835    28869363.308 5 116244969.70105      1427.944 5        31.630
R21        30.000    19136585.053 8 102403979.00508     -1038.391 8        49.676                                                                    19136582.081 7  79647372.37807      -807.579 7        44.733
R07        34.000    22026511.862 5 117910284.44705      2888.226 5        33.216                                                                    22026518.365 4  91707489.84504      2246.797 4        28.569
R22        35.000    21480998.010 7 114667409.40107      2648.409 7        43.615                                                                    21480993.939 7  89185473.03907      2059.928 7        43.012
C32        36.000                                                                                                                                    22237252.150 8 115795165.71608       572.853 8        50.054                                                                    22237251.915 8  94093105.88608       465.416 8        48.828
C30        38.000                                                                                                                                    21953130.982 8 114315718.39308      -373.345 8        52.591                                                                    21953131.528 8  92890900.95508      -303.514 8        48.459
C16        45.000                                                                                                                                    39254253.662 5 204407219.75305       168.439 5        31.864    39254285.527 3                       130.911 3        22.324
C39        46.000                                                                                                                                    39046662.699 5                      -251.163 5        32.216                                                                    39046641.869 4 165219123.08304      -204.408 4        29.469
C09        47.000                                                                                                                                    39813224.553 5                       643.006 5        30.098    39813224.627 4 160311366.22104       497.168 4        29.280    39813223.378 3                       522.306 3        19.821
C41        49.000                                                                                                                                    22685066.786 7 118127196.30007     -2618.509 7        42.709                                                                    22685084.952 6  95988017.55606     -2127.669 6        37.720
C06        50.000                                                                                                                                                                                                    38922534.785 4                       224.077 4        27.581
C27        52.000                                                                                                                                    22641631.447 6 117900887.16906     -3249.840 6        38.880                                                                    22641626.340 6  95804122.54606     -2640.675 6        37.894
C29        54.000                                                                                                                                    25274887.720 6 131612977.70106      2154.772 6        39.177                                                                    25274885.580 7 106946358.44607      1750.852 7        42.449
I01        59.000   374293809.606 6 165668489.86706     -2767.289 6        36.582
I09        60.000    37107190.004 7 145616578.36007      -609.556 7        44.083
> 2025 01 02 00 15  5.0000000  0 34
G03         1.000    20630018.903 7 108411649.78207       880.519 7        42.637                                    20630015.172 6  84476453.49006       686.115 6        38.345    20630017.669 6  84476588.49306       686.013 6        41.802
G32         3.000                                                                                                                                                                    23210820.268 5  95044375.43005     -2752.484 5        33.533
G14         4.000    25109759.420 5 131952677.12915     -3209.259 5        34.543                                                                                                    25109744.358 3                     -2500.935 3        23.352
E07         5.000    24834610.080 7 130506808.08407     -2236.108 7        43.126                                                                    24834610.534 7  97456485.46807     -1669.816 7        46.495    24834609.318 7  99998688.61907     -1713.364 7        44.057
G08         6.000    24352840.784 4                     -4555.057 4        25.398                                                                                                    24352850.200 4                     -3548.960 4        26.383
G21         8.000    21305971.499 7 111963796.35507     -2502.478 7        42.610                                    21305967.848 4  87244281.78604     -1949.984 4        25.248
G02         9.000    20676969.647 7 108658432.54007     -1107.466 7        47.647                                    20676960.955 5  84668741.42705      -862.963 5        32.036
G17        11.000    22771466.952 8 119664853.90708       953.856 8        48.358                                    22771460.388 6  93245248.17906       743.265 6        41.015    22771461.316 6  93245330.17206       743.107 6        40.384
G04        12.000    23842763.154 4                      2899.123 4        28.332
E12        13.000    26806989.185 5                      1644.326 5        32.072                                                                    26807017.371 5                      1227.878 5        30.770    26806988.280 5 107940669.00605      1260.219 5        33.311
E29        14.000    24011994.588 6 126183928.51806       753.613 6        36.265                                                                    24011990.999 7  94228222.24007       562.609 7        44.239    24011988.963 6  96686319.04206       577.390 6        41.259
E24        15.000                                                                                                                                    28136094.150 4                     -1639.345 4        28.445    28136077.009 5 113292334.04105     -1682.210 5        35.676
E26        19.000    24706971.005 5 129835978.07305     -2685.067 5        33.593                                                                    24706969.350 6  96955446.60006     -2005.260 6        40.594    24706971.025 7  99484737.02707     -2057.395 7        44.676
E19        20.000    26338332.363 6 138408867.98606      2272.744 6        38.111                                                                    26338330.010 5 103357288.87905      1697.121 5        34.505    26338331.161 6 106053562.06106      1741.412 6        36.767
R06        21.000    19283262.051 6 102899179.05806        98.588 6        38.769
S36        23.000    38196032.089 6 200721454.20906      -854.604 6        37.164
S23        24.000    38147432.585 6 200466096.94706      -851.871 6        39.931
R20        26.000                                                                                                                                    21669537.792 5  90126362.54805     -3459.085 5        32.617
R05        27.000    21341596.879 7 114083094.73107     -4382.877 7        42.483                                                                    21341595.199 5  88731265.31105     -3409.010 5        34.190
E33        28.000    23266194.387 7 122264663.71807      -346.504 7        46.188                                                                    23266191.408 8  91301581.54108      -258.722 8        48.766    23266191.314 8  93683316.37008      -265.545 8        48.534
E10        29.000    28867611.195 5                      1863.742 5        31.155                                                                    28867586.189 4 113282624.01604      1391.745 4        27.114    28867591.294 5 116237830.26805      1427.743 5        30.468
R21        30.000    19137556.370 8 102409180.10008     -1042.182 8        48.322                                                                    19137554.466 7  79651417.68707      -810.476 7        44.381
R22        35.000    21478518.242 7 114654170.77807      2646.887 7        44.525                                                                    21478513.862 7  89175176.32407      2058.768 7        44.644
C32        36.000                                                                                                                                    22236702.657 8 115792306.05608       570.860 8        49.874                                                                    22236702.586 8  94090782.17108       463.996 8        48.620
C30        38.000                                                                                                                                    21953490.638 8 114317591.14908      -375.842 8        51.841                                                                    21953491.371 8  92892422.70208      -305.342 8        48.633
C16        45.000                                                                                                                                    39254097.861 5 204406379.40905       167.563 5        30.800    39254127.965 4                       130.092 4        27.461
C39        46.000                                                                                                                                    39046910.110 5                      -252.085 5        30.113                                                                    39046883.054 4 165220145.07004      -204.760 4        29.772
C09        47.000                                                                                                                                    39812612.401 5                       642.511 5        30.113    39812604.714 4 160308881.06204       497.805 4        26.096
C41        49.000                                                                                                                                    22687581.574 6 118140292.26806     -2620.001 6        40.894                                                                    22687598.574 6  95998659.14906     -2128.745 6        36.919
C06        50.000                                                                                                                                                                                                    38922256.726 4                       222.916 4        28.398
C27        52.000                                                                                                                                    22644752.224 6 117917140.51706     -3251.701 6        41.793                                                                    22644747.212 6  95817329.77406     -2642.176 6        37.263
C29        54.000                                                                                                                                    25272819.622 6 131602205.99006      2153.712 6        38.712                                                                    25272817.020 7 106937605.52207      1750.241 7        42.254
I01        59.000   374297335.650 6 165682326.37506     -2767.164 6        36.140
I09        60.000    37107966.155 7 145619626.40107      -609.757 7        44.203
> 2025 01 02 00 15 10.0000000  0 35
G03         1.000    20629181.019 7 108407252.36407       878.573 7        43.829                                    20629178.272 6  84473026.93306       684.599 6        38.892    20629181.044 7  84473161.92307       684.563 7        42.106
G32         3.000    23214172.157 4                     -3533.799 4        27.126                                                                                                    23214181.314 5  95058140.19405     -2753.802 5        32.461
G14         4.000    25112814.266 5 131968726.26705     -3210.599 5        31.532                                                                                                    25112794.850 4                     -2502.717 4        24.541
E07         5.000    24836738.864 7 130517993.88007     -2238.056 7        44.147                                                                    24836739.233 7  97464838.49107     -1671.221 7        46.507    24836737.570 7 100007259.54507     -1714.875 7        44.456
G08         6.000    24357171.094 4                     -4554.838 4        29.327                                                                                                    24357182.191 4                     -3549.762 4        26.443
G28         7.000    23736199.309 4                      1049.649 4        29.270
G21         8.000    21308353.754 7 111976313.27607     -2504.221 7        42.783                                    21308349.247 4  87254035.23904     -1951.339 4        24.316
G02         9.000    20678024.104 8 108663975.69208     -1109.664 8        48.144                                    20678015.462 5  84673060.78405      -864.680 5        31.472
G17        11.000    22770560.413 7 119660091.37907       951.317 7        47.408                                    22770554.335 6  93241537.11806       741.286 6        40.706    22770554.702 6  93241619.09306       741.265 6        40.162
G04        12.000    23839999.061 5                      2898.135 5        31.721                                                                                                    23839990.536 5  97620756.26315      2258.216 5        33.120
E12        13.000    26805424.050 5                      1644.207 5        32.946                                                                    26805456.104 5                      1227.437 5        30.309    26805420.318 5 107934370.03805      1259.720 5        33.958
E29        14.000    24011278.194 5 126180166.38505       751.756 5        32.701                                                                    24011275.010 7  94225412.79107       561.225 7        44.978    24011273.548 6  96683436.33906       575.941 6        41.688
E24        15.000                                                                                                                                    28138185.778 4                     -1640.811 4        28.758    28138165.099 6 113300748.21906     -1683.636 6        36.681
E26        19.000    24709523.700 4 129849407.49304     -2685.846 4        28.370                                                                    24709524.770 6  96965475.05006     -2005.932 6        40.513    24709526.461 7  99495027.10207     -2058.279 7        44.885
E19        20.000    26336170.915 6 138397506.59406      2271.853 6        38.468                                                                    26336168.624 5 103348804.73205      1696.515 5        35.095    26336169.184 6 106044856.56706      1741.058 6        36.673
R06        21.000    19283172.219 6 102898695.89506        95.000 6        38.664
S36        23.000    38196838.836 6 200725727.37906      -854.543 6        36.325
S23        24.000    38148245.522 6 200470356.67706      -851.954 6        40.255
R20        26.000    21673713.558 4                     -4449.719 4        26.802                                                                    21673696.580 4  90143662.58914     -3460.871 4        28.777
R05        27.000    21345695.264 6 114105013.78006     -4384.499 6        40.148                                                                    21345695.752 5  88748313.42705     -3410.011 5        30.581
E33        28.000    23266524.904 7 122266400.08407      -347.891 7        46.259                                                                    23266521.966 8  91302878.18708      -259.776 8        49.153    23266521.659 8  93684646.83608      -266.546 8        48.471
E10        29.000    28865839.006 4                      1864.045 4        28.114                                                                    28865813.362 4 113275665.44504      1391.893 4        26.431    28865819.020 4 116230690.18504      1428.348 4        29.592
R21        30.000    19138531.666 7 102414400.88307     -1046.027 7        47.189                                                                    19138529.870 7  79655478.31007      -813.563 7        44.385
R22        35.000    21476039.481 7 114640940.12207      2645.449 7        45.375                                                                    21476035.153 7  89164885.85007      2057.529 7        44.649
C32        36.000                                                                                                                                    22236155.514 8 115789457.01108       568.828 8        49.659                                                                    22236155.556 8  94088467.07708       462.230 8        48.634
C30        38.000                                                                                                                                    21953853.021 8 114319477.30708      -378.473 8        51.789                                                                    21953853.576 8  92893955.34308      -307.523 8        48.650
C16        45.000                                                                                                                                    39253938.119 5 204405543.81105       166.651 5        32.689    39253963.016 4                       129.041 4        27.293
C39        46.000                                                                                                                                    39047155.383 4                      -253.083 4        29.346                                                                    39047126.686 4 165221171.43804      -205.582 4        29.943
C09        47.000                                                                                                                                    39811996.341 5                       641.842 5        32.240    39811988.620 4 160306398.79804       496.416 4        26.946    39811979.292 3                       518.133 3        19.731
C41        49.000                                                                                                                                    22690100.325 6 118153396.63406     -2621.694 6        40.648                                                                    22690113.833 5  96009307.56405     -2130.158 5        35.390
C06        50.000                                                                                                                                    38921999.704 3                       287.795 3        23.657    38921982.736 4                       222.366 4        29.033
C27        52.000                                                                                                                                    22647875.482 7 117933403.69507     -3253.416 7        43.733                                                                    22647870.830 6  95830544.98206     -2643.821 6        36.715
C29        54.000                                                                                                                                    25270751.073 6 131591439.22206      2152.963 6        39.808                                                                    25270748.890 7 106928856.65907      1749.430 7        42.015
I01        59.000   374300861.337 6 165696164.08306     -2767.515 6        36.166
I09        60.000    37108743.421 7 145622675.69807      -609.899 7        43.867
> 2025 01 02 00 15 15.0000000  0 37
G03         1.000    20628346.027 7 108402864.65407       876.426 7        43.103                                    20628343.438 6  84469607.93906       682.934 6        39.060    20628346.116 7  84469742.93407       682.909 7        42.770
G32         3.000                                                                                                                                                                    23217542.067 5  95071912.03405     -2755.133 5        32.760
G14         4.000    25115869.179 5 131984781.81305     -3212.001 5        30.121
E07         5.000    24838869.615 7 130529189.68007     -2240.111 7        44.433                                                                    24838869.947 7  97473198.99607     -1672.857 7        46.809    24838867.797 7 100015838.14907     -1716.515 7        45.135
G08         6.000    24361505.505 4                     -4555.556 4        29.071                                                                                                    24361518.154 4                     -3550.546 4        25.774
G28         7.000    23735203.072 5                      1047.257 5        30.694                                                                                                    23735213.002 5                       815.906 5        32.024
G21         8.000    21310737.360 7 111988838.94107     -2505.940 7        42.552                                    21310732.183 4  87263795.49004     -1952.674 4        24.331
G02         9.000    20679080.858 8 108669529.99908     -1111.918 8        48.145                                    20679072.258 5  84677388.82405      -866.430 5        30.747
G19        10.000    24587072.994 4                      2600.378 4        24.977
G17        11.000    22769656.619 7 119655341.60307       948.638 7        46.897                                    22769650.664 6  93237835.98706       739.200 6        40.503    22769651.147 6  93237917.98206       739.217 6        40.744
G04        12.000    23837244.975 4                      2896.995 4        29.090                                                                                                    23837234.523 5  97609466.35805      2257.851 5        33.892
E12        13.000    26803858.219 5 140855234.73415      1643.736 5        34.324                                                                    26803891.855 4                      1227.619 4        28.701    26803856.917 5 107928072.19205      1259.550 5        34.724
E29        14.000                                                                                                                                    24010561.323 7  94222610.96107       559.646 7        45.579    24010559.815 7  96680561.44307       574.186 7        42.408
E24        15.000                                                                                                                                    28140277.254 4                     -1642.155 4        29.175    28140256.633 6 113309169.96506     -1685.080 6        36.144
E26        19.000    24712084.835 5 129862843.00105     -2687.582 5        31.275                                                                    24712081.666 6  96975508.05706     -2007.069 6        41.197    24712082.852 7  99505321.84707     -2059.438 7        44.414
E19        20.000    26334009.117 6 138386148.25506      2271.067 6        37.285                                                                    26334006.628 5 103340322.84105      1696.202 5        35.314    26334007.465 6 106036153.39906      1740.488 6        36.843
R06        21.000    19283084.608 6 102898231.25106        91.215 6        37.626
S36        23.000    38197657.009 6 200730000.90706      -854.952 6        37.051
S23        24.000    38149055.865 6 200474616.40506      -852.038 6        40.126
R20        26.000    21677869.565 3                     -4449.961 3        21.857                                                                    21677854.334 4  90160970.64904     -3461.537 4        26.551
R05        27.000    21349797.433 6 114126940.96906     -4386.269 6        39.246                                                                    21349800.472 5  88765367.88705     -3411.521 5        32.018
E33        28.000    23266856.871 7 122268143.59307      -349.459 7        46.553                                                                    23266853.938 8  91304180.15908      -260.925 8        49.415    23266853.315 8  93685982.77308      -267.749 8        48.127
E10        29.000    28864065.699 4                      1863.761 4        25.805                                                                    28864041.628 4 113268706.10204      1391.673 4        26.790    28864046.029 4 116223549.26404      1428.530 4        28.758
R21        30.000    19139511.380 7 102419641.27507     -1050.043 7        46.000                                                                    19139509.722 7  79659554.19007      -816.658 7        44.302
R07        34.000                                                                                                                                    22018466.692 4                      2242.452 4        28.711
R22        35.000    21473563.819 7 114627717.22807      2643.774 7        45.398                                                                    21473558.186 7  89154601.37807      2056.336 7        44.870
C32        36.000                                                                                                                                    22235609.834 8 115786618.35208       566.652 8        49.019                                                                    22235610.351 8  94086160.43008       460.390 8        48.657
C30        38.000                                                                                                                                    21954218.404 8 114321376.62408      -381.139 8        52.084                                                                    21954218.461 8  92895498.70008      -309.770 8        49.058
C16        45.000                                                                                                                                    39253776.694 5 204404712.83005       165.897 5        35.333    39253800.884 4                       127.857 4        29.592
C39        46.000                                                                                                                                    39047396.841 5                      -254.370 5        31.577                                                                    39047369.782 4 165222201.90104      -206.196 4        29.175
C09        47.000                                                                                                                                    39811380.438 5                       640.865 5        31.426    39811375.242 4 160303919.08304       495.605 4        28.303
C41        49.000                                                                                                                                    22692621.007 6 118166509.16006     -2623.211 6        38.060                                                                    22692628.716 5  96019962.60905     -2131.694 5        35.914
C06        50.000                                                                                                                                                                                                    38921705.362 4                       221.773 4        29.649
C27        52.000                                                                                                                                    22651000.095 7 117949676.48307     -3255.523 7        44.331                                                                    22650996.185 6  95843767.94906     -2645.461 6        37.928
C29        54.000                                                                                                                                    25268683.626 6 131580677.25306      2151.852 6        40.648                                                                    25268681.854 6 106920111.70906      1748.566 6        41.750
I01        59.000   374304388.422 6 165710002.73506     -2767.600 6        37.142
I09        60.000    37109521.052 7 145625726.08707      -610.197 7        43.579
> 2025 01 02 00 15 20.0000000  0 37
G03         1.000    20627513.052 7 108398487.11807       874.545 7        43.266                                    20627510.706 6  84466196.86106       681.466 6        39.829    20627513.167 7  84466331.84707       681.460 7        43.361
G32         3.000                                                                                                                                                                    23220902.967 5  95085691.32805     -2756.744 5        32.204
G14         4.000    25118925.337 5 132000844.05505     -3213.151 5        31.494
E07         5.000    24841002.190 7 130540395.94107     -2242.234 7        44.966                                                                    24841002.425 7  97481567.31607     -1674.406 7        47.289    24841000.317 7 100024424.77307     -1717.997 7        45.284
G08         6.000    24365834.179 4                     -4555.578 4        28.682                                                                                                    24365849.689 4                     -3550.417 4        24.466
G28         7.000    23734210.900 5                      1044.813 5        33.305                                                                                                    23734226.236 5                       814.341 5        30.649
G21         8.000    21313123.064 7 112001373.96807     -2507.899 7        43.018                                    21313116.855 3  87273563.04203     -1954.221 3        23.962
G02         9.000    20680140.160 7 108675095.90707     -1114.259 7        47.614                                    20680131.433 5  84681725.90005      -868.252 5        30.453
G19        10.000    24584603.760 4                      2598.793 4        29.517
G17        11.000    22768755.322 7 119650604.97807       946.124 7        45.922                                    22768749.449 6  93234145.10606       737.241 6        40.153    22768750.659 6  93234227.08806       737.341 6        39.919
G04        12.000    23834486.825 5                      2896.494 5        30.068                                                                                                    23834479.312 5  97598179.47505      2257.013 5        34.248
E12        13.000    26802294.419 6 140847017.40106      1643.432 6        36.008                                                                    26802327.860 4                      1227.547 4        28.929    26802294.904 5 107921775.80705      1259.334 5        33.521
E29        14.000    24009848.954 4 126172672.97004       747.440 4        28.180                                                                    24009849.365 7  94219817.07607       558.059 7        46.047    24009848.323 7  96677694.68707       572.567 7        42.815
E24        15.000                                                                                                                                    28142371.100 4                     -1644.205 4        27.976    28142350.146 5 113317599.65105     -1686.730 5        35.148
E26        19.000    24714642.996 5 129876285.09305     -2688.773 5        32.641                                                                    24714639.793 6  96985545.95906     -2007.992 6        41.826    24714640.618 7  99515621.60007     -2060.464 7        44.247
E19        20.000    26331848.683 6 138374793.53306      2270.583 6        36.488                                                                    26331846.256 5 103331843.67905      1695.819 5        35.914    26331846.707 6 106027453.05606      1739.863 6        36.836
R06        21.000    19283000.088 6 102897785.66606        87.391 6        37.418
S36        23.000    38198474.158 6 200734275.49206      -854.828 6        36.038
S23        24.000    38149863.328 6 200478876.70606      -852.031 6        40.555
R20        26.000                                                                                                                                    21682017.266 4  90178287.37404     -3463.695 4        28.540
R05        27.000    21353901.160 6 114148876.77606     -4387.959 6        37.463                                                                    21353898.482 4  88782429.09504     -3412.889 4        29.697
E33        28.000    23267189.964 7 122269894.71407      -350.892 7        46.552                                                                    23267187.301 8  91305487.81908      -262.039 8        50.138    23267186.597 7  93687324.54807      -268.864 7        47.785
E10        29.000    28862293.904 4                      1864.375 4        26.156                                                                    28862270.044 4 113261746.36104      1392.006 4        28.787    28862275.374 4 116216407.93604      1428.396 4        29.962
R21        30.000    19140494.880 7 102424901.75407     -1053.933 7        45.831                                                                    19140493.045 7  79663645.68707      -819.771 7        44.938
R07        34.000    22015782.021 5                      2881.203 5        35.924
R22        35.000    21471087.824 7 114614502.58207      2642.187 7        43.602                                                                    21471082.334 7  89144323.31707      2055.010 7        45.558
C32        36.000                                                                                                                                    22235066.444 8 115783790.51808       564.609 8        49.082                                                                    22235067.265 8  94083862.56108       458.860 8        48.231
C30        38.000                                                                                                                                    21954586.095 8 114323289.56508      -383.860 8        52.310                                                                    21954585.853 8  92897053.10408      -311.795 8        49.251
C16        45.000                                                                                                                                    39253617.844 5 204403886.82505       164.622 5        35.081    39253642.432 4                       127.395 4        29.725
C39        46.000                                                                                                                                    39047637.893 5                      -255.238 5        31.132                                                                    39047612.459 4 165223236.90204      -207.043 4        26.683
C09        47.000                                                                                                                                    39810766.636 5                       640.036 5        30.634    39810758.079 3                       495.253 3        23.143
C41        49.000                                                                                                                                    22695141.450 6 118179630.30406     -2624.955 6        36.813                                                                    22695145.871 6  96030624.63706     -2132.854 6        36.306
C06        50.000                                                                                                                                    38921445.192 3                       284.889 3        20.619    38921429.936 4                       221.092 4        28.910
C27        52.000                                                                                                                                    22654126.304 7 117965959.28107     -3257.512 7        44.971                                                                    22654124.063 6  95856999.04206     -2646.922 6        38.093
C29        54.000                                                                                                                                    25266618.388 7 131569920.56407      2150.956 7        42.457                                                                    25266616.498 6 106911371.01106      1747.887 6        41.816
I01        59.000   374307915.085 6 165723842.72806     -2768.100 6        36.586
I09        60.000    37110298.319 7 145628777.89107      -610.406 7        43.875
> 2025 01 02 00 15 25.0000000  0 37
G03         1.000    20626681.486 7 108394118.90107       872.878 7        42.806                                    20626679.825 6  84462793.04306       680.162 6        40.102    20626681.852 7  84462928.03607       680.077 7        44.006
G32         3.000                                                                                                                                                                    23224269.727 5  95099477.38105     -2757.700 5        32.150
G14         4.000    25121984.460 5 132016912.20705     -3214.214 5        32.341                                                                                                    25121988.662 3                     -2505.429 3        22.876
E07         5.000    24843136.536 7 130551611.81407     -2243.990 7        45.135                                                                    24843136.810 7  97489942.80607     -1675.670 7        47.394    24843134.850 7 100033018.75707     -1719.390 7        45.729
G08         6.000    24370166.037 4                     -4555.687 4        28.294                                                                                                    24370180.545 4                     -3550.439 4        24.466
G28         7.000    23733217.868 5                      1042.628 5        33.108                                                                                                    23733239.317 4                       812.645 4        29.659
G21         8.000    21315510.803 7 112013917.49907     -2509.404 7        42.411                                    21315503.101 3  87283337.21903     -1955.387 3        23.257
G02         9.000    20681201.212 7 108680672.59407     -1116.351 7        47.015                                    20681192.818 4  84686071.37804      -869.880 4        29.450
G19        10.000    24582135.630 5                      2597.534 5        32.826
G17        11.000    22767856.475 7 119645880.67607       943.732 7        45.056                                    22767850.470 6  93230463.82606       735.376 6        39.435    22767850.748 6  93230545.80806       735.440 6        40.222
G04        12.000    23831734.845 4                      2895.822 4        28.417                                                                                                    23831723.727 5  97586894.77405      2256.710 5        34.281
E12        13.000    26800730.843 5 140838801.19905      1643.225 5        34.843                                                                    26800764.120 4                      1227.069 4        28.152    26800731.264 5 107915480.25805      1259.115 5        32.473
E29        14.000    24009138.154 5 126168941.33005       745.649 5        30.121                                                                    24009139.230 7  94217030.50507       556.680 7        46.397    24009138.414 7  96674835.43707       571.199 7        43.661
E24        15.000    28144470.172 5                     -2203.273 5        32.449                                                                    28144467.182 4                     -1645.076 4        26.671    28144445.819 5 113326036.62005     -1688.139 5        35.819
E26        19.000    24717203.675 5 129889732.82205     -2689.959 5        34.771                                                                    24717198.630 7  96995588.09707     -2008.841 7        42.093    24717199.562 7  99525925.70407     -2061.154 7        44.343
E19        20.000    26329688.413 6 138363441.61306      2270.130 6        36.121                                                                    26329686.325 6 103323366.61206      1695.336 6        36.106    26329686.373 6 106018754.84106      1739.522 6        36.597
R06        21.000    19282920.240 6 102897358.15706        83.793 6        37.395
S36        23.000    38199291.074 6 200738550.30006      -854.775 6        36.295
S23        24.000    38150681.201 6 200483136.68406      -851.736 6        40.768
R20        26.000                                                                                                                                    21686182.514 4  90195611.68904     -3464.833 4        26.323
R05        27.000    21358005.474 6 114170820.32406     -4389.400 6        37.142                                                                    21358001.557 4  88799496.31204     -3414.770 4        26.707
E33        28.000    23267524.409 7 122271652.60707      -352.166 7        46.341                                                                    23267521.936 8  91306800.52908      -262.967 8        50.232    23267521.009 7  93688671.50107      -269.821 7        47.796
E10        29.000    28860522.189 4                      1864.598 4        26.228                                                                    28860497.164 4 113254785.51704      1392.593 4        29.867    28860502.840 5 116209265.52605      1428.673 5        30.196
R21        30.000    19141482.574 7 102430181.32307     -1057.701 7        46.414                                                                    19141479.867 7  79667752.00507      -822.699 7        45.661
R07        34.000    22013089.577 5 117838186.93915      2879.145 5        34.300
R22        35.000    21468607.703 6 114601295.31406      2640.909 6        39.219                                                                    21468608.141 7  89134051.00007      2053.982 7        44.867
C32        36.000                                                                                                                                    22234525.383 8 115780972.67308       562.702 8        48.918                                                                    22234526.026 8  94081572.84808       457.228 8        48.220
C30        38.000                                                                                                                                    21954955.790 8 114325215.29408      -386.287 8        52.455                                                                    21954955.710 8  92898617.92808      -313.869 8        49.434
C16        45.000                                                                                                                                    39253461.906 6 204403064.94206       164.310 6        36.026    39253484.816 4                       126.832 4        28.417
C39        46.000                                                                                                                                    39047887.602 5                      -256.175 5        31.132                                                                    39047858.243 4 165224275.68104      -208.654 4        28.076
C09        47.000                                                                                                                                    39810148.836 5                       639.340 5        30.279    39810141.818 3                       492.847 3        23.638
C41        49.000                                                                                                                                    22697664.814 6 118192759.14506     -2626.364 6        38.673                                                                    22697666.978 6  96041292.94106     -2134.228 6        37.966
C06        50.000                                                                                                                                                                                                    38921156.237 4                       220.109 4        28.919
C27        52.000                                                                                                                                    22657254.688 7 117982251.25007     -3259.238 7        45.105                                                                    22657253.381 6  95870237.60506     -2648.312 6        39.177
C29        54.000                                                                                                                                    25264553.530 7 131559168.26107      2150.138 7        42.688                                                                    25264551.221 6 106902633.91706      1747.122 6        41.240
I01        59.000   374311442.040 6 165737683.37606     -2767.899 6        36.673
I09        60.000    37111076.580 7 145631830.49907      -610.528 7        43.634
> 2025 01 02 00 15 30.0000000  0 37
G03         1.000    20625852.562 6 108389760.57606       870.433 6        40.570                                    20625850.996 6  84459396.94106       678.270 6        40.603    20625852.424 7  84459531.92707       678.231 7        44.692
G32         3.000                                                                                                                                                                    23227636.037 5  95113270.57505     -2759.476 5        31.079
G14         4.000    25125043.300 5 132032986.73005     -3216.043 5        31.811                                                                                                    25125050.919 3                     -2506.655 3        21.310
E07         5.000    24845272.909 7 130562837.85007     -2246.544 7        45.702                                                                    24845273.131 7  97498325.89307     -1677.614 7        47.585    24845271.157 7 100041620.52907     -1721.313 7        46.109
G08         6.000    24374506.578 4                     -4556.204 4        28.114                                                                                                    24374516.074 4                     -3549.645 4        24.135
G28         7.000    23732224.323 5                      1040.136 5        30.196                                                                                                    23732247.739 4                       810.129 4        25.098
G21         8.000    21317899.390 6 112026470.07306     -2511.873 6        41.452                                    21317891.403 3  87293118.46103     -1957.296 3        22.571
G02         9.000    20682264.043 7 108686260.60407     -1119.063 7        46.042                                    20682256.375 4  84690425.67004      -871.988 4        28.445
G19        10.000    24579666.270 5                      2596.145 5        34.519
G17        11.000    22766959.950 7 119641169.23707       940.551 7        44.691                                    22766953.927 6  93226792.56406       732.898 6        38.814    22766954.705 6  93226874.53806       733.027 6        39.826
G04        12.000    23828978.403 4                      2895.189 4        25.895                                                                                                    23828966.802 5  97575612.88405      2255.757 5        32.341
E12        13.000    26799168.103 6 140830586.65406      1642.258 6        36.219                                                                    26799200.322 4                      1226.890 4        27.317    26799169.465 5 107909185.96305      1258.756 5        31.713
E29        14.000    24008432.684 5 126165220.13105       742.949 5        34.381                                                                    24008431.199 7  94214251.66007       554.779 7        46.938    24008430.289 7  96671984.12407       569.217 7        44.507
E24        15.000    28146567.537 5                     -2205.260 5        31.592                                                                    28146564.315 4                     -1646.687 4        26.731    28146542.899 5 113334481.27205     -1689.854 5        34.790
E26        19.000    24719762.562 6 129903186.81106     -2691.755 6        37.089                                                                    24719758.872 7  97005634.91207     -2010.002 7        42.430    24719759.790 7  99536234.62707     -2062.479 7        44.345
E19        20.000    26327529.352 5 138352093.04505      2268.910 5        35.090                                                                    26327526.996 6 103314892.04706      1694.447 6        36.586    26327526.983 6 106010059.17206      1738.735 6        36.597
R06        21.000    19282843.956 6 102896949.40406        79.461 6        38.381
S36        23.000    38200102.124 6 200742825.34706      -855.331 6        37.508
S23        24.000    38151492.197 6 200487396.95706      -852.493 6        40.408
R20        26.000                                                                                                                                    21690352.873 4  90212944.38504     -3467.479 4        27.689
R05        27.000    21362110.649 6 114192772.01816     -4391.410 6        36.008                                                                    21362104.267 4                     -3415.100 4        27.401
E33        28.000    23267860.235 7 122273417.81007      -354.064 7        46.153                                                                    23267857.766 8  91308118.70208      -264.438 8        50.523    23267856.982 7  93690024.06107      -271.322 7        47.670
E10        29.000    28858742.514 4                      1864.736 4        28.104                                                                    28858724.379 5 113247824.02605      1391.965 5        31.245    28858730.236 4 116202122.39304      1428.124 4        29.100
R21        30.000    19142473.446 7 102435480.61507     -1062.253 7        47.164                                                                    19142470.301 7  79671873.67607      -826.123 7        45.598
R07        34.000                                                                                                                                    22010349.007 4                      2237.663 4        28.332
R22        35.000    21466130.340 5 114588095.95305      2638.512 5        33.359                                                                    21466135.386 7  89123784.86707      2052.296 7        44.855
C32        36.000                                                                                                                                    22233986.211 8 115778165.35608       560.080 8        49.809                                                                    22233986.856 8  94079291.64308       455.203 8        48.020
C30        38.000                                                                                                                                    21955327.805 8 114327154.35708      -389.449 8        52.393                                                                    21955328.008 8  92900193.54308      -316.340 8        49.647
C16        45.000                                                                                                                                    39253305.136 5 204402247.80505       162.736 5        35.276    39253326.159 4                       126.133 4        28.294
C39        46.000                                                                                                                                    39048136.846 5                      -257.270 5        30.453
C09        47.000                                                                                                                                    39809535.039 4                       638.816 4        28.749    39809528.155 3                       494.181 3        22.762    39809530.833 3                       521.360 3        21.452
C41        49.000                                                                                                                                    22700187.046 6 118205896.25706     -2628.393 6        40.122                                                                    22700190.311 6  96051967.91806     -2135.853 6        39.069
C06        50.000                                                                                                                                                                                                    38920882.739 4                       219.695 4        29.081
C27        52.000                                                                                                                                    22660383.803 7 117998552.92707     -3261.573 7        44.083                                                                    22660384.503 6  95883484.00406     -2650.212 6        40.441
C29        54.000                                                                                                                                    25262489.118 7 131548420.92107      2148.695 7        43.374                                                                    25262487.042 6 106893900.81306      1746.008 6        41.163
I01        59.000   374314969.340 6 165751525.08506     -2768.595 6        36.378
I09        60.000    37111854.562 7 145634884.30207      -611.124 7        43.587
> 2025 01 02 00 15 35.0000000  0 37
G03         1.000    20625025.662 6 108385412.29306       868.835 6        41.259                                    20625024.086 6  84456008.66006       677.024 6        41.354    20625024.855 7  84456143.63907       676.953 7        45.449
G32         3.000    23231029.262 4                     -3541.736 4        24.812                                                                                                    23231002.417 4  95127071.10504     -2760.458 4        28.284
G14         4.000    25128102.462 5 132049067.83205     -3216.932 5        30.641
E07         5.000    24847410.870 7 130574074.20107     -2248.149 7        46.357                                                                    24847411.317 7  97506716.67407     -1678.812 7        47.698    24847409.740 7 100050230.19807     -1722.586 7        46.283
G08         6.000    24378842.608 4                     -4555.858 4        28.133                                                                                                    24378850.480 4                     -3550.195 4        25.248
G28         7.000    23731235.884 4                      1037.728 4        29.659                                                                                                    23731262.605 4                       807.712 4        25.008
G21         8.000    21320290.164 6 112039031.85606     -2513.008 6        41.640                                    21320281.557 3  87302906.85103     -1958.187 3        22.514
G02         9.000    20683329.984 7 108691860.10807     -1120.906 7        45.539                                    20683322.142 4  84694788.91704      -873.438 4        27.090
G19        10.000    24577194.091 5 129154038.83605      2595.013 5        34.476
G17        11.000    22766065.916 7 119636470.79107       938.574 7        44.486                                    22766059.822 6  93223131.42706       731.354 6        38.066    22766060.657 6  93223213.41906       731.318 6        39.994
G04        12.000    23826223.727 4                      2894.761 4        25.489                                                                                                    23826210.403 5  97564333.81805      2255.640 5        31.011
E12        13.000    26797605.897 6 140822373.89306      1642.552 6        36.030                                                                    26797633.510 4                      1226.475 4        26.096    26797606.905 5 107902893.09805      1258.185 5        30.309
E29        14.000    24007728.126 6 126161509.41006       741.378 6        37.418                                                                    24007725.087 7  94211480.66307       553.550 7        47.399    24007724.319 7  96669140.85107       567.964 7        45.160
E24        15.000    28148663.789 5                     -2207.356 5        32.245                                                                    28148663.724 4                     -1648.150 4        26.707    28148642.109 5 113342933.78105     -1690.952 5        33.796
E26        19.000    24722324.113 6 129916647.23006     -2692.525 6        40.279                                                                    24722320.160 7  97015686.51407     -2010.672 7        42.916    24722320.980 7  99546548.44707     -2063.130 7        44.343
E19        20.000    26325370.885 5 138340747.97105      2268.804 5        34.690                                                                    26325368.380 6 103306420.07606      1694.373 6        36.688    26325367.911 6 106001366.19506      1738.353 6        36.408
R06        21.000    19282771.683 6 102896559.35606        76.287 6        38.042
S36        23.000    38200919.599 6 200747100.81606      -854.801 6        37.690
S23        24.000    38152297.420 6 200491657.59406      -852.071 6        39.802
R20        26.000    21694522.553 3                     -4460.898 3        19.313                                                                    21694522.517 5  90230285.22905     -3469.076 5        30.649
R05        27.000    21366220.486 6 114214732.23016     -4392.756 6        36.038                                                                    21366213.451 4                     -3416.480 4        27.880
E33        28.000    23268197.396 7 122275190.49407      -355.072 7        46.200                                                                    23268195.188 8  91309442.45308      -265.168 8        50.964    23268194.255 7  93691382.35607      -272.085 7        47.706
E10        29.000    28856965.156 4                      1864.529 4        28.844                                                                    28856954.604 5 113240862.05505      1392.543 5        32.754    28856958.512 4 116194978.77504      1428.531 4        29.896
R21        30.000    19143466.943 7 102440799.82307     -1065.732 7        47.787                                                                    19143463.945 7  79676010.85307      -828.905 7        45.833
R07        34.000                                                                                                                                    22007659.451 3                      2237.588 3        22.000
R22        35.000    21463662.119 4 114574904.78904      2637.218 4        28.246                                                                    21463664.577 7  89113525.08307      2051.443 7        44.342
C32        36.000                                                                                                                                    22233449.260 8 115775368.73708       558.484 8        49.798                                                                    22233449.651 7  94077019.16707       453.625 7        47.729
C30        38.000                                                                                                                                    21955702.479 8 114329106.93108      -391.788 8        52.242                                                                    21955702.933 8  92901780.16308      -318.480 8        49.689
C16        45.000                                                                                                                                    39253147.529 5 204401435.55905       162.117 5        34.710    39253169.652 4                       125.062 4        27.030
C39        46.000                                                                                                                                    39048386.318 5                      -258.502 5        31.683                                                                    39048350.862 4 165226366.02204      -209.961 4        26.120
C09        47.000                                                                                                                                    39808924.596 4                       637.867 4        28.938    39808918.655 3                       495.539 3        22.305    39808918.409 3                       517.746 3        21.881
C41        49.000                                                                                                                                    22702712.091 6 118219041.83006     -2629.712 6        40.839                                                                    22702715.225 6  96062649.80206     -2137.151 6        40.265
C06        50.000                                                                                                                                                                                                    38920611.142 4                       218.847 4        28.663
C27        52.000                                                                                                                                    22663515.088 7 118014864.47607     -3263.114 7        43.674                                                                    22663517.159 6  95896738.45306     -2651.721 6        41.609
C29        54.000                                                                                                                                    25260426.370 7 131537678.72807      2148.060 7        44.281                                                                    25260424.092 6 106885171.91406      1745.317 6        40.908
I01        59.000   374318496.213 6 165765368.03906     -2768.528 6        36.624
I09        60.000    37112633.105 7 145637939.42307      -611.019 7        43.951
> 2025 01 02 00 15 40.0000000  0 36
G03         1.000    20624200.962 7 108381073.44007       867.057 7        43.664                                    20624198.888 7  84452627.71907       675.632 7        42.290    20624199.401 7  84452762.71107       675.551 7        45.992
G32         3.000                                                                                                                                                                    23234371.325 4  95140878.43804     -2761.953 4        25.504
G14         4.000    25131158.470 4 132065154.90404     -3217.723 4        29.659
E07         5.000    24849550.516 7 130585320.27307     -2249.953 7        46.525                                                                    24849551.168 7  97515114.72307     -1680.241 7        47.747    24849549.924 7 100058847.31207     -1724.049 7        46.531
G08         6.000    24383177.537 4                     -4555.957 4        28.701                                                                                                    24383185.142 3                     -3550.186 3        21.857
G28         7.000    23730251.917 4                      1035.444 4        29.735                                                                                                    23730279.881 4                       806.894 4        27.257
G21         8.000    21322681.903 7 112051602.20407     -2514.707 7        42.639                                    21322673.567 3  87312701.93203     -1959.511 3        22.571
G02         9.000    20684397.569 7 108697470.53007     -1122.930 7        44.871                                    20684389.813 4  84699160.68004      -875.010 4        25.368
G19        10.000    24574726.468 5 129141069.12705      2593.550 5        34.119
G17        11.000    22765174.056 7 119631784.81007       936.146 7        44.981                                    22765168.073 6  93219480.01006       729.467 6        37.437    22765168.493 6  93219562.00106       729.485 6        40.462
G04        12.000                                                                                                                                                                    23823453.920 4  97553057.16504      2255.499 4        29.318
E12        13.000    26796042.044 5 140814162.35705      1642.363 5        35.024                                                                    26796061.484 3                      1226.707 3        22.343    26796042.682 4 107896601.15204      1258.909 4        27.437
E29        14.000    24007022.952 6 126157808.61306       739.572 6        39.553                                                                    24007020.921 7  94208717.08007       552.114 7        47.632    24007020.224 7  96666305.18807       566.495 7        45.857
E24        15.000    28150762.863 5                     -2209.060 5        32.114                                                                    28150766.795 3                     -1650.556 3        23.162    28150742.177 5 113351393.61805     -1692.589 5        32.437
E26        19.000    24724886.643 7 129930113.45307     -2693.658 7        42.074                                                                    24724882.648 7  97025742.47207     -2011.562 7        43.105    24724883.450 7  99556866.72707     -2063.958 7        44.460
E19        20.000    26323212.301 5 138329405.77205      2268.621 5        34.848                                                                    26323210.046 6 103297950.28306      1693.680 6        36.941    26323209.435 6 105992675.43306      1737.996 6        36.556
R06        21.000    19282702.028 6 102896187.65606        72.647 6        37.323
S36        23.000    38201733.398 6 200751375.91306      -854.780 6        37.905
S23        24.000    38153112.995 6 200495918.14106      -851.845 6        39.919
R20        26.000                                                                                                                                    21698695.020 4  90247633.91804     -3470.805 4        29.924
R05        27.000    21370329.532 6                     -4394.169 6        36.794                                                                    21370324.549 5                     -3417.749 5        32.317
E33        28.000    23268535.941 7 122276970.06607      -356.302 7        46.632                                                                    23268533.943 8  91310771.35808      -266.123 8        51.147    23268532.807 7  93692745.92307      -273.060 7        47.910
E10        29.000    28855189.001 4                      1865.227 4        29.479                                                                    28855184.090 5 113233899.09205      1393.010 5        33.359    28855186.159 5 116187834.14005      1428.731 5        30.536
R21        30.000    19144463.821 7 102446138.41807     -1069.453 7        47.356                                                                    19144462.665 7  79680163.10507      -831.829 7        46.383
R22        35.000    21461193.998 5 114561721.17805      2636.247 5        33.461                                                                    21461194.317 7  89103271.16207      2050.458 7        44.522
C32        36.000                                                                                                                                    22232913.725 8 115772582.23908       556.509 8        49.239                                                                    22232914.513 7  94074754.91607       452.260 7        47.451
C30        38.000                                                                                                                                    21956079.885 8 114331072.40008      -394.121 8        52.311                                                                    21956080.325 8  92903377.28008      -320.223 8        49.863
C16        45.000                                                                                                                                    39252988.249 5 204400627.60705       161.585 5        32.958    39253009.586 4                       124.881 4        27.186
C39        46.000                                                                                                                                    39048637.368 5                      -259.199 5        32.719                                                                    39048594.303 4                      -211.368 4        24.857
C09        47.000                                                                                                                                    39808310.096 4                       636.510 4        27.952                                                                    39808309.445 3                       517.573 3        23.390
C41        49.000                                                                                                                                    22705237.335 7 118232195.20507     -2631.181 7        42.593                                                                    22705241.238 6  96073338.03406     -2138.109 6        41.125
C06        50.000                                                                                                                                                                                                    38920338.471 4                       218.427 4        28.957
C27        52.000                                                                                                                                    22666650.292 7 118031185.27507     -3264.896 7        44.503                                                                    22666651.320 6  95910000.43706     -2652.885 6        41.776
C29        54.000                                                                                                                                    25258364.645 7 131526941.10007      2147.246 7        44.160                                                                    25258361.927 6 106876446.72006      1744.850 6        40.527
I01        59.000   374322024.110 6 165779211.83306     -2768.767 6        37.043
I09        60.000    37113411.865 7 145640995.44407      -611.110 7        43.759
> 2025 01 02 00 15 45.0000000  0 36
G03         1.000    20623377.678 7 108376744.89107       864.768 7        44.718                                    20623375.564 7  84449254.82107       673.848 7        43.619    20623375.941 7  84449389.81607       673.839 7        46.595
G32         3.000                                                                                                                                                                    23237746.308 4  95154693.37604     -2763.914 4        26.623
G14         4.000    25134225.960 4 132081248.81704     -3219.351 4        29.033                                                                                                    25134238.856 4                     -2508.681 4        24.391
E07         5.000    24851692.735 7 130596576.89307     -2252.214 7        46.166                                                                    24851693.315 7  97523520.63707     -1681.893 7        47.737    24851692.314 7 100067472.51307     -1725.793 7        46.683
G08         6.000    24387508.988 4                     -4556.856 4        28.701                                                                                                    24387514.142 3                     -3551.058 3        23.848
G28         7.000    23729269.614 4                      1032.880 4        28.938
G21         8.000    21325075.779 7 112064181.97907     -2516.803 7        43.022                                    21325067.588 3  87322504.35003     -1961.135 3        23.314
G02         9.000    20685467.575 7 108703092.70707     -1125.545 7        43.096                                    20685459.689 3  84703541.60703      -877.043 3        23.695
G19        10.000    24572255.104 5 129128107.21505      2591.743 5        34.648
G17        11.000    22764284.370 7 119627112.15007       933.303 7        44.969                                    22764278.882 6  93215838.96806       727.245 6        36.941    22764279.149 6  93215920.97506       727.330 6        40.091
G04        12.000    23820701.197 4                      2891.896 4        26.096                                                                                                    23820699.729 4  97541783.59804      2254.495 4        27.557
E12        13.000    26794478.615 5 140805952.96205      1641.493 5        33.353
E29        14.000    24006320.356 6 126154118.60906       737.003 6        41.819                                                                    24006318.713 8  94205961.54408       550.347 8        48.001    24006318.107 7  96663477.77707       564.716 7        46.367
E24        15.000    28152858.238 5                     -2211.265 5        31.902                                                                    28152869.983 3                     -1651.734 3        22.648    28152841.390 4 113359861.46604     -1693.910 4        28.360
E26        19.000    24727450.797 7 129943586.35807     -2695.196 7        43.558                                                                    24727446.488 7  97035803.39807     -2012.608 7        42.967    24727447.433 7  99567190.12207     -2065.095 7        44.363
E19        20.000    26321054.304 5 138318067.36405      2267.454 5        34.495                                                                    26321052.087 6 103289483.28506      1693.150 6        36.851    26321051.520 6 105983987.56306      1737.237 6        36.389
R06        21.000    19282635.903 6 102895835.06106        68.701 6        38.150
S36        23.000    38202538.357 6 200755651.87006      -855.225 6        37.274
S23        24.000    38153918.115 6 200500179.50206      -852.194 6        39.691
R20        26.000    21702879.667 3                     -4463.719 3        20.214                                                                    21702866.675 4  90264991.11704     -3472.490 4        28.720
R05        27.000    21374439.369 5 114258676.84515     -4395.646 5        33.281                                                                    21374438.088 5  88867809.05315     -3419.292 5        34.924
E33        28.000    23268876.141 7 122278757.40407      -358.111 7        46.990                                                                    23268874.052 8  91312106.05208      -267.474 8        51.286    23268872.837 8  93694115.44408      -274.435 8        48.095
E10        29.000    28853409.295 5                      1864.894 5        30.030                                                                    28853410.492 5 113226935.74605      1392.819 5        33.623    28853413.019 5 116180689.10605      1429.161 5        30.083
R21        30.000    19145464.491 7 102451497.21407     -1073.615 7        47.280                                                                    19145464.071 7  79684331.07407      -835.029 7        46.476
R22        35.000    21458728.489 5 114548546.02505      2634.185 5        34.429                                                                    21458726.787 7  89093023.80307      2048.974 7        44.269
C32        36.000                                                                                                                                    22232380.768 8 115769806.68708       554.081 8        49.413                                                                    22232381.379 7  94072499.56807       450.354 7        47.169
C30        38.000                                                                                                                                    21956460.062 8 114333051.63208      -397.076 8        52.380                                                                    21956460.363 8  92904985.57708      -322.574 8        49.957
C16        45.000                                                                                                                                    39252832.750 5 204399824.76805       160.429 5        31.441    39252846.510 5                       123.897 5        30.634
C39        46.000                                                                                                                                    39048885.105 5                      -260.341 5        31.955                                                                    39048843.762 4                      -211.667 4        24.632
C09        47.000                                                                                                                                    39807695.651 4                       636.895 4        28.341                                                                    39807706.675 4                       517.341 4        25.850
C41        49.000                                                                                                                                    22707763.758 7 118245357.28607     -2633.223 7        44.516                                                                    22707769.403 6  96084033.31406     -2139.589 6        41.933
C06        50.000                                                                                                                                                                                                    38920066.391 4                       217.268 4        29.336
C27        52.000                                                                                                                                    22669787.518 7 118047516.14907     -3267.036 7        44.370                                                                    22669787.039 6  95923270.64506     -2654.716 6        41.738
C29        54.000                                                                                                                                    25256303.927 7 131516208.86907      2145.987 7        44.373                                                                    25256301.087 6 106867725.92406      1743.884 6        40.534
I01        59.000   374325553.270 6 165793056.99106     -2768.975 6        36.480
I09        60.000    37114191.083 7 145644052.96107      -611.611 7        43.422
> 2025 01 02 00 15 50.0000000  0 37
G03         1.000    20622555.665 7 108372425.69607       862.671 7        45.272                                    20622553.944 7  84445889.20207       672.209 7        44.653    20622553.995 7  84446024.21907       672.121 7        46.879
G32         3.000                                                                                                                                                                    23241123.462 4  95168514.96004     -2765.061 4        26.539
G14         4.000    25137295.055 5 132097348.56305     -3220.445 5        30.898                                                                                                    25137302.387 3                     -2512.166 3        23.029
E07         5.000    24853836.661 7 130607843.13107     -2254.462 7        46.311                                                                    24853837.273 7  97531933.74607     -1683.568 7        47.509    24853836.271 7 100076105.08007     -1727.470 7        46.555
G08         6.000    24391846.055 4                     -4556.602 4        28.445                                                                                                    24391849.053 4                     -3549.358 4        24.316
G28         7.000    23728289.224 5                      1030.297 5        30.936
G21         8.000    21327471.261 7 112076770.22507     -2518.756 7        43.970                                    21327463.220 3  87332313.36403     -1962.670 3        23.657
G02         9.000    20686538.998 6 108708725.68406     -1127.934 6        41.309                                    20686531.492 3  84707930.94803      -878.908 3        21.690
G19        10.000    24569788.698 5 129115152.13205      2590.199 5        34.781
G17        11.000    22763397.340 7 119622451.88007       930.573 7        44.838                                    22763392.101 6  93212207.58906       725.118 6        36.839    22763392.210 6  93212289.59206       725.084 6        40.017
G04        12.000    23817945.882 4                      2893.943 4        26.156
E12        13.000    26792915.337 5 140797744.70805      1641.415 5        33.192                                                                    26792917.147 3                      1225.550 3        22.533    26792903.426 4 107884021.59604      1257.505 4        26.096
E29        14.000    24005619.896 7 126150438.43207       734.766 7        43.609                                                                    24005618.378 8  94203213.35308       548.687 8        48.029    24005617.717 7  96660657.89007       563.053 7        46.377
E24        15.000    28154952.599 5 147955276.61115     -2213.141 5        34.957                                                                    28154974.248 4                     -1652.718 4        24.571    28154940.733 4 113368336.60004     -1695.638 4        25.444
E26        19.000    24730015.967 7 129957064.97107     -2696.596 7        43.501                                                                    24730011.129 7  97045868.60107     -2013.777 7        42.578    24730012.438 7  99577517.89707     -2066.210 7        44.540
E19        20.000    26318897.072 5 138306731.78705      2266.693 5        35.057                                                                    26318895.427 6 103281018.40706      1692.654 6        36.726    26318894.328 6 105975301.85506      1736.707 6        36.276
R06        21.000    19282573.550 6 102895500.52906        64.877 6        39.006
S36        23.000    38203352.099 6 200759927.92306      -855.456 6        36.707
S23        24.000    38154732.612 6 200504440.51306      -852.469 6        40.186
R20        26.000    21707042.265 3                     -4466.764 3        23.790                                                                    21707039.425 4  90282356.15204     -3474.246 4        27.665
R05        27.000    21378550.362 5 114280661.05005     -4397.787 5        35.886                                                                    21378549.137 5  88884907.93405     -3420.642 5        35.595
E33        28.000    23269217.377 7 122280551.53207      -359.838 7        47.605                                                                    23269215.493 8  91313445.82308      -268.669 8        51.158    23269214.381 8  93695490.16608      -275.624 8        48.151
E10        29.000    28851636.614 5                      1865.342 5        31.434                                                                    28851635.530 5 113219971.34805      1392.628 5        33.533    28851639.358 4 116173543.01804      1429.358 4        29.981
R21        30.000    19146468.783 7 102456875.10707     -1077.843 7        47.447                                                                    19146468.594 7  79688513.87207      -838.277 7        46.377
R07        34.000    21999631.755 6 117766316.59516      2870.128 6        39.060
R22        35.000    21456261.839 6 114535378.31906      2632.503 6        37.508                                                                    21456259.605 7  89082782.25807      2047.485 7        44.245
C32        36.000                                                                                                                                    22231850.730 8 115767041.14808       551.853 8        49.633                                                                    22231850.232 7  94070252.34307       448.514 7        46.904
C30        38.000                                                                                                                                    21956842.713 8 114335043.69608      -400.000 8        52.490                                                                    21956842.958 8  92906604.28308      -324.888 8        50.069
C16        45.000                                                                                                                                    39252682.041 5 204399026.10505       159.182 5        31.864    39252692.132 4                       123.079 4        29.289
C39        46.000                                                                                                                                    39049132.967 4                      -261.282 4        28.047                                                                    39049093.198 4                      -212.949 4        24.316
C09        47.000                                                                                                                                    39807083.356 4                       636.004 4        29.355                                                                    39807103.891 4                       516.985 4        26.431
C41        49.000                                                                                                                                    22710292.441 7 118258527.10507     -2634.969 7        44.369                                                                    22710298.999 7  96094734.90407     -2141.065 7        42.375
C06        50.000                                                                                                                                                                                                    38919801.219 4                       216.878 4        29.934
C27        52.000                                                                                                                                    22672925.569 7 118063856.19907     -3269.157 7        42.502                                                                    22672924.539 6  95936548.27106     -2656.347 6        41.719
C29        54.000                                                                                                                                    25254243.941 7 131505481.13607      2144.865 7        44.074                                                                    25254240.975 6 106859008.77606      1742.944 6        40.493
I01        59.000   374329081.274 6 165806902.80706     -2769.361 6        37.032
I09        60.000    37114970.437 7 145647111.29607      -611.995 7        43.932
> 2025 01 02 00 15 55.0000000  0 37
G03         1.000    20621735.043 7 108368116.37807       861.039 7        45.254                                    20621734.103 7  84442531.29907       670.940 7        45.365    20621733.852 7  84442666.29107       670.966 7        46.403
G32         3.000    23244539.375 3                     -3548.738 3        22.438                                                                                                    23244500.618 4  95182343.77704     -2766.995 4        28.663
G14         4.000    25140358.877 5 132113454.65105     -3221.512 5        31.079                                                                                                    25140364.071 3                     -2509.750 3        21.452
E07         5.000    24855982.773 7 130619119.45207     -2256.155 7        45.916                                                                    24855983.010 7  97540354.37307     -1684.753 7        47.596    24855981.976 7 100084745.36907     -1728.728 7        46.310
G08         6.000    24396185.420 5                     -4556.521 5        31.306                                                                                                    24396179.498 3                     -3553.153 3        22.838
G28         7.000    23727309.031 4                      1028.208 4        29.934
G21         8.000    21329868.105 7 112089367.40007     -2520.140 7        44.126                                    21329860.810 3  87342129.34703     -1963.745 3        23.886
G02         9.000    20687613.998 6 108714369.96206     -1129.886 6        40.896                                    20687605.424 3  84712329.10703      -880.416 3        19.612
G19        10.000    24567324.545 5 129102204.31305      2588.814 5        33.742
G17        11.000    22762512.905 7 119617804.45607       928.355 7        45.786                                    22762507.806 6  93208586.22406       723.398 6        36.870    22762507.931 6  93208668.23206       723.272 6        40.131
G04        12.000    23815190.682 3                      2894.823 3        21.048                                                                                                    23815198.452 4  97519243.95804      2253.623 4        27.665
E12        13.000    26791352.652 5 140789538.08905      1641.311 5        31.306                                                                    26791360.155 4                      1224.918 4        24.286    26791341.084 3 107877733.13503      1259.254 3        23.352
E29        14.000    24004921.640 7 126146768.56707       733.059 7        44.334                                                                    24004920.083 8  94200472.87708       547.443 8        48.341    24004919.324 7  96657845.93607       561.703 7        46.262
E24        15.000    28157053.823 5 147966347.51005     -2215.385 5        34.262                                                                    28157082.573 4                     -1654.718 4        26.000    28157043.308 3 113376819.37803     -1697.002 3        23.257
E26        19.000    24732581.780 7 129970549.79007     -2697.475 7        43.014                                                                    24732577.092 7  97055938.43107     -2014.300 7        42.392    24732578.603 7  99587850.43207     -2066.881 7        44.209
E19        20.000    26316739.983 5 138295399.53305      2266.241 5        34.952                                                                    26316738.874 6 103272556.00606      1692.321 6        37.059    26316738.296 6 105966618.68206      1736.485 6        36.386
R06        21.000    19282513.405 6 102895184.74806        61.441 6        38.544
S36        23.000    38204167.186 5 200764204.00705      -855.245 5        35.838
S23        24.000    38155540.196 6 200508701.73206      -852.164 6        39.075
R20        26.000    21711218.300 4                     -4467.379 4        24.436                                                                    21711220.297 4  90299729.20204     -3475.472 4        27.210
R05        27.000    21382664.627 6 114302653.61906     -4399.094 6        36.257                                                                    21382667.157 5  88902013.23605     -3421.720 5        34.948
E33        28.000    23269560.337 8 122282352.97708      -360.870 8        48.031                                                                    23269558.306 8  91314791.05308      -269.486 8        51.368    23269557.227 8  93696870.49808      -276.507 8        48.310
E10        29.000    28849863.285 5                      1865.489 5        30.143                                                                    28849860.982 5 113213006.28305      1392.969 5        33.659    28849865.286 4 116166396.23004      1429.442 4        28.616
R21        30.000    19147478.297 8 102462272.85508     -1081.389 8        48.206                                                                    19147477.099 7  79692712.12507      -841.067 7        45.922
R07        34.000    21996950.437 5 117751969.91005      2868.648 5        35.657
R22        35.000    21453797.068 6 114522218.60806      2631.288 6        40.343                                                                    21453794.469 7  89072546.92607      2046.580 7        44.543
C32        36.000                                                                                                                                    22231322.447 8 115764286.12708       550.122 8        49.663                                                                    22231320.741 7  94068013.67107       446.904 7        46.625
C30        38.000                                                                                                                                    21957228.016 8 114337049.07708      -402.232 8        52.433                                                                    21957227.991 8  92908233.82708      -326.943 8        49.879
C16        45.000                                                                                                                                    39252529.476 4 204398232.10804       158.734 4        27.844    39252537.105 4                       122.771 4        29.697
C39        46.000                                                                                                                                    39049378.897 4                      -262.496 4        29.469                                                                    39049345.429 4                      -213.371 4        25.940
C09        47.000                                                                                                                                    39806478.238 5                       635.732 5        30.008                                                                    39806493.349 4                       516.771 4        27.066
C41        49.000                                                                                                                                    22712822.024 7 118271705.16107     -2636.345 7        45.394                                                                    22712829.710 7  96105443.14707     -2142.313 7        42.790
C06        50.000                                                                                                                                                                                                    38919531.625 5                       216.111 5        30.143
C27        52.000                                                                                                                                    22676062.439 6 118080205.87806     -3270.816 6        41.828                                                                    22676064.812 7  95949833.73307     -2657.751 7        42.214
C29        54.000                                                                                                                                    25252183.953 7 131494758.39507      2144.204 7        43.746                                                                    25252181.614 6 106850295.67306      1742.255 6        40.031
I01        59.000   374332608.726 6 165820749.70106     -2769.472 6        37.172
I09        60.000    37115750.353 7 145650170.77607      -611.887 7        44.056
> 2025 01 02 00 16  0.0000000  0 37
G03         1.000    20620916.867 7 108363816.18607       859.130 7        46.611                                    20620915.908 7  84439180.49607       669.454 7        46.311    20620915.557 7  84439315.50307       669.375 7        46.019
G32         3.000    23247927.881 3                     -3552.797 3        20.119                                                                                                    23247880.155 5  95196179.04205     -2768.109 5        30.151
G14         4.000    25143423.126 4 132129566.39704     -3223.264 4        28.427                                                                                                    25143437.184 3                     -2509.905 3        22.210
E07         5.000    24858130.788 7 130630405.16507     -2258.018 7        46.552                                                                    24858130.558 7  97548782.01607     -1686.223 7        47.455    24858129.658 7 100093392.86607     -1730.173 7        45.947
G08         6.000    24400524.794 5                     -4556.585 5        32.443                                                                                                    24400514.884 3                     -3549.677 3        22.000
G28         7.000    23726331.981 4                      1026.297 4        26.168
G21         8.000    21332266.517 7 112101972.85207     -2521.912 7        44.242                                    21332259.818 4  87351951.78604     -1965.136 4        24.391
G02         9.000    20688690.622 6 108720024.89306     -1132.074 6        39.141                                    20688681.686 3  84716735.52403      -882.146 3        18.716
G19        10.000    24564862.928 5 129089263.12305      2587.575 5        33.467
G17        11.000    22761630.977 7 119613169.21607       925.865 7        46.484                                    22761625.895 6  93204974.35406       721.455 6        37.134    22761625.679 6  93205056.37606       721.323 6        39.715
G04        12.000    23812439.950 4                      2894.030 4        24.947                                                                                                    23812447.050 4  97507977.66504      2253.451 4        26.599
E12        13.000    26789791.177 5 140781332.36005      1640.926 5        30.234                                                                    26789800.980 4                      1225.100 4        24.361
E29        14.000    24004225.641 7 126143108.35207       731.116 7        45.696                                                                    24004223.639 8  94197739.59508       545.952 8        48.274    24004223.058 7  96655041.35007       560.216 7        46.617
E24        15.000    28159161.727 5 147977427.48605     -2216.636 5        34.609                                                                    28159192.450 4                     -1655.611 4        26.862
E26        19.000    24735147.698 7 129984040.12207     -2698.624 7        42.288                                                                    24735144.277 7  97066012.37507     -2015.187 7        42.171    24735145.317 7  99598187.17107     -2067.758 7        43.761
E19        20.000    26314584.119 6 138284069.85006      2265.790 6        36.129                                                                    26314583.104 6 103264095.55606      1691.720 6        37.251    26314581.882 6 105957937.51906      1735.922 6        36.560
R06        21.000    19282457.819 6 102894886.70006        57.951 6        38.691
S36        23.000    38204976.304 5 200768479.39205      -855.078 5        35.752
S23        24.000    38156348.875 6 200512962.51706      -852.027 6        38.426
R20        26.000    21715393.087 3                     -4469.789 3        23.105                                                                    21715401.413 4  90317109.73404     -3476.736 4        28.294
R05        27.000    21386782.365 6 114324653.59306     -4400.758 6        37.777                                                                    21386779.391 5  88919124.20305     -3422.749 5        32.251
E33        28.000    23269904.453 7 122284161.02107      -362.233 7        47.688                                                                    23269902.373 8  91316141.20708      -270.495 8        51.353    23269901.408 8  93698255.88308      -277.580 8        48.666
E10        29.000    28848084.956 5                      1865.828 5        30.098                                                                    28848086.385 5 113206039.97205      1393.471 5        32.293    28848092.398 4 116159248.18004      1430.347 4        28.730
R21        30.000    19148490.862 8 102467689.54308     -1085.202 8        48.376                                                                    19148488.862 7  79696925.12407      -844.162 7        45.386
R07        34.000    21994267.579 5 117737631.68615      2866.891 5        34.329                                                                    21994277.521 3                      2227.369 3        21.143
R22        35.000    21451332.688 6 114509066.24406      2629.750 6        41.745                                                                    21451330.318 7  89062317.29907      2045.300 7        44.591
C32        36.000                                                                                                                                    22230795.346 8 115761540.90808       548.062 8        50.253                                                                    22230793.623 7  94065782.95107       445.330 7        46.231
C30        38.000                                                                                                                                    21957615.351 8 114339067.08008      -404.834 8        52.363                                                                    21957615.614 8  92909873.61008      -329.034 8        50.025
C16        45.000                                                                                                                                    39252376.728 4 204397442.06904       157.791 4        28.967    39252385.294 5                       121.880 5        31.872
C39        46.000                                                                                                                                    39049626.477 4                      -263.395 4        29.981                                                                    39049597.320 4                      -213.748 4        26.180
C09        47.000                                                                                                                                    39805875.056 4                       634.796 4        25.699    39805904.048 3                       491.333 3        23.524    39805879.440 4                       516.188 4        27.222
C41        49.000                                                                                                                                    22715353.926 7 118284890.72807     -2637.891 7        46.124                                                                    22715362.333 7  96116157.46807     -2143.539 7        42.817
C06        50.000                                                                                                                                                                                                    38919262.733 5                       215.232 5        30.189
C27        52.000                                                                                                                                    22679203.658 6 118096564.51206     -3272.634 6        41.118                                                                    22679207.016 7  95963126.45707     -2659.295 7        43.094
C29        54.000                                                                                                                                    25250125.059 7 131484039.94907      2143.123 7        42.842                                                                    25250123.314 6 106841586.02906      1741.477 6        39.988
I01        59.000   374336138.484 6 165834597.09806     -2769.619 6        37.456
I09        60.000    37116529.845 7 145653230.92907      -612.107 7        43.632
> 2025 01 02 00 16  5.0000000  0 37
G03         1.000    20620100.964 7 108359525.98707       857.043 7        47.356                                    20620099.515 7  84435837.47607       667.822 7        46.812    20620099.216 7  84435972.49407       667.753 7        45.600
G32         3.000                                                                                                                                                                    23251262.083 4  95210021.54704     -2769.258 4        29.393
G14         4.000                                                                                                                                                                    25146504.458 3                     -2510.412 3        18.985
E07         5.000    24860280.068 7 130641701.10807     -2260.169 7        46.279                                                                    24860280.157 7  97557217.29207     -1687.824 7        47.316    24860278.478 7 100102048.16807     -1731.837 7        45.081
G08         6.000    24404861.678 5                     -4556.786 5        32.880                                                                                                    24404847.014 3                     -3549.344 3        21.095
G28         7.000    23725351.578 4                      1023.743 4        25.579
G21         8.000    21334667.082 7 112114587.41507     -2523.874 7        43.829                                    21334660.533 4  87361781.31104     -1966.665 4        24.947
G02         9.000    20689768.238 6 108725691.26006     -1134.219 6        38.192                                    20689760.326 3  84721150.88003      -883.814 3        18.985
G19        10.000    24562405.503 5 129076329.41605      2586.242 5        35.019
G17        11.000    22760751.102 7 119608546.99407       923.175 7        45.806                                    22760746.381 6  93201372.62306       719.353 6        37.395    22760746.575 6  93201454.63806       719.387 6        39.835
G04        12.000    23809697.267 4                      2890.037 4        25.353                                                                                                    23809697.199 4  97496714.29004      2252.030 4        28.322
E12        13.000    26788231.205 5 140773128.47005      1640.713 5        30.249                                                                    26788240.612 4                      1225.465 4        24.241    26788220.973 4 107865159.80404      1256.272 4        25.218
E29        14.000    24003531.492 7 126139458.60807       728.932 7        46.323                                                                    24003529.002 8  94195014.13008       544.346 8        48.781    24003528.805 7  96652244.80107       558.526 7        47.247
E24        15.000    28161272.594 5 147988517.67605     -2218.981 5        34.429                                                                    28161304.156 4                     -1657.143 4        26.707    28161287.536 3                     -1699.806 3        23.429
E26        19.000    24737715.382 6 129997536.78906     -2699.817 6        40.663                                                                    24737712.765 7  97076091.06507     -2016.206 7        42.203    24737713.374 7  99608528.78107     -2068.838 7        43.471
E19        20.000    26312428.740 6 138272743.66106      2264.812 6        37.032                                                                    26312427.787 6 103255637.67306      1691.372 6        37.516    26312426.880 6 105949259.00506      1735.696 6        36.212
R06        21.000    19282406.393 6 102894607.56206        53.904 6        38.414
S36        23.000    38205799.512 6 200772755.68006      -855.361 6        36.930
S23        24.000    38157160.367 6 200517223.67206      -852.049 6        38.162
R20        26.000    21719576.379 4                     -4472.402 4        25.609                                                                    21719581.401 5                     -3478.360 5        30.483
R05        27.000                                                                                                                                    21390890.283 5  88936241.59905     -3423.883 5        31.140
E33        28.000    23270249.274 7 122285976.50207      -363.808 7        47.451                                                                    23270247.967 8  91317496.92308      -271.660 8        51.664    23270247.031 8  93699646.96708      -278.744 8        49.028
E10        29.000    28846307.079 5                      1865.688 5        30.317                                                                    28846312.598 5 113199073.11205      1393.760 5        31.683    28846319.809 4 116152099.60804      1430.066 4        27.737
R21        30.000    19149506.067 8 102473126.08608     -1089.270 8        48.454                                                                    19149504.942 7  79701153.53707      -847.255 7        44.464
R07        34.000    21991589.751 5 117723302.75705      2865.222 5        34.538                                                                    21991599.610 3                      2226.861 3        20.286
R22        35.000    21448869.826 6 114495922.07206      2628.031 6        41.294                                                                    21448867.638 7  89052094.02707      2044.073 7        45.085
C32        36.000                                                                                                                                    22230269.853 8 115758806.32708       545.872 8        50.745                                                                    22230268.329 7  94063560.91007       443.610 7        46.158
C30        38.000                                                                                                                                    21958005.703 8 114341098.53808      -407.575 8        52.479                                                                    21958005.778 8  92911524.35408      -331.152 8        50.082
C16        45.000                                                                                                                                    39252221.912 4 204396656.87404       156.349 4        28.180    39252236.246 5                       121.123 5        32.096
C39        46.000                                                                                                                                    39049870.136 5                      -264.340 5        32.886                                                                    39049850.646 4                      -214.156 4        25.368
C09        47.000                                                                                                                                                                                                                                                                    39805270.025 3                       520.202 3        22.210
C41        49.000                                                                                                                                    22717888.012 7 118298084.62107     -2639.552 7        46.263                                                                    22717895.752 7  96126878.59607     -2144.918 7        42.123
C06        50.000                                                                                                                                                                                                    38918998.715 5                       214.443 5        30.491
C27        52.000                                                                                                                                    22682346.799 6 118112932.89406     -3274.737 6        40.996                                                                    22682350.843 7  95976427.12807     -2660.866 7        43.012
C29        54.000                                                                                                                                    25248067.785 7 131473326.60307      2142.227 7        42.677                                                                    25248065.569 6 106832880.58706      1740.703 6        40.007
I01        59.000   374339667.825 6 165848445.64106     -2769.792 6        38.000
I09        60.000    37117310.245 7 145656292.35207      -612.357 7        43.481
> 2025 01 02 00 16 10.0000000  0 37
G03         1.000    20619286.405 7 108355245.10907       855.310 7        47.262                                    20619284.830 7  84432501.72307       666.475 7        46.936    20619284.669 7  84432636.73807       666.469 7        45.081
G32         3.000    23254640.015 4                     -3552.489 4        24.737                                                                                                    23254644.315 4  95223870.73004     -2770.742 4        28.550
G14         4.000    25149543.030 4 132161808.43804     -3225.891 4        27.988                                                                                                    25149579.074 3                     -2514.048 3        22.552
E07         5.000    24862431.260 7 130653006.57607     -2262.027 7        44.637                                                                    24862431.014 7  97565659.68807     -1689.218 7        46.595    24862429.163 7 100110710.78807     -1733.189 7        44.656
G08         6.000    24409194.269 5                     -4556.893 5        32.222                                                                                                    24409183.187 3                     -3553.393 3        22.324
G28         7.000                                                                                                                                                                    23724396.482 5                       795.656 5        30.030
G21         8.000    21337069.344 7 112127210.41107     -2525.358 7        44.215                                    21337063.002 4  87371617.40804     -1967.810 4        25.173
G02         9.000    20690849.205 6 108731368.36506     -1136.582 6        40.348                                    20690841.224 3  84725574.59203      -885.653 3        19.134
G19        10.000    24559949.328 5 129063402.54205      2584.595 5        34.514
G17        11.000    22759873.564 7 119603937.14507       920.786 7        44.974                                    22759869.232 6  93197780.54706       717.492 6        37.395    22759869.633 6  93197862.53006       717.459 6        39.934
G04        12.000    23806944.809 4                      2890.825 4        26.036                                                                                                    23806947.768 4  97485453.32804      2251.272 4        24.436
E12        13.000    26786668.787 4 140764925.71804      1640.154 4        29.299                                                                    26786680.128 3                      1225.886 3        22.648    26786660.884 4 107858874.53004      1257.035 4        24.180
E29        14.000    24002838.598 7 126135818.65407       727.006 7        47.014                                                                    24002836.533 8  94192295.98908       542.867 8        49.214    24002836.325 8  96649455.75208       557.023 8        48.097
E24        15.000    28163386.343 5 147999617.24305     -2220.755 5        32.186                                                                    28163425.311 4                     -1658.753 4        26.299    28163396.698 4                     -1701.561 4        25.444
E26        19.000    24740284.347 6 130011039.13806     -2700.983 6        39.880                                                                    24740282.244 6  97086173.98206     -2016.965 6        41.964    24740282.590 7  99618874.73307     -2069.654 7        43.329
E19        20.000    26310273.657 6 138261420.29306      2264.328 6        36.945                                                                    26310272.776 6 103247181.92306      1690.840 6        37.380    26310272.054 6 105940582.66006      1735.187 6        36.454
R06        21.000    19282356.616 6 102894346.46906        50.405 6        39.565
S36        23.000    38206612.395 6 200777031.89406      -855.142 6        37.728
S23        24.000    38157963.990 6 200521484.53306      -852.230 6        38.336
R20        26.000    21723757.749 4                     -4474.040 4        24.962                                                                    21723763.447 5  90351894.79615     -3480.047 5        35.657
R05        27.000                                                                                                                                    21395014.719 4  88953364.96304     -3425.461 4        27.222
E33        28.000    23270595.722 7 122287798.76907      -365.157 7        46.610                                                                    23270594.834 8  91318857.70708      -272.652 8        51.906    23270593.630 8  93701043.25208      -279.746 8        49.167
E10        29.000    28844534.032 5                      1866.091 5        30.302                                                                    28844536.660 5 113192105.15805      1393.713 5        31.079    28844544.459 4 116144949.92704      1429.810 4        24.586
R21        30.000    19150525.656 8 102478581.89108     -1093.058 8        48.065                                                                    19150523.980 7  79705396.94307      -850.265 7        43.134
R07        34.000    21988922.354 6 117708982.56406      2863.287 6        37.346                                                                    21988926.948 4                      2227.381 4        25.218
R22        35.000    21446406.044 7 114482785.32507      2626.572 7        42.413                                                                    21446406.956 7  89041876.56007      2043.001 7        45.242
C32        36.000                                                                                                                                    22229746.238 8 115756081.72708       543.933 8        51.089                                                                    22229745.353 7  94061346.95807       442.129 7        46.325
C30        38.000                                                                                                                                    21958398.419 8 114343142.81108      -410.123 8        52.577                                                                    21958398.307 8  92913185.48508      -333.073 8        50.112
C16        45.000                                                                                                                                    39252070.065 4 204395875.77704       155.923 4        24.947    39252085.118 5                       120.313 5        31.343
C39        46.000                                                                                                                                    39050124.634 5                      -265.136 5        34.010                                                                    39050102.385 3                      -214.822 3        22.381
C09        47.000                                                                                                                                    39804643.594 4                       633.275 4        25.774                                                                    39804662.904 3                       512.930 3        20.310
C41        49.000                                                                                                                                    22720423.325 7 118311286.18107     -2641.043 7        46.250                                                                    22720430.256 6  96137605.93006     -2145.829 6        41.101
C06        50.000                                                                                                                                    38918765.639 4                       277.505 4        26.060    38918732.940 4                       213.889 4        28.540
C27        52.000                                                                                                                                    22685493.582 6 118129310.36806     -3276.407 6        39.628                                                                    22685496.301 7  95989735.16307     -2662.209 7        44.141
C29        54.000                                                                                                                                    25246011.567 7 131462617.74807      2141.313 7        43.924                                                                    25246009.155 6 106824178.77606      1740.173 6        39.811
I01        59.000   374343197.653 6 165862294.91306     -2769.706 6        38.111
I09        60.000    37118090.090 7 145659354.56207      -612.529 7        43.507
> 2025 01 02 00 16 15.0000000  0 37
G03         1.000    20618473.162 7 108350973.58507       853.651 7        47.505                                    20618471.844 7  84429173.26007       665.180 7        47.134    20618472.248 7  84429308.28207       665.150 7        45.300
G32         3.000    23258027.434 5                     -3557.159 5        32.563                                                                                                    23258025.438 4  95237726.62004     -2771.721 4        25.158
G14         4.000    25152613.067 4 132177937.97704     -3226.432 4        27.114                                                                                                    25152632.893 3                     -2513.876 3        19.343
E07         5.000    24864583.905 7 130664321.61807     -2263.848 7        43.088                                                                    24864583.990 7  97574109.22707     -1690.400 7        46.375    24864582.135 7 100119380.74407     -1734.583 7        44.111
G08         6.000    24413526.949 5                     -4556.725 5        31.117                                                                                                    24413521.331 3                     -3551.270 3        23.810
G28         7.000                                                                                                                                                                    23723435.821 4                       793.613 4        29.308
G21         8.000    21339472.766 7 112139841.85507     -2526.946 7        44.456                                    21339467.183 4  87381460.09904     -1969.052 4        25.233
G02         9.000    20691931.587 7 108737056.30707     -1138.552 7        43.162                                    20691924.175 3  84730006.72803      -887.189 3        20.310
G19        10.000    24557488.863 5 129050482.49905      2583.341 5        32.042
G17        11.000    22758999.284 7 119599339.70907       918.529 7        43.719                                    22758994.533 6  93194198.13206       715.737 6        37.924    22758994.889 6  93194280.14706       715.516 6        40.591
G04        12.000    23804195.794 3                      2888.145 3        21.548                                                                                                    23804200.934 5  97474194.60505      2251.906 5        30.491
E12        13.000    26785107.810 4 140756724.05304      1640.880 4        29.649                                                                    26785119.710 4                      1224.355 4        25.594    26785100.925 4 107852590.12204      1257.817 4        25.985
E29        14.000    24002147.973 7 126132188.55207       725.221 7        46.889                                                                    24002145.829 8  94189585.19708       541.550 8        49.260    24002145.629 8  96646674.24308       555.705 8        48.406
E24        15.000    28165502.000 5 148010726.31105     -2222.581 5        30.981                                                                    28165540.348 4                     -1660.773 4        24.271    28165506.476 4                     -1703.281 4        27.760
E26        19.000    24742854.816 6 130024547.20506     -2702.030 6        38.517                                                                    24742852.869 6  97096261.17406     -2017.759 6        41.733    24742853.083 7  99629225.06807     -2070.309 7        43.158
E19        20.000    26308119.791 6 138250099.68306      2264.219 6        36.389                                                                    26308118.525 6 103238728.24706      1690.774 6        37.599    26308117.773 6 105931908.45606      1734.887 6        36.665
R06        21.000    19282311.338 6 102894103.52506        47.100 6        39.586
S36        23.000    38207424.589 6 200781307.76006      -855.047 6        37.652
S23        24.000    38158784.027 6 200525745.07606      -851.853 6        39.910
R20        26.000    21727944.404 4                     -4476.250 4        25.353                                                                    21727949.837 6  90369298.73406     -3481.478 6        37.229
R05        27.000                                                                                                                                    21399132.056 4                     -3426.802 4        28.161
E33        28.000    23270943.722 7 122289627.83507      -366.246 7        45.831                                                                    23270942.808 8  91320223.57208      -273.488 8        51.712    23270941.543 8  93702444.74708      -280.630 8        49.192
E10        29.000    28842766.856 5                      1866.589 5        31.004                                                                    28842760.306 5 113185136.12505      1394.368 5        30.808    28842765.737 4 116137799.04504      1430.161 4        25.128
R21        30.000    19151548.846 8 102484056.86208     -1096.742 8        48.682                                                                    19151547.578 7  79709655.25407      -853.104 7        42.971
R07        34.000    21986252.837 6 117694670.99816      2861.478 6        39.198                                                                    21986252.300 4                      2225.083 4        28.123
R22        35.000    21443947.446 7 114469656.21107      2625.236 7        42.639                                                                    21443947.183 7  89031665.00107      2041.909 7        44.143
C32        36.000                                                                                                                                    22229224.932 8 115753367.12208       542.122 8        51.509                                                                    22229223.969 7  94059141.12107       440.481 7        46.244
C30        38.000                                                                                                                                    21958793.474 8 114345199.90308      -412.487 8        52.945                                                                    21958793.379 8  92914857.03808      -335.245 8        50.307
C16        45.000                                                                                                                                    39251921.115 4 204395098.78904       156.347 4        27.138    39251934.755 5                       119.693 5        30.634
C39        46.000                                                                                                                                    39050380.224 5 203345568.09015      -266.069 5        34.971                                                                    39050356.150 3                      -214.710 3        23.600
C09        47.000                                                                                                                                    39804035.865 4                       633.205 4        29.071
C41        49.000                                                                                                                                    22722959.248 7 118324495.43207     -2642.403 7        45.836                                                                    22722966.708 6  96148339.51506     -2147.121 6        40.050
C06        50.000                                                                                                                                    38918501.285 4                       276.084 4        29.592    38918469.338 4                       213.226 4        28.711
C27        52.000                                                                                                                                    22688640.734 6 118145696.94106     -3277.901 6        39.372                                                                    22688643.217 7  96003050.58907     -2663.772 7        44.429
C29        54.000                                                                                                                                    25243956.802 7 131451913.40607      2140.634 7        43.426                                                                    25243954.004 6 106815480.60606      1739.473 6        40.310
I01        59.000   374346726.317 6 165876144.82606     -2769.813 6        37.474
I09        60.000    37118870.967 7 145662417.55507      -612.451 7        43.266
> 2025 01 02 00 16 20.0000000  0 36
G03         1.000    20617661.736 7 108346711.85707       851.302 7        47.075                                    20617660.705 7  84425852.43307       663.356 7        46.897    20617660.700 7  84425987.44307       663.316 7        44.722
G32         3.000    23261410.856 4                     -3559.031 4        29.791                                                                                                    23261411.179 4  95251589.52104     -2773.328 4        26.419
G14         4.000    25155685.320 4 132194073.69004     -3227.102 4        25.880
E07         5.000    24866739.255 7 130675646.59707     -2265.937 7        42.692                                                                    24866739.019 7  97582566.21007     -1692.100 7        46.186    24866737.376 7 100128058.32807     -1736.260 7        44.125
G08         6.000    24417861.937 5                     -4556.991 5        33.126                                                                                                    24417855.751 3                     -3550.872 3        21.976
G28         7.000    23722472.255 3                      1016.996 3        20.762                                                                                                    23722470.993 4                       792.002 4        26.491
G21         8.000    21341878.352 7 112152482.19407     -2528.979 7        44.439                                    21341872.979 4  87391309.70904     -1970.629 4        25.985
G02         9.000    20693015.850 7 108742755.50807     -1140.972 7        44.328                                    20693009.841 3  84734447.66103      -889.074 3        20.881
G19        10.000    24555037.114 5 129037569.86305      2581.412 5        30.611
G17        11.000    22758127.885 7 119594755.10607       915.784 7        42.290                                    22758122.298 6  93190625.71206       713.592 6        38.078    22758122.586 6  93190707.71006       713.659 6        40.825
G04        12.000    23801444.830 3                      2887.786 3        23.657                                                                                                    23801452.953 5  97462938.65505      2250.924 5        31.638
E12        13.000    26783548.110 5 140748524.01505      1639.768 5        30.234                                                                    26783559.463 4                      1224.809 4        25.759    26783540.831 4 107846307.03004      1257.113 4        26.455
E29        14.000    24001459.448 7 126128568.71207       722.975 7        47.255                                                                    24001457.069 8  94186882.06708       539.853 8        49.347    24001456.693 8  96643900.60308       553.970 8        48.898
E24        15.000    28167614.292 4 148021845.19404     -2224.229 4        27.796                                                                    28167651.056 3                     -1660.263 3        20.881    28167621.523 4                     -1704.710 4        29.147
E26        19.000    24745427.471 6 130038061.36806     -2703.370 6        37.138                                                                    24745424.714 6  97106352.93206     -2018.857 6        41.900    24745424.857 7  99639580.09307     -2071.488 7        42.899
E19        20.000    26305966.019 6 138238782.40106      2263.169 6        36.567                                                                    26305964.811 6 103230277.02906      1689.965 6        38.018    26305963.889 6 105923236.77706      1734.205 6        36.767
R06        21.000    19282269.633 6 102893879.06806        43.134 6        39.168
S36        23.000    38208235.093 6 200785583.72406      -855.258 6        37.342
S23        24.000    38159589.442 6 200530005.81106      -852.236 6        39.874
R20        26.000    21732130.388 4                     -4478.177 4        27.341                                                                    21732134.980 6  90386710.65716     -3483.163 6        38.354
R05        27.000                                                                                                                                    21403250.546 4                     -3428.346 4        29.877
E33        28.000    23271293.225 7 122291464.15507      -368.000 7        45.451                                                                    23271292.202 8  91321594.83708      -274.796 8        51.856    23271290.887 8  93703851.78908      -281.963 8        49.544
E10        29.000    28840994.953 5                      1866.697 5        32.635                                                                    28840984.197 5 113178166.40405      1394.011 5        31.826    28840990.818 4 116130647.48104      1430.147 4        26.395
R21        30.000    19152576.660 8 102489551.50108     -1100.929 8        49.231                                                                    19152574.715 7  79713928.85207      -856.253 7        43.350
R22        35.000    21441489.212 6 114456535.05506      2623.437 6        41.197                                                                    21441488.727 7  89021459.64507      2040.533 7        44.233
C32        36.000                                                                                                                                    22228705.784 8 115750662.95808       539.777 8        51.236                                                                    22228704.450 7  94056943.78107       438.732 7        46.092
C30        38.000                                                                                                                                    21959191.174 8 114347270.25208      -415.373 8        52.712                                                                    21959191.142 8  92916539.37208      -337.445 8        50.396
C16        45.000                                                                                                                                    39251773.887 4 204394326.46504       154.591 4        28.493    39251787.675 5                       119.010 5        31.147
C39        46.000                                                                                                                                    39050637.903 5 203346901.66805      -266.975 5        34.843                                                                    39050610.594 3                      -215.576 3        23.067
C09        47.000                                                                                                                                    39803427.670 4                       632.312 4        28.180
C41        49.000                                                                                                                                    22725497.143 7 118337712.76607     -2644.218 7        45.136                                                                    22725505.991 6  96159079.69106     -2148.596 6        39.964
C06        50.000                                                                                                                                    38918236.248 4                       275.323 4        28.825    38918205.199 4                       212.928 4        28.284
C27        52.000                                                                                                                                    22691789.424 7 118162092.99907     -3280.115 7        42.883                                                                    22691792.060 7  96016373.76007     -2665.325 7        44.531
C29        54.000                                                                                                                                    25241901.823 7 131441213.99807      2139.377 7        43.636                                                                    25241899.247 6 106806786.48106      1738.482 6        40.420
I01        59.000   374350255.688 6 165889995.70106     -2770.070 6        37.822
I09        60.000    37119651.530 7 145665481.66207      -612.866 7        43.156
> 2025 01 02 00 16 25.0000000  0 36
G03         1.000    20616852.272 7 108342459.54507       849.641 7        46.025                                    20616851.418 7  84422538.94307       662.066 7        46.032    20616851.200 7  84422673.94207       662.105 7        44.244
G32         3.000    23264798.284 5                     -3560.418 5        33.521                                                                                                    23264802.088 4  95265459.15204     -2774.224 4        27.509
G14         4.000    25158747.400 3                     -3230.900 3        21.952
E07         5.000    24868895.995 6 130686981.24006     -2267.836 6        41.976                                                                    24868895.864 7  97591030.37707     -1693.443 7        45.843    24868894.517 7 100136743.28007     -1737.585 7        44.193
G08         6.000    24422201.244 5                     -4556.845 5        33.084                                                                                                    24422188.024 3                     -3549.817 3        22.495
G28         7.000    23721497.768 4                      1013.984 4        28.493
G21         8.000    21344285.549 7 112165131.04207     -2530.446 7        44.879                                    21344280.460 4  87401165.95904     -1971.774 4        26.335
G02         9.000    20694102.322 7 108748465.60607     -1142.954 7        43.141                                    20694097.241 3  84738897.09203      -890.593 3        19.463
G17        11.000    22757256.598 6 119590183.03506       913.238 6        40.830                                    22757252.434 6  93187063.06406       711.619 6        37.819    22757252.716 6  93187145.03806       711.742 6        41.538
G04        12.000                                                                                                                                                                    23798706.151 5  97451685.15105      2250.940 5        31.706
E12        13.000    26781989.600 5 140740325.20105      1639.680 5        32.174                                                                    26781997.516 4                      1224.658 4        27.820    26781980.471 4 107840024.86204      1255.918 4        26.407
E29        14.000    24000772.322 7 126124958.77807       721.164 7        47.380                                                                    24000770.172 8  94184186.34108       538.491 8        49.438    24000769.776 8  96641134.55808       552.565 8        48.915
E24        15.000    28169733.180 4 148032973.66604     -2226.393 4        29.090                                                                                                                                    28169736.944 4                     -1706.020 4        29.185
E26        19.000    24747999.993 5 130051581.25105     -2704.336 5        35.724                                                                    24747997.519 6  97116448.99706     -2019.487 6        41.375    24747997.589 7  99649939.52707     -2072.217 7        42.125
E19        20.000    26303812.642 6 138227468.07706      2262.740 6        36.098                                                                    26303811.610 6 103221828.04006      1689.712 6        38.393    26303810.702 6 105914567.37506      1733.622 6        36.469
R06        21.000    19282229.932 6 102893672.87506        39.404 6        38.532
S36        23.000    38209047.985 6 200789859.32706      -855.119 6        36.465
S23        24.000    38160400.282 6 200534266.29206      -851.937 6        40.224
R20        26.000    21736319.351 4                     -4480.132 4        27.988                                                                    21736321.466 6  90404130.27206     -3484.420 6        37.009
R05        27.000    21407514.423 5 114434771.56615     -4408.422 5        35.429                                                                    21407378.631 6  89004768.68816     -3428.762 6        36.423
E33        28.000    23271644.187 7 122293307.34307      -369.139 7        45.333                                                                    23271643.005 8  91322971.24908      -275.645 8        51.783    23271641.619 8  93705264.10708      -282.866 8        49.130
E10        29.000    28839219.187 5                      1867.166 5        31.328                                                                    28839206.412 5 113171195.70705      1394.093 5        31.434    28839214.489 4 116123494.89804      1429.918 4        24.887
R21        30.000    19153607.683 8 102495065.50708     -1104.544 8        50.159                                                                    19153604.799 7  79718217.53207      -859.120 7        43.985
R07        34.000                                                                                                                                    21980890.328 4                      2222.844 4        29.924
R22        35.000    21439033.324 6 114443421.52606      2622.134 6        41.857                                                                    21439032.674 7  89011260.25107      2039.321 7        44.305
C32        36.000                                                                                                                                    22228188.597 8 115747968.87108       537.971 8        51.135                                                                    22228187.367 7  94054754.58107       437.176 7        46.184
C30        38.000                                                                                                                                    21959590.886 8 114349353.50608      -417.812 8        52.143                                                                    21959591.318 8  92918232.15308      -339.482 8        50.557
C16        45.000                                                                                                                                    39251622.974 4 204393558.36004       153.281 4        27.210    39251640.236 5                       118.418 5        31.630
C39        46.000                                                                                                                                    39050894.832 5 203348240.01005      -268.047 5        34.005                                                                    39050870.033 3                      -218.100 3        23.467
C09        47.000                                                                                                                                    39802823.670 4                       632.159 4        28.161
C41        49.000                                                                                                                                    22728037.649 7 118350937.84107     -2645.621 7        43.486                                                                    22728046.193 6  96169826.12106     -2149.884 6        38.802
C06        50.000                                                                                                                                    38917969.932 4                       272.543 4        24.406    38917939.544 4                       211.717 4        25.158
C27        52.000                                                                                                                                    22694941.201 7 118178498.19807     -3281.717 7        43.611                                                                    22694942.807 7  96029704.33207     -2666.685 7        44.736
C29        54.000                                                                                                                                    25239848.022 7 131430519.20407      2138.531 7        43.045                                                                    25239845.682 6 106798096.06206      1737.775 6        40.749
I01        59.000   374353785.374 6 165903847.31006     -2770.105 6        37.977
I09        60.000    37120433.016 7 145668546.58907      -612.875 7        43.475
> 2025 01 02 00 16 30.0000000  0 37
G03         1.000    20616045.256 7 108338216.76807       847.471 7        45.511                                    20616043.968 7  84419232.88307       660.367 7        45.431    20616043.447 7  84419367.87607       660.346 7        44.120
G32         3.000    23268191.027 5 122275145.20315     -3562.477 5        35.571                                    23268189.329 2  95279344.68012     -2775.963 2        15.571    23268194.852 4  95279335.68804     -2776.825 4        26.383
G14         4.000    25161826.743 4                     -3230.500 4        28.370
E07         5.000    24871054.515 6 130698325.58306     -2269.907 6        41.542                                                                    24871054.935 7  97599501.80907     -1695.051 7        45.871    24871053.205 7 100145435.70807     -1739.234 7        44.304
G08         6.000    24426538.123 5                     -4557.052 5        32.347                                                                                                    24426523.656 3                     -3551.198 3        20.690
G28         7.000    23720532.725 4                      1011.349 4        29.175
G21         8.000    21346694.918 7 112177788.55607     -2532.478 7        44.631                                    21346689.529 4  87411028.94704     -1973.350 4        26.527
G02         9.000    20695189.786 7 108754186.68007     -1145.393 7        42.449                                    20695186.085 2  84743355.05102      -892.512 2        17.623
G19        10.000    24550109.108 4 129011765.38204      2578.879 4        26.491
G17        11.000    22756390.262 6 119585623.56806       910.583 6        41.919                                    22756385.015 6  93183510.22206       709.546 6        38.042    22756384.507 6  93183592.21106       709.514 6        41.623
G04        12.000    23795966.162 4                      2887.394 4        28.303                                                                                                    23795955.407 5  97440434.21605      2250.101 5        32.090
E12        13.000    26780429.437 5 140732127.71305      1639.589 5        32.946                                                                    26780434.161 5                      1224.409 5        30.060    26780420.713 4 107833743.69304      1255.939 4        28.057
E29        14.000    24000087.292 7 126121358.89507       718.878 7        47.714                                                                    24000085.286 8  94181498.11408       536.790 8        49.712    24000084.711 8  96638376.20608       550.792 8        49.200
E24        15.000    28171860.765 4 148044111.61904     -2228.720 4        28.872                                                                                                                                    28171855.470 4                     -1707.433 4        28.389
E26        19.000    24750573.656 5 130065107.08805     -2705.748 5        34.729                                                                    24750571.371 6  97126549.45406     -2020.571 6        41.495    24750571.553 6  99660303.46906     -2073.353 6        41.652
E19        20.000    26301660.691 6 138216156.78306      2261.822 6        36.386                                                                    26301659.192 6 103213381.27806      1689.107 6        38.745    26301657.824 6 105905900.28506      1733.196 6        36.537
R06        21.000    19282194.512 6 102893484.99306        35.652 6        38.468
S36        23.000    38209854.035 6 200794135.05506      -855.119 6        36.594
S23        24.000    38161208.639 6 200538526.56606      -852.290 6        40.265
R20        26.000    21740514.873 4                     -4482.375 4        26.707                                                                    21740511.703 5  90421557.66005     -3486.203 5        34.719
R05        27.000                                                                                                                                    21411502.606 6  89021916.16706     -3430.117 6        39.387
E33        28.000    23271996.575 7 122295157.55007      -370.789 7        45.652                                                                    23271995.133 8  91324352.89708      -276.932 8        51.736    23271993.684 8  93706681.79208      -284.163 8        49.292
E10        29.000    28837444.221 5                      1867.300 5        30.257                                                                    28837429.735 5 113164224.08405      1394.376 5        32.162    28837439.896 3 116116341.33603      1430.886 3        22.971
R21        30.000    19154641.811 8 102500598.90908     -1108.728 8        50.356                                                                    19154638.313 7  79722521.28907      -862.402 7        43.947
R07        34.000    21978218.872 6                      2855.998 6        38.817                                                                    21978223.082 4                      2221.399 4        28.351
R22        35.000    21436580.179 7 114430315.79707      2620.230 7        43.994                                                                    21436577.500 7  89001066.90407      2037.968 7        43.636
C32        36.000                                                                                                                                    22227673.406 8 115745284.97408       535.671 8        50.963                                                                    22227672.148 7  94052573.71207       435.335 7        46.071
C30        38.000                                                                                                                                    21959993.307 8 114351449.78808      -420.604 8        52.005                                                                    21959993.911 8  92919935.56408      -341.788 8        50.567
C16        45.000                                                                                                                                    39251467.116 3                       154.672 3        18.746    39251495.289 5                       117.861 5        30.702
C39        46.000                                                                                                                                    39051152.884 5 203349583.24205      -269.544 5        34.495                                                                    39051127.911 3                      -218.607 3        23.429
C09        47.000                                                                                                                                    39802213.965 4                       631.047 4        26.407
C41        49.000                                                                                                                                    22730580.656 7 118364170.76207     -2647.458 7        43.175                                                                    22730586.138 6  96180578.98906     -2151.411 6        37.255
C06        50.000                                                                                                                                    38917709.518 3                       273.358 3        21.167    38917675.974 4                       211.088 4        24.947
C27        52.000                                                                                                                                    22698093.585 7 118194912.69307     -3283.885 7        45.360                                                                    22698094.931 7  96043042.49107     -2668.407 7        44.293
C29        54.000                                                                                                                                    25237795.513 7 131419829.10407      2137.450 7        42.754                                                                    25237792.752 6 106789409.50206      1736.718 6        40.899
I01        59.000   374357315.761 6 165917699.77206     -2770.579 6        38.171
I09        60.000    37121214.197 7 145671612.47007      -613.353 7        43.109
> 2025 01 02 00 16 35.0000000  0 37
G03         1.000    20615240.646 7 108333983.75007       845.733 7        44.290                                    20615238.427 7  84415934.42407       659.012 7        44.808    20615237.400 7  84416069.41607       659.009 7        43.848
G32         3.000    23271580.235 5 122292962.28205     -3564.111 5        35.905                                    23271581.184 2  95293228.12502     -2777.200 2        16.226    23271591.593 4  95293219.09704     -2777.111 4        29.498
G14         4.000    25164909.837 4                     -3231.407 4        29.725
E07         5.000    24873215.255 7 130709679.88507     -2271.939 7        42.013                                                                    24873215.639 7  97607980.67107     -1696.491 7        45.859    24873213.781 7 100154135.75407     -1740.795 7        44.531
G08         6.000    24430872.816 5                     -4557.217 5        32.000                                                                                                    24430860.785 3                     -3551.230 3        21.667
G28         7.000    23719570.830 4                      1009.099 4        29.062
G21         8.000    21349104.836 7 112190454.89607     -2534.059 7        44.582                                    21349099.868 4  87420898.82804     -1974.596 4        26.371
G02         9.000    20696279.913 7 108759918.94007     -1147.405 7        42.468                                    20696276.831 2  84747821.72102      -894.067 2        16.000
G19        10.000    24547657.740 4 128998874.13304      2577.548 4        29.744
G17        11.000    22755525.392 7 119581076.96807       908.192 7        42.974                                    22755519.980 6  93179967.42506       707.680 6        38.327    22755519.294 6  93180049.43006       707.518 6        40.949
G04        12.000    23793227.602 5                      2886.733 5        30.392                                                                                                    23793207.038 5  97429186.03405      2249.397 5        32.575
E12        13.000    26778869.550 5 140723931.79905      1639.004 5        32.192                                                                    26778871.561 5                      1223.933 5        31.834    26778862.240 4 107827463.65204      1255.856 4        28.152
E29        14.000    23999403.709 7 126117769.26407       716.947 7        47.254                                                                    23999402.101 8  94178817.54908       535.378 8        49.400    23999401.621 8  96635625.71208       549.381 8        49.469
E24        15.000    28173984.400 4 148055259.49604     -2229.891 4        28.190                                                                                                                                    28173980.143 5                     -1709.295 5        32.018
E26        19.000    24753148.592 5 130078639.03005     -2706.501 5        32.796                                                                    24753146.250 6  97136654.46706     -2021.308 6        41.209    24753146.526 6  99670672.07906     -2074.088 6        41.261
E19        20.000    26299509.114 6 138204848.75206      2261.219 6        36.242                                                                    26299507.606 6 103204936.97006      1688.714 6        38.874    26299506.118 6 105897235.67906      1732.767 6        36.594
R06        21.000    19282163.931 6 102893315.62206        32.115 6        38.390
S36        23.000    38210675.946 6 200798410.38706      -855.116 6        37.138
S23        24.000    38162023.874 6 200542786.80406      -851.943 6        40.448
R20        26.000    21744702.646 4                     -4484.348 4        26.383                                                                    21744703.375 5                     -3487.680 5        34.324
R05        27.000                                                                                                                                    21415630.732 6  89039069.60606     -3431.241 6        40.117
E33        28.000    23272350.192 7 122297014.98507      -372.167 7        46.035                                                                    23272348.402 8  91325739.93608      -277.892 8        51.577    23272347.242 8  93708105.01808      -285.164 8        49.570
E10        29.000    28835666.715 5                      1867.235 5        30.347                                                                    28835653.899 5 113157251.79005      1394.304 5        32.904    28835663.503 4                      1430.531 4        24.256
R21        30.000    19155679.941 8 102506151.92908     -1112.546 8        49.904                                                                    19155676.410 7  79726840.31807      -865.310 7        44.042
R07        34.000    21975555.437 6                      2854.208 6        36.643                                                                    21975556.452 4                      2219.741 4        24.977
R22        35.000    21434127.394 7 114417218.08107      2618.787 7        44.882                                                                    21434124.300 7  88990879.79207      2036.867 7        44.330
C32        36.000                                                                                                                                    22227160.404 8 115742611.49408       533.713 8        50.508                                                                    22227158.742 7  94050401.31507       433.601 7        46.179
C30        38.000                                                                                                                                    21960398.698 8 114353559.32308      -423.177 8        52.631                                                                    21960399.079 8  92921649.76508      -343.918 8        50.683
C16        45.000                                                                                                                                                                                                    39251349.232 5                       117.163 5        30.468
C39        46.000                                                                                                                                    39051410.790 5 203350931.52505      -270.132 5        34.719                                                                    39051389.144 3                      -220.327 3        23.371
C09        47.000                                                                                                                                    39801610.296 4                       630.282 4        29.147    39801642.520 3                       484.880 3        23.314
C41        49.000                                                                                                                                    22733124.566 7 118377411.71307     -2648.864 7        43.863                                                                    22733127.751 5  96191338.40205     -2152.639 5        35.857
C06        50.000                                                                                                                                    38917441.864 3                       272.803 3        23.029    38917413.324 4                       210.538 4        27.174
C27        52.000                                                                                                                                    22701247.582 7 118211336.69607     -3285.652 7        46.393                                                                    22701248.534 7  96056388.39307     -2669.954 7        43.240
C29        54.000                                                                                                                                    25235743.565 7 131409143.97307      2136.495 7        42.476                                                                    25235740.664 6 106780726.96806      1736.085 6        40.691
I01        59.000   374360846.204 6 165931553.18306     -2770.876 6        38.126
I09        60.000    37121995.658 7 145674679.42907      -613.495 7        42.991
> 2025 01 02 00 16 40.0000000  0 37
G03         1.000    20614437.325 7 108329760.17307       843.985 7        44.327                                    20614434.711 7  84412643.32607       657.654 7        44.254    20614433.939 7  84412778.32407       657.560 7        43.666
G32         3.000    23274970.885 6 122310787.95806     -3566.167 6        36.223                                    23274974.860 2  95307118.28302     -2778.833 2        15.857    23274988.777 4  95307109.28304     -2778.430 4        29.981
G14         4.000    25167987.655 4                     -3232.456 4        29.081
E07         5.000    24875377.775 6 130721043.79106     -2273.637 6        41.228                                                                    24875378.062 7  97616466.69307     -1697.814 7        45.795    24875376.523 7 100162843.15007     -1742.143 7        45.243
G08         6.000    24435207.401 5                     -4557.180 5        32.353                                                                                                    24435194.566 3                     -3549.680 3        22.171
G28         7.000    23718607.624 5                      1006.775 5        32.341
G21         8.000    21351516.442 7 112203129.61807     -2535.708 7        43.879                                    21351511.575 4  87430775.23804     -1975.882 4        26.012
G02         9.000    20697373.075 6 108765662.12406     -1149.609 6        40.303                                    20697369.717 2  84752296.94802      -895.777 2        12.121
G19        10.000    24545208.234 5 128985989.84005      2576.202 5        34.267
G17        11.000    22754662.756 7 119576542.91007       905.682 7        44.647                                    22754657.229 6  93176434.39206       705.728 6        38.703    22754656.694 6  93176516.39406       705.708 6        41.266
G04        12.000    23790480.769 5                      2886.252 5        32.096                                                                                                    23790460.224 5  97417940.31605      2248.656 5        32.479
E12        13.000    26777306.782 5 140715737.09605      1639.205 5        31.509                                                                    26777306.990 5                      1223.789 5        32.575    26777302.872 4 107821184.58304      1256.016 4        28.332
E29        14.000    23998722.371 7 126114189.56007       715.072 7        46.540                                                                    23998720.821 8  94176144.38508       533.974 8        49.471    23998720.454 8  96632882.82208       547.913 8        49.701
E24        15.000    28176108.964 4 148066416.96804     -2232.839 4        28.730                                                                                                                                    28176101.548 5                     -1710.578 5        32.772
E26        19.000    24755724.781 5 130092176.74805     -2708.001 5        34.724                                                                    24755722.291 6  97146763.80106     -2022.320 6        40.911    24755722.528 6  99681045.11006     -2074.977 6        40.429
E19        20.000    26297357.653 5 138193543.72305      2260.752 5        35.886                                                                    26297356.535 6 103196494.89906      1688.292 6        39.168    26297354.691 6 105888573.39106      1732.216 6        36.306
R06        21.000    19282134.184 6 102893164.56606        28.486 6        38.769
S36        23.000    38211491.713 6 200802685.73706      -854.912 6        37.350
S23        24.000    38162840.594 6 200547046.78006      -851.717 6        41.280
R20        26.000    21748890.311 4                     -4486.341 4        27.006                                                                    21748898.498 5                     -3489.474 5        34.962
R05        27.000                                                                                                                                    21419757.220 6  89056228.90006     -3432.360 6        39.871
E33        28.000    23272704.704 7 122298879.33807      -373.379 7        45.970                                                                    23272703.117 8  91327132.14608      -278.893 8        51.323    23272702.062 8  93709533.54808      -286.178 8        49.680
E10        29.000    28833889.875 4                      1867.894 4        24.511                                                                    28833876.701 5 113150278.45405      1394.768 5        32.533
R21        30.000    19156721.092 8 102511724.31508     -1116.309 8        50.236                                                                    19156717.480 7  79731174.39507      -868.211 7        44.339
R07        34.000    21972889.201 5                      2852.185 5        30.015                                                                    21972886.142 3                      2217.897 3        21.619
R22        35.000    21431674.439 7 114404128.06707      2617.421 7        45.151                                                                    21431672.011 7  88980698.67207      2035.729 7        44.614
C32        36.000                                                                                                                                    22226649.031 8 115739948.09508       531.830 8        50.294                                                                    22226647.226 7  94048237.06707       431.904 7        46.177
C30        38.000                                                                                                                                    21960806.285 8 114355681.76608      -425.690 8        52.978                                                                    21960806.712 8  92923374.41608      -346.103 8        50.891
C16        45.000                                                                                                                                    39251188.305 3                       149.422 3        21.310    39251202.210 5                       116.419 5        30.408
C39        46.000                                                                                                                                    39051671.045 5 203352284.56405      -271.080 5        34.762                                                                    39051648.185 4                      -221.706 4        24.090
C09        47.000                                                                                                                                    39801006.716 4                       629.726 4        27.365    39801033.516 4                       486.892 4        24.992
C41        49.000                                                                                                                                    22735669.751 7 118390660.37407     -2650.467 7        45.436                                                                    22735669.998 5  96202104.08405     -2153.843 5        34.271
C06        50.000                                                                                                                                    38917182.005 3                       272.183 3        22.990    38917156.389 4                       209.304 4        24.677
C27        52.000                                                                                                                                    22704403.534 7 118227769.85807     -3287.398 7        46.261                                                                    22704404.097 7  96069741.69107     -2671.479 7        42.400
C29        54.000                                                                                                                                    25233692.628 7 131398463.47707      2135.643 7        42.514                                                                    25233689.714 6 106772048.18406      1735.377 6        41.285
I01        59.000   374364376.327 6 165945407.29906     -2770.771 6        38.018
I09        60.000    37122777.428 7 145677747.23307      -613.591 7        43.100
> 2025 01 02 00 16 45.0000000  0 37
G03         1.000    20613635.953 7 108325546.50707       841.777 7        45.118                                    20613632.882 7  84409359.94507       655.928 7        43.833    20613631.697 7  84409494.94607       655.893 7        43.247
G32         3.000    23278364.803 6 122328622.67406     -3567.916 6        36.873                                    23278369.957 2  95321015.50902     -2780.225 2        16.038    23278381.635 4  95321006.56904     -2780.408 4        29.289
G14         4.000    25171059.159 4                     -3234.363 4        24.857                                                                                                    25171071.794 3                     -2518.065 3        21.857
E07         5.000    24877542.743 7 130732417.75207     -2275.667 7        42.599                                                                    24877542.484 7  97624960.24307     -1699.468 7        45.853    24877541.378 7 100171558.27107     -1743.777 7        45.439
G08         6.000    24439545.528 5                     -4557.388 5        31.721                                                                                                    24439535.080 3                     -3551.365 3        21.833
G28         7.000    23717652.164 5 124637098.09915      1004.156 5        34.119
G21         8.000    21353929.655 7 112215813.32507     -2537.620 7        43.105                                    21353925.012 4  87440658.64504     -1977.368 4        25.338
G02         9.000    20698467.499 5 108771416.67305     -1152.115 5        35.838                                    20698464.787 1  84756780.98801      -897.879 1         8.952
G19        10.000    24542759.542 5 128973113.00305      2574.718 5        35.381
G17        11.000    22753802.575 7 119572021.83707       902.909 7        46.184                                    22753796.925 6  93172911.48006       703.566 6        39.459    22753797.107 6  93172993.47906       703.516 6        41.449
G04        12.000    23787731.468 5                      2885.349 5        31.872                                                                                                    23787713.480 5  97406697.39805      2248.247 5        32.096
E12        13.000    26775748.158 5 140707544.15405      1638.484 5        30.845                                                                    26775747.717 5 105073779.45715      1223.389 5        33.814    26775744.899 4 107814906.84004      1255.672 4        29.100
E29        14.000    23998043.182 7 126110620.26507       712.898 7        46.276                                                                    23998041.535 8  94173479.00708       532.311 8        49.354    23998041.187 8  96630147.91208       546.172 8        49.837
E24        15.000    28178237.240 4 148077584.28304     -2234.917 4        26.000                                                                                                                                    28178225.672 5                     -1711.993 5        32.802
E26        19.000    24758303.065 5 130105720.71305     -2709.532 5        34.905                                                                    24758299.701 6  97156877.78706     -2023.273 6        40.567    24758299.465 6  99691422.93306     -2076.247 6        40.029
E19        20.000    26295207.259 5 138182242.05905      2260.011 5        35.786                                                                    26295205.831 6 103188055.35406      1687.626 6        39.565    26295204.055 6 105879913.68206      1731.674 6        36.817
R06        21.000    19282111.141 6 102893031.99306        24.502 6        38.772
S36        23.000    38212306.183 6 200806961.35406      -855.204 6        36.824
S23        24.000    38163654.572 6 200551306.97106      -852.079 6        41.144
R20        26.000    21753090.328 4                     -4488.248 4        27.689                                                                    21753093.370 6  90473887.49916     -3491.305 6        36.953
R05        27.000                                                                                                                                    21423884.544 6  89073394.40506     -3433.718 6        39.568
E33        28.000    23273060.771 7 122300751.04407      -375.117 7        46.594                                                                    23273059.302 8  91328529.84408      -280.106 8        51.034    23273058.293 8  93710967.71108      -287.439 8        50.091
E10        29.000    28832112.061 3                      1868.627 3        21.143                                                                    28832100.094 5 113143304.46205      1394.893 5        32.629    28832092.223 4                      1431.474 4        25.865
R21        30.000    19157765.863 8 102517316.48808     -1120.464 8        50.052                                                                    19157762.356 7  79735523.87507      -871.533 7        44.415
R07        34.000    21970220.578 5 117608990.94915      2850.706 5        30.951                                                                    21970222.906 3                      2217.837 3        22.895
R22        35.000    21429223.914 7 114391046.23707      2615.539 7        45.592                                                                    21429221.554 7  88970523.91707      2034.272 7        44.810
C32        36.000                                                                                                                                    22226139.472 8 115737295.26308       529.503 8        49.820                                                                    22226137.794 7  94046081.40407       430.279 7        46.207
C30        38.000                                                                                                                                    21961216.208 8 114357817.61608      -428.485 8        52.984                                                                    21961216.837 8  92925109.96808      -348.166 8        51.106
C16        45.000                                                                                                                                    39251034.307 3                       150.421 3        19.910    39251056.748 4                       115.899 4        29.479
C39        46.000                                                                                                                                    39051932.551 5 203353642.84805      -272.246 5        34.471                                                                    39051909.162 4                      -222.109 4        24.271
C09        47.000                                                                                                                                    39800401.249 4                       628.478 4        28.237    39800427.652 4                       486.663 4        27.114
C41        49.000                                                                                                                                    22738216.141 7 118403917.21207     -2652.123 7        46.329                                                                    22738214.936 5  96212876.37705     -2154.873 5        34.100
C06        50.000                                                                                                                                    38916921.546 3                       271.230 3        22.038    38916896.579 4                       210.353 4        24.556
C27        52.000                                                                                                                                    22707561.070 7 118244212.65207     -3289.513 7        46.344                                                                    22707561.165 6  96083102.80706     -2673.013 6        41.194
C29        54.000                                                                                                                                    25231642.887 6 131387788.09006      2134.473 6        41.342                                                                    25231639.528 6 106763373.53606      1734.547 6        41.504
I01        59.000   374367906.994 6 165959262.56106     -2771.146 6        38.240
I09        60.000    37123559.330 7 145680816.25207      -613.900 7        42.929
> 2025 01 02 00 16 50.0000000  0 36
G03         1.000    20612836.478 7 108321342.60007       839.606 7        46.075                                    20612832.757 7  84406084.17507       654.237 7        43.456    20612831.425 7  84406219.17307       654.226 7        42.463
G32         3.000    23281761.534 6 122346466.30206     -3569.743 6        38.691                                    23281766.995 2  95334919.64402     -2781.635 2        16.792    23281771.941 4  95334910.68504     -2781.703 4        28.663
G14         4.000    25174135.148 4                     -3233.993 4        24.842                                                                                                    25174142.292 3                     -2519.608 3        19.552
E07         5.000    24879709.371 7 130743801.64507     -2277.964 7        42.952                                                                    24879708.745 7  97633461.19807     -1701.041 7        45.761    24879707.841 7 100180280.98407     -1745.395 7        45.785
G08         6.000    24443882.045 5                     -4557.439 5        30.053                                                                                                    24443869.415 3                     -3552.123 3        21.262
G28         7.000    23716695.290 5 124632083.30805      1001.525 5        32.126
G21         8.000    21356345.017 7 112228505.91707     -2539.620 7        42.184                                    21356340.127 4  87450548.98804     -1978.913 4        24.617
G02         9.000    20699563.210 5 108777182.42605     -1154.302 5        33.970                                    20699562.020 1  84761273.77401      -899.436 1         7.625
G19        10.000    24540308.941 5 128960243.52405      2572.980 5        35.700
G17        11.000    22752944.378 7 119567513.60007       900.238 7        46.503                                    22752939.080 6  93169398.57206       701.480 6        40.327    22752939.003 6  93169480.59006       701.356 6        41.421
G04        12.000    23784982.632 5                      2884.600 5        31.532                                                                                                    23784969.076 4  97395457.29404      2247.417 4        29.848
E12        13.000    26774191.132 5 140699352.79505      1637.836 5        30.747                                                                    26774189.134 5 105067662.42805      1223.504 5        34.524    26774185.584 4 107808630.34704      1255.499 4        29.147
E29        14.000    23997365.788 7 126107061.24507       710.650 7        45.663                                                                    23997364.176 8  94170821.29308       530.682 8        49.199    23997363.971 8  96627420.86008       544.532 8        49.790
E24        15.000    28180363.254 4 148088761.41104     -2236.284 4        25.624                                                                                                                                    28180352.559 5 113470602.89615     -1713.697 5        33.240
E26        19.000    24760881.563 5 130119270.76905     -2711.093 5        35.738                                                                    24760877.944 6  97166996.34606     -2024.229 6        40.424    24760877.338 6  99701805.43606     -2077.106 6        38.721
E19        20.000    26293057.420 5 138170943.67305      2259.146 5        35.762                                                                    26293056.093 6 103179618.25206      1687.062 6        39.982    26293054.084 6 105871256.49206      1730.898 6        36.745
R06        21.000    19282089.461 6 102892918.13606        20.728 6        38.393
S36        23.000    38213118.525 6 200811237.32106      -855.339 6        36.949
S23        24.000    38164465.559 6 200555567.23106      -852.161 6        41.106
R20        26.000    21757289.736 4                     -4491.085 4        28.322                                                                    21757291.347 6  90491346.76316     -3492.707 6        38.862
R05        27.000                                                                                                                                    21428015.211 6                     -3435.247 6        39.249
E33        28.000    23273418.669 7 122302629.98907      -376.658 7        46.925                                                                    23273416.825 8  91329932.95408      -281.246 8        50.703    23273415.885 8  93712407.41808      -288.597 8        50.037
E10        29.000                                                                                                                                    28830323.641 5 113136329.78805      1394.782 5        31.230    28830317.302 3                      1431.297 3        22.057
R21        30.000    19158813.651 8 102522928.30608     -1124.432 8        49.661                                                                    19158810.918 7  79739888.63107      -874.593 7        44.271
R22        35.000    21426774.953 7 114377972.46807      2613.797 7        45.685                                                                    21426771.926 7  88960355.43507      2033.010 7        44.107
C32        36.000                                                                                                                                    22225631.636 8 115734652.84408       527.293 8        48.893                                                                    22225630.457 7  94043934.21707       428.488 7        46.403
C30        38.000                                                                                                                                    21961628.986 8 114359966.71908      -431.291 8        52.641                                                                    21961629.541 8  92926856.30108      -350.473 8        51.026
C16        45.000                                                                                                                                    39250890.817 3                       150.321 3        21.119    39250915.901 4                       115.058 4        28.882
C39        46.000                                                                                                                                    39052194.143 5 203355006.22905      -273.516 5        33.784                                                                    39052173.578 4                      -222.443 4        25.820
C09        47.000                                                                                                                                    39799799.387 4                       627.944 4        27.701    39799827.891 4                       485.319 4        28.265
C41        49.000                                                                                                                                    22740762.416 7 118417182.10507     -2653.922 7        44.888                                                                    22740762.349 5  96223655.22705     -2156.524 5        34.271
C06        50.000                                                                                                                                    38916662.134 3                       270.846 3        23.352    38916639.608 4                       208.606 4        27.150
C27        52.000                                                                                                                                    22710720.451 7 118260664.89707     -3291.524 7        46.259                                                                    22710720.596 6  96096471.62206     -2674.664 6        39.814
C29        54.000                                                                                                                                    25229592.755 6 131377117.67006      2133.371 6        40.524                                                                    25229590.417 6 106754702.94706      1733.639 6        41.387
I01        59.000   374371437.682 6 165973118.80406     -2771.652 6        38.547
I09        60.000    37124341.796 7 145683886.36407      -614.194 7        43.056
> 2025 01 02 00 16 55.0000000  0 37
G03         1.000    20612038.178 7 108317148.26107       837.895 7        46.378                                    20612034.322 7  84402815.86107       652.902 7        43.141    20612033.169 6  84402950.86506       652.910 6        41.855
G32         3.000    23285158.429 6 122364318.65306     -3571.461 6        39.384                                    23285165.750 2  95348830.61602     -2782.949 2        16.981    23285170.884 4  95348821.67004     -2783.465 4        27.832
G14         4.000    25177221.471 4                     -3236.568 4        24.406
E07         5.000    24881877.669 7 130755195.24707     -2279.729 7        43.414                                                                    24881876.878 7  97641969.40907     -1702.411 7        45.613    24881876.201 7 100189011.14907     -1746.784 7        46.074
G08         6.000    24448215.552 4                     -4557.582 4        29.062                                                                                                    24448206.451 3                     -3548.895 3        21.476
G28         7.000    23715742.473 4 124627080.42004       999.622 4        28.948
G21         8.000    21358761.838 6 112241207.17606     -2541.069 6        41.766                                    21358757.160 4  87460446.06804     -1980.044 4        24.060
G02         9.000    20700663.483 4 108782959.17704     -1155.959 4        28.720                                    20700661.561 1  84765775.06101      -900.819 1         5.857
G19        10.000    24537859.895 5 128947381.19305      2571.582 5        35.738
G17        11.000    22752088.416 7 119563018.06507       897.801 7        46.183                                    22752083.650 6  93165895.56306       699.586 6        40.722    22752083.314 6  93165977.57506       699.599 6        41.785
G04        12.000    23782239.045 5                      2884.045 5        32.245                                                                                                    23782222.944 4  97384219.80304      2246.750 4        28.531
E12        13.000    26772633.557 4 140691162.82204      1638.078 4        28.616                                                                    26772629.655 5 105061546.51405      1223.198 5        34.924    26772625.569 4 107802354.92304      1255.323 4        29.299
E29        14.000    23996690.547 7 126103512.29107       708.695 7        44.900                                                                    23996688.851 8  94168171.09908       529.242 8        49.073    23996688.506 8  96624701.53108       543.064 8        49.744
E24        15.000    28182489.890 4 148099948.10804     -2237.641 4        26.695                                                                                                                                    28182479.279 5 113479174.58005     -1715.109 5        33.671
E26        19.000    24763460.609 5 130132826.72305     -2711.960 5        35.948                                                                    24763457.475 6  97177119.30406     -2025.029 6        39.949    24763456.519 6  99712192.44906     -2077.913 6        37.777
E19        20.000    26290907.813 5 138159648.48205      2258.664 5        35.867                                                                    26290906.758 6 103171183.53006      1686.598 6        40.017    26290904.633 6 105862601.73706      1730.669 6        36.824
R06        21.000    19282071.391 6 102892822.45806        17.099 6        38.523
S36        23.000    38213933.510 6 200815513.04806      -855.003 6        37.134
S23        24.000    38165271.046 6 200559827.34706      -852.209 6        40.541
R20        26.000    21761490.132 5                     -4492.632 5        30.853                                                                    21761492.429 6  90508813.79606     -3494.205 6        40.076
R05        27.000                                                                                                                                    21432146.090 6  89107743.80916     -3436.128 6        38.204
E33        28.000    23273777.495 7 122304515.97407      -377.928 7        46.808                                                                    23273775.617 8  91331341.32008      -282.239 8        50.461    23273774.828 8  93713852.52708      -289.619 8        50.181
E10        29.000    28828529.639 3                      1868.397 3        18.925                                                                    28828549.357 5 113129354.21705      1395.122 5        30.204    28828541.768 3                      1434.104 3        19.910
R21        30.000    19159865.771 8 102528559.66108     -1128.288 8        49.707                                                                    19159863.561 7  79744268.56507      -877.517 7        43.810
R07        34.000                                                                                                                                    21964901.975 4                      2214.720 4        27.150
R22        35.000    21424328.224 7 114364906.58907      2612.300 7        46.298                                                                    21424324.427 7  88950193.09307      2031.763 7        43.390
C32        36.000                                                                                                                                    22225125.870 8 115732020.63708       525.369 8        48.372                                                                    22225125.042 7  94041795.31607       426.951 7        46.463
C30        38.000                                                                                                                                    21962043.958 8 114362128.89208      -433.785 8        52.672                                                                    21962044.816 8  92928613.24308      -352.486 8        51.055
C16        45.000                                                                                                                                                                                                    39250772.804 4                       113.678 4        27.126
C39        46.000                                                                                                                                    39052455.958 5 203356374.47805      -274.225 5        33.305                                                                    39052437.122 4                      -222.784 4        27.114
C09        47.000                                                                                                                                    39799197.761 4                       627.957 4        26.671    39799228.644 4                       485.432 4        27.725
C41        49.000                                                                                                                                    22743309.439 7 118430454.84407     -2655.342 7        43.985                                                                    22743312.007 5  96234440.44405     -2157.873 5        34.790
C06        50.000                                                                                                                                    38916391.981 3                       266.931 3        21.857    38916387.842 4                       208.159 4        28.313
C27        52.000                                                                                                                                    22713882.028 7 118277126.42507     -3293.307 7        45.731                                                                    22713882.373 6  96109847.98706     -2676.186 6        39.327
C29        54.000                                                                                                                                    25227543.920 6 131366452.00806      2132.625 6        41.018                                                                    25227542.108 6 106746036.23606      1732.947 6        41.120
I01        59.000   374374968.964 6 165986975.87706     -2771.541 6        38.147
I09        60.000    37125124.329 7 145686957.41807      -614.406 7        43.007
> 2025 01 02 00 17  0.0000000  0 35
G03         1.000    20611241.396 7 108312963.40107       835.789 7        46.285                                    20611237.613 7  84399554.94007       651.263 7        43.033    20611236.915 6  84399689.93706       651.249 6        41.130
G32         3.000    23288557.005 6 122382179.59906     -3573.275 6        40.341                                    23288565.936 2  95362748.28502     -2784.380 2        17.094    23288570.585 4  95362739.34204     -2784.624 4        26.946
G14         4.000                                                                                                                                                                    25180302.113 3                     -2522.382 3        21.429
E07         5.000    24884047.210 7 130766598.46507     -2281.879 7        43.962                                                                    24884046.709 7  97650484.80107     -1703.947 7        45.515    24884046.235 7 100197748.67707     -1748.349 7        46.308
G08         6.000    24452551.725 4                     -4557.552 4        29.498                                                                                                    24452541.036 3                     -3552.957 3        21.190
G28         7.000    23714787.701 4 124622089.45204       997.314 4        25.083
G21         8.000    21361180.411 6 112253917.00206     -2543.038 6        40.737                                    21361175.650 3  87470349.82103     -1981.583 3        23.581
G19        10.000    24535414.513 6 128934525.94806      2569.844 6        36.393
G17        11.000    22751235.467 7 119558535.13607       895.043 7        46.026                                    22751230.652 6  93162402.37406       697.434 6        41.159    22751230.775 6  93162484.38306       697.398 6        41.919
G04        12.000    23779497.140 5                      2883.482 5        30.770                                                                                                    23779482.687 4  97372984.77104      2246.300 4        27.713
E12        13.000    26771071.894 4 140682974.29204      1636.022 4        25.970                                                                    26771071.546 5 105055431.57005      1222.592 5        35.410    26771064.593 4 107796080.53004      1254.199 4        27.904
E29        14.000    23996016.491 7 126099973.31907       706.614 7        44.015                                                                    23996015.358 8  94165528.35408       527.615 8        49.020    23996015.038 8  96621989.83908       541.389 8        49.564
E24        15.000    28184621.871 4 148111144.35204     -2240.358 4        26.036                                                                                                                                    28184609.426 5 113487753.52205     -1716.723 5        34.162
E26        19.000    24766041.090 5 130146388.48805     -2713.576 5        34.924                                                                    24766038.234 6  97187246.57906     -2026.052 6        40.095    24766036.382 6  99722583.88706     -2078.920 6        36.741
E19        20.000    26288759.504 6 138148356.30806      2257.896 6        36.200                                                                    26288758.013 6 103162751.05106      1686.258 6        40.267    26288755.787 6 105853949.28606      1730.175 6        36.866
R06        21.000    19282055.984 6 102892745.14406        13.474 6        38.580
S36        23.000    38214741.541 6 200819787.72206      -855.015 6        36.677
S23        24.000    38166085.342 6 200564087.43506      -852.049 6        41.111
R20        26.000    21765694.293 5                     -4494.414 5        31.902                                                                    21765692.958 6  90526288.39516     -3495.816 6        39.892
R05        27.000    21436284.413 5                     -4419.521 5        30.030                                                                    21436278.800 6  89124927.26316     -3437.502 6        37.406
E33        28.000    23274137.460 7 122306408.92307      -379.563 7        46.648                                                                    23274135.877 8  91332754.87508      -283.383 8        50.332    23274135.128 8  93715302.95908      -290.816 8        50.432
E10        29.000    28826766.210 4                      1869.362 4        24.887                                                                    28826774.484 4 113122377.67104      1395.301 4        28.445
R21        30.000    19160922.160 8 102534210.34008     -1132.344 8        48.920                                                                    19160919.660 7  79748663.53507      -880.709 7        43.363
R07        34.000    21962267.446 5 117566273.63905      2844.742 5        30.913                                                                    21962241.132 4                      2212.878 4        28.948
R22        35.000    21421882.346 7 114351848.47307      2610.604 7        46.703                                                                    21421878.086 7  88940036.80707      2030.530 7        43.348
C32        36.000                                                                                                                                    22224622.478 8 115729398.53608       523.231 8        48.667                                                                    22224621.698 7  94039664.66107       425.056 7        46.539
C30        38.000                                                                                                                                    21962461.738 8 114364304.02008      -436.543 8        52.776                                                                    21962462.523 8  92930380.73408      -354.771 8        50.986
C16        45.000                                                                                                                                                                                                    39250630.777 4                       114.169 4        24.617
C39        46.000                                                                                                                                    39052718.387 5 203357747.56605      -275.637 5        33.078                                                                    39052700.769 4                      -223.599 4        27.713
C09        47.000                                                                                                                                    39798599.789 3                       628.466 3        23.276    39798625.467 4                       485.120 4        27.042
C41        49.000                                                                                                                                    22745858.045 7 118443735.30507     -2657.146 7        43.109                                                                    22745863.734 5  96245231.90605     -2159.157 5        35.900
C27        52.000                                                                                                                                    22717045.460 7 118293597.08007     -3295.235 7        44.072                                                                    22717046.951 6  96123231.79606     -2677.733 6        39.087
C29        54.000                                                                                                                                    25225497.156 6 131355791.06206      2131.465 6        41.619                                                                    25225494.668 6 106737373.37306      1731.915 6        41.192
I01        59.000   374378500.302 6 166000833.70006     -2771.706 6        38.568
I09        60.000    37125907.299 7 145690029.32407      -614.677 7        43.056
> 2025 01 02 00 17  5.0000000  0 36
G03         1.000    20610446.480 7 108308788.17807       833.970 7        46.971                                    20610442.747 7  84396301.52607       649.844 7        43.363    20610442.703 6  84396436.54006       649.863 6        40.803
G32         3.000    23291958.911 7 122400049.29907     -3574.857 7        42.174                                    23291967.477 3  95376672.74703     -2785.604 3        18.060    23291969.043 4  95376663.80604     -2785.162 4        25.248
G14         4.000    25183399.679 4                     -3237.212 4        24.406                                                                                                    25183380.543 3                     -2524.571 3        23.924
E07         5.000    24886218.927 7 130778011.45907     -2283.722 7        44.030                                                                    24886218.557 7  97659007.48907     -1705.436 7        45.372    24886217.974 7 100206493.69807     -1749.907 7        46.344
G08         6.000    24456892.803 5                     -4557.815 5        30.083                                                                                                    24456880.817 3                     -3551.625 3        22.438
G28         7.000    23713844.971 4                       995.364 4        26.084
G21         8.000    21363600.657 6 112266635.52306     -2544.747 6        40.005                                    21363595.858 3  87480260.35203     -1982.921 3        23.105
G02         9.000    20702897.016 4                     -1161.188 4        25.955
G19        10.000    24532970.075 6 128921677.88706      2568.761 6        37.645
G17        11.000    22750385.122 7 119554064.94707       892.577 7        45.243                                    22750380.118 6  93158919.11106       695.516 6        41.738    22750380.206 7  93159001.11607       695.466 7        42.009
G04        12.000    23776754.752 4                      2882.721 4        29.915                                                                                                    23776738.561 4  97361752.60104      2244.845 4        24.962
E12        13.000    26769513.382 4 140674786.93504      1636.934 4        27.473                                                                    26769513.786 6 105049317.72206      1222.427 6        36.079    26769507.225 4 107789807.15704      1254.705 4        28.540
E29        14.000    23995344.047 7 126096444.50607       704.677 7        42.387                                                                    23995343.745 8  94162893.18308       526.176 8        48.775    23995343.450 8  96619285.91808       539.900 8        49.406
E24        15.000    28186752.845 4 148122350.28404     -2241.802 4        24.045                                                                    28186739.656 5 110610816.42515     -1674.199 5        32.395    28186741.216 5 113496339.86005     -1717.996 5        35.324
E26        19.000    24768623.344 6 130159956.16506     -2714.454 6        36.140                                                                    24768620.397 6  97197378.33306     -2026.915 6        40.462    24768618.408 6  99732979.94406     -2079.854 6        36.767
E19        20.000    26286610.715 5 138137067.31905      2257.282 5        35.962                                                                    26286609.711 6 103154320.97506      1685.712 6        40.427    26286607.632 6 105845299.32106      1729.288 6        37.093
R06        21.000    19282045.008 6 102892686.07206         9.705 6        38.745
S36        23.000    38215552.255 6 200824062.44206      -855.099 6        36.783
S23        24.000    38166896.463 6 200568347.38106      -852.151 6        41.275
R20        26.000    21769898.571 5                     -4496.355 5        32.359                                                                    21769896.456 6  90543770.80006     -3497.362 6        40.803
R05        27.000    21440418.093 4                     -4420.509 4        26.275                                                                    21440413.001 6  89142116.72206     -3438.600 6        36.665
E33        28.000    23274498.796 7 122308308.98107      -380.845 7        46.592                                                                    23274497.361 8  91334173.75408      -284.407 8        50.210    23274496.697 8  93716758.84908      -291.832 8        50.582
E10        29.000    28824989.942 4                      1868.489 4        27.581                                                                    28824998.408 4 113115400.28804      1395.360 4        27.856
R21        30.000    19161981.631 8 102539880.60708     -1136.129 8        48.473                                                                    19161979.339 7  79753073.75007      -883.579 7        43.300
R07        34.000                                                                                                                                    21959584.375 4                      2211.303 4        29.090
R22        35.000    21419437.980 7 114338798.35107      2609.079 7        46.881                                                                    21419433.597 7  88929886.71907      2029.248 7        42.643
C32        36.000                                                                                                                                    22224120.753 8 115726786.71508       521.190 8        49.186                                                                    22224120.255 7  94037542.32407       423.585 7        46.748
C30        38.000                                                                                                                                    21962881.984 8 114366492.29708      -439.125 8        52.683                                                                    21962882.782 8  92932158.87708      -356.799 8        51.125
C16        45.000                                                                                                                                                                                                    39250494.580 4                       112.703 4        25.519
C39        46.000                                                                                                                                    39052983.288 5 203359125.57805      -276.313 5        32.880                                                                    39052966.737 4                      -224.373 4        28.626
C09        47.000                                                                                                                                                                                                    39798019.714 4                       484.639 4        29.270
C41        49.000                                                                                                                                    22748408.884 7 118457023.63507     -2658.609 7        43.029                                                                    22748415.567 6  96256029.77206     -2160.241 6        37.130
C27        52.000                                                                                                                                    22720210.802 7 118310077.06707     -3297.120 7        42.931                                                                    22720214.040 6  96136623.15806     -2678.999 6        39.613
C29        54.000                                                                                                                                    25223450.447 7 131345134.96907      2130.622 7        42.889                                                                    25223448.255 6 106728714.43206      1731.410 6        41.037
I01        59.000   374382032.471 6 166014692.42606     -2771.968 6        38.838
I09        60.000    37126690.410 7 145693102.22807      -614.831 7        42.961
> 2025 01 02 00 17 10.0000000  0 36
G03         1.000    20609654.121 7 108304622.96207       832.277 7        47.725                                    20609649.847 7  84393055.91707       648.527 7        43.714    20609651.161 6  84393190.91606       648.465 6        40.417
G32         3.000    23295363.833 7 122417928.08507     -3576.524 7        42.601                                    23295370.181 3  95390604.30703     -2786.900 3        18.209    23295366.822 4  95390595.43904     -2787.156 4        24.135
E07         5.000    24888392.513 7 130789434.54507     -2285.362 7        44.144                                                                    24888392.502 7  97667537.71907     -1706.711 7        45.100    24888391.818 7 100215246.45707     -1751.153 7        46.481
G08         6.000    24461231.529 4                     -4558.039 4        29.554                                                                                                    24461217.459 3                     -3550.717 3        21.786
G28         7.000    23712900.502 3                       993.543 3        23.467
G21         8.000    21366022.701 6 112279363.11006     -2546.248 6        39.796                                    21366017.751 3  87490177.93703     -1984.081 3        22.419
G02         9.000    20703994.960 5                     -1162.995 5        32.641
G19        10.000    24530527.113 6 128908837.46806      2567.513 6        37.565
G17        11.000    22749537.378 7 119549607.86207       890.342 7        44.530                                    22749532.093 7  93155446.05607       693.776 7        42.155    22749532.333 7  93155528.05907       693.782 7        42.250
G04        12.000    23774009.270 4                      2881.735 4        29.526
E12        13.000    26767953.543 4 140666601.47604      1637.066 4        25.639                                                                    26767956.133 6 105043205.21906      1222.458 6        36.284    26767949.423 4 107783535.18504      1254.603 4        28.227
E29        14.000    23994674.666 6 126092926.17806       702.879 6        40.696                                                                    23994674.083 8  94160265.84608       524.867 8        48.272    23994673.840 8  96616590.03108       538.555 8        49.096
E24        15.000                                                                                                                                    28188874.368 5 110619191.95805     -1675.766 5        32.539    28188875.432 5 113504933.86105     -1719.219 5        35.552
E26        19.000    24771206.717 6 130173530.18006     -2715.323 6        36.291                                                                    24771203.455 6  97207514.78206     -2027.584 6        40.393    24771201.611 6  99743380.82106     -2080.652 6        36.552
E19        20.000    26284463.050 6 138125781.84906      2256.856 6        36.423                                                                    26284462.412 6 103145893.50606      1685.503 6        40.253    26284459.657 6 105836651.98406      1729.451 6        37.198
R06        21.000    19282037.544 6 102892645.78506         6.486 6        38.580
S36        23.000    38216368.818 6 200828336.97706      -854.877 6        36.922
S23        24.000    38167706.086 6 200572607.66106      -852.024 6        41.395
R20        26.000    21774100.537 5                     -4498.521 5        31.623                                                                    21774102.929 6  90561261.28006     -3498.743 6        41.356
R05        27.000                                                                                                                                    21444548.676 6  89159312.42116     -3439.541 6        37.603
E33        28.000    23274862.175 7 122310216.50707      -382.079 7        46.267                                                                    23274860.317 8  91335598.20408      -285.324 8        49.935    23274859.657 8  93718220.45308      -292.730 8        50.588
E10        29.000    28823211.484 4                      1869.562 4        27.293                                                                    28823223.291 4 113108422.29104      1395.904 4        26.311
R21        30.000    19163043.783 7 102545570.67907     -1139.734 7        47.441                                                                    19163042.940 7  79757499.36407      -886.438 7        43.553
R07        34.000    21956984.101 6 117537480.19516      2841.718 6        37.059                                                                    21956933.307 5                      2209.711 5        30.302
R22        35.000    21416995.007 7 114325756.55407      2607.811 7        46.296                                                                    21416990.709 7  88919743.10907      2028.253 7        42.317
C32        36.000                                                                                                                                    22223620.767 8 115724185.52008       519.348 8        49.631                                                                    22223620.712 7  94035428.63907       422.011 7        46.870
C30        38.000                                                                                                                                    21963304.417 8 114368694.04908      -441.477 8        52.270                                                                    21963305.665 8  92933947.99708      -358.770 8        51.146
C16        45.000                                                                                                                                                                                                    39250362.479 4                       112.091 4        25.188
C39        46.000                                                                                                                                    39053249.588 5 203360508.90705      -276.874 5        31.215                                                                    39053234.041 4                      -225.423 4        28.701
C09        47.000                                                                                                                                    39797414.845 4                       625.632 4        25.489    39797417.794 4                       484.051 4        29.261
C41        49.000                                                                                                                                    22750962.003 7 118470320.16607     -2659.981 7        42.751                                                                    22750968.452 6  96266834.29406     -2161.391 6        37.868
C06        50.000                                                                                                                                                                                                    38915646.859 5                       205.868 5        30.279
C27        52.000                                                                                                                                    22723378.912 6 118326566.70306     -3298.690 6        41.931                                                                    22723380.514 6  96150022.36406     -2680.494 6        39.483
C29        54.000                                                                                                                                    25221404.498 7 131334484.09807      2129.885 7        43.795                                                                    25221402.886 6 106720059.76006      1730.696 6        40.965
I01        59.000   374385564.397 6 166028552.23606     -2771.903 6        38.853
I09        60.000    37127473.423 7 145696176.38507      -614.865 7        43.196
> 2025 01 02 00 17 15.0000000  0 37
G03         1.000    20608862.755 8 108300466.91508       830.289 8        48.316                                    20608858.782 7  84389817.45607       646.975 7        44.163    20608861.062 6  84389952.44906       646.834 6        41.282
G32         3.000    23298770.243 7 122435815.15307     -3578.362 7        43.585                                    23298773.980 3  95404542.33803     -2788.370 3        18.687    23298759.429 3  95404533.60603     -2788.891 3        23.029
G14         4.000                                                                                                                                                                    25189526.185 4                     -2525.365 4        27.305
E07         5.000    24890567.799 7 130800866.95907     -2287.451 7        44.470                                                                    24890568.247 7  97676074.90507     -1708.117 7        45.391    24890567.280 7 100224006.36407     -1752.674 7        46.385
G08         6.000    24465569.343 4                     -4557.579 4        28.796                                                                                                    24465551.065 3                     -3552.108 3        20.857
G28         7.000    23711964.546 3                       987.596 3        20.643
G21         8.000    21368446.002 6 112292098.94906     -2548.013 6        40.253                                    21368441.277 3  87500101.96703     -1985.449 3        22.210
G02         9.000    20705098.700 5 108806029.63915     -1165.079 5        33.234
G19        10.000    24528084.146 6 128896003.86206      2566.053 6        36.828
G17        11.000    22748691.699 7 119545163.14007       887.696 7        45.130                                    22748686.451 7  93151982.63007       691.713 7        42.686    22748686.854 7  93152064.63707       691.691 7        42.402
G04        12.000                                                                                                                                                                    23771248.171 3                      2245.000 3        20.071
E12        13.000    26766399.690 4 140658416.97004      1636.920 4        25.759                                                                    26766398.717 6 105037093.47306      1222.307 6        36.911    26766392.590 4 107777264.07704      1253.642 4        28.607
E29        14.000    23994007.219 6 126089417.54106       700.808 6        39.712                                                                    23994006.187 8  94157645.76308       523.305 8        48.089    23994006.116 8  96613901.59108       537.005 8        48.704
E24        15.000                                                                                                                                    28191011.212 5 110627574.37505     -1677.281 5        33.539    28191011.692 6 113513534.93206     -1721.044 6        36.042
E26        19.000    24773790.854 6 130187109.69206     -2716.279 6        36.767                                                                    24773787.581 6  97217655.36806     -2028.541 6        40.274    24773785.880 6  99753785.91606     -2081.467 6        36.688
E19        20.000    26282315.741 6 138114499.10906      2256.206 6        36.601                                                                    26282315.337 6 103137468.08706      1684.872 6        40.365    26282312.788 6 105828006.80006      1728.793 6        37.138
R06        21.000    19282034.727 6 102892623.47406         2.703 6        38.649
S36        23.000    38217184.513 6 200832611.00306      -854.933 6        36.941
S23        24.000    38168514.470 6 200576867.49306      -851.837 6        40.911
R20        26.000    21778306.693 5                     -4500.598 5        30.641                                                                    21778310.037 6  90578759.19416     -3500.417 6        40.925
R05        27.000                                                                                                                                    21448686.613 6  89176513.75916     -3440.829 6        37.845
E33        28.000    23275226.538 7 122312130.73007      -383.545 7        46.429                                                                    23275224.552 8  91337027.65208      -286.376 8        49.988    23275223.979 8  93719687.19608      -293.885 8        50.658
E10        29.000    28821432.123 5                      1869.227 5        30.408                                                                    28821447.317 4 113101443.15604      1395.757 4        26.683
R21        30.000    19164110.406 7 102551279.86307     -1143.719 7        46.894                                                                    19164109.341 7  79761939.84807      -889.561 7        43.746
R07        34.000                                                                                                                                    21954283.638 5                      2208.535 5        32.988
R22        35.000    21414552.897 7 114312722.34207      2606.095 7        45.574                                                                    21414548.085 7  88909605.38707      2027.000 7        42.286
C32        36.000                                                                                                                                    22223123.050 8 115721594.15808       517.341 8        50.368                                                                    22223122.761 7  94033322.94407       420.247 7        46.862
C30        38.000                                                                                                                                    21963729.409 8 114370908.50908      -444.118 8        52.155                                                                    21963730.916 8  92935747.41608      -361.035 8        51.283
C16        45.000                                                                                                                                    39250185.106 4                       144.494 4        24.030
C39        46.000                                                                                                                                    39053516.516 5 203361896.72205      -277.957 5        30.257                                                                    39053499.946 4                      -225.996 4        29.621
C09        47.000                                                                                                                                    39796812.325 4                       625.227 4        24.511    39796819.974 4                       483.325 4        29.318
C41        49.000                                                                                                                                    22753518.568 7 118483624.11607     -2661.629 7        43.263                                                                    22753523.732 6  96277644.85506     -2162.827 6        38.495
C06        50.000                                                                                                                                                                                                    38915391.560 5                       205.477 5        30.536
C27        52.000                                                                                                                                    22726549.385 7 118343065.20007     -3300.575 7        42.362                                                                    22726548.047 6  96163428.74806     -2682.004 6        39.033
C29        54.000                                                                                                                                    25219359.989 7 131323837.68407      2128.833 7        44.602                                                                    25219358.434 6 106711408.68306      1729.579 6        40.973
I01        59.000   374389096.179 6 166042412.63206     -2772.153 6        39.057
I09        60.000    37128257.182 7 145699251.21707      -615.062 7        43.359
> 2025 01 02 00 17 20.0000000  0 37
G03         1.000    20608073.610 8 108296320.73908       828.398 8        48.768                                    20608069.764 7  84386586.68107       645.502 7        44.403    20608072.492 6  84386721.65706       645.604 6        41.936
G32         3.000    23302179.556 7 122453711.13907     -3580.008 7        43.754                                    23302178.731 3  95418487.26903     -2789.615 3        18.149    23302162.231 3                     -2789.568 3        20.095
G14         4.000                                                                                                                                                                    25192613.858 4                     -2526.123 4        28.256
E07         5.000    24892745.197 7 130812309.33407     -2289.359 7        43.985                                                                    24892745.779 7  97684619.53307     -1709.551 7        45.245    24892744.584 7 100232773.89707     -1754.116 7        46.212
G08         6.000    24469900.726 4                     -4558.197 4        28.265                                                                                                    24469886.719 3                     -3550.878 3        19.791
G28         7.000    23711009.309 3                       987.562 3        23.905
G21         8.000    21370871.090 6 112304843.69306     -2549.720 6        40.088                                    21370866.819 3  87510032.93003     -1986.783 3        22.190
G02         9.000    20706205.780 5 108811861.88505     -1167.309 5        32.862                                    20706207.133 1                      -909.693 1         6.875
G19        10.000    24525643.410 6 128883177.77006      2564.604 6        36.011
G17        11.000    22747848.524 7 119540731.39707       885.190 7        46.154                                    22747843.286 7  93148529.32207       689.761 7        43.132    22747843.584 7  93148611.33107       689.735 7        42.840
G04        12.000    23768510.243 4                      2881.482 4        25.594                                                                                                    23768505.054 3                      2243.593 3        21.262
E12        13.000    26764845.976 4 140650234.34404      1636.574 4        28.038                                                                    26764842.191 6 105030983.00206      1222.043 6        37.214    26764836.141 4 107770994.16404      1254.053 4        28.218
E29        14.000    23993342.561 6 126085919.27806       698.700 6        40.398                                                                    23993340.393 7  94155033.41507       521.779 7        47.762    23993340.261 8  96611221.09108       535.418 8        48.538
E24        15.000                                                                                                                                    28193149.558 5 110635964.08505     -1678.432 5        33.515    28193149.864 6 113522143.51606     -1722.407 6        36.348
E26        19.000    24776376.343 6 130200695.43806     -2717.688 6        37.251                                                                    24776372.919 6  97227800.54406     -2029.316 6        39.967    24776371.101 6  99764195.74406     -2082.261 6        37.055
E19        20.000    26280169.433 6 138103219.79706      2255.663 6        36.336                                                                    26280168.926 6 103129045.23406      1684.393 6        40.346    26280166.364 6 105819364.18806      1728.475 6        37.342
R06        21.000    19282032.648 6 102892619.71406        -1.073 6        37.936
S36        23.000    38217998.961 6 200836885.40706      -854.685 6        36.639
S23        24.000    38169324.545 6 200581127.47006      -851.711 6        40.579
R20        26.000    21782517.705 4                     -4502.565 4        29.280                                                                    21782518.319 6  90596264.98516     -3501.890 6        40.236
R05        27.000                                                                                                                                    21452825.502 6  89193721.20406     -3441.980 6        38.898
E33        28.000    23275592.056 7 122314052.25507      -384.887 7        46.287                                                                    23275590.141 8  91338462.56408      -287.428 8        49.884    23275589.603 8  93721159.53608      -294.909 8        50.752
E10        29.000    28819652.368 4                      1869.510 4        28.455                                                                    28819664.292 4 113094463.27704      1396.371 4        26.982    28819636.742 4                      1432.835 4        24.376
R21        30.000    19165181.318 7 102557008.87707     -1147.626 7        46.493                                                                    19165179.713 7  79766395.73207      -892.541 7        43.348
R07        34.000                                                                                                                                    21951637.613 5                      2207.226 5        33.838
R22        35.000    21412112.961 7 114299696.36707      2604.639 7        44.990                                                                    21412107.995 7  88899474.09307      2025.755 7        42.523
C32        36.000                                                                                                                                    22222627.373 8 115719013.29908       515.247 8        50.721                                                                    22222626.933 7  94031225.77107       418.573 7        46.435
C30        38.000                                                                                                                                    21964157.332 8 114373136.31908      -446.726 8        51.734                                                                    21964158.679 8  92937557.69608      -363.130 8        51.021
C16        45.000                                                                                                                                    39250048.028 4                       143.358 4        25.098    39250109.323 4                       110.925 4        25.053
C39        46.000                                                                                                                                    39053781.496 4 203363289.79904      -278.755 4        25.880                                                                    39053767.823 4                      -226.920 4        29.782
C09        47.000                                                                                                                                    39796215.037 3                       624.919 3        23.448    39796218.786 4                       482.415 4        27.784
C41        49.000                                                                                                                                    22756074.172 7 118496936.11407     -2662.981 7        42.288                                                                    22756080.299 6  96288461.96806     -2164.099 6        38.510
C06        50.000                                                                                                                                                                                                    38915132.121 4                       204.596 4        28.853
C27        52.000                                                                                                                                    22729720.669 7 118359573.19507     -3302.417 7        42.743                                                                    22729718.334 6  96176842.86506     -2683.478 6        39.117
C29        54.000                                                                                                                                    25217316.371 7 131313196.38207      2127.944 7        44.740                                                                    25217314.706 6 106702761.77406      1728.972 6        41.118
I01        59.000   374392627.971 6 166056274.06006     -2772.387 6        38.976
I09        60.000    37129041.207 7 145702327.17107      -615.212 7        43.166
> 2025 01 02 00 17 25.0000000  0 36
G03         1.000    20607286.036 8 108292184.44208       826.128 8        48.398                                    20607282.781 7  84383363.60207       643.733 7        44.417    20607285.167 7  84383498.58807       643.703 7        42.396
G32         3.000    23305593.170 7 122471616.09807     -3582.168 7        42.830                                    23305584.882 2  95432439.19702     -2791.297 2        16.906    23305569.044 4                     -2792.538 4        24.180
G14         4.000                                                                                                                                                                    25195700.369 4                     -2527.119 4        27.138
E07         5.000    24894924.939 7 130823761.68907     -2291.608 7        44.120                                                                    24894925.055 7  97693171.61307     -1711.216 7        45.348    24894923.726 7 100241549.08107     -1755.897 7        46.357
G08         6.000    24474237.010 4                     -4557.734 4        26.467                                                                                                    24474226.286 3                     -3547.177 3        19.910
G28         7.000    23710068.315 5                       984.712 5        30.136
G21         8.000    21373297.454 6 112317597.37406     -2551.670 6        38.865                                    21373294.239 3  87519970.84503     -1988.327 3        22.229
G02         9.000    20707316.665 5 108817705.55005     -1170.278 5        32.832                                    20707317.142 1  84793010.24011      -911.863 1         6.500
G19        10.000    24523204.532 5 128870359.22305      2562.761 5        35.757
G17        11.000    22747007.756 7 119536312.71407       882.300 7        46.558                                    22747002.563 7  93145086.18807       687.508 7        43.185    22747002.463 7  93145168.19307       687.483 7        42.921
G04        12.000    23765770.891 4                      2879.391 4        25.789                                                                                                    23765767.612 3                      2243.173 3        22.400
E12        13.000    26763291.337 4 140642053.34204      1636.194 4        28.976                                                                    26763285.219 6 105024873.78306      1221.731 6        37.671    26763280.078 4 107764725.59204      1253.458 4        28.616
E29        14.000    23992678.936 6 126082431.39406       696.467 6        41.692                                                                    23992676.509 7  94152428.82407       520.007 7        47.462    23992676.381 8  96608548.54808       533.576 8        48.406
E24        15.000                                                                                                                                    28195289.658 5 110644361.17805     -1680.323 5        33.629    28195289.400 6 113530759.66706     -1724.111 6        36.299
E26        19.000    24778961.924 6 130214287.32606     -2719.072 6        38.459                                                                    24778959.298 6  97237950.35706     -2030.701 6        39.532    24778957.425 6  99774610.29906     -2083.401 6        37.701
E19        20.000    26278023.858 6 138091943.89606      2254.811 6        36.726                                                                    26278023.246 6 103120624.93606      1683.713 6        40.279    26278020.473 6 105810724.23606      1727.827 6        37.471
R06        21.000    19282033.703 6 102892634.57606        -4.984 6        37.974
S36        23.000    38218806.711 6 200841160.16706      -854.902 6        36.166
S23        24.000    38170131.990 6 200585387.78806      -852.263 6        40.126
R20        26.000    21786730.545 4                     -4505.051 4        25.203                                                                    21786729.300 6                     -3503.704 6        38.691
R05        27.000                                                                                                                                    21456965.092 6  89210934.78506     -3443.478 6        39.625
E33        28.000    23275958.939 7 122315981.15607      -386.650 7        46.004                                                                    23275957.203 8  91339902.97308      -288.781 8        49.941    23275956.664 8  93722637.52608      -296.330 8        50.922
E10        29.000    28817871.517 4                      1869.592 4        29.422                                                                    28817875.052 5 113087482.98905      1395.433 5        30.106    28817860.332 4                      1432.361 4        24.511
R21        30.000    19166256.057 7 102562757.70907     -1151.929 7        46.472                                                                    19166253.816 7  79770867.03607      -895.935 7        42.677
R07        34.000                                                                                                                                    21948988.871 5  91384728.51315      2205.344 5        32.407
R22        35.000    21409675.232 7 114286678.68307      2602.637 7        44.167                                                                    21409668.807 6  88889349.23006      2024.281 6        41.952
C32        36.000                                                                                                                                    22222133.473 8 115716442.96608       512.857 8        51.026                                                                    22222133.345 7  94029137.15807       416.838 7        46.103
C30        38.000                                                                                                                                    21964587.988 8 114375377.50908      -449.772 8        51.557                                                                    21964588.996 8  92939378.85108      -365.413 8        51.031
C16        45.000                                                                                                                                    39249911.805 4                       142.454 4        26.144    39249966.007 4                       110.634 4        25.925
C39        46.000                                                                                                                                                                                                                                                                    39054036.697 5                      -227.517 5        30.166
C09        47.000                                                                                                                                    39795615.974 3                       622.624 3        23.067    39795614.885 4                       483.133 4        27.389
C41        49.000                                                                                                                                    22758627.139 6 118510256.25606     -2664.928 6        41.108                                                                    22758638.020 6  96299285.63706     -2165.527 6        38.384
C27        52.000                                                                                                                                    22732892.521 6 118376090.72906     -3304.554 6        41.909                                                                    22732890.953 6  96190264.70306     -2685.228 6        38.646
C29        54.000                                                                                                                                    25215273.874 7 131302560.23107      2126.456 7        44.790                                                                    25215272.157 6 106694119.02006      1728.100 6        40.877
I01        59.000   374396160.618 6 166070136.53706     -2772.750 6        38.973
I09        60.000    37129825.075 7 145705404.29507      -615.516 7        43.100
> 2025 01 02 00 17 30.0000000  0 37
G03         1.000    20606500.081 7 108288057.40707       824.281 7        47.804                                    20606497.707 7  84380147.73407       642.292 7        44.513    20606500.094 7  84380282.71007       642.358 7        42.863
G32         3.000    23309009.092 6 122489529.37606     -3583.739 6        41.356                                    23308992.719 2  95446397.60702     -2792.514 2        15.714    23308980.458 4                     -2792.519 4        26.587
G14         4.000                                                                                                                                                                    25198786.244 4                     -2528.218 4        26.683
E07         5.000    24897106.195 7 130835223.39407     -2293.493 7        44.202                                                                    24897106.027 7  97701730.67807     -1712.691 7        45.372    24897104.669 7 100250331.42807     -1757.371 7        46.216
G08         6.000    24478578.102 4                     -4558.510 4        26.479                                                                                                    24478561.815 3                     -3551.438 3        20.333
G28         7.000    23709135.753 5                       982.422 5        31.253
G21         8.000    21375726.374 6 112330359.36006     -2553.408 6        39.315                                    21375723.010 3  87529915.25803     -1989.669 3        21.929
G02         9.000    20708436.073 5 108823559.93705     -1172.634 5        31.909                                    20708429.538 1  84797572.11401      -913.958 1         2.000
G19        10.000    24520765.812 5 128857547.63705      2561.512 5        35.671
G17        11.000    22746169.358 7 119531906.52707       879.807 7        46.418                                    22746164.232 7  93141652.79407       685.563 7        43.543    22746164.205 7  93141734.80707       685.570 7        42.895
G04        12.000    23763033.373 3                      2880.206 3        23.333                                                                                                    23763029.754 4                      2244.288 4        26.683
E12        13.000    26761737.216 5 140633873.40905      1636.089 5        30.913                                                                    26761728.125 6 105018765.38306      1221.546 6        37.391    26761723.615 4 107758457.80504      1253.170 4        28.758
E29        14.000    23992017.520 7 126078953.30007       694.491 7        43.276                                                                    23992014.538 7  94149831.53407       518.636 7        46.905    23992014.479 8  96605883.50708       532.100 8        48.452
E24        15.000                                                                                                                                    28197432.475 5 110652765.21605     -1681.790 5        33.814    28197429.377 5 113539382.92105     -1725.474 5        35.619
E26        19.000    24781548.477 6 130227884.80006     -2720.279 6        39.489                                                                    24781546.600 6  97248104.31506     -2031.433 6        39.279    24781545.074 6  99785029.13906     -2084.316 6        38.501
E19        20.000    26275878.300 6 138080670.86606      2254.074 6        36.858                                                                    26275877.906 6 103112206.76406      1683.192 6        40.267    26275875.259 6 105802086.46206      1727.203 6        37.527
R06        21.000    19282041.162 6 102892667.53306        -8.561 6        38.273
S36        23.000    38219618.578 6 200845435.02406      -854.998 6        36.276
S23        24.000    38170944.430 6 200589647.77206      -852.137 6        39.748
R20        26.000    21790941.298 3                     -4506.173 3        19.343                                                                    21790942.474 6  90631299.96016     -3505.119 6        38.369
R05        27.000    21461114.072 4                     -4428.306 4        29.242                                                                    21461106.538 6  89228153.89716     -3444.444 6        40.312
E33        28.000    23276327.304 7 122317916.81807      -387.970 7        45.567                                                                    23276325.570 8  91341348.43208      -289.802 8        49.814    23276324.998 8  93724120.68808      -297.306 8        51.058
E10        29.000    28816093.229 4                      1869.969 4        28.654                                                                    28816096.331 5 113080501.48705      1396.075 5        31.736    28816082.147 4                      1433.374 4        24.917
R21        30.000    19167336.003 7 102568525.66007     -1155.739 7        46.881                                                                    19167331.565 7  79775353.19907      -898.884 7        42.692
R07        34.000    21946327.450 6 117480723.74906      2834.003 6        41.032                                                                    21946336.401 5  91373703.18205      2204.501 5        30.996
R22        35.000    21407241.443 6 114273668.67006      2601.100 6        41.573                                                                    21407231.095 6  88879230.31506      2023.005 6        41.085
C32        36.000                                                                                                                                    22221641.913 8 115713882.52308       510.874 8        51.722                                                                    22221641.559 7  94027056.57707       415.257 7        46.074
C30        38.000                                                                                                                                    21965021.121 8 114377631.46308      -452.310 8        52.010                                                                    21965021.750 8  92941210.37008      -367.325 8        51.034
C16        45.000                                                                                                                                    39249773.708 4                       141.546 4        27.293    39249820.483 4                       108.898 4        25.263
C39        46.000                                                                                                                                    39054310.864 3                      -280.820 3        21.714                                                                    39054306.059 5                      -228.354 5        30.762
C09        47.000                                                                                                                                    39795017.675 3                       624.062 3        22.076    39795014.498 4                       481.566 4        27.820
C41        49.000                                                                                                                                    22761186.964 6 118523583.84206     -2666.302 6        40.193                                                                    22761197.704 6  96310115.34906     -2166.564 6        38.492
C06        50.000                                                                                                                                                                                                    38914604.895 4                       203.492 4        28.578
C27        52.000                                                                                                                                    22736063.525 6 118392617.16206     -3306.382 6        41.445                                                                    22736064.975 6  96203693.76406     -2686.576 6        38.465
C29        54.000                                                                                                                                    25213231.767 7 131291928.58607      2125.659 7        44.575                                                                    25213230.441 6 106685479.96106      1727.249 6        40.844
I01        59.000   374399693.831 6 166083999.59606     -2772.804 6        39.408
I09        60.000    37130609.566 7 145708482.13207      -615.741 7        43.244
> 2025 01 02 00 17 35.0000000  0 36
G03         1.000    20605716.563 7 108283940.26207       822.581 7        46.844                                    20605714.694 7  84376939.57007       640.970 7        44.588    20605716.906 7  84377074.55207       640.995 7        43.257
G32         3.000    23312422.447 6 122507451.53706     -3585.147 6        38.444                                    23312402.417 2  95460362.91402     -2793.619 2        12.970    23312394.229 4                     -2793.812 4        28.161
G14         4.000                                                                                                                                                                    25201875.282 4                     -2528.934 4        24.992
E07         5.000    24899289.365 7 130846695.07207     -2295.188 7        43.522                                                                    24899288.872 7  97710297.19307     -1713.978 7        45.102    24899287.522 7 100259121.42307     -1758.675 7        46.147
G08         6.000    24482920.070 3                     -4558.496 3        23.238
G28         7.000    23708206.349 5                       980.100 5        32.725
G21         8.000    21378156.967 6 112343130.28606     -2555.014 6        39.453                                    21378153.677 3  87539866.63603     -1990.920 3        22.400
G19        10.000    24518330.294 6 128844743.66106      2560.183 6        36.140
G17        11.000    22745332.876 7 119527513.36907       877.480 7        46.552                                    22745328.329 7  93138229.55107       683.752 7        43.987    22745327.900 7  93138311.57107       683.738 7        42.715
G04        12.000    23760291.763 4                      2877.846 4        25.774                                                                                                    23760290.236 4                      2243.077 4        27.533
E12        13.000    26760181.893 5 140625695.25605      1635.712 5        31.434                                                                    26760171.206 6 105012658.27106      1221.347 6        37.376    26760168.360 4 107752191.40804      1253.335 4        29.412
E29        14.000    23991358.034 7 126075485.59707       692.727 7        44.655                                                                    23991354.567 7  94147242.01507       517.263 7        46.531    23991354.549 8  96603226.42908       530.751 8        48.603
E24        15.000    28199586.082 5 148189825.17115     -2253.919 5        31.155                                                                    28199575.979 5 110661176.55005     -1682.742 5        32.916    28199571.165 5 113548013.69205     -1726.684 5        35.048
E26        19.000    24784135.482 6 130241488.49606     -2721.294 6        38.138                                                                    24784135.131 6  97258262.90206     -2032.028 6        38.889    24784134.133 6  99795452.74006     -2085.095 6        39.069
E19        20.000    26273733.363 5 138069401.30405      2254.045 5        35.933                                                                    26273733.349 6 103103791.20506      1682.848 6        40.014    26273730.763 6 105793451.36906      1726.811 6        37.682
R06        21.000    19282051.108 6 102892719.06106       -12.030 6        38.730
S36        23.000    38220433.102 6 200849709.84006      -855.089 6        36.200
S23        24.000    38171752.636 6 200593907.97706      -852.098 6        39.577
R20        26.000                                                                                                                                    21795156.483 6  90648829.20306     -3506.627 6        37.233
R05        27.000    21465262.383 5                     -4430.012 5        30.098                                                                    21465249.982 6  89245379.17116     -3445.474 6        41.766
E33        28.000    23276697.582 7 122319859.84207      -389.214 7        46.098                                                                    23276695.464 8  91342799.39208      -290.631 8        49.738    23276694.841 8  93725609.49508      -298.208 8        50.854
E10        29.000    28814314.207 4                      1870.490 4        28.057                                                                    28814319.917 5 113073519.41905      1396.617 5        31.540    28814305.128 4                      1432.997 4        24.647
R21        30.000    19168417.374 7 102574313.41707     -1159.355 7        47.176                                                                    19168413.421 7  79779854.80407      -901.695 7        42.988
R07        34.000    21943683.974 6 117466557.51906      2832.652 6        40.765                                                                    21943691.853 5  91362685.05905      2202.814 5        31.947
R22        35.000    21404807.619 5 114260667.08605      2599.538 5        35.010                                                                    21404794.807 6  88869117.86006      2022.012 6        40.710
C32        36.000                                                                                                                                    22221152.326 8 115711332.60508       509.059 8        52.378                                                                    22221151.737 7  94024984.56307       413.738 7        45.788
C30        38.000                                                                                                                                    21965457.028 8 114379898.81308      -454.691 8        52.395                                                                    21965457.072 8  92943052.80308      -369.415 8        50.840
C16        45.000                                                                                                                                    39249642.846 4                       140.542 4        26.850    39249678.902 4                       108.854 4        26.287
C39        46.000                                                                                                                                    39054580.311 3                      -285.759 3        21.905                                                                    39054575.944 5                      -229.113 5        30.875
C09        47.000                                                                                                                                    39794418.818 3                       623.959 3        22.324    39794413.771 4                       480.883 4        25.383
C41        49.000                                                                                                                                    22763750.065 6 118536919.47306     -2667.616 6        38.715                                                                    22763758.803 6  96320951.65406     -2167.878 6        38.243
C06        50.000                                                                                                                                                                                                    38914343.045 4                       202.622 4        29.081
C27        52.000                                                                                                                                    22739237.485 7 118409153.06707     -3307.954 7        43.354                                                                    22739240.141 6  96217130.58106     -2687.943 6        37.244
C29        54.000                                                                                                                                    25211191.728 7 131281302.10407      2124.949 7        44.498                                                                    25211189.773 6 106676845.09906      1726.818 6        40.541
I01        59.000   374403227.210 6 166097863.71406     -2772.828 6        39.075
I09        60.000    37131394.140 7 145711561.13107      -615.702 7        43.376
> 2025 01 02 00 17 40.0000000  0 37
G03         1.000    20604934.831 7 108279832.33507       820.439 7        45.606                                    20604933.488 7  84373738.59207       639.297 7        44.435    20604935.022 7  84373873.57607       639.294 7        44.075
G32         3.000    23315829.760 6 122525381.98306     -3587.240 6        37.055                                    23315814.157 1  95474334.71701     -2795.248 1        10.000    23315807.240 4                     -2794.986 4        29.033
G14         4.000                                                                                                                                                                    25204960.482 3                     -2530.549 3        22.248
E07         5.000    24901474.185 7 130858176.05207     -2297.322 7        43.731                                                                    24901473.126 7  97718870.64307     -1715.510 7        44.838    24901472.263 7 100267918.53307     -1760.248 7        45.782
G08         6.000    24487258.483 4                     -4558.011 4        24.075
G28         7.000    23707282.346 5                       977.524 5        30.883
G21         8.000    21380588.926 6 112355909.46406     -2556.964 6        40.949                                    21380585.774 3  87549824.45603     -1992.452 3        22.686
G02         9.000    20710709.989 4 108835301.84004     -1176.637 4        28.796                                    20710660.596 1  84806721.93401      -916.803 1         7.250
G19        10.000    24515894.310 5 128831946.56405      2558.460 5        35.929
G17        11.000    22744499.338 7 119523132.54007       874.717 7        46.158                                    22744494.711 7  93134815.91607       681.602 7        44.135    22744494.151 7  93134897.93407       681.589 7        42.777
G04        12.000    23757553.565 3                      2879.493 3        22.667                                                                                                    23757553.313 4                      2242.510 4        28.351
E12        13.000    26758625.370 5 140617518.10905      1635.272 5        32.934                                                                    26758615.148 6 105006551.93306      1221.076 6        37.104    26758612.814 4 107745925.82304      1252.774 4        29.592
E29        14.000    23990700.098 7 126072027.62307       690.493 7        46.030                                                                    23990696.695 7  94144659.76307       515.520 7        46.043    23990696.393 8  96600576.80708       528.999 8        48.236
E24        15.000    28201726.033 5 148201098.15805     -2256.016 5        30.475                                                                    28201720.636 5 110669594.78105     -1684.401 5        32.976    28201715.555 5 113556651.50605     -1728.280 5        33.683
E26        19.000    24786725.130 6 130255097.70806     -2722.497 6        38.979                                                                    24786724.900 6  97268425.64306     -2033.105 6        39.264    24786724.423 6  99805880.58106     -2086.177 6        39.495
E19        20.000    26271589.359 5 138058134.50105      2253.038 5        35.400                                                                    26271589.220 6 103095377.68206      1682.367 6        39.811    26271586.766 6 105784818.37106      1726.193 6        37.664
R06        21.000    19282065.997 6 102892788.54406       -16.029 6        39.757
S36        23.000    38221251.333 5 200853984.54805      -855.045 5        35.133
S23        24.000    38172570.241 6 200598167.79906      -851.996 6        40.532
R20        26.000    21799361.207 3                     -4510.350 3        22.152                                                                    21799373.213 6  90666365.91506     -3508.235 6        37.671
R05        27.000    21469410.139 5                     -4431.720 5        33.371                                                                    21469394.821 6  89262610.10316     -3446.963 6        41.476
E33        28.000    23277068.933 7 122321809.58407      -390.822 7        46.561                                                                    23277066.521 8  91344255.36308      -291.873 8        49.846    23277065.870 8  93727103.45308      -299.455 8        51.111
E10        29.000    28812536.733 4                      1870.851 4        28.076                                                                    28812540.732 5 113066536.18905      1396.921 5        30.106    28812525.069 4                      1433.227 4        24.677
R21        30.000    19169501.738 7 102580120.35207     -1163.524 7        46.685                                                                    19169498.895 7  79784371.31707      -904.887 7        43.299
R07        34.000                                                                                                                                    21941053.018 5  91351673.60605      2201.417 5        31.585
R22        35.000    21402357.158 5 114247672.99305      2597.686 5        33.395                                                                    21402360.603 6  88859011.34506      2020.575 6        40.431
C32        36.000                                                                                                                                    22220664.579 8 115708792.55208       506.772 8        52.596                                                                    22220663.977 7  94022920.56607       411.834 7        45.499
C30        38.000                                                                                                                                    21965895.272 8 114382178.88608      -457.518 8        52.379                                                                    21965894.876 8  92944905.56708      -371.763 8        50.821
C16        45.000                                                                                                                                    39249509.645 5                       139.726 5        30.475    39249543.761 3                       107.474 3        22.552
C39        46.000                                                                                                                                                                                                                                                                    39054848.096 5                      -230.168 5        31.396
C09        47.000                                                                                                                                    39793819.522 3                       624.137 3        20.500
C41        49.000                                                                                                                                    22766315.297 5 118550262.52505     -2669.666 5        33.605                                                                    22766321.634 6  96331793.92506     -2169.234 6        38.417
C06        50.000                                                                                                                                    38914080.376 3                       262.452 3        23.276    38914083.892 4                       202.089 4        29.223
C27        52.000                                                                                                                                    22742414.302 7 118425697.82707     -3310.104 7        44.543                                                                    22742415.055 6  96230574.54506     -2689.842 6        36.340
C29        54.000                                                                                                                                    25209152.053 7 131270680.13807      2123.657 7        43.409                                                                    25209149.624 6 106668213.89806      1725.770 6        40.269
I01        59.000   374406760.504 6 166111728.36406     -2772.977 6        39.901
I09        60.000    37132178.788 7 145714640.81207      -616.109 7        42.821
> 2025 01 02 00 17 45.0000000  0 37
G03         1.000    20604155.272 7 108275734.54107       818.203 7        44.727                                    20604154.241 7  84370545.50307       637.557 7        44.024    20604155.168 7  84370680.49507       637.461 7        44.346
G32         3.000    23319237.253 5 122543321.49305     -3589.041 5        34.333                                    23319227.539 1  95488313.53501     -2796.663 1        11.259    23319217.232 4                     -2796.260 4        28.227
G14         4.000    25208051.162 3                     -3248.407 3        23.943                                                                                                    25208046.921 3                     -2531.831 3        20.667
E07         5.000    24903660.858 7 130869667.22507     -2299.502 7        43.767                                                                    24903659.740 7  97727451.71007     -1717.200 7        44.668    24903658.680 7 100276723.46507     -1762.056 7        45.475
G08         6.000    24491597.821 3                     -4558.019 3        22.133
G28         7.000    23706358.451 4                       975.163 4        29.943
G21         8.000    21383023.051 6 112368697.81606     -2558.962 6        41.032                                    21383019.571 3  87559789.41403     -1993.992 3        23.162
G19        10.000    24513461.763 6 128819157.32906      2556.698 6        37.047
G17        11.000    22743668.536 7 119518765.03407       871.867 7        45.726                                    22743663.584 7  93131412.66507       679.377 7        44.053    22743662.920 7  93131494.68307       679.275 7        42.616
G04        12.000    23754822.669 3                      2873.006 3        21.286                                                                                                    23754815.464 4                      2241.835 4        28.597
E12        13.000    26757065.704 5 140609342.87605      1634.580 5        34.652                                                                    26757059.572 6 105000447.06206      1220.540 6        37.146    26757057.509 4 107739661.68504      1252.804 4        29.934
E29        14.000    23990044.067 7 126068580.30807       688.107 7        46.178                                                                    23990040.573 7  94142085.46207       513.818 7        45.977    23990040.066 7  96597935.34807       527.151 7        47.878
E24        15.000    28203868.488 4 148212381.27504     -2257.592 4        29.905                                                                    28203866.845 5 110678020.56905     -1686.602 5        31.366    28203863.052 5 113565297.06305     -1730.350 5        34.067
E26        19.000    24789316.933 6 130268713.33706     -2724.110 6        40.069                                                                    24789315.714 6  97278593.16906     -2034.150 6        39.372    24789316.508 6  99816313.33706     -2087.334 6        40.305
E19        20.000    26269446.636 5 138046871.46505      2252.114 5        35.167                                                                    26269445.700 6 103086966.96706      1681.909 6        39.658    26269443.042 6 105776188.25306      1725.498 6        37.040
R06        21.000    19282082.184 6 102892876.81106       -20.071 6        40.291
S36        23.000    38222066.054 5 200858259.86205      -855.151 5        35.967
S23        24.000    38173381.854 6 200602428.08706      -852.297 6        39.811
R20        26.000    21803585.620 3                     -4514.055 3        22.705                                                                    21803592.221 5  90683910.73915     -3509.923 5        35.148
R05        27.000    21473553.853 5 114788459.26115     -4433.722 5        34.862                                                                    21473540.198 6  89279847.13116     -3448.264 6        41.366
E33        28.000    23277441.335 7 122323766.92507      -392.521 7        47.046                                                                    23277439.047 8  91345717.02808      -293.141 8        49.764    23277438.407 8  93728603.24908      -300.802 8        51.026
E10        29.000    28810753.834 3                      1870.732 3        22.990                                                                    28810760.337 4 113059552.47904      1396.825 4        28.663    28810742.461 4                      1433.676 4        25.323
R21        30.000    19170590.788 7 102585947.32707     -1167.738 7        47.337                                                                    19170587.461 7  79788903.39107      -908.194 7        43.454
R13        31.000    24292018.190 5 129718087.55615     -2884.804 5        32.018
R07        34.000    21938415.125 6 117438252.26906      2828.391 6        39.823                                                                    21938407.600 4  91340669.92004      2199.381 4        29.573
R22        35.000    21399929.860 6 114234687.45306      2595.985 6        38.504                                                                    21399927.781 6  88848911.53306      2019.157 6        41.485
C32        36.000                                                                                                                                    22220178.791 8 115706263.26008       504.463 8        52.653                                                                    22220178.183 7  94020865.31707       409.937 7        45.196
C30        38.000                                                                                                                                    21966335.587 8 114384472.61408      -460.450 8        51.937                                                                    21966335.233 8  92946769.41408      -374.053 8        50.612
C16        45.000                                                                                                                                    39249377.549 5                       138.834 5        31.155    39249413.225 4                       107.379 4        24.571
C39        46.000                                                                                                                                                                                                                                                                    39055120.435 5                      -230.882 5        31.940
C09        47.000                                                                                                                                    39793198.404 3                       620.086 3        20.929    39793196.045 4                       479.974 4        28.550
C41        49.000                                                                                                                                    22768878.842 5 118563613.89405     -2671.365 5        31.796                                                                    22768885.556 6  96342642.96506     -2170.657 6        38.168
C06        50.000                                                                                                                                    38913835.219 3                       258.137 3        22.609    38913835.923 4                       201.356 4        27.006
C27        52.000                                                                                                                                    22745593.698 7 118442252.31407     -3312.092 7        44.480                                                                    22745592.017 5  96244026.40405     -2691.259 5        33.904
C29        54.000                                                                                                                                    25207113.150 7 131260063.59407      2122.426 7        42.370                                                                    25207110.988 6 106659587.09506      1724.736 6        40.365
I01        59.000   374410293.844 6 166125594.25506     -2773.661 6        39.970
I09        60.000    37132963.946 7 145717721.83707      -616.602 7        43.168
> 2025 01 02 00 17 50.0000000  0 38
G03         1.000    20603377.756 7 108271646.99907       816.470 7        44.251                                    20603376.948 7  84367360.40607       636.217 7        43.831    20603377.491 7  84367495.37907       636.247 7        44.424
G32         3.000    23322648.328 5 122561270.24505     -3590.633 5        33.808                                    23322642.705 1  95502299.55601     -2797.872 1        10.370    23322635.729 4                     -2797.949 4        27.725
G14         4.000    25211144.510 4                     -3249.624 4        24.015
E07         5.000    24905849.246 7 130881168.67307     -2301.223 7        43.458                                                                    24905848.024 7  97736040.46507     -1718.440 7        44.603    24905847.430 7 100285536.26507     -1763.297 7        45.603
G08         6.000    24495944.001 3                     -4560.908 3        18.328
G28         7.000    23705433.903 4                       972.580 4        28.019
G21         8.000    21385458.755 6 112381495.42706     -2560.406 6        40.977                                    21385455.103 3  87569761.59003     -1995.137 3        23.905
G02         9.000    20712907.655 4                     -1180.701 4        29.725
G19        10.000    24511030.694 6 128806376.03306      2555.632 6        38.270
G17        11.000    22742839.523 7 119514410.88707       869.617 7        45.809                                    22742834.903 7  93128019.82407       677.628 7        43.636    22742834.181 7  93128101.83607       677.559 7        42.150
G04        12.000                                                                                                                                                                    23752079.318 4                      2241.263 4        28.569
E12        13.000    26755507.068 5 140601169.76405      1634.734 5        34.676                                                                    26755504.239 6 104994343.75506      1220.612 6        36.560    26755502.758 5 107733399.20905      1252.499 5        30.792
E29        14.000    23989390.229 7 126065143.73607       686.285 7        46.202                                                                    23989386.594 7  94139519.19307       512.507 7        45.986    23989386.071 7  96595302.11807       525.913 7        47.809
E24        15.000    28206015.336 4 148223674.69904     -2259.827 4        29.716                                                                    28206014.204 5 110686453.91305     -1687.350 5        30.906    28206013.591 5 113573950.39505     -1731.297 5        34.967
E26        19.000    24791910.159 6 130282335.51606     -2724.998 6        40.703                                                                    24791907.659 6  97288765.58706     -2035.035 6        39.144    24791909.621 6  99826751.11106     -2087.991 6        41.147
E19        20.000    26267304.229 5 138035612.24405      2251.547 5        34.562                                                                    26267303.036 6 103078559.13306      1681.282 6        39.366    26267300.184 6 105767561.05006      1725.246 6        37.217
R06        21.000    19282101.431 6 102892984.11806       -23.296 6        39.985
S36        23.000    38222881.790 6 200862535.50606      -855.191 6        36.628
S23        24.000    38174190.368 6 200606688.96006      -852.106 6        39.763
R20        26.000    21807814.353 3                     -4515.126 3        20.905                                                                    21807812.409 6  90701463.72306     -3511.320 6        36.200
R05        27.000    21477700.649 5 114810629.39705     -4434.746 5        35.186                                                                    21477688.769 6  89297090.49506     -3449.409 6        41.571
E33        28.000    23277815.119 7 122325732.00707      -393.702 7        47.272                                                                    23277813.071 8  91347184.46208      -294.007 8        49.753    23277812.387 8  93730108.96008      -301.692 8        51.046
E10        29.000    28808967.157 4                      1870.681 4        24.015                                                                    28808984.118 5 113052568.42605      1396.477 5        30.045    28808963.131 4                      1433.374 4        27.521
R21        30.000    19171684.279 7 102591794.42707     -1171.345 7        47.389                                                                    19171679.501 7  79793451.13007      -911.082 7        42.603
R13        31.000    24294724.953 5 129732518.61605     -2887.698 5        33.311
R07        34.000    21935770.530 6 117424114.18106      2826.582 6        38.781
R22        35.000    21397503.500 7 114221710.67407      2594.564 7        42.245                                                                    21397497.310 7  88838818.48607      2018.006 7        42.027
C32        36.000                                                                                                                                    22219694.946 8 115703744.82508       502.685 8        52.951                                                                    22219694.524 7  94018818.86607       408.551 7        45.627
C30        38.000                                                                                                                                    21966778.157 8 114386780.06108      -462.716 8        51.938                                                                    21966778.246 8  92948644.39708      -375.959 8        50.736
C16        45.000                                                                                                                                    39249245.368 5                       137.676 5        30.543    39249284.416 4                       106.633 4        26.168
C39        46.000                                                                                                                                                                                                                                                                    39055394.439 5                      -231.747 5        32.269
C09        47.000                                                                                                                                                                                                    39792603.345 4                       479.762 4        28.360
C41        49.000                                                                                                                                    22771446.135 5 118576973.66705     -2672.731 5        33.401                                                                    22771451.055 6  96353498.78906     -2171.862 6        37.459
C06        50.000                                                                                                                                    38913581.284 3                       257.314 3        23.943    38913592.090 3                       201.092 3        23.676
C27        52.000                                                                                                                                    22748774.115 7 118458816.64407     -3313.815 7        44.415                                                                    22748771.891 5  96257486.26905     -2692.658 5        32.311
C29        54.000                                                                                                                                    25205075.816 6 131249452.56206      2121.670 6        41.862                                                                    25205073.382 6 106650964.77506      1724.062 6        40.884
I01        59.000   374413827.753 6 166139461.42706     -2773.471 6        39.447
I09        60.000    37133749.262 7 145720804.26207      -616.469 7        43.185
