     3.04           OBSERVATION DATA    M                   RINEX VERSION / TYPE
ssrcrin-15.6.1x                         20250102 151500 UTC PGM / RUN BY / DATE 
(00000000023479385599111004) Septentrio proprietary         COMMENT             
ract                                                        MARKER NAME         
01                                                          MARKER NUMBER       
geodetic                                                    MARKER TYPE         
NFB                 CLIMERS@TUW                             OBSERVER / AGENCY   
3296359             SEPT ASTERX SB3 PROB4.14.4              REC # / TYPE / VERS 
Unknown             Unknown                                 ANT # / TYPE        
  4127445.6804  1206914.1591  4695543.3976                  APPROX POSITION XYZ 
        0.0000        0.0000        0.0000                  ANTENNA: DELTA H/E/N
G   23 X1  C1C L1C D1C S1C C1W S1W C2W L2W D2W S2W C2L L2L  SYS / # / OBS TYPES 
       D2L S2L C5Q L5Q D5Q S5Q C1L L1L D1L S1L              SYS / # / OBS TYPES 
E   21 X1  C1C L1C D1C S1C C6C L6C D6C S6C C5Q L5Q D5Q S5Q  SYS / # / OBS TYPES 
       C7Q L7Q D7Q S7Q C8Q L8Q D8Q S8Q                      SYS / # / OBS TYPES 
S    9 X1  C1C L1C D1C S1C C5I L5I D5I S5I                  SYS / # / OBS TYPES 
R   17 X1  C1C L1C D1C S1C C2P L2P D2P S2P C2C L2C D2C S2C  SYS / # / OBS TYPES 
       C3Q L3Q D3Q S3Q                                      SYS / # / OBS TYPES 
C   25 X1  C1P L1P D1P S1P C5P L5P D5P S5P C2I L2I D2I S2I  SYS / # / OBS TYPES 
       C7I L7I D7I S7I C6I L6I D6I S6I C7D L7D D7D S7D      SYS / # / OBS TYPES 
J   17 X1  C1C L1C D1C S1C C2L L2L D2L S2L C5Q L5Q D5Q S5Q  SYS / # / OBS TYPES 
       C1L L1L D1L S1L                                      SYS / # / OBS TYPES 
I    5 X1  C5A L5A D5A S5A                                  SYS / # / OBS TYPES 
SEPTENTRIO RECEIVERS OUTPUT ALIGNED CARRIER PHASES.         COMMENT             
NO FURTHER PHASE SHIFT APPLIED IN THE RINEX ENCODER.        COMMENT             
G L1C                                                       SYS / PHASE SHIFT   
G L2W                                                       SYS / PHASE SHIFT   
G L2L  0.00000                                              SYS / PHASE SHIFT   
G L5Q  0.00000                                              SYS / PHASE SHIFT   
G L1L  0.00000                                              SYS / PHASE SHIFT   
E L1C  0.00000                                              SYS / PHASE SHIFT   
E L6C  0.00000                                              SYS / PHASE SHIFT   
E L5Q  0.00000                                              SYS / PHASE SHIFT   
E L7Q  0.00000                                              SYS / PHASE SHIFT   
E L8Q  0.00000                                              SYS / PHASE SHIFT   
S L1C                                                       SYS / PHASE SHIFT   
S L5I                                                       SYS / PHASE SHIFT   
R L1C                                                       SYS / PHASE SHIFT   
R L2P  0.00000                                              SYS / PHASE SHIFT   
R L2C                                                       SYS / PHASE SHIFT   
R L3Q  0.00000                                              SYS / PHASE SHIFT   
C L1P  0.00000                                              SYS / PHASE SHIFT   
C L5P  0.00000                                              SYS / PHASE SHIFT   
C L2I                                                       SYS / PHASE SHIFT   
C L7I                                                       SYS / PHASE SHIFT   
C L6I                                                       SYS / PHASE SHIFT   
C L7D                                                       SYS / PHASE SHIFT   
J L1C                                                       SYS / PHASE SHIFT   
J L2L  0.00000                                              SYS / PHASE SHIFT   
J L5Q  0.00000                                              SYS / PHASE SHIFT   
J L1L  0.00000                                              SYS / PHASE SHIFT   
I L5A                                                       SYS / PHASE SHIFT   
  2025     1     2    15    15    0.0000000     GPS         TIME OF FIRST OBS   
 C1C    0.000 C2C    0.000 C2P    0.000                     GLONASS COD/PHS/BIS 
DBHZ                                                        SIGNAL STRENGTH UNIT
    18                                                      LEAP SECONDS        
 24 R01  1 R02 -4 R03  5 R04  6 R05  1 R06 -4 R07  5 R08  6 GLONASS SLOT / FRQ #
    R09 -2 R10 -7 R11  0 R12 -1 R13 -2 R14 -7 R15  0 R16 -1 GLONASS SLOT / FRQ #
    R17  4 R18 -3 R19  3 R20  2 R21  4 R22 -3 R23  3 R24  2 GLONASS SLOT / FRQ #
                                                            END OF HEADER       
> 2025 01 02 15 15  0.0000000  0 37
G11         2.000    23139667.911 5                     -2985.818 5        30.566                                                                                                    23139667.453 4                     -2327.130 4        28.152
G25         3.000    20125663.291 7 105761033.00107     -2011.247 7        42.688                                    20125664.809 5  82411271.00105     -1567.201 5        32.916    20125662.273 5  82411258.01905     -1567.268 5        34.181
G32         4.000                                                                                                                                                                    25131072.869 3                     -2920.798 3        22.762
E25         6.000    23409136.087 6 123015892.80206     -1322.222 6        40.410                                                                    23409140.343 7  91862646.81807      -987.312 7        43.539    23409140.081 8  94258959.44808     -1013.090 8        48.722
G31         7.000    22571833.348 6 118615799.29006      1468.121 6        36.427                                    22571834.071 6  92427927.37006      1144.000 6        36.548    22571834.937 7  92427920.34207      1143.942 7        43.553
G28         8.000    21444316.101 7 112690767.10007      -133.943 7        44.792                                    21444314.414 4  87810908.10204      -104.363 4        26.491    21444316.247 7  87810887.06307      -104.400 7        42.656
G29         9.000    20564826.194 8 108068952.69708        40.799 8        49.632                                    20564825.551 7  84209574.26307        31.794 7        44.930    20564824.786 6  84209526.25606        31.714 6        40.758
E11        10.000    24306005.437 6 127729012.84306       294.495 6        39.811                                                                    24306004.376 6  95382016.12106       219.998 6        38.072    24306003.869 7  97870240.42807       225.825 7        42.565
E10        11.000    24906760.606 7 130886056.39307     -1341.663 7        45.442                                                                    24906762.985 7  97739502.72507     -1001.852 7        46.112    24906762.482 7 100289285.12007     -1028.007 7        44.826
E12        13.000    26361774.132 4                     -2589.968 4        28.758                                                                    26361771.623 5 103449281.03205     -1934.180 5        31.298    26361770.364 4 106147943.84004     -1984.529 4        29.109
G12        15.000    22795646.580 6 119791906.92606     -3821.699 6        36.363                                    22795668.413 2  93344504.33502     -2977.914 2        12.424    22795650.924 4  93344357.66804     -2978.208 4        25.023
E24        16.000    26788060.155 4                     -3163.140 4        25.233                                                                    26788083.745 4                     -2362.540 4        26.623    26788088.839 5 107864513.39305     -2424.266 5        30.913
G26        17.000    24299512.043 5                      2509.197 5        30.513                                                                                                    24299528.824 4                      1954.784 4        26.766
E07        18.000    28005997.247 5 147172513.31105       -73.984 5        34.138                                                                    28006002.343 5 109901574.48205       -55.401 5        30.574    28006001.744 5 112768548.45505       -56.719 5        34.671
E08        20.000    27003415.496 6 141903891.42006     -2411.892 6        37.569                                                                    27003422.926 6 105967257.74706     -1801.096 6        39.168    27003416.714 5 108731598.58805     -1848.052 5        30.181
E02        21.000    24725218.714 6 129931960.79606       975.561 6        38.165                                                                    24725219.949 6  97027123.34706       728.421 6        40.524    24725219.363 6  99558242.91806       747.436 6        39.976
S23        22.000    38227322.151 5 200885964.25405      -865.792 5        34.376
E36        24.000    26412934.125 6 138800942.26206      2277.374 6        38.823                                                                    26412942.170 7 103650122.50107      1700.632 7        44.146    26412940.972 7 106354025.65807      1744.967 7        42.421
R18        25.000    20023543.029 8 106887233.15008      1821.176 8        51.838                                                                    20023545.679 7  83134407.39507      1416.452 7        44.587
E03        26.000    27979082.068 3                     -3723.047 3        23.010                                                                    27979071.593 4                     -2780.557 4        24.872    27979059.445 4                     -2852.437 4        28.142
S21        27.000    38508661.582 6 202364469.28506      -861.328 6        36.321
R07        28.000                                                                                                                                    23621539.806 5  98348433.77005     -1855.622 5        33.204
R15        30.000    19851987.014 8 106083280.81708     -2737.244 8        49.566                                                                    19851988.255 6  82508987.94406     -2128.912 6        41.659
S36        31.000    38280009.062 6 201162794.13806      -861.611 6        36.204
R16        34.000    19851459.789 8 106043511.70008      1252.439 8        49.003                                                                    19851461.744 7  82477972.08507       974.138 7        47.293
C44        35.000                                                                                                                                    21656996.443 7 112773971.70807       313.963 7        46.861                                                                    21656996.854 7  91637980.21307       255.090 7        47.681
R17        36.000    19515317.673 6 104430806.44506     -2109.237 6        37.826                                                                    19515321.231 7  81223695.63607     -1640.554 7        43.052
R09        37.000    24049403.496 5 128422493.60805      3158.008 5        31.358
R24        38.000    23208810.906 5 124108001.97805     -4998.137 5        32.545
C12        41.000                                                                                                                                    23154349.064 6 120570795.42706      1640.141 6        41.654    23154347.769 5  93233076.02705      1268.344 5        34.276    23154348.359 7  97973726.46207      1332.636 7        47.718
C35        42.000                                                                                                                                    22534602.777 8 117343566.12708     -2561.770 8        49.657                                                                    22534603.106 7  95351298.75907     -2081.717 7        46.184
C25        45.000                                                                                                                                    24512982.966 7 127645537.66707      2000.369 7        44.433                                                                    24512984.015 7 103722584.77307      1625.417 7        45.816
C26        48.000                                                                                                                                    23335384.929 7 121513477.18707     -3373.215 7        45.853                                                                    23335388.969 7  98739662.59207     -2741.123 7        43.956
C24        51.000                                                                                                                                    21491196.925 8 111910303.63608      -553.288 8        52.387                                                                    21491195.311 8  90936350.74008      -449.676 8        50.026
C34        52.000                                                                                                                                    25120000.846 6 130806455.13206      2389.982 6        37.198                                                                    25120006.303 5 106290975.36005      1942.148 5        32.335
I02        55.000    37687222.223 5 147892773.76905     -1019.805 5        33.802
I06        58.000    38729525.020 5 151983015.98105      -705.400 5        32.910
> 2025 01 02 15 15  5.0000000  0 38
G11         2.000    23142513.289 5                     -2988.673 5        30.838                                                                                                    23142507.756 4                     -2329.007 4        25.308
G25         3.000    20127578.605 7 105771095.68607     -2013.562 7        42.510                                    20127579.173 5  82419112.05905     -1569.011 5        32.737    20127577.462 5  82419099.09805     -1569.177 5        33.844
G32         4.000    25134665.667 5                     -3748.269 5        33.180                                                                                                    25134642.480 3                     -2920.003 3        22.514
E25         6.000    23410395.539 6 123022507.01306     -1323.476 6        40.813                                                                    23410399.238 7  91867586.00407      -988.206 7        43.575    23410398.816 8  94264027.48308     -1014.050 8        48.680
G31         7.000    22570438.631 6 118608465.11906      1465.550 6        36.798                                    22570438.499 6  92422212.45206      1141.993 6        37.357    22570439.249 7  92422205.42707      1142.000 7        43.509
G28         8.000    21444445.697 7 112691445.58807      -137.305 7        46.385                                    21444443.559 4  87811436.78904      -106.992 4        26.970    21444443.788 7  87811415.74407      -106.990 7        42.269
G29         9.000    20564788.599 8 108068754.85508        38.386 8        49.798                                    20564787.547 7  84209420.11407        29.908 7        44.655    20564787.673 6  84209372.11206        30.002 6        40.355
E11        10.000    24305726.424 6 127727545.90806       292.349 6        39.700                                                                    24305724.895 6  95380920.68606       218.207 6        38.360    24305724.530 7  97869116.41407       223.970 7        42.186
E10        11.000    24908038.223 7 130892770.78307     -1344.042 7        45.595                                                                    24908040.689 7  97744516.71707     -1003.689 7        46.280    24908040.299 7 100294429.91407     -1029.922 7        44.789
E12        13.000    26364238.894 5                     -2592.441 5        30.385                                                                    26364236.637 5 103458956.76305     -1935.720 5        30.604    26364237.256 4 106157871.97104     -1986.371 4        29.953
G12        15.000    22799284.907 6 119811018.78306     -3822.917 6        37.036                                    22799305.081 2  93359396.71702     -2978.893 2        12.545
E24        16.000    26791071.069 4                     -3164.140 4        28.739                                                                                                                                    26791098.973 4 107876634.93104     -2424.398 4        28.834
G26        17.000    24297143.693 5                      2508.702 5        33.826                                                                                                    24297139.198 4                      1955.650 4        24.917
E07        18.000    28006067.663 5 147172889.75005       -76.517 5        34.052                                                                    28006072.458 4 109901855.68904       -57.165 4        29.043    28006073.319 5 112768836.95205       -58.585 5        33.695
E08        20.000    27005709.924 6 141915955.81906     -2413.809 6        37.501                                                                    27005719.028 6 105976266.87606     -1802.526 6        39.270    27005713.848 5 108740842.75005     -1849.580 5        30.709
E02        21.000    24724289.506 6 129927085.19706       974.687 6        38.592                                                                    24724292.017 6  97023482.46606       728.022 6        40.775    24724290.791 6  99554507.06706       747.028 6        39.195
S23        22.000    38228143.204 5 200890293.69005      -865.761 5        34.210
E36        24.000    26410767.653 6 138789557.51506      2276.735 6        37.902                                                                    26410775.984 7 103641620.96107      1700.074 7        44.218    26410774.370 7 106345302.33007      1744.490 7        42.284
R18        25.000    20021838.563 8 106878136.25908      1817.678 8        51.251                                                                    20021841.997 7  83127332.06407      1413.809 7        45.288
E03        26.000    27982622.314 3                     -3722.929 3        23.352                                                                    27982614.920 4                     -2780.488 4        26.120    27982600.643 4                     -2852.703 4        28.275
S21        27.000    38509474.662 6 202368775.93906      -861.122 6        36.737
R07        28.000    23623777.658 5                     -2389.430 5        30.634                                                                    23623771.894 6  98357719.57506     -1858.500 6        36.673
R15        30.000    19854550.055 8 106096974.95908     -2740.291 8        48.803                                                                    19854550.386 6  82519638.96406     -2131.294 6        40.355
S36        31.000    38280825.124 5 201167101.82805      -861.439 5        35.433
R16        34.000    19850289.075 8 106037255.67808      1249.926 8        48.207                                                                    19850290.102 7  82473106.30607       972.187 7        47.282
C44        35.000                                                                                                                                    21656696.129 7 112772408.00807       311.596 7        46.207                                                                    21656696.608 7  91636709.58707       253.222 7        47.866
R17        36.000    19517289.864 6 104441363.55906     -2113.594 6        37.161                                                                    19517293.453 6  81231906.73006     -1643.862 6        41.297
R09        37.000    24046449.283 5 128406704.44105      3158.012 5        33.305                                                                    24046448.064 5  99871936.39215      2456.245 5        31.049
R24        38.000    23213485.623 5 124132995.44805     -4999.035 5        32.305                                                                    23213494.306 3                     -3889.802 3        22.762
C12        41.000                                                                                                                                    23152774.084 6 120562599.57506      1638.337 6        41.075    23152781.872 6  93226738.53806      1266.924 6        37.240    23152774.291 8  97967066.65008      1331.267 8        48.045
C35        42.000                                                                                                                                    22537063.056 8 117356380.17808     -2563.765 8        49.382                                                                    22537063.741 7  95361711.22707     -2083.248 7        46.256
C38        44.000                                                                                                                                    39429228.782 4                       427.964 4        25.143
C25        45.000                                                                                                                                    24511063.056 7 127635538.22407      1999.552 7        44.680                                                                    24511063.747 7 103714459.43307      1624.652 7        46.087
C26        48.000                                                                                                                                    23338624.276 7 121530347.65907     -3374.848 7        44.722                                                                    23338628.723 7  98753371.22307     -2742.574 7        43.996
C24        51.000                                                                                                                                    21491729.056 8 111913076.25808      -555.664 8        52.188                                                                    21491727.681 8  90938603.70808      -451.513 8        50.043
C34        52.000                                                                                                                                    25117705.862 6 130794507.45706      2389.203 6        37.338                                                                    25117712.051 5 106281266.96605      1941.208 5        31.766
I02        55.000    37688521.481 5 147897872.34705     -1019.878 5        34.695
I06        58.000    38730424.223 5 151986545.45205      -706.068 5        33.120
> 2025 01 02 15 15 10.0000000  0 39
G11         2.000    23145354.777 4                     -2991.257 4        26.036                                                                                                    23145352.007 3                     -2331.681 3        22.152
G25         3.000    20129495.302 7 105781169.87707     -2015.853 7        42.686                                    20129495.411 5  82426962.08405     -1570.796 5        32.401    20129496.155 5  82426949.09705     -1570.804 5        32.778
G32         4.000    25138229.273 5                     -3748.418 5        33.533                                                                                                    25138212.114 3                     -2921.043 3        22.629
E25         6.000    23411655.332 6 123029127.19406     -1324.473 6        40.865                                                                    23411659.216 7  91872529.66407      -989.171 7        43.674    23411658.597 8  94269100.09908     -1014.888 8        48.731
G31         7.000    22569047.384 6 118601143.47906      1463.127 6        40.284                                    22569045.424 6  92416507.30306      1140.097 6        38.135    22569046.483 7  92416500.28807      1140.088 7        43.367
G28         8.000    21444578.343 7 112692140.32707      -140.504 7        46.685                                    21444575.825 4  87811978.12904      -109.488 4        27.341    21444573.969 6  87811957.07906      -109.415 6        41.464
G29         9.000    20564753.592 8 108068568.87808        36.196 8        50.017                                    20564751.693 7  84209275.21607        28.201 7        44.725    20564751.788 6  84209227.21406        28.214 6        40.052
E11        10.000    24305450.012 6 127726090.62306       290.013 6        40.334                                                                    24305447.814 6  95379833.96406       216.556 6        38.658    24305447.327 6  97868001.31706       222.269 6        41.750
E10        11.000    24909318.183 7 130899497.35907     -1346.457 7        45.577                                                                    24909320.648 7  97749539.81407     -1005.383 7        46.320    24909320.364 7 100299584.05407     -1031.749 7        45.260
G18        12.000    24583479.248 3                      2926.766 3        23.371
E12        13.000    26366707.324 5                     -2594.335 5        31.902                                                                    26366703.751 4 103468639.77804     -1937.394 4        29.166    26366706.018 5 106167807.61705     -1988.063 5        31.102
G12        15.000    22802923.399 6 119830136.21706     -3823.971 6        36.522                                    22802942.522 1  93374293.51501     -2979.759 1        11.259    22802928.249 3                     -2980.352 3        21.667
E24        16.000    26794083.681 5                     -3164.739 5        30.362                                                                                                                                    26794106.187 4 107888758.73304     -2425.272 4        27.293
G26        17.000    24294761.119 5 127669789.92515      2508.666 5        34.014                                                                                                    24294752.845 3                      1954.479 3        22.857
E07        18.000    28006139.849 5 147173277.53205       -78.377 5        33.383                                                                    28006145.685 4 109902145.24704       -58.425 4        28.009    28006147.422 5 112769134.06205       -60.156 5        33.826
E08        20.000    27008007.010 6 141928029.65406     -2415.510 6        37.251                                                                    27008016.942 6 105985283.07806     -1804.012 6        39.093    27008011.435 5 108750094.17405     -1851.176 5        30.928
E02        21.000    24723362.794 6 129922212.74006       974.203 6        38.763                                                                    24723365.140 6  97019843.96306       727.553 6        41.116    24723363.793 6  99550773.65506       746.437 6        39.823
S23        22.000    38228972.216 5 200894622.81405      -865.785 5        33.964
E36        24.000    26408602.014 5 138778176.50105      2275.856 5        35.862                                                                    26408610.092 7 103633122.19507      1699.576 7        44.131    26408608.682 7 106336581.84807      1743.921 7        42.102
R18        25.000    20020137.150 8 106869056.39508      1814.396 8        51.829                                                                    20020141.276 7  83120269.97307      1411.185 7        46.146
E03        26.000                                                                                                                                    27986158.408 4                     -2779.790 4        24.947    27986141.695 4                     -2852.806 4        28.616
S21        27.000    38510293.295 6 202373082.29806      -861.032 6        36.601
R07        28.000    23626014.086 4                     -2393.194 4        26.671                                                                    23626007.505 6                     -1861.265 6        37.796
R15        30.000    19857113.374 7 106110683.86607     -2743.118 7        46.752                                                                    19857113.835 6  82530301.44706     -2133.510 6        38.426
S36        31.000    38281644.343 5 201171409.11905      -861.412 5        35.981
R16        34.000    19849117.446 7 106031011.98307      1247.681 7        45.401                                                                    19849120.883 7  82468250.12407       970.349 7        46.607
C44        35.000                                                                                                                                    21656398.515 7 112770855.81107       309.431 7        46.082                                                                    21656398.501 7  91635448.31107       251.356 7        47.852
R17        36.000    19519267.031 6 104451940.35206     -2117.288 6        39.405                                                                    19519269.180 6  81240133.11806     -1646.806 6        38.526
R09        37.000    24043491.631 5 128390914.12905      3158.226 5        31.268                                                                    24043502.058 5  99859655.06205      2456.696 5        33.551
R24        38.000    23218160.913 5 124157993.27105     -4999.846 5        34.567                                                                    23218164.693 3                     -3890.722 3        22.000
C12        41.000                                                                                                                                    23151199.881 6 120554412.30606      1636.643 6        39.580    23151208.926 6  93220407.66706      1265.621 6        38.724    23151201.949 7  97960413.81407      1330.040 7        47.900
C35        42.000                                                                                                                                    22539524.703 8 117369203.70208     -2565.546 8        48.870                                                                    22539526.423 7  95372131.39307     -2084.679 7        46.371
C38        44.000                                                                                                                                    39428836.143 4                       427.252 4        26.766
C25        45.000                                                                                                                                    24509144.141 7 127625542.99007      1998.729 7        44.184                                                                    24509144.177 7 103706337.48607      1624.093 7        45.792
C26        48.000                                                                                                                                    23341865.690 7 121547225.84107     -3376.318 7        43.973                                                                    23341869.677 7  98767086.09407     -2743.474 7        43.716
C24        51.000                                                                                                                                    21492263.890 8 111915860.36008      -557.858 8        52.279                                                                    21492262.295 8  90940866.01508      -453.294 8        49.892
C34        52.000                                                                                                                                    25115412.269 6 130782563.31006      2388.626 6        38.646                                                                    25115418.559 5 106271561.37005      1940.778 5        31.223
I02        55.000    37689821.533 5 147902971.31505     -1019.694 5        34.652
I06        58.000    38731323.513 5 151990074.52205      -706.120 5        33.072
> 2025 01 02 15 15 15.0000000  0 39
G11         2.000    23148203.040 4                     -2994.163 4        27.892                                                                                                    23148197.990 3                     -2331.815 3        21.810
G25         3.000    20131413.728 7 105791255.94707     -2018.181 7        42.682                                    20131413.777 5  82434821.36605     -1572.606 5        31.879    20131415.682 5  82434808.37805     -1572.590 5        33.940
G32         4.000    25141790.426 5 132121045.79315     -3749.054 5        33.461                                                                                                    25141773.757 3                     -2920.866 3        21.381
E25         6.000    23412916.260 6 123035753.78106     -1325.644 6        40.656                                                                    23412920.159 7  91877478.07207      -989.928 7        43.822    23412919.604 8  94274177.60608     -1015.808 8        48.773
G31         7.000    22567655.844 7 118593834.80607      1460.570 7        42.114                                    22567654.762 6  92410812.25006      1138.100 6        38.826    22567655.873 7  92410805.24007      1138.204 7        43.244
G28         8.000    21444713.169 7 112692851.73207      -143.702 7        46.345                                    21444711.146 4  87812532.46804      -111.977 4        27.257    21444708.248 6  87812511.43706      -111.957 6        40.250
G29         9.000    20564720.696 8 108068395.16908        33.724 8        50.250                                    20564718.192 7  84209139.87607        26.275 7        44.847    20564719.272 6  84209091.87606        26.272 6        40.062
E11        10.000    24305174.921 6 127724647.41506       287.760 6        40.639                                                                    24305173.155 6  95378756.27006       214.910 6        38.769    24305172.400 6  97866895.50406       220.443 6        41.433
E10        11.000    24910600.495 7 130906236.54807     -1348.880 7        45.394                                                                    24910603.029 7  97754572.32707     -1007.316 7        46.351    24910602.929 7 100304747.84007     -1033.524 7        45.312
G18        12.000    24580696.763 3                      2927.168 3        23.314
E12        13.000    26369178.937 5                     -2596.578 5        33.826                                                                    26369172.684 4 103478330.42104     -1938.574 4        28.028    26369176.022 5 106177751.02105     -1989.034 5        32.329
G12        15.000    22806563.577 6 119849259.73306     -3825.076 6        37.811                                    22806581.216 1  93389194.99101     -2980.619 1        11.111    22806572.129 3                     -2980.613 3        20.762
E24        16.000    26797093.709 4                     -3165.577 4        29.355                                                                    26797138.088 4                     -2364.292 4        27.713    26797113.753 4 107900884.91104     -2425.247 4        26.695
G26        17.000    24292379.698 5 127657248.27005      2508.293 5        34.714                                    24292362.423 1  99473158.65111      1954.434 1         7.000    24292364.757 3                      1955.804 3        23.010
E07        18.000    28006215.290 5 147173677.02305       -80.837 5        34.871                                                                    28006222.170 4 109902443.55604       -60.354 4        26.707    28006223.547 5 112769440.17305       -61.975 5        34.038
E08        20.000    27010306.136 6 141940113.36906     -2417.450 6        37.130                                                                    27010316.493 6 105994306.60806     -1805.212 6        38.462    27010314.429 5 108759353.11105     -1852.567 5        33.425
E02        21.000    24722435.599 6 129917343.88706       973.591 6        40.281                                                                    24722438.690 6  97016208.14406       726.996 6        41.173    24722437.346 6  99547042.97906       745.948 6        39.057
S23        22.000    38229792.772 5 200898952.11405      -865.883 5        34.529
E36        24.000    26406438.475 5 138766799.61605      2275.268 5        35.471                                                                    26406445.212 7 103624626.49907      1699.078 7        44.239    26406443.657 7 106327864.53007      1743.302 7        42.118
R18        25.000    20018439.801 8 106859994.05308      1810.962 8        51.439                                                                    20018443.709 7  83113221.48707      1408.547 7        46.715
E03        26.000                                                                                                                                    27989701.342 4                     -2779.127 4        24.752    27989684.427 4                     -2852.758 4        28.815
S21        27.000    38511110.292 6 202377388.78406      -861.076 6        36.147
R07        28.000                                                                                                                                    23628244.082 6  98376334.26116     -1864.178 6        36.272
R15        30.000    19859680.694 7 106124408.03407     -2746.115 7        47.015                                                                    19859682.083 6  82540975.79706     -2135.590 6        36.246
S36        31.000    38282467.931 5 201175716.34805      -861.163 5        35.429
R16        34.000    19847949.215 7 106024781.18807      1245.202 7        44.163                                                                    19847954.064 7  82463403.96707       968.442 7        45.315
C44        35.000                                                                                                                                    21656102.586 7 112769315.56107       307.096 7        46.154                                                                    21656102.758 7  91634196.74507       249.630 7        47.676
R17        36.000    19521246.887 6 104462537.16006     -2121.110 6        40.007                                                                    19521248.428 6  81248375.04806     -1649.671 6        36.926
R09        37.000    24040534.404 5 128375123.24505      3158.449 5        31.396                                                                    24040547.472 5  99847373.29205      2456.315 5        35.224
R24        38.000    23222835.446 5 124182996.09005     -5000.764 5        33.952
C12        41.000                                                                                                                                    23149627.687 6 120546234.03306      1634.800 6        39.261    23149634.695 6  93214083.73606      1264.139 6        40.694    23149631.202 7  97953768.31407      1328.643 7        47.605
C35        42.000                                                                                                                                    22541988.359 8 117382037.12108     -2567.503 8        48.136                                                                    22541990.947 7  95382559.60707     -2086.218 7        46.556
C38        44.000                                                                                                                                    39428420.013 4                       433.788 4        26.251
C25        45.000                                                                                                                                    24507225.431 7 127615552.36007      1997.737 7        42.504                                                                    24507225.423 7 103698219.30307      1623.419 7        45.645
C26        48.000                                                                                                                                    23345108.545 7 121564112.11507     -3377.831 7        43.551                                                                    23345112.310 7  98780807.58007     -2744.704 7        43.685
C24        51.000                                                                                                                                    21492800.735 8 111918656.37908      -560.188 8        51.605                                                                    21492799.284 8  90943138.02208      -455.122 8        49.607
C34        52.000                                                                                                                                    25113120.643 6 130770623.06506      2388.014 6        38.513                                                                    25113125.933 5 106261859.00905      1940.256 5        31.298
I02        55.000    37691119.843 5 147908070.84305     -1019.804 5        34.981
I06        58.000    38732222.261 5 151993603.49205      -705.296 5        34.090
> 2025 01 02 15 15 20.0000000  0 38
G11         2.000                                                                                                                                                                    23151047.079 3                     -2334.236 3        21.024
G25         3.000    20133334.171 7 105801354.11807     -2020.862 7        42.785                                    20133334.724 5  82442690.07405     -1574.699 5        31.223    20133338.293 5  82442677.08505     -1574.771 5        35.662
G32         4.000    25145357.587 5 132139793.70605     -3749.925 5        32.533
E25         6.000    23414178.990 6 123042386.96506     -1327.419 6        41.008                                                                    23414182.306 7  91882431.41507      -991.211 7        44.032    23414181.754 8  94279260.16608     -1017.062 8        48.984
G31         7.000    22566266.829 7 118586539.34807      1457.740 7        43.911                                    22566266.686 6  92405127.50506      1135.897 6        39.670    22566267.880 7  92405120.49307      1135.863 7        43.630
G28         8.000    21444851.115 7 112693580.03907      -147.373 7        46.081                                    21444849.475 4  87813099.97004      -114.838 4        27.222    21444847.186 6  87813078.95906      -114.805 6        39.489
G29         9.000    20564690.097 8 108068233.94208        31.049 8        51.081                                    20564687.172 7  84209014.26307        24.192 7        45.291    20564688.039 6  84208966.25406        24.233 6        40.057
E11        10.000    24304903.294 6 127723216.51406       285.102 6        40.937                                                                    24304900.730 6  95377687.74306       212.961 6        39.342    24304900.246 6  97865799.10806       218.357 6        41.361
E10        11.000    24911885.390 7 130912988.55407     -1351.759 7        44.752                                                                    24911888.115 7  97759614.40707     -1009.409 7        46.496    24911887.700 7 100309921.44707     -1035.699 7        45.853
G18        12.000    24577909.113 4                      2927.778 4        24.451
E12        13.000    26371649.056 5 138583959.50015     -2598.368 5        34.238                                                                    26371643.769 4 103488028.86504     -1940.936 4        27.234    26371647.894 5 106187702.45505     -1991.426 5        33.419
G12        15.000    22810205.501 6 119868389.52406     -3826.721 6        36.476                                    22810221.134 1  93404101.46501     -2981.877 1        11.852    22810216.587 4                     -2981.555 4        26.048
E24        16.000    26800104.024 4                     -3166.442 4        28.607                                                                                                                                    26800126.334 4 107913013.89704     -2426.843 4        25.714
G26        17.000    24289995.161 5 127644708.82905      2507.973 5        34.381                                    24289977.304 1  99463387.71001      1954.352 1         5.714    24289985.657 3                      1954.446 3        20.405
E07        18.000    28006294.178 6 147174088.47106       -83.461 6        36.420                                                                    28006300.726 4 109902750.84704       -61.545 4        26.108    28006302.447 5 112769755.46705       -63.982 5        34.033
E08        20.000    27012607.491 6 141952207.14506     -2419.815 6        36.280                                                                    27012617.469 6 106003337.66006     -1807.056 6        37.822
E02        21.000    24721510.072 6 129912478.81306       972.682 6        41.304                                                                    24721512.565 6  97012575.13506       726.343 6        41.435    24721510.502 6  99543315.19606       745.215 6        39.204
S23        22.000    38230616.946 5 200903281.83105      -865.879 5        34.905
E36        24.000    26404275.413 6 138755427.09406      2273.952 6        36.095                                                                    26404281.266 7 103616134.06607      1698.055 7        44.363    26404279.305 6 106319150.54706      1742.493 6        41.905
R18        25.000    20016745.198 8 106850949.47508      1807.111 8        50.994                                                                    20016749.084 7  83106186.84107      1405.591 7        46.985
E03        26.000    27993216.317 3                     -3723.821 3        23.924                                                                    27993243.283 4                     -2779.380 4        24.346    27993228.058 4                     -2852.976 4        28.882
S21        27.000    38511936.742 6 202381695.79806      -861.571 6        36.866
R07        28.000                                                                                                                                    23630483.051 6  98385663.78416     -1867.357 6        37.180
R15        30.000    19862252.724 8 106138147.80408     -2749.469 8        48.311                                                                    19862254.979 6  82551662.30306     -2138.440 6        37.195
S36        31.000    38283279.294 5 201180022.71105      -861.120 5        34.948
R16        34.000    19846786.484 7 106018563.34707      1242.194 7        43.482                                                                    19846790.059 7  82458567.85907       966.093 7        44.634
C44        35.000                                                                                                                                    21655808.120 7 112767787.45207       304.440 7        45.547                                                                    21655809.261 7  91632955.05607       247.305 7        47.953
R17        36.000    19523230.376 6 104473154.22506     -2125.426 6        38.766                                                                    19523232.842 5  81256632.78405     -1653.375 5        33.862
R09        37.000    24037579.838 5 128359332.05905      3158.207 5        34.024                                                                    24037590.209 6  99835091.26506      2456.402 6        37.244
R24        38.000    23227510.358 5 124208004.00515     -5001.961 5        31.177
C12        41.000                                                                                                                                    23148059.334 6 120538064.93606      1632.964 6        38.571    23148063.297 7  93207766.90607      1262.659 7        42.809    23148062.159 7  97947130.28107      1326.881 7        47.187
C35        42.000                                                                                                                                    22544454.973 7 117394880.59507     -2569.736 7        47.725                                                                    22544457.545 7  95392995.99807     -2088.081 7        46.953
C25        45.000                                                                                                                                    24505307.357 7 127605566.52607      1996.666 7        42.097                                                                    24505307.760 7 103690105.01607      1622.519 7        45.463
C26        48.000                                                                                                                                    23348352.988 7 121581006.73007     -3379.697 7        43.048                                                                    23348356.632 7  98794535.85107     -2746.356 7        43.845
C24        51.000                                                                                                                                    21493339.838 8 111921464.52508      -562.838 8        50.998                                                                    21493338.550 8  90945419.88108      -457.335 8        49.584
C34        52.000                                                                                                                                    25110830.366 6 130758686.96306      2386.921 6        38.751                                                                    25110834.258 5 106252159.99705      1939.546 5        32.030
I02        55.000    37692420.604 5 147913171.30505     -1020.198 5        34.814
I06        58.000    38733121.332 5 151997132.64805      -706.136 5        33.659
> 2025 01 02 15 15 25.0000000  0 39
G11         2.000                                                                                                                                                                    23153900.234 3                     -2336.015 3        23.448
G25         3.000    20135257.099 7 105811463.70707     -2022.899 7        42.042                                    20135258.183 5  82450567.68505     -1576.283 5        31.562    20135261.810 6  82450554.70106     -1576.282 6        36.790
G32         4.000    25148930.644 5 132158543.82805     -3749.943 5        32.162                                                                                                    25148904.354 3                     -2920.401 3        19.433
E25         6.000    23415442.719 6 123049026.04306     -1328.075 6        40.899                                                                    23415445.580 7  91887389.18507      -991.910 7        44.155    23415445.052 8  94284347.25908     -1017.713 8        48.971
G31         7.000    22564880.785 7 118579256.36607      1455.593 7        45.199                                    22564881.100 6  92399452.47006      1134.221 6        40.505    22564882.317 7  92399445.47307      1134.188 7        44.227
G28         8.000    21444993.066 7 112694324.55507      -150.315 7        45.756                                    21444990.971 4  87813680.10804      -117.132 4        27.329    21444989.432 6  87813659.09806      -117.109 6        40.110
G29         9.000    20564661.596 8 108068084.52408        28.924 8        51.636                                    20564658.599 7  84208897.85007        22.536 7        45.949    20564659.714 6  84208849.84306        22.348 6        41.213
E11        10.000    24304633.344 6 127721797.24906       282.907 6        41.387                                                                    24304630.995 6  95376627.91206       211.259 6        39.982    24304630.022 6  97864711.62706       216.751 6        41.793
E10        11.000    24913172.470 7 130919752.66407     -1353.780 7        44.388                                                                    24913175.277 7  97764665.53307     -1011.015 7        46.361    24913174.841 7 100315104.33907     -1037.387 7        46.016
G18        12.000    24575119.295 3                      2926.524 3        22.800
E12        13.000    26374123.417 5 138596956.66505     -2600.200 5        34.024                                                                    26374115.682 4 103497734.50304     -1941.770 4        26.263    26374121.667 5 106197661.30505     -1992.274 5        34.595
G12        15.000    22813844.124 5 119887524.90405     -3827.613 5        35.719                                    22813862.341 1  93419012.17601     -2982.596 1        10.518    22813857.512 4                     -2982.254 4        26.623
E24        16.000    26803117.611 4                     -3166.370 4        28.777                                                                    26803143.294 4                     -2364.886 4        25.729    26803134.861 4 107925144.79804     -2426.052 4        26.647
G26        17.000    24287606.095 5 127632171.04405      2507.583 5        34.848                                    24287590.960 1  99453618.08601      1954.034 1         4.286
E07        18.000    28006374.659 6 147174511.07606       -85.351 6        36.442                                                                    28006381.268 4 109903066.47204       -65.613 4        25.383    28006382.921 5 112770079.23505       -65.571 5        34.195
E08        20.000    27014911.176 5 141964310.23705     -2420.955 5        34.595                                                                    27014920.102 6 106012375.69306     -1808.140 6        37.493    27014933.487 5 108777893.62105     -1855.302 5        34.210
E02        21.000    24720585.120 7 129907616.86307       972.241 7        42.751                                                                    24720587.828 6  97008944.45006       726.026 6        41.740    24720584.936 6  99539589.79406       745.112 6        38.631
S23        22.000    38231449.834 5 200907611.19605      -865.552 5        35.886
E36        24.000    26402112.270 6 138744058.23006      2273.602 6        38.111                                                                    26402117.804 7 103607644.36907      1697.814 7        44.462    26402115.667 7 106310439.37507      1742.080 7        42.116
R18        25.000    20015053.427 8 106841921.85108      1804.031 8        50.174                                                                    20015057.320 7  83099165.37907      1403.109 7        46.640
E03        26.000    27996753.634 3                     -3722.833 3        23.619                                                                    27996781.812 3                     -2780.689 3        22.762    27996770.589 4                     -2852.940 4        29.109
S21        27.000    38512756.327 6 202386002.33406      -860.836 6        36.726
R07        28.000                                                                                                                                    23632728.607 6  98395007.43916     -1870.090 6        36.881
R15        30.000    19864827.295 8 106151902.21708     -2752.135 8        48.599                                                                    19864829.793 6  82562360.19606     -2140.524 6        38.465
S36        31.000    38284105.448 6 201184327.84806      -860.700 6        36.091
R16        34.000    19845625.870 7 106012357.94507      1240.011 7        44.612                                                                    19845628.488 7  82453741.39107       964.416 7        43.666
C44        35.000                                                                                                                                    21655515.492 7 112766270.79507       302.392 7        44.385                                                                    21655517.989 7  91631722.63407       245.747 7        47.491
R17        36.000    19525219.259 6 104483790.88706     -2129.296 6        39.213                                                                    19525220.810 4  81264905.72604     -1656.029 4        29.422
R09        37.000    24034622.933 5 128343539.89205      3158.625 5        35.438                                                                    24034633.361 6  99822808.49406      2456.716 6        38.216
R24        38.000    23232184.508 5                     -5002.680 5        30.430
C12        41.000                                                                                                                                    23146493.390 6 120529904.44306      1631.583 6        38.655    23146497.160 7  93201456.73607      1261.522 7        44.847    23146494.719 7  97940499.19907      1325.677 7        46.404
C35        42.000                                                                                                                                    22546923.460 7 117407733.47807     -2571.280 7        46.563                                                                    22546925.917 7  95403440.00907     -2089.406 7        46.999
C38        44.000                                                                                                                                    39427576.245 4                       424.490 4        24.421
C25        45.000                                                                                                                                    24503389.040 6 127595584.86006      1996.057 6        40.327                                                                    24503390.490 7 103681994.07307      1621.985 7        45.130
C26        48.000                                                                                                                                    23351599.760 7 121597908.95407     -3380.968 7        42.900                                                                    23351602.764 7  98808270.26007     -2747.269 7        44.053
C24        51.000                                                                                                                                    21493881.416 8 111924284.11008      -564.842 8        50.612                                                                    21493880.087 8  90947711.01508      -458.994 8        49.140
C34        52.000                                                                                                                                    25108541.702 6 130746754.35906      2386.374 6        39.027                                                                    25108542.437 5 106242463.76705      1939.305 5        31.623
I02        55.000    37693719.832 5 147918272.07305     -1019.930 5        34.338
I06        58.000    38734019.265 5 152000661.33805      -705.432 5        32.317
> 2025 01 02 15 15 30.0000000  0 39
G11         2.000                                                                                                                                                                    23156760.029 4                     -2338.828 4        29.697
G25         3.000    20137183.363 6 105821584.84006     -2025.455 6        40.965                                    20137184.049 5  82458454.29405     -1578.280 5        32.251    20137187.468 6  82458441.31706     -1578.288 6        38.318
G32         4.000    25152501.334 5 132177296.34105     -3751.129 5        30.883                                                                                                    25152478.455 3                     -2921.169 3        20.714
E25         6.000    23416707.454 6 123055671.19306     -1329.729 6        40.403                                                                    23416710.096 7  91892351.46407      -992.990 7        44.187    23416709.524 8  94289438.99508     -1018.881 8        48.962
G31         7.000    22563496.708 7 118571986.06207      1452.677 7        44.715                                    22563497.942 6  92393787.31106      1131.949 6        41.042    22563498.900 7  92393780.30407      1132.065 7        45.260
G28         8.000    21445137.943 7 112695085.41507      -153.834 7        45.621                                    21445135.570 4  87814272.98504      -119.882 4        27.401    21445135.108 6  87814251.97606      -119.839 6        41.492
G29         9.000    20564635.444 8 108067947.02908        26.220 8        51.699                                    20564632.458 7  84208790.72407        20.428 7        46.579    20564634.079 7  84208742.70307        20.500 7        42.773
E11        10.000    24304364.891 6 127720389.73306       280.213 6        41.454                                                                    24304363.452 6  95375576.84706       209.254 6        40.760    24304362.317 7  97863633.14107       214.783 7        42.034
E10        11.000    24914461.906 7 130926529.04507     -1356.517 7        44.053                                                                    24914464.730 7  97769725.81007     -1013.106 7        45.865    24914464.460 7 100320296.62407     -1039.448 7        46.337
G18        12.000    24572333.000 3                      2925.600 3        23.924
E12        13.000    26376600.051 5 138609963.61805     -2602.585 5        33.988                                                                    26376590.736 4 103507447.47504     -1943.407 4        24.226    26376597.362 5 106207627.68605     -1994.096 5        34.667
G12        15.000    22817485.211 5 119906665.97605     -3828.978 5        34.586                                    22817504.799 1  93433927.34601     -2983.584 1         9.238    22817499.916 4                     -2983.732 4        27.892
E24        16.000    26806128.654 4                     -3167.326 4        26.251                                                                    26806159.935 4                     -2364.934 4        27.054    26806146.527 4 107937278.04804     -2427.129 4        27.509
G26        17.000    24285213.629 5 127619634.87705      2507.278 5        35.448                                    24285205.233 1  99443849.69301      1953.656 1         4.714
E07        18.000    28006457.902 6 147174945.16606       -88.194 6        38.195                                                                    28006462.585 3 109903390.69203       -66.578 3        23.714    28006465.883 5 112770411.88505       -67.760 5        34.762
E08        20.000    27017216.247 5 141976422.86905     -2423.486 5        32.108                                                                    27017224.572 6 106021420.81806     -1809.848 6        36.858    27017235.622 5 108787174.70805     -1857.037 5        35.162
E02        21.000    24719661.881 7 129902758.14907       971.396 7        42.925                                                                    24719663.427 6  97005316.20206       725.310 6        41.635    24719660.375 6  99535866.89706       744.267 6        38.135
S23        22.000    38232274.567 6 200911940.29406      -865.838 6        36.484
E36        24.000    26399949.000 6 138732693.16906      2272.461 6        38.309                                                                    26399954.978 7 103599157.52207      1697.038 7        44.360    26399952.555 7 106301731.12807      1741.227 7        42.508
R18        25.000    20013364.661 8 106832911.48008      1800.295 8        49.776                                                                    20013369.402 7  83092157.31507      1400.195 7        46.487
E03        26.000    28000292.722 3                     -3724.049 3        21.667                                                                    28000320.788 3                     -2781.186 3        22.876    28000312.418 4                     -2852.950 4        28.891
S21        27.000    38513571.379 6 202390308.69806      -861.381 6        36.374
R07        28.000    23635134.922 5                     -2408.064 5        31.834                                                                    23634975.973 6                     -1873.052 6        37.217
R15        30.000    19867404.155 8 106165671.51208     -2755.449 8        48.725                                                                    19867406.251 6  82573069.61806     -2143.163 6        39.231
S36        31.000    38284920.545 6 201188633.03106      -861.070 6        36.699
R16        34.000    19844468.605 7 106006165.02607      1237.308 7        46.186                                                                    19844469.379 7  82448924.69707       962.380 7        42.715
C44        35.000                                                                                                                                    21655226.875 7 112764765.73307       299.634 7        44.074                                                                    21655228.745 7  91630499.65607       243.754 7        47.029
R17        36.000    19527212.538 7 104494447.19507     -2133.361 7        43.009                                                                    19527210.986 4  81273193.91004     -1659.138 4        26.036
R09        37.000    24031667.219 5 128327746.88105      3158.553 5        35.014                                                                    24031674.669 6  99810525.02706      2456.522 6        38.066
R24        38.000    23236861.594 5 124258033.40215     -5004.054 5        32.210                                                                    23236963.550 4                     -3892.312 4        24.150
C12        41.000                                                                                                                                    23144928.686 6 120521752.59906      1629.327 6        39.207    23144932.294 7  93195153.23507      1259.963 7        45.372    23144928.962 7  97933875.16607      1324.192 7        45.970
C35        42.000                                                                                                                                    22549394.660 7 117420595.87907     -2573.448 7        45.788                                                                    22549396.203 7  95413891.77607     -2091.085 7        47.217
C38        44.000                                                                                                                                    39427176.500 4                       423.467 4        27.569
C25        45.000                                                                                                                                    24501471.363 6 127585607.46706      1994.952 6        38.808                                                                    24501474.206 7 103673886.64107      1621.262 7        44.662
C26        48.000                                                                                                                                    23354848.409 7 121614818.93707     -3382.768 7        43.333                                                                    23354850.486 7  98822011.02907     -2748.690 7        44.491
C24        51.000                                                                                                                                    21494425.458 8 111927115.28108      -567.466 8        50.613                                                                    21494423.665 8  90950011.58108      -460.986 8        48.966
C34        52.000                                                                                                                                    25106252.957 6 130734825.34506      2385.388 6        38.492                                                                    25106251.186 5 106232770.52705      1938.120 5        32.317
I02        55.000    37695019.309 5 147923373.20405     -1020.213 5        33.742
I06        58.000    38734919.857 5 152004189.69705      -705.617 5        32.868
> 2025 01 02 15 15 35.0000000  0 39
G11         2.000                                                                                                                                                                    23159620.709 5                     -2340.880 5        30.974
G25         3.000    20139111.504 6 105831718.04306     -2027.720 6        40.610                                    20139112.445 5  82466350.31205     -1580.051 5        32.922    20139115.752 6  82466337.35106     -1580.133 6        38.129
G32         4.000    25156063.708 4 132196051.64004     -3751.488 4        29.972
E25         6.000    23417973.257 6 123062322.92506     -1330.980 6        40.391                                                                    23417975.803 7  91897318.66207      -993.866 7        44.661    23417975.192 8  94294535.76808     -1019.857 8        48.899
G31         7.000    22562114.965 7 118564728.93107      1450.151 7        43.617                                    22562117.275 6  92388132.41506      1129.982 6        41.251    22562117.651 7  92388125.40807      1130.085 7        45.469
G28         8.000    21445285.952 7 112695863.17807      -157.159 7        44.912                                    21445283.428 4  87814879.03504      -122.465 4        27.222    21445282.580 6  87814858.02106      -122.416 6        41.602
G29         9.000    20564611.540 8 108067822.00708        23.807 8        51.482                                    20564608.758 7  84208693.31507        18.549 7        46.793    20564609.843 7  84208645.29407        18.558 7        43.496
E11        10.000    24304099.315 6 127718994.49906       277.859 6        41.015                                                                    24304098.289 6  95374534.96106       207.537 6        41.654    24304096.703 7  97862564.07207       212.942 7        42.241
E10        11.000    24915754.088 7 130933318.19207     -1358.904 7        43.175                                                                    24915756.431 7  97774795.63807     -1014.873 7        45.607    24915756.495 7 100325498.70607     -1041.344 7        46.335
G18        12.000    24569550.573 3                      2927.690 3        22.857
E12        13.000    26379075.397 5 138622980.93805     -2604.462 5        33.778                                                                                                                                    26379075.058 5 106217602.00605     -1995.633 5        35.852
G12        15.000    22821125.192 5 119925813.21905     -3830.031 5        33.497                                    22821148.269 1  93448847.40501     -2984.428 1        10.222    22821142.312 4                     -2984.370 4        29.024
E24        16.000    26809143.234 3                     -3168.283 3        23.943                                                                    26809182.077 4                     -2366.010 4        28.227    26809165.451 4 107949413.77804     -2427.646 4        28.512
G26        17.000    24282820.322 5 127607101.03505      2506.718 5        35.438                                    24282819.023 1  99434083.17601      1953.433 1         4.857
E07        18.000    28006543.282 6 147175391.06806       -90.154 6        39.399                                                                                                                                    28006551.808 5 112770753.51305       -69.042 5        34.452
E08        20.000    27019522.094 5 141988545.47505     -2425.228 5        30.913                                                                    27019529.299 5 106030473.37905     -1811.217 5        35.267    27019538.727 5 108796463.47905     -1858.420 5        34.857
E02        21.000    24718738.197 7 129897903.22407       970.726 7        43.401                                                                    24718739.421 6  97001690.75806       725.000 6        41.466    24718736.001 6  99532146.88306       743.973 6        37.849
S23        22.000    38233100.239 6 200916269.85906      -865.895 6        36.533
E36        24.000    26397786.834 6 138721332.45806      2271.826 6        39.501                                                                    26397792.971 7 103590673.92707      1696.408 7        44.176    26397790.445 7 106293026.21607      1740.774 7        42.423
R18        25.000    20011680.402 8 106823918.89008      1796.871 8        50.048                                                                    20011685.066 7  83085163.08107      1397.552 7        47.072
E03        26.000    28003833.854 3                     -3722.323 3        21.167                                                                    28003866.606 3                     -2782.879 3        21.833    28003855.151 4                     -2853.138 4        28.152
S21        27.000    38514391.215 6 202394615.43906      -861.178 6        36.038
R07        28.000                                                                                                                                    23637225.920 6  98413738.00316     -1875.880 6        37.599
R15        30.000    19869984.717 8 106179456.28008     -2758.486 8        50.287                                                                    19869984.767 6  82583791.10206     -2145.535 6        38.345
S36        31.000    38285739.263 6 201192939.38106      -861.129 6        36.276
R16        34.000    19843312.201 7 105999985.14207      1234.695 7        46.770                                                                    19843312.533 7  82444118.10407       960.377 7        42.849
C44        35.000                                                                                                                                    21654941.126 7 112763272.78607       297.566 7        44.621                                                                    21654941.858 7  91629286.49907       241.987 7        46.954
R17        36.000    19529209.210 7 104505123.70307     -2137.324 7        45.117                                                                    19529205.401 4  81281497.85904     -1662.312 4        27.269
R09        37.000    24028706.811 5 128311953.39305      3158.979 5        34.395                                                                    24028716.654 6  99798241.25706      2456.715 6        38.495
R24        38.000    23241543.378 5 124283055.37015     -5005.083 5        33.976                                                                    23241638.887 3                     -3892.946 3        20.690
C12        41.000                                                                                                                                    23143364.687 6 120513609.93206      1627.771 6        39.670    23143368.180 7  93188856.84507      1258.617 7        46.614    23143364.595 7  97927258.57707      1322.889 7        44.932
C35        42.000                                                                                                                                    22551867.724 7 117433468.30507     -2575.467 7        46.200                                                                    22551868.344 7  95424351.65407     -2092.440 7        47.562
C38        44.000                                                                                                                                    39426775.619 4                       422.646 4        28.768
C25        45.000                                                                                                                                    24499555.286 6 127575634.85606      1994.203 6        38.658                                                                    24499558.777 7 103665783.08607      1620.736 7        44.528
C26        48.000                                                                                                                                    23358098.528 7 121631737.20207     -3384.437 7        45.333                                                                    23358099.723 7  98835758.47507     -2749.805 7        44.810
C24        51.000                                                                                                                                    21494971.529 8 111929958.56208      -569.785 8        50.181                                                                    21494969.536 8  90952321.95408      -462.761 8        48.848
C34        52.000                                                                                                                                    25103959.957 6 130722900.46106      2384.698 6        38.108                                                                    25103961.739 5 106223080.60705      1937.977 5        33.719
I02        55.000    37696320.753 5 147928475.16405     -1020.466 5        34.748
I06        58.000    38735818.702 5 152007718.16505      -705.688 5        33.144
> 2025 01 02 15 15 40.0000000  0 39
G11         2.000                                                                                                                                                                    23162479.243 5                     -2342.932 5        32.263
G25         3.000    20141042.570 6 105841862.52306     -2029.965 6        40.667                                    20141043.104 5  82474255.10505     -1581.798 5        34.281    20141045.849 6  82474242.12706     -1581.891 6        38.835
G32         4.000    25159625.483 4 132214808.98504     -3751.583 4        28.834
E25         6.000    23419239.698 6 123068980.40506     -1331.981 6        40.131                                                                    23419242.332 7  91902290.17307      -994.735 7        44.612    23419242.098 8  94299636.95108     -1020.642 8        48.718
G31         7.000    22560736.308 7 118557484.16407      1447.843 7        42.059                                    22560738.902 6  92382487.16006      1128.185 6        41.268    22560738.836 7  92382480.15407      1128.222 7        45.252
G28         8.000    21445436.603 7 112696657.00007      -160.316 7        44.996                                    21445434.341 4  87815497.59704      -124.914 4        27.341    21445433.647 6  87815476.57506      -124.840 6        40.806
G29         9.000    20564589.972 8 108067708.65008        21.587 8        51.288                                    20564587.334 7  84208604.99107        16.820 7        47.204    20564588.655 7  84208556.98307        16.803 7        44.042
E11        10.000    24303835.774 6 127717610.72906       275.663 6        41.130                                                                    24303835.029 7  95373501.62907       205.853 7        42.265    24303833.432 7  97861503.78907       211.162 7        42.233
E10        11.000    24917048.081 7 130940119.30407     -1361.261 7        42.535                                                                    24917050.555 7  97779874.38907     -1016.611 7        44.933    24917050.692 7 100330709.94407     -1043.112 7        46.301
G18        12.000    24566767.780 4                      2927.131 4        25.639
E12        13.000    26381551.626 5 138636007.76905     -2606.206 5        33.509                                                                    26381546.151 3                     -1945.914 3        22.667    26381554.077 5 106227583.61805     -1997.099 5        35.919
G12        15.000    22824768.536 6 119944965.91206     -3831.129 6        36.125                                    22824792.668 1  93463771.57301     -2985.309 1         9.905    22824786.680 5                     -2985.319 5        30.521
E24        16.000    26812157.188 4                     -3168.499 4        24.692                                                                    26812192.118 4                     -2366.294 4        28.711    26812185.449 4 107961551.48904     -2427.986 4        26.443
G26        17.000    24280433.709 5 127594568.59405      2506.255 5        34.233                                    24280433.748 1  99424317.47101      1952.883 1         3.600
E07        18.000    28006630.333 6 147175848.10306       -92.368 6        38.988                                                                    28006631.812 3                       -69.517 3        21.786    28006639.488 5 112771103.71405       -70.501 5        34.390
E08        20.000    27021829.448 5 142000677.27405     -2427.297 5        31.117                                                                    27021836.078 5 106039532.84905     -1812.491 5        33.814    27021846.462 5 108805759.31305     -1859.715 5        33.317
E02        21.000    24717814.084 7 129893051.26207       970.173 7        43.721                                                                    24717815.962 6  96998067.55106       724.516 6        40.956    24717812.761 6  99528429.16106       743.414 6        37.917
S23        22.000    38233921.041 6 200920598.88906      -865.799 6        36.008
E36        24.000    26395625.319 6 138709975.30206      2271.043 6        40.355                                                                    26395631.589 7 103582192.97107      1696.020 7        44.087    26395629.068 7 106284324.01707      1740.212 7        42.068
R18        25.000    20009999.627 8 106814943.16808      1793.494 8        50.394                                                                    20010003.468 8  83078181.97808      1394.969 8        48.075
E03        26.000    28007374.431 3                     -3722.346 3        21.048                                                                    28007410.121 3                     -2779.862 3        22.133    28007398.536 4                     -2853.746 4        27.605
S21        27.000    38515215.264 6 202398921.70506      -861.147 6        36.817
R07        28.000                                                                                                                                    23639481.759 6  98423124.71906     -1878.696 6        36.378
R15        30.000    19872567.142 8 106193255.54008     -2761.255 8        50.736                                                                    19872566.616 6  82594523.84006     -2147.694 6        37.176
S36        31.000    38286556.447 6 201197245.11306      -861.018 6        36.435
R16        34.000    19842155.587 7 105993817.44707      1232.379 7        46.597                                                                    19842157.354 7  82439321.03207       958.526 7        43.458
C44        35.000                                                                                                                                    21654656.575 7 112761791.14207       295.263 7        45.198                                                                    21654657.335 7  91628082.58807       239.810 7        46.557
R17        36.000    19531208.079 7 104515819.58307     -2141.006 7        45.673                                                                    19531205.038 4  81289816.91904     -1665.228 4        28.351
R09        37.000    24025748.676 5 128296158.86605      3158.872 5        35.062                                                                    24025758.519 6  99785956.61106      2456.869 6        37.588
R24        38.000    23246224.246 5 124308081.46105     -5005.319 5        33.491
C12        41.000                                                                                                                                    23141803.455 6 120505475.68506      1626.009 6        39.508    23141806.268 7  93182566.95107      1257.393 7        47.543    23141801.682 7  97920648.87207      1321.295 7        43.253
C35        42.000                                                                                                                                    22554342.575 7 117446349.95607     -2577.137 7        47.259                                                                    22554342.231 7  95434819.09107     -2094.324 7        47.775
C38        44.000                                                                                                                                    39426369.828 5                       421.193 5        30.015
C25        45.000                                                                                                                                    24497640.653 6 127565666.26906      1993.424 6        39.183                                                                    24497644.461 7 103657682.87007      1619.508 7        43.989
C26        48.000                                                                                                                                    23361349.670 7 121648662.92507     -3385.804 7        46.889                                                                    23361350.145 7  98849512.05407     -2751.422 7        45.276
C24        51.000                                                                                                                                    21495519.422 8 111932813.14908      -571.991 8        49.938                                                                    21495517.449 8  90954641.57508      -464.887 8        48.348
C34        52.000                                                                                                                                    25101667.253 6 130710978.90506      2384.211 6        36.684                                                                    25101673.492 5 106213393.45305      1937.117 5        34.043
I02        55.000    37697619.292 5 147933577.32205     -1020.628 5        34.514
I06        58.000    38736718.081 5 152011246.09105      -705.655 5        33.222
> 2025 01 02 15 15 45.0000000  0 39
G11         2.000                                                                                                                                                                    23165341.001 5  94858195.47915     -2344.911 5        34.262
G25         3.000    20142975.681 6 105852018.89206     -2032.504 6        40.915                                    20142976.155 5  82482169.17405     -1583.776 5        35.019    20142978.935 6  82482156.17606     -1583.530 6        40.257
G32         4.000    25163189.701 4 132233569.04904     -3752.733 4        27.593
E25         6.000    23420507.656 6 123075644.29206     -1333.379 6        40.293                                                                    23420510.377 7  91907266.43907      -995.642 7        44.810    23420510.073 8  94304743.02608     -1021.620 8        48.621
G31         7.000    22559360.996 6 118550252.41806      1445.187 6        41.702                                    22559362.836 6  92376852.04606      1126.112 6        40.982    22559362.348 7  92376845.05007      1126.035 7        45.166
G28         8.000    21445590.768 7 112697467.50307      -163.684 7        46.008                                    21445588.545 4  87816129.16004      -127.548 4        28.123    21445588.193 6  87816108.15806      -127.599 6        41.137
G29         9.000    20564570.559 8 108067607.53708        19.066 8        51.166                                    20564568.272 7  84208526.20907        14.856 7        47.660    20564569.719 7  84208478.20307        14.929 7        44.163
E11        10.000    24303574.607 6 127716239.06506       273.144 6        40.815                                                                    24303574.011 7  95372477.34507       204.040 7        43.043    24303572.527 7  97860452.79507       209.353 7        42.563
E10        11.000    24918344.548 7 130946932.98807     -1363.888 7        42.163                                                                    24918346.911 7  97784962.52107     -1018.509 7        44.364    24918347.245 7 100335930.82407     -1045.117 7        46.488
G18        12.000    24563979.620 4                      2927.192 4        25.353
E12        13.000    26384031.882 5 138649044.78205     -2608.759 5        32.599                                                                    26384031.823 3                     -1946.807 3        20.429    26384036.027 6 106237573.01306     -1998.785 6        36.306
G12        15.000    22828415.490 5 119964124.61005     -3832.361 5        35.662                                    22828438.279 1  93478700.50401     -2986.271 1         9.714    22828432.184 5                     -2985.997 5        31.079
E24        16.000    26815176.880 4                     -3169.461 4        24.451                                                                                                                                    26815199.974 4 107973691.67104     -2428.208 4        24.090
G26        17.000    24278049.865 5 127582038.18705      2505.674 5        31.721                                    24278049.559 1  99414553.45501      1952.609 1         1.556
E07        18.000    28006718.143 6 147176316.85106       -94.755 6        39.075                                                                    28006719.313 3                       -72.580 3        18.925    28006728.785 5 112771462.86805       -72.542 5        34.643
E08        20.000    27024139.539 5 142012818.91705     -2429.095 5        32.102                                                                    27024146.854 5 106048599.65205     -1813.937 5        33.078    27024157.302 5 108815062.63505     -1861.598 5        32.455
E02        21.000    24716890.640 7 129888202.87107       969.338 7        43.956                                                                    24716893.407 6  96994447.02206       723.800 6        40.672    24716890.267 6  99524714.17906       742.740 6        37.713
S23        22.000    38234743.904 6 200924927.99806      -865.837 6        36.011
E36        24.000    26393465.039 6 138698622.29006      2270.239 6        40.877                                                                    26393471.163 7 103573715.14207      1695.318 7        43.807    26393468.298 7 106275625.02707      1739.438 7        42.011
R18        25.000    20008321.583 8 106805985.04008      1789.970 8        50.494                                                                    20008325.537 8  83071214.55508      1392.239 8        48.275
E03        26.000                                                                                                                                    28010951.785 3                     -2779.885 3        22.133    28010942.825 4                     -2853.679 4        27.353
S21        27.000    38516023.076 6 202403227.84806      -861.072 6        36.193
R07        28.000                                                                                                                                    23641739.739 5  98432525.92905     -1881.540 5        35.700
R15        30.000    19875151.905 8 106207070.17408     -2764.393 8        50.912                                                                    19875151.913 5  82605268.53105     -2150.082 5        35.900
S36        31.000    38287376.136 6 201201550.88306      -861.492 6        36.612
R16        34.000    19841002.279 7 105987662.69807      1229.862 7        45.512                                                                    19841005.037 7  82434534.01807       956.389 7        43.327
C44        35.000                                                                                                                                    21654373.821 7 112760321.41807       292.803 7        45.580                                                                    21654375.030 7  91626888.34007       237.954 7        46.362
R17        36.000    19533208.987 7 104526535.38507     -2145.173 7        45.198                                                                    19533205.868 4  81298151.45504     -1668.357 4        29.801
R09        37.000    24022790.107 6 128280363.84306      3159.033 6        36.200                                                                    24022801.726 6  99773671.64106      2457.109 6        36.790
R24        38.000    23250905.330 5 124333112.57505     -5006.503 5        34.362
C12        41.000                                                                                                                                    23140243.543 6 120497350.43606      1624.346 6        39.429    23140245.537 7  93176284.01607      1255.979 7        47.952    23140240.681 7  97914046.46007      1319.975 7        42.165
C35        42.000                                                                                                                                    22556818.660 8 117459241.41308     -2579.177 8        48.307                                                                    22556818.113 8  95445294.47308     -2095.783 8        48.027
C38        44.000                                                                                                                                    39425964.073 5                       420.988 5        30.347
C25        45.000                                                                                                                                    24495728.543 6 127555702.30806      1992.373 6        40.391                                                                    24495730.864 7 103649586.37807      1619.016 7        44.032
C26        48.000                                                                                                                                    23364601.912 8 121665596.72908     -3387.498 8        48.432                                                                    23364602.163 7  98863272.15707     -2752.571 7        45.592
C24        51.000                                                                                                                                    21496069.673 8 111935679.65908      -574.401 8        49.364                                                                    21496067.732 8  90956970.86108      -466.714 8        48.184
C34        52.000                                                                                                                                    25099377.923 6 130699061.32206      2383.193 6        36.023                                                                    25099386.092 5 106203709.47505      1936.760 5        34.243
I02        55.000    37698919.621 5 147938680.08605     -1020.222 5        33.707
I06        58.000    38737617.211 5 152014773.91705      -705.230 5        32.760
> 2025 01 02 15 15 50.0000000  0 39
G11         2.000    23168214.561 6 121749782.53216     -3012.182 6        38.282                                    23168207.521 2  94869936.84012     -2347.128 2        12.000    23168203.050 5  94869925.83405     -2347.291 5        35.738
G25         3.000    20144910.846 6 105862187.31106     -2035.091 6        40.772                                    20144911.491 5  82490092.62605     -1585.783 5        35.729    20144913.567 6  82490079.61806     -1585.799 6        40.903
G32         4.000    25166765.223 4 132252331.68704     -3752.870 4        28.256
E25         6.000    23421777.366 6 123082314.71806     -1334.791 6        41.085                                                                    23421779.692 7  91912247.60607      -996.792 7        45.403    23421779.284 8  94309854.13508     -1022.800 8        48.356
G31         7.000    22557989.020 6 118543033.90606      1442.342 6        40.310                                    22557989.239 6  92371227.22806      1123.900 6        40.570    22557988.534 7  92371220.22607      1123.888 7        44.752
G28         8.000    21445748.596 7 112698294.89007      -167.308 7        46.146                                    21445746.076 4  87816773.88204      -130.368 4        28.588    21445746.383 6  87816752.87806      -130.327 6        41.514
G29         9.000    20564553.558 8 108067518.83308        16.465 8        51.341                                    20564551.530 7  84208457.09707        12.830 7        47.933    20564552.404 7  84208409.09907        12.770 7        43.820
E11        10.000    24303316.000 6 127714879.64606       270.651 6        40.667                                                                    24303315.459 7  95371462.21107       202.029 7        43.922    24303313.780 7  97859411.18107       207.300 7        42.809
E10        11.000    24919643.765 6 130953759.41106     -1366.588 6        41.266                                                                    24919645.515 7  97790060.17707     -1020.529 7        43.668    24919646.112 7 100341161.46207     -1047.095 7        46.593
G18        12.000    24561191.787 4                      2925.473 4        26.826
E12        13.000    26386514.942 5 138662092.03605     -2610.187 5        32.066                                                                                                                                    26386518.744 6 106247570.32006     -2000.446 6        36.605
G12        15.000    22832064.011 6 119983289.44606     -3833.484 6        36.008                                    22832084.731 1  93493634.24001     -2987.130 1        10.222    22832075.792 5                     -2987.095 5        31.140
E24        16.000                                                                                                                                    26818207.886 4                     -2366.945 4        29.668    26818213.826 3                     -2427.499 3        20.405
G26        17.000    24275664.357 5 127569509.96705      2505.470 5        30.475                                                                                                    24275693.090 4                      1952.609 4        24.241
E07        18.000    28006809.471 6 147176797.46506       -97.494 6        39.294                                                                                                                                    28006820.193 5 112771831.09405       -74.529 5        34.643
E08        20.000    27026454.520 5 142024970.50305     -2431.274 5        31.917                                                                    27026459.622 5 106057673.86605     -1815.580 5        32.335    27026470.823 5 108824373.61605     -1862.926 5        32.898
E02        21.000    24715967.870 7 129883358.26107       968.416 7        43.799                                                                    24715971.543 6  96990829.29806       723.203 6        40.768    24715968.347 6  99521002.07606       742.129 6        37.350
S23        22.000    38235561.277 5 200929257.56405      -866.045 5        35.843
E36        24.000    26391305.457 6 138687273.64106      2269.230 6        41.573                                                                    26391311.262 7 103565240.54907      1694.554 7        43.592    26391308.539 6 106266929.35106      1738.843 6        41.988
R18        25.000    20006646.539 8 106797044.58608      1786.260 8        50.042                                                                    20006650.425 8  83064260.88908      1389.284 8        48.133
E03        26.000                                                                                                                                    28014496.534 3                     -2780.120 3        21.619    28014485.012 4                     -2853.094 4        25.910
S21        27.000    38516844.844 5 202407534.49705      -861.485 5        35.148
R07        28.000                                                                                                                                    23643999.878 5  98441941.83905     -1884.942 5        34.567
R15        30.000    19877739.723 8 106220900.20808     -2767.633 8        50.693                                                                    19877741.141 5  82616025.23405     -2152.414 5        35.971
S36        31.000    38288200.283 5 201205857.55605      -861.332 5        35.976
R16        34.000    19839852.521 7 105981520.86507      1226.938 7        44.996                                                                    19839854.641 7  82429757.02807       954.346 7        42.976
C44        35.000                                                                                                                                    21654093.567 7 112758863.80107       290.280 7        46.191                                                                    21654095.055 7  91625703.89307       235.848 7        46.124
R17        36.000    19535214.758 7 104537271.29107     -2149.282 7        46.165                                                                    19535214.763 4  81306501.66804     -1672.021 4        28.360
R09        37.000    24019835.011 6 128264568.35806      3159.028 6        38.565                                                                    24019842.386 6  99761386.27906      2456.923 6        36.079
R24        38.000    23255586.311 5 124358148.60005     -5007.748 5        35.633
C12        41.000                                                                                                                                    23138686.115 6 120489234.37306      1622.289 6        40.238    23138686.982 8  93170008.18408      1254.382 8        48.722    23138681.523 6  97907451.48006      1318.330 6        40.770
C35        42.000                                                                                                                                    22559295.937 8 117472142.85508     -2581.331 8        49.163                                                                    22559295.711 7  95455777.94607     -2097.503 7        47.723
C38        44.000                                                                                                                                    39425561.940 5                       419.424 5        33.539
C25        45.000                                                                                                                                    24493816.937 7 127545743.15407      1991.304 7        42.193                                                                    24493818.099 7 103641493.76407      1618.132 7        43.469
C26        48.000                                                                                                                                    23367855.781 8 121682538.77408     -3389.308 8        48.856                                                                    23367855.603 7  98877038.93407     -2754.059 7        45.938
C24        51.000                                                                                                                                    21496622.858 8 111938558.25608      -576.981 8        49.195                                                                    21496620.374 7  90959309.93707      -468.814 7        47.754
C34        52.000                                                                                                                                    25097090.293 5 130687147.86605      2382.175 5        35.109                                                                    25097097.700 5 106194028.84305      1935.919 5        34.790
I02        55.000    37700221.167 5 147943783.89305     -1020.708 5        33.413
I06        58.000    38738516.066 5 152018301.84105      -705.544 5        33.060
> 2025 01 02 15 15 55.0000000  0 38
G11         2.000    23171076.918 6 121764849.28406     -3014.853 6        39.562                                    23171074.721 2  94881677.16602     -2349.264 2        13.212    23171070.884 5  94881666.15805     -2349.061 5        35.019
G25         3.000    20146848.406 6 105872367.12306     -2037.166 6        40.546                                    20146849.018 6  82498024.95006     -1587.401 6        36.144    20146850.064 6  82498011.96206     -1587.503 6        40.977
G32         4.000    25170342.046 4 132271096.56104     -3753.416 4        28.967
E25         6.000    23423048.727 6 123088991.08806     -1336.060 6        41.485                                                                    23423050.169 7  91917233.21007      -997.683 7        45.418    23423049.707 8  94314969.78608     -1023.649 8        48.244
G31         7.000    22556615.884 6 118535827.98606      1439.931 6        39.300                                    22556617.975 6  92365612.24206      1122.025 6        39.985    22556617.048 7  92365605.24907      1121.850 7        44.555
G28         8.000    21445909.181 7 112699138.54207      -170.541 7        45.836                                    21445906.643 4  87817431.27404      -132.882 4        29.118    21445907.111 6  87817410.26806      -132.945 6        41.900
G29         9.000    20564539.129 8 108067441.95208        14.034 8        51.407                                    20564536.962 8  84208397.19908        10.933 8        48.236    20564536.583 7  84208349.20407        10.929 7        43.295
E11        10.000    24303060.193 6 127713531.87306       268.324 6        40.968                                                                    24303058.908 7  95370455.77007       200.247 7        44.396    24303057.205 7  97858378.48107       205.559 7        42.692
E10        11.000    24920945.545 6 130960597.95706     -1369.016 6        41.056                                                                    24920946.692 7  97795166.89607     -1022.376 7        43.041    24920947.330 7 100346401.40307     -1049.081 7        46.883
E12        13.000    26389000.229 5 138675149.04905     -2612.561 5        30.121                                                                    26389021.742 4                     -1950.799 4        26.874    26389003.062 6 106257575.01106     -2001.866 6        36.227
G12        15.000    22835712.764 6 120002459.84406     -3834.607 6        36.677                                    22835732.193 1  93508572.32901     -2988.026 1        10.963    22835716.336 5                     -2988.207 5        30.649
E24        16.000                                                                                                                                    26821225.180 4                     -2367.315 4        28.777
G26        17.000    24273279.616 5 127556983.36805      2504.855 5        30.815                                                                                                    24273310.587 4                      1951.784 4        29.867
E07        18.000    28006903.018 6 147177289.53606       -99.733 6        38.994                                                                                                                                    28006913.924 5 112772208.19805       -76.421 5        34.214
E08        20.000    27028770.406 5 142037131.44805     -2433.158 5        34.186                                                                    27028772.907 5 106066755.10005     -1817.144 5        31.600    27028787.681 5 108833691.75005     -1864.659 5        33.395
E02        21.000    24715046.910 7 129878516.80707       967.822 7        43.223                                                                    24715049.805 6  96987213.91206       722.743 6        40.100    24715046.734 6  99517292.40106       741.675 6        37.546
S23        22.000    38236384.820 5 200933586.79405      -866.116 5        35.614
E36        24.000    26389147.037 6 138675928.73706      2268.493 6        41.826                                                                    26389152.183 7 103556768.75907      1694.025 7        43.058    26389149.565 7 106258236.55507      1738.099 7        42.057
R18        25.000    20004974.204 8 106788121.33608      1782.742 8        49.425                                                                    20004978.368 8  83057320.59908      1386.593 8        48.008
E03        26.000                                                                                                                                    28018039.485 3                     -2779.074 3        21.143    28018028.348 4                     -2853.108 4        25.068
S21        27.000    38517661.653 5 202411841.01105      -861.640 5        34.748
R07        28.000                                                                                                                                    23646262.077 5  98451371.85305     -1887.497 5        31.857
R15        30.000    19880330.426 8 106234744.98008     -2770.541 8        50.397                                                                    19880331.823 6  82626793.39406     -2154.781 6        36.200
S36        31.000    38289015.567 5 201210163.43905      -861.338 5        35.609
R16        34.000    19838705.162 7 105975391.68407      1224.445 7        46.080                                                                    19838707.166 7  82424989.89107       952.366 7        42.635
C44        35.000                                                                                                                                    21653816.048 7 112757417.67407       287.923 7        47.184                                                                    21653817.422 7  91624528.79507       234.117 7        46.335
R17        36.000    19537225.144 7 104548026.73207     -2153.205 7        47.579                                                                    19537224.635 4  81314867.02404     -1674.767 4        27.078
R09        37.000    24016876.415 6 128248771.99606      3159.206 6        40.696                                                                    24016885.343 5  99749100.23205      2457.133 5        34.986
R24        38.000    23260268.211 5 124383188.79915     -5008.723 5        35.076
C12        41.000                                                                                                                                    23137129.971 6 120481126.91006      1620.230 6        40.393    23137130.093 8  93163738.98308      1253.049 8        48.597    23137124.257 6  97900863.49906      1316.892 6        39.649
C35        42.000                                                                                                                                    22561774.399 8 117485053.67008     -2583.214 8        49.167                                                                    22561775.051 7  95466269.05607     -2099.020 7        47.625
C38        44.000                                                                                                                                    39425159.087 5                       418.190 5        30.974
C25        45.000                                                                                                                                    24491905.395 7 127535788.26107      1990.405 7        43.115                                                                    24491906.288 7 103633404.62407      1617.445 7        43.060
C26        48.000                                                                                                                                    23371110.604 8 121699488.44108     -3390.837 8        49.257                                                                    23371110.517 7  98890811.92407     -2755.262 7        45.725
C24        51.000                                                                                                                                    21497177.874 8 111941448.34608      -579.307 8        49.254                                                                    21497175.353 7  90961658.37207      -470.647 7        47.393
C34        52.000                                                                                                                                    25094803.914 5 130675237.91405      2381.460 5        33.772                                                                    25094809.228 5 106184351.09805      1935.071 5        34.814
I02        55.000    37701520.923 5 147948887.80805     -1020.810 5        33.144
I06        58.000    38739414.932 5 152021829.32605      -705.518 5        33.168
> 2025 01 02 15 16  0.0000000  0 38
G11         2.000    23173946.904 6 121779929.32206     -3017.557 6        40.582                                    23173944.068 2  94893427.85902     -2351.335 2        14.048    23173941.192 5  94893416.86605     -2351.741 5        35.281
G25         3.000    20148788.719 6 105882558.92106     -2039.976 6        39.252                                    20148788.701 6  82505966.61806     -1589.587 6        36.204    20148789.244 6  82505953.59306     -1589.418 6        40.806
G32         4.000    25173918.600 4 132289864.24004     -3754.518 4        28.275                                                                                                    25173873.223 3                     -2923.711 3        19.731
E25         6.000    23424320.754 7 123095673.90007     -1337.455 7        42.785                                                                    23424321.875 7  91922223.64507      -998.737 7        45.556    23424321.236 8  94320090.40008     -1024.846 8        48.084
G31         7.000    22555248.207 6 118528635.22206      1436.911 6        40.236                                    22555249.100 6  92360007.49606      1119.670 6        39.628    22555248.691 7  92360000.50607      1119.720 7        44.394
G28         8.000    21446072.514 7 112699998.94807      -174.030 7        45.284                                    21446070.434 4  87818101.72304      -135.606 4        29.564    21446071.465 7  87818080.72107      -135.516 7        42.673
G29         9.000    20564526.223 8 108067377.40308        11.440 8        50.776                                    20564524.633 8  84208346.91108         8.913 8        48.487    20564524.057 7  84208298.91407         8.874 7        43.414
E11        10.000    24302806.351 6 127712196.27906       265.676 6        41.495                                                                    24302804.824 7  95369458.42107       198.415 7        44.640    24302802.851 7  97857355.13307       203.573 7        42.827
E10        11.000    24922249.506 6 130967449.14806     -1371.712 6        40.865                                                                    24922250.286 7  97800283.03707     -1024.255 7        42.345    24922251.006 7 100351651.02007     -1051.126 7        46.929
E12        13.000    26391486.449 4 138688216.26104     -2614.722 4        28.398                                                                    26391501.601 4                     -1952.325 4        27.150    26391488.803 6 106267587.51806     -2003.547 6        36.053
G12        15.000    22839361.859 6 120021636.32006     -3836.210 6        36.503                                    22839380.755 2  93523515.04902     -2989.288 2        12.485    22839363.696 4                     -2989.298 4        28.123
E24        16.000    26824301.431 4                     -3170.231 4        24.165                                                                    26824240.114 4                     -2367.653 4        29.507    26824245.544 3                     -2428.860 3        22.648
G26        17.000    24270897.587 5 127544458.91905      2504.269 5        30.906                                                                                                    24270926.018 5                      1951.564 5        30.317
E07        18.000    28006999.370 6 147177793.38806      -102.210 6        38.787                                                                                                                                    28007009.628 5 112772594.38205       -78.154 5        33.527
E08        20.000    27031087.223 5 142049302.21205     -2435.347 5        34.848                                                                    27031089.328 5 106075843.65405     -1818.766 5        31.215    27031107.023 5 108843017.44905     -1866.009 5        33.389
E02        21.000    24714126.276 7 129873679.00807       966.922 7        44.163                                                                    24714129.345 6  96983601.27606       722.272 6        39.378    24714126.410 6  99513585.53506       740.840 6        37.856
S23        22.000    38237207.263 5 200937916.18505      -866.169 5        35.124
E36        24.000    26386989.040 7 138664588.09407      2267.529 7        42.032                                                                    26386994.050 7 103548300.15807      1693.246 7        42.595    26386991.099 6 106249547.00906      1737.391 6        41.998
R18        25.000    20003305.850 8 106779215.76308      1779.104 8        49.076                                                                    20003310.218 7  83050394.05607      1383.698 7        47.702
E03        26.000                                                                                                                                    28021583.568 3                     -2781.100 3        23.829    28021571.603 4                     -2853.176 4        24.752
S21        27.000    38518485.634 5 202416147.72405      -861.758 5        34.852
R07        28.000                                                                                                                                    23648531.603 4  98460816.52504     -1890.331 4        26.766
R15        30.000    19882924.015 8 106248604.99008     -2773.819 8        50.145                                                                    19882926.022 6  82637573.40006     -2157.261 6        37.819
S36        31.000    38289835.010 5 201214469.84705      -861.843 5        35.557
R16        34.000    19837561.358 7 105969275.43907      1221.638 7        46.202                                                                    19837561.605 7  82420232.81607       950.295 7        42.561
C44        35.000                                                                                                                                    21653540.865 8 112755983.53108       285.364 8        48.168                                                                    21653542.079 7  91623363.47007       231.890 7        46.353
R17        36.000    19539239.665 8 104558802.19408     -2157.369 8        48.353                                                                    19539238.507 4  81323247.96904     -1677.770 4        29.697
R09        37.000    24013917.494 6 128232975.27406      3159.167 6        41.173                                                                    24013926.723 5  99736813.92405      2457.202 5        32.838
R24        38.000    23264946.906 5                     -5009.869 5        33.084
C12        41.000                                                                                                                                    23135574.979 6 120473028.54906      1618.483 6        40.279    23135574.396 8  93157476.82208      1251.602 8        48.391    23135568.974 6  97894282.95806      1315.100 6        38.847
C35        42.000                                                                                                                                    22564255.519 8 117497974.38008     -2585.329 8        49.005                                                                    22564256.332 7  95476768.19507     -2100.828 7        47.537
C38        44.000                                                                                                                                    39424760.181 5 205295066.95715       417.330 5        30.491
C25        45.000                                                                                                                                    24489993.535 7 127525838.07207      1989.378 7        43.518                                                                    24489995.136 7 103625319.32607      1616.396 7        43.035
C26        48.000                                                                                                                                    23374366.560 8 121716446.21908     -3392.574 8        49.117                                                                    23374366.951 7  98904591.51907     -2756.740 7        45.859
C24        51.000                                                                                                                                    21497734.745 8 111944350.43408      -581.819 8        48.838                                                                    21497732.704 7  90964016.57407      -472.851 7        47.126
C34        52.000                                                                                                                                    25092516.200 5 130663332.08805      2380.597 5        32.120                                                                    25092521.166 5 106174676.63505      1934.396 5        34.576
I02        55.000    37702821.552 5 147953992.59805     -1021.160 5        32.922
I06        58.000    38740314.079 5 152025356.79005      -705.616 5        33.341
> 2025 01 02 15 16  5.0000000  0 38
G11         2.000    23176821.317 6 121795022.23806     -3019.856 6        41.349                                    23176816.030 2  94905188.55902     -2353.113 2        15.857    23176814.322 6  94905177.56106     -2353.096 6        36.877
G25         3.000    20150730.625 6 105892762.18806     -2041.919 6        39.399                                    20150730.436 6  82513917.21606     -1591.110 6        36.431    20150730.666 6  82513904.20906     -1590.962 6        40.248
G32         4.000    25177491.003 4 132308634.01504     -3754.131 4        27.569                                                                                                    25177455.959 3                     -2925.062 3        20.452
E25         6.000    23425593.468 7 123102362.76707     -1338.352 7        43.117                                                                    23425594.804 7  91927218.57207      -999.454 7        45.851    23425594.037 8  94325215.62508     -1025.536 8        48.000
G31         7.000    22553882.591 6 118521455.14506      1434.777 6        41.669                                    22553882.608 6  92354412.64306      1118.001 6        39.504    22553882.338 7  92354405.66507      1117.875 7        44.125
G28         8.000    21446239.340 7 112700875.70707      -177.025 7        45.068                                    21446237.252 4  87818784.91704      -137.947 4        29.829    21446238.394 7  87818763.92207      -137.933 7        42.836
G29         9.000    20564516.161 8 108067324.76108         9.312 8        50.656                                    20564514.501 8  84208305.90408         7.253 8        48.752    20564514.809 7  84208257.90907         7.233 7        44.608
E11        10.000    24302553.855 6 127710872.41506       263.746 6        40.560                                                                    24302552.749 7  95368469.84407       196.875 7        44.802    24302550.938 7  97856340.76507       202.006 7        42.976
E10        11.000    24923555.826 6 130974312.53306     -1373.959 6        40.775                                                                    24923556.315 6  97805408.30806     -1025.983 6        41.967    24923556.863 7 100356909.98407     -1052.712 7        47.189
E12        13.000    26393976.249 4 138701293.18104     -2616.661 4        27.401                                                                    26393991.186 4                     -1953.380 4        28.104    26393976.799 5 106277607.51805     -2004.888 5        35.952
G12        15.000    22843013.821 6 120040818.38806     -3836.904 6        37.440                                    22843030.417 2  93538462.13902     -2989.796 2        14.143    22843020.803 4                     -2990.331 4        28.379
E24        16.000                                                                                                                                    26827257.931 4                     -2368.534 4        29.848    26827262.082 4                     -2430.148 4        27.365
G26        17.000    24268515.538 5 127531936.13905      2504.348 5        31.706                                                                                                    24268544.960 5                      1951.145 5        30.438
E07        18.000    28007097.065 6 147178308.63706      -104.417 6        38.835                                                                                                                                    28007107.853 5 112772989.20705       -80.001 5        33.048
E08        20.000    27033403.824 5 142061482.43705     -2436.994 5        35.943                                                                    27033408.313 5 106084939.24305     -1820.016 5        31.351    27033427.806 5 108852350.33305     -1867.255 5        33.599
E02        21.000    24713206.421 7 129868844.44707       966.586 7        44.769                                                                    24713209.133 6  96979991.06606       721.719 6        38.706    24713206.415 6  99509881.13706       740.486 6        37.709
S23        22.000    38238029.782 5 200942245.53405      -865.729 5        35.062
E36        24.000    26384831.441 7 138653251.29507      2266.916 7        42.004                                                                    26384836.592 7 103539834.42107      1692.729 7        42.191    26384834.016 7 106240860.42807      1736.965 7        42.186
R18        25.000    20001641.202 8 106770327.42008      1775.881 8        49.551                                                                    20001645.016 7  83043480.90407      1381.277 7        47.448
E03        26.000                                                                                                                                    28025127.597 4                     -2780.925 4        25.519    28025114.747 3                     -2853.206 3        23.524
S21        27.000    38519306.624 5 202420454.15805      -861.406 5        35.810
R07        28.000    23650706.323 5 126605356.97915     -2433.943 5        31.049
R15        30.000    19885520.905 8 106262479.86208     -2776.504 8        49.689                                                                    19885522.686 6  82648364.96806     -2159.490 6        39.012
S36        31.000    38290658.146 5 201218776.27305      -861.336 5        35.748
R16        34.000    19836417.730 7 105963171.66307      1219.502 7        45.780                                                                    19836419.575 7  82415485.45507       948.483 7        42.470
C44        35.000                                                                                                                                    21653268.726 8 112754560.96408       283.336 8        49.113                                                                    21653268.834 7  91622207.52907       230.022 7        46.353
R17        36.000    19541256.520 7 104569597.15807     -2161.004 7        47.994                                                                    19541257.617 5  81331644.03805     -1680.614 5        33.084
R09        37.000    24010958.365 6 128217177.75706      3159.495 6        40.741                                                                    24010964.786 5  99724526.97605      2458.144 5        31.434
R24        38.000    23269630.344 5 124433283.54815     -5010.310 5        34.257                                                                    23269671.252 4                     -3896.893 4        27.617
C12        41.000                                                                                                                                    23134022.112 6 120464938.90206      1616.913 6        39.793    23134019.920 7  93151221.37107      1250.450 7        47.545    23134014.734 6  97887709.42706      1314.099 6        37.236
C35        42.000                                                                                                                                    22566738.757 8 117510904.51508     -2586.968 8        49.774                                                                    22566739.339 7  95487274.99407     -2102.292 7        47.289
C38        44.000                                                                                                                                    39424358.956 5 205292981.40505       416.816 5        32.617
C25        45.000                                                                                                                                    24488082.985 7 127515892.21107      1988.751 7        43.689                                                                    24488085.127 7 103617237.51407      1615.921 7        42.798
C26        48.000                                                                                                                                    23377623.551 8 121733411.73308     -3393.935 8        48.574                                                                    23377624.931 7  98918377.36607     -2757.946 7        45.678
C24        51.000                                                                                                                                    21498294.455 8 111947264.10408      -583.888 8        48.852                                                                    21498292.195 7  90966384.16307      -474.595 7        46.880
C34        52.000                                                                                                                                    25090230.057 4 130651429.90104      2379.798 4        27.916                                                                    25090234.698 5 106165005.11105      1933.966 5        33.353
I02        55.000    37704122.767 5 147959097.73505     -1021.158 5        32.760
I06        58.000    38741212.859 5 152028883.91405      -705.339 5        33.210
> 2025 01 02 15 16 10.0000000  0 38
G11         2.000    23179695.202 6 121810128.56906     -3022.707 6        41.414                                    23179690.594 2  94916959.73702     -2355.360 2        16.566    23179690.213 6  94916948.71706     -2355.191 6        37.055
G25         3.000    20152674.180 6 105902977.58806     -2044.455 6        38.508                                    20152674.398 6  82521877.27906     -1593.074 6        36.223    20152674.810 6  82521864.24906     -1593.023 6        40.105
G32         4.000    25181067.820 4 132327406.65404     -3754.830 4        25.684                                                                                                    25181027.694 3                     -2926.808 3        22.533
E25         6.000    23426866.872 7 123109058.22007     -1339.786 7        43.240                                                                    23426868.954 7  91932218.43707     -1000.496 7        46.020    23426868.029 7  94330345.91607     -1026.654 7        47.645
G31         7.000    22552518.346 6 118514288.35806      1432.062 6        41.709                                    22552518.597 6  92348828.14706      1115.880 6        38.862    22552518.386 7  92348821.17007      1115.901 7        43.970
G28         8.000    21446409.497 7 112701769.40007      -180.536 7        44.311                                    21446407.322 4  87819481.31104      -140.699 4        29.185    21446408.140 7  87819460.31307      -140.615 7        42.546
G29         9.000    20564508.452 8 108067284.57708         6.670 8        50.446                                    20564506.734 8  84208274.60008         5.194 8        48.565    20564507.941 7  84208226.59507         5.202 7        44.641
E11        10.000    24302302.787 6 127709560.89106       260.909 6        39.258                                                                    24302303.103 7  95367490.47007       194.918 7        44.826    24302301.592 7  97855335.84107       200.012 7        42.741
E10        11.000    24924864.425 6 130981188.70806     -1376.544 6        40.806                                                                    24924864.862 6  97810543.10906     -1027.947 6        41.428    24924865.491 7 100362178.74107     -1054.747 7        47.350
G18        12.000    24550028.802 4                      2923.796 4        27.485
E12        13.000    26396464.926 4 138714380.40604     -2619.195 4        24.902                                                                    26396482.161 4                     -1955.036 4        27.126    26396466.769 5 106287635.42305     -2006.663 5        35.252
G12        15.000    22846667.583 5 120060006.73105     -3838.545 5        35.352                                    22846681.412 2  93553414.04302     -2991.113 2        13.879    22846680.576 4                     -2991.170 4        27.018
E24        16.000                                                                                                                                    26830277.359 4                     -2368.906 4        29.242    26830278.777 4                     -2430.765 4        29.128
G26        17.000    24266133.547 5 127519415.71805      2503.629 5        30.898                                                                                                    24266166.218 5                      1951.046 5        31.275
E07        18.000    28007196.728 6 147178835.84306      -106.877 6        38.222                                                                                                                                    28007208.632 5 112773393.30205       -81.809 5        33.491
E08        20.000    27035724.947 6 142073672.60906     -2439.313 6        36.745                                                                    27035730.080 5 106094042.29205     -1821.828 5        32.701    27035752.066 5 108861690.89805     -1868.883 5        30.823
E02        21.000    24712287.630 7 129864013.69907       965.674 7        44.984                                                                    24712289.728 6  96976383.69206       721.087 6        37.856    24712286.931 6  99506179.67106       739.983 6        38.192
S23        22.000    38238858.584 5 200946575.17105      -865.954 5        35.814
E36        24.000    26382674.949 6 138641918.91506      2266.118 6        41.435                                                                    26382680.061 6 103531371.99206      1692.070 6        41.797    26382677.767 7 106232177.22607      1736.274 7        42.178
R18        25.000    19999980.217 8 106761456.92108      1772.232 8        50.309                                                                    19999982.913 7  83036581.62707      1378.373 7        46.845
E03        26.000                                                                                                                                    28028673.849 4                     -2781.682 4        25.805    28028660.650 3                     -2854.560 3        22.686
S21        27.000    38520124.591 5 202424761.00205      -861.496 5        35.614
R15        30.000    19888120.121 8 106276370.29108     -2779.719 8        48.673                                                                    19888123.270 6  82659168.64406     -2162.121 6        39.883
S36        31.000    38291478.179 5 201223082.77405      -861.658 5        35.814
R16        34.000    19835276.728 7 105957081.10207      1216.724 7        43.972                                                                    19835278.651 7  82410748.36107       946.291 7        42.000
C44        35.000                                                                                                                                    21652998.486 8 112753150.56008       280.748 8        49.565                                                                    21652997.919 7  91621061.47007       228.207 7        46.320
R17        36.000    19543278.010 8 104580412.34408     -2165.149 8        48.594                                                                    19543281.161 6  81340055.88206     -1683.965 6        36.586
R09        37.000    24007998.859 6 128201379.89506      3159.402 6        40.048                                                                    24008007.507 5  99712239.80205      2457.655 5        31.313
R24        38.000    23274316.772 5                     -5011.173 5        33.377                                                                    23274360.767 4                     -3897.894 4        28.294
C12        41.000                                                                                                                                    23132470.098 6 120456858.52606      1615.014 6        39.027    23132467.888 7  93144973.10307      1248.733 7        46.863    23132462.348 6  97881143.44906      1312.401 6        36.469
C35        42.000                                                                                                                                    22569224.301 8 117523844.63608     -2589.115 8        50.417                                                                    22569224.211 7  95497789.91107     -2103.825 7        46.911
C38        44.000                                                                                                                                    39423960.001 5 205290900.95305       415.613 5        32.180
C25        45.000                                                                                                                                    24486173.435 7 127505951.25507      1987.617 7        43.062                                                                    24486176.047 7 103609159.67607      1615.156 7        42.299
C26        48.000                                                                                                                                    23380881.907 7 121750385.50407     -3395.699 7        47.406                                                                    23380884.660 7  98932169.93707     -2759.217 7        45.276
C24        51.000                                                                                                                                    21498856.583 8 111950189.92308      -586.503 8        48.587                                                                    21498854.225 7  90968761.63707      -476.518 7        46.455
C34        52.000                                                                                                                                    25087943.078 4 130639531.87404      2378.910 4        28.682                                                                    25087949.887 5 106155337.02805      1932.717 5        32.599
I02        55.000    37705424.424 5 147964203.89105     -1021.254 5        33.653
I06        58.000    38742111.686 5 152032411.12405      -705.302 5        33.257
> 2025 01 02 15 16 15.0000000  0 39
G11         2.000    23182568.840 6 121825248.35406     -3025.579 6        39.865                                    23182568.034 2  94928741.39602     -2357.597 2        15.667    23182568.913 6  94928730.38506     -2357.719 6        37.259
G25         3.000    20154620.043 6 105913205.03806     -2046.826 6        39.598                                    20154620.524 6  82529846.71006     -1594.929 6        36.026    20154620.838 6  82529833.72406     -1595.007 6        39.429
G32         4.000    25184650.466 3                     -3755.300 3        18.090                                                                                                    25184601.947 3                     -2926.662 3        22.476
E25         6.000    23428141.784 7 123115760.33807     -1341.322 7        42.552                                                                    23428144.331 7  91937223.25307     -1001.611 7        46.341    23428143.246 7  94335481.28407     -1027.702 7        47.382
G31         7.000    22551156.315 6 118507134.92106      1429.056 6        39.420                                    22551157.109 6  92343254.05306      1113.551 6        38.339    22551156.691 7  92343247.06307      1113.602 7        43.331
G28         8.000    21446582.898 7 112702680.06007      -184.056 7        42.233                                    21446580.619 4  87820190.92904      -143.425 4        28.474    21446581.208 7  87820169.93207      -143.533 7        42.827
G29         9.000    20564503.015 8 108067256.85608         4.064 8        50.016                                    20564501.296 8  84208253.01308         3.167 8        48.418    20564501.721 7  84208205.00407         3.214 7        44.599
E11        10.000    24302054.894 6 127708261.71606       258.229 6        37.546                                                                    24302055.885 7  95366520.32307       192.959 7        44.926    24302054.682 7  97854340.38707       198.160 7        43.031
E10        11.000    24926174.609 6 130988077.67606     -1379.344 6        40.074                                                                    24926175.439 6  97815687.47606     -1030.092 6        41.051    24926176.526 7 100367457.30707     -1056.967 7        47.487
G18        12.000    24547250.073 4                      2923.552 4        26.060
E12        13.000    26398951.207 3 138727477.94803     -2621.412 3        23.143                                                                                                                                    26398958.046 5 106297671.21505     -2008.152 5        34.805
G12        15.000    22850320.867 5 120079201.34605     -3840.010 5        33.150                                    22850334.062 1  93568370.90901     -2992.158 1        10.444
E24        16.000    26833301.139 4                     -3172.838 4        28.929                                                                    26833296.232 4                     -2369.411 4        29.782    26833296.452 5                     -2431.175 5        30.770
G26        17.000    24263749.273 4 127506897.57504      2503.582 4        28.967                                                                                                    24263785.589 5                      1950.770 5        30.928
E07        18.000    28007298.955 6 147179374.97506      -109.117 6        37.716                                                                                                                                    28007311.914 5 112773806.51105       -83.839 5        33.359
E08        20.000    27038047.998 5 142085872.76305     -2441.291 5        35.786                                                                    27038053.136 5 106103152.78705     -1823.157 5        33.551    27038075.455 4 108871039.15404     -1870.751 4        28.076
E02        21.000    24711369.377 7 129859186.80407       964.766 7        44.942                                                                    24711371.745 6  96972779.21006       720.460 6        37.372    24711368.837 6  99502481.14106       739.341 6        38.559
S23        22.000    38239686.147 6 200950904.97906      -866.422 6        36.276
E36        24.000    26380519.135 6 138630591.01306      2265.028 6        40.353                                                                    26380524.379 6 103522912.88006      1691.407 6        41.938    26380522.435 7 106223497.43807      1735.436 7        42.220
R18        25.000    19998321.959 8 106752604.25008      1768.525 8        50.142                                                                    19998324.259 7  83029696.21107      1375.495 7        46.010
E03        26.000                                                                                                                                    28032216.398 4                     -2782.101 4        24.526    28032206.696 3                     -2854.752 3        23.962
S21        27.000    38520946.453 5 202429068.27705      -861.641 5        35.352
R07        28.000                                                                                                                                    23655353.099 4                     -1899.163 4        29.602
R15        30.000    19890721.871 7 106290276.04907     -2782.990 7        47.481                                                                    19890725.786 6  82669984.18406     -2164.356 6        40.029
S36        31.000    38292299.531 5 201227390.22205      -861.572 5        35.167
R16        34.000    19834140.036 7 105951003.72107      1213.931 7        44.454                                                                    19834140.776 7  82406021.51207       944.321 7        42.203
C44        35.000                                                                                                                                    21652729.524 8 112751752.33508       278.152 8        49.316                                                                    21652729.217 7  91619925.30407       226.122 7        46.148
R17        36.000    19545303.645 8 104591247.66608     -2169.320 8        48.009                                                                    19545306.004 6  81348483.38206     -1687.147 6        39.129
R09        37.000    24005040.274 6 128185581.77706      3159.491 6        39.715                                                                    24005048.212 5  99699952.48105      2457.130 5        30.166
R24        38.000    23279009.842 5 124483397.58015     -5012.690 5        33.162                                                                    23279047.269 4                     -3898.724 4        27.138
C12        41.000                                                                                                                                    23130919.346 6 120448787.40706      1612.998 6        38.279    23130917.928 7  93138731.97507      1247.354 7        46.734    23130912.022 5  97874585.01005      1311.108 5        35.419
C35        42.000                                                                                                                                    22571711.437 8 117536794.77308     -2591.308 8        51.053                                                                    22571710.920 7  95508312.98007     -2105.509 7        46.528
C38        44.000                                                                                                                                    39423560.415 5 205288825.66905       414.385 5        32.599
C25        45.000                                                                                                                                    24484265.041 7 127496015.21807      1986.438 7        42.474                                                                    24484267.896 7 103601085.86307      1614.243 7        42.301
C26        48.000                                                                                                                                    23384142.531 7 121767367.53207     -3397.473 7        46.866                                                                    23384145.715 7  98945969.22907     -2760.619 7        45.180
C24        51.000                                                                                                                                    21499420.598 8 111953127.92908      -589.023 8        48.443                                                                    21499418.410 7  90971149.02307      -478.519 7        46.238
C34        52.000                                                                                                                                    25085660.252 5 130627637.99705      2378.086 5        33.341                                                                    25085664.854 5 106145672.31005      1932.414 5        31.268
I02        55.000    37706726.423 5 147969310.43505     -1021.586 5        34.476
I06        58.000    38743010.742 5 152035938.49405      -705.537 5        33.713
> 2025 01 02 15 16 20.0000000  0 39
G11         2.000    23185444.801 6 121840381.23406     -3028.044 6        38.021                                    23185447.522 2  94940533.23702     -2359.508 2        15.000    23185449.503 6  94940522.23706     -2359.515 6        36.582
G25         3.000    20156569.952 6 105923444.27806     -2049.225 6        40.789                                    20156568.752 6  82537825.34906     -1596.807 6        36.348    20156569.536 6  82537812.35106     -1596.802 6        38.862
G32         4.000                                                                                                                                                                    25188178.159 3                     -2925.665 3        21.762
E25         6.000    23429418.686 7 123122468.72407     -1342.532 7        42.408                                                                    23429420.954 7  91942232.76107     -1002.493 7        46.521    23429419.811 7  94340621.47807     -1028.650 7        47.120
G31         7.000    22549798.051 6 118499994.40706      1426.684 6        39.922                                    22549798.009 6  92337690.03706      1111.705 6        38.012    22549797.631 7  92337683.04707      1111.621 7        42.700
G28         8.000    21446759.434 6 112703607.33306      -187.170 6        41.311                                    21446757.155 4  87820913.47904      -145.850 4        27.880    21446757.855 7  87820892.48807      -146.030 7        42.707
G29         9.000    20564499.992 8 108067241.29008         1.689 8        49.472                                    20564498.166 8  84208240.89508         1.317 8        48.256    20564498.886 7  84208192.88807         1.414 7        44.939
E11        10.000    24301811.077 6 127706974.53806       256.162 6        37.043                                                                    24301810.942 7  95365559.13807       191.215 7        44.808    24301810.099 7  97853354.13507       196.248 7        43.134
E10        11.000    24927487.035 6 130994979.06606     -1381.718 6        40.584                                                                    24927488.695 6  97820841.11906     -1031.710 6        40.911    24927489.834 7 100372745.40207     -1058.712 7        47.610
G18        12.000    24544469.278 4                      2922.654 4        26.251
E12        13.000    26401444.275 3 138740585.37303     -2622.492 3        23.105                                                                    26401450.948 5                     -1958.520 5        30.000    26401451.566 5 106307714.67505     -2009.459 5        34.776
G12        15.000    22853976.508 5 120098401.84805     -3841.084 5        31.509                                    22853987.744 1  93583332.15501     -2992.870 1         5.714
E24        16.000    26836323.049 4                     -3173.476 4        29.261                                                                    26836315.020 5                     -2369.907 5        31.404    26836315.405 5                     -2431.690 5        30.702
G26        17.000    24261363.184 4 127494381.45604      2502.888 4        29.232                                                                                                    24261401.995 4                      1950.248 4        28.701
E07        18.000    28007404.441 6 147179925.71206      -111.493 6        37.709                                                                                                                                    28007418.805 5 112774228.56905       -85.408 5        33.748
E08        20.000    27040370.967 5 142098082.58905     -2443.275 5        35.819                                                                    27040376.536 5 106112270.50605     -1824.604 5        34.538
E02        21.000    24710450.727 7 129854363.42507       964.144 7        44.420                                                                    24710454.082 6  96969177.31506       720.111 6        37.361    24710451.310 6  99498785.31506       738.833 6        38.462
S23        22.000    38240504.365 6 200955234.89306      -866.190 6        36.253
E36        24.000    26378363.928 6 138619267.24606      2264.068 6        39.234                                                                    26378369.492 7 103514456.85907      1690.706 7        42.000    26378367.785 7 106214820.82607      1734.721 7        42.165
R18        25.000    19996666.132 8 106743769.16608      1765.079 8        48.669                                                                    19996669.621 7  83022824.49407      1372.857 7        46.458
E03        26.000                                                                                                                                    28035760.034 4                     -2781.749 4        24.662    28035752.223 3                     -2855.081 3        23.410
S21        27.000    38521767.443 5 202433375.59705      -861.570 5        35.495
R07        28.000    23657631.351 5                     -2445.585 5        31.147                                                                    23657638.062 5                     -1902.064 5        32.251
R15        30.000    19893326.691 7 106304196.96307     -2785.862 7        46.295                                                                    19893330.380 6  82680811.59306     -2166.635 6        39.529
S36        31.000    38293117.020 5 201231697.30605      -861.630 5        35.833
R16        34.000    19833005.887 7 105944939.16107      1211.392 7        45.174                                                                    19833006.249 7  82401304.65607       942.168 7        43.230
C44        35.000                                                                                                                                    21652462.489 8 112750365.91708       275.970 8        48.934                                                                    21652462.786 7  91618798.72207       224.237 7        45.922
R17        36.000    19547330.736 8 104602102.77608     -2173.175 8        48.160                                                                    19547334.803 6  81356926.29306     -1690.392 6        39.616
R09        37.000    24002080.966 6 128169783.17306      3159.500 6        39.000                                                                    24002089.116 5  99687664.73505      2457.667 5        31.494
R24        38.000    23283703.169 5                     -5013.656 5        33.461                                                                    23283735.461 4                     -3899.497 4        26.958
C12        41.000                                                                                                                                    23129370.235 6 120440725.24506      1611.403 6        38.015    23129369.456 7  93132497.80207      1246.016 7        47.782    23129363.977 5  97868033.85005      1309.166 5        35.476
C35        42.000                                                                                                                                    22574200.163 8 117549754.57408     -2593.075 8        51.578                                                                    22574199.569 7  95518843.88307     -2107.038 7        46.265
C38        44.000                                                                                                                                    39423162.582 5 205286755.21405       413.411 5        32.347
C25        45.000                                                                                                                                    24482358.381 7 127486083.74307      1985.670 7        42.356                                                                    24482360.554 7 103593015.74607      1613.589 7        42.436
C26        48.000                                                                                                                                    23387404.283 7 121784357.50507     -3398.946 7        45.908                                                                    23387408.284 7  98959774.95207     -2761.869 7        44.877
C24        51.000                                                                                                                                    21499987.138 7 111956077.78607      -591.329 7        47.846                                                                    21499984.847 7  90973546.00707      -480.406 7        46.158
C34        52.000                                                                                                                                    25083378.883 6 130615748.01606      2377.389 6        36.601                                                                    25083381.335 5 106136010.73805      1932.063 5        30.362
I02        55.000    37708028.062 5 147974417.67105     -1021.707 5        34.514
I06        58.000    38743909.332 5 152039465.67005      -705.496 5        33.958
> 2025 01 02 15 16 25.0000000  0 39
G11         2.000    23188328.393 5 121855526.60305     -3030.385 5        34.867                                    23188329.698 2  94952334.82002     -2361.311 2        14.286    23188329.621 5  94952323.79405     -2361.128 5        34.910
G25         3.000    20158520.858 6 105933694.69206     -2051.105 6        41.776                                    20158518.952 6  82545812.69206     -1598.263 6        36.983    20158520.222 6  82545799.68306     -1598.249 6        38.895
G32         4.000                                                                                                                                                                    25191752.957 3                     -2925.786 3        21.595
E25         6.000    23430697.283 7 123129182.80907     -1343.230 7        42.747                                                                    23430698.548 7  91947246.53307     -1003.083 7        46.562    23430697.527 7  94345766.03807     -1029.249 7        46.904
G31         7.000    22548441.843 6 118492866.32506      1424.345 6        40.415                                    22548441.108 6  92332135.69906      1109.876 6        37.826    22548441.075 6  92332128.69906      1109.984 6        41.507
G28         8.000    21446939.657 6 112704550.64906      -190.126 6        40.915                                    21446936.547 4  87821648.54604      -148.150 4        26.778    21446937.351 7  87821627.52307      -148.121 7        42.434
G29         9.000    20564498.686 8 108067237.30008        -0.195 8        48.875                                    20564497.281 8  84208237.79608        -0.151 8        48.199    20564497.911 7  84208189.78507        -0.186 7        44.916
E11        10.000    24301569.166 6 127705698.79806       254.132 6        37.747                                                                    24301568.248 7  95364606.48407       189.764 7        44.986    24301567.352 7  97852376.64607       194.624 7        43.022
E10        11.000    24928802.700 6 131001892.34206     -1383.670 6        39.940                                                                    24928804.356 6  97826003.63506     -1033.351 6        41.011    24928805.366 7 100378042.58907     -1060.277 7        47.387
G18        12.000    24541688.479 4                      2922.320 4        27.808
E12        13.000    26403941.444 4 138753702.40504     -2624.694 4        26.228                                                                    26403950.420 5                     -1959.750 5        31.683    26403947.056 5 106317765.33905     -2010.853 5        34.157
G12        15.000    22857631.376 5 120117607.60505     -3841.309 5        34.814                                    22857641.990 1  93598297.39601     -2993.235 1         5.143
E24        16.000    26839342.655 5                     -3174.039 5        32.084                                                                    26839334.831 5                     -2370.229 5        32.090    26839335.280 5                     -2431.896 5        30.543
G26        17.000    24258983.263 4 127481866.58004      2503.299 4        27.210                                                                                                    24259019.326 4                      1950.757 4        27.832
E07        18.000    28007510.828 6 147180487.45306      -113.365 6        36.295                                                                                                                                    28007527.030 5 112774658.98705       -86.662 5        33.856
E08        20.000    27042696.037 6 142110301.43506     -2444.601 6        36.476                                                                    27042701.218 5 106121394.97005     -1825.715 5        34.948    27042745.722 5 108889757.41305     -1873.184 5        31.411
E02        21.000    24709532.480 7 129849542.97307       963.945 7        43.591                                                                    24709536.757 6  96965577.62906       719.849 6        36.851    24709533.825 6  99495091.72906       738.451 6        38.508
S23        22.000    38241324.590 5 200959564.26505      -865.744 5        34.067
E36        24.000    26376209.259 6 138607946.99306      2263.785 6        38.225                                                                    26376215.415 7 103506003.47107      1690.433 7        42.021    26376213.954 7 106206146.91607      1734.539 7        42.155
R18        25.000    19995013.894 8 106734951.00008      1762.126 8        48.222                                                                    19995018.019 7  83015965.93607      1370.576 7        46.917
E03        26.000                                                                                                                                    28039304.908 4                     -2782.043 4        26.084    28039298.032 3                     -2855.521 3        23.695
S21        27.000    38522580.648 5 202437682.43205      -861.168 5        34.605
R07        28.000    23659915.196 5                     -2448.849 5        34.581                                                                    23659925.489 5  98508224.26515     -1904.590 5        34.176
R15        30.000    19895933.471 7 106318132.35107     -2788.416 7        43.572                                                                    19895938.493 6  82691650.26006     -2168.931 6        39.535
S36        31.000    38293938.524 5 201236004.00605      -861.008 5        35.914
R16        34.000    19831871.885 7 105938886.99607      1209.364 7        46.351                                                                    19831873.455 7  82396597.43607       940.568 7        43.606
C44        35.000                                                                                                                                    21652197.864 8 112748990.77008       274.042 8        48.757                                                                    21652198.700 7  91617681.31807       222.565 7        45.704
R17        36.000    19549362.702 8 104612977.04508     -2176.677 8        48.092                                                                    19549364.584 6  81365384.01806     -1692.815 6        38.483
R09        37.000    23999122.111 6 128153983.40706      3160.207 6        38.423                                                                    23999130.463 5  99675376.01605      2457.778 5        30.566
R24        38.000    23288390.650 5                     -5013.599 5        31.351                                                                    23288412.501 4                     -3899.194 4        25.684
C12        41.000                                                                                                                                    23127822.742 6 120432671.47106      1610.000 6        38.453    23127823.099 8  93126270.10408      1245.025 8        48.215    23127818.113 5  97861489.49805      1308.010 5        35.681
C35        42.000                                                                                                                                    22576690.429 8 117562723.45508     -2594.543 8        51.700                                                                    22576690.370 7  95529382.18907     -2108.447 7        46.177
C38        44.000                                                                                                                                    39422764.836 5 205284688.92005       413.149 5        30.800
C25        45.000                                                                                                                                    24480452.360 7 127476156.27207      1985.262 7        42.961                                                                    24480453.919 7 103584948.93107      1612.873 7        42.085
C26        48.000                                                                                                                                    23390668.444 7 121801354.82407     -3400.071 7        45.508                                                                    23390672.347 7  98973586.68607     -2763.048 7        44.387
C24        51.000                                                                                                                                    21500555.712 7 111959038.88707      -593.183 7        47.470                                                                    21500553.516 7  90975952.17407      -482.131 7        45.965
C34        52.000                                                                                                                                    25081099.973 6 130603861.36606      2377.088 6        38.276                                                                    25081098.093 4 106126351.92704      1931.934 4        29.962
I02        55.000    37709329.003 5 147979524.98905     -1021.180 5        34.629
I06        58.000    38744807.889 5 152042992.25405      -705.168 5        34.500
> 2025 01 02 15 16 30.0000000  0 39
G11         2.000    23191214.167 5 121870685.20105     -3033.198 5        33.413                                    23191214.176 1  94964146.73201     -2363.540 1        10.667    23191214.485 5  94964135.65105     -2363.326 5        32.533
G25         3.000    20160473.519 7 105943957.00407     -2053.513 7        43.666                                    20160471.374 6  82553809.29706     -1600.144 6        37.183    20160473.248 6  82553796.30206     -1600.283 6        38.985
G32         4.000    25195330.534 4                     -3756.623 4        26.551                                                                                                    25195328.086 3                     -2927.040 3        21.095
E25         6.000    23431976.401 7 123135903.35207     -1344.704 7        43.484                                                                    23431977.329 7  91952265.11807     -1004.154 7        46.427    23431976.403 7  94350915.53807     -1030.363 7        46.369
G31         7.000    22547089.007 7 118485751.35807      1421.809 7        42.199                                    22547086.605 6  92326591.59206      1107.896 6        37.645    22547087.017 6  92326584.60106      1107.958 6        40.205
G28         8.000    21447122.110 6 112705510.74206      -193.588 6        40.453                                    21447119.150 4  87822396.67104      -150.849 4        25.023    21447119.654 6  87822375.64506      -150.881 6        41.988
G29         9.000    20564500.318 8 108067245.59808        -2.767 8        48.245                                    20564498.770 7  84208244.26707        -2.158 7        47.800    20564499.181 7  84208196.26307        -2.139 7        45.049
E11        10.000    24301328.819 6 127704435.24506       251.466 6        39.784                                                                    24301327.670 7  95363662.92607       187.746 7        45.007    24301326.977 7  97851408.45707       192.719 7        42.662
E10        11.000    24930119.940 6 131008818.21506     -1386.276 6        37.516                                                                    24930122.460 6  97831175.54206     -1035.217 6        40.803    24930123.383 7 100383349.42707     -1062.191 7        47.292
G18        12.000    24538908.471 4                      2922.441 4        27.689
E12        13.000    26406439.904 4 138766829.47504     -2625.923 4        24.556                                                                    26406448.362 5                     -1961.458 5        32.419    26406444.998 5 106327823.76305     -2012.500 5        33.892
G12        15.000    22861284.623 5 120136819.34205     -3842.756 5        34.843                                    22861297.286 1  93613267.51101     -2994.248 1         5.714    22861295.891 4                     -2994.583 4        24.902
E24        16.000    26842359.502 5                     -3174.749 5        33.910                                                                    26842356.177 5                     -2370.847 5        33.449    26842356.076 4                     -2432.809 4        29.441
G26        17.000    24256604.402 4 127469353.94204      2502.255 4        27.042
E07        18.000    28007617.956 5 147181060.90405      -115.865 5        35.233                                                                                                                                    28007637.420 5 112775098.39405       -88.735 5        33.820
E08        20.000    27045024.389 6 142122530.06406     -2446.569 6        37.146                                                                    27045028.167 5 106130526.74605     -1827.146 5        35.886    27045070.926 5 108899127.44105     -1874.462 5        31.811
E02        21.000    24708615.809 7 129844726.15307       963.190 7        42.787                                                                    24708619.702 5  96961980.64905       719.335 5        35.795    24708617.563 6  99491400.92306       737.972 6        38.402
S23        22.000    38242150.816 5 200963893.76205      -866.084 5        34.443
E36        24.000    26374054.934 6 138596631.03906      2262.919 6        37.059                                                                    26374062.000 6 103497553.27606      1689.922 6        41.843    26374060.872 7 106197476.28407      1733.854 7        42.074
R18        25.000    19993365.323 8 106726150.52908      1758.453 8        48.384                                                                    19993369.234 7  83009121.13507      1367.709 7        47.613
E03        26.000                                                                                                                                    28042846.589 4                     -2782.245 4        24.617    28042845.750 4                     -2854.081 4        24.256
S21        27.000    38523399.214 5 202441989.61205      -861.409 5        34.305
R07        28.000    23662205.466 6 126665636.92716     -2452.471 6        38.559                                                                    23662212.960 5  98517755.44105     -1907.286 5        32.539
R15        30.000    19898542.397 6 106332083.03806     -2791.599 6        40.493                                                                    19898548.826 6  82702500.82606     -2171.168 6        38.249
S36        31.000    38294756.920 6 201240311.11506      -861.319 6        36.507
R16        34.000    19830741.194 7 105932847.74807      1206.663 7        47.020                                                                    19830743.071 7  82391900.25407       938.563 7        42.654
C44        35.000                                                                                                                                    21651935.917 8 112747627.57408       271.638 8        48.531                                                                    21651936.769 7  91616573.57507       220.732 7        45.321
R17        36.000    19551397.752 7 104623871.22407     -2180.644 7        47.320                                                                    19551400.873 6  81373857.28806     -1696.224 6        37.418
R09        37.000    23996164.777 6 128138183.24006      3160.130 6        38.679                                                                    23996169.772 4  99663087.03104      2457.644 4        29.213
R24        38.000    23293082.265 5 124558602.65015     -5014.938 5        30.347                                                                    23293098.954 3                     -3899.045 3        20.476
C12        41.000                                                                                                                                    23126277.479 6 120424626.78006      1608.192 6        38.946    23126278.505 8  93120049.44208      1243.523 8        48.510    23126273.313 5  97854952.50405      1306.844 5        35.233
C35        42.000                                                                                                                                    22579182.125 8 117575702.13608     -2596.625 8        51.404                                                                    22579182.894 7  95539928.39507     -2109.903 7        45.604
C38        44.000                                                                                                                                    39422367.144 5 205282627.58305       411.716 5        31.570
C25        45.000                                                                                                                                    24478547.106 7 127466233.58007      1984.223 7        43.860                                                                    24478548.296 6 103576885.90906      1612.329 6        41.897
C26        48.000                                                                                                                                    23393934.782 7 121818360.19607     -3401.805 7        46.176                                                                    23393937.930 7  98987404.90507     -2764.285 7        44.281
C24        51.000                                                                                                                                    21501126.582 7 111962012.00807      -595.730 7        47.017                                                                    21501124.409 7  90978368.03207      -484.017 7        45.713
C34        52.000                                                                                                                                    25078823.879 6 130591978.78206      2376.281 6        39.532                                                                    25078817.060 4 106116696.39204      1930.830 4        29.431
I02        55.000    37710630.657 5 147984633.02805     -1021.734 5        35.310
I06        58.000    38745706.616 5 152046518.81205      -705.152 5        34.257
> 2025 01 02 15 16 35.0000000  0 39
G11         2.000    23194102.447 4 121885856.16604     -3035.417 4        28.919                                    23194101.288 1  94975968.28401     -2365.231 1         7.125    23194104.175 4  94975957.25804     -2365.458 4        28.133
G25         3.000    20162428.536 7 105954230.43707     -2055.640 7        45.386                                    20162426.000 6  82561814.57906     -1601.800 6        37.894    20162427.952 6  82561801.58306     -1601.667 6        38.483
G32         4.000    25198904.952 4                     -3756.835 4        25.068
E25         6.000    23433256.032 7 123142629.54007     -1345.607 7        43.712                                                                    23433257.461 7  91957287.92607     -1004.830 7        46.412    23433256.222 7  94356069.37207     -1031.062 7        45.935
G31         7.000    22545737.246 7 118478648.82407      1419.505 7        44.205                                    22545734.471 6  92321057.16906      1106.101 6        38.024    22545735.852 6  92321050.17806      1106.192 6        39.523
G28         8.000    21447306.989 6 112706486.83906      -196.588 6        40.634                                    21447304.803 3  87823157.27003      -153.190 3        23.905    21447305.425 6  87823136.25306      -153.212 6        41.530
G29         9.000    20564503.851 8 108067265.43808        -4.937 8        48.009                                    20564502.472 7  84208259.73107        -3.848 7        47.747    20564503.147 7  84208211.71707        -3.728 7        45.485
E11        10.000    24301090.588 6 127703183.06706       249.470 6        41.077                                                                    24301089.316 7  95362727.87107       186.381 7        45.055    24301088.706 7  97850449.01707       191.185 7        42.809
E10        11.000    24931440.828 6 131015755.84306     -1388.450 6        36.699                                                                    24931442.761 6  97836356.27606     -1036.849 6        40.942    24931443.442 7 100388665.31607     -1063.893 7        47.193
G18        12.000    24536130.350 4                      2922.043 4        28.066
E12        13.000    26408948.891 3                     -2627.203 3        23.333                                                                    26408948.643 5                     -1962.662 5        33.353    26408944.420 5 106337889.35705     -2013.597 5        34.243
G12        15.000    22864940.795 6 120156036.28106     -3843.658 6        36.378                                    22864953.504 2  93628241.77102     -2995.072 2        12.788    22864952.887 4                     -2995.312 4        25.940
E24        16.000    26845376.552 5 141073423.12015     -3175.098 5        34.419                                                                    26845376.298 5                     -2371.136 5        31.789    26845374.224 4                     -2432.550 4        28.171
G26        17.000    24254223.378 4 127456842.69404      2502.456 4        29.336
E07        18.000    28007726.890 5 147181645.44705      -117.856 5        33.228                                                                                                                                    28007750.389 5 112775546.34805       -90.244 5        34.224
E08        20.000    27047352.927 6 142134767.71906     -2448.127 6        37.327                                                                    27047356.703 6 106139665.22506     -1828.217 6        36.250    27047390.411 5 108908504.36505     -1875.787 5        32.210
E02        21.000    24707700.392 7 129839912.24307       962.758 7        42.354                                                                    24707703.791 5  96958385.85305       718.866 5        35.348    24707701.243 6  99487712.33306       737.770 6        38.321
S23        22.000    38242974.753 5 200968222.78405      -865.453 5        33.880
E36        24.000    26371902.010 5 138585318.60005      2262.572 5        34.900                                                                    26371909.172 6 103489105.73206      1689.418 6        41.986    26371908.373 7 106188808.35807      1733.344 7        42.011
R18        25.000    19991720.606 8 106717367.02408      1755.170 8        48.557                                                                    19991723.843 7  83002289.52407      1365.208 7        47.730
E03        26.000                                                                                                                                    28046391.652 4                     -2782.501 4        24.737    28046391.966 3                     -2854.316 3        21.905
S21        27.000    38524220.946 5 202446296.06905      -861.192 5        34.205
R07        28.000    23664502.531 6 126677909.00606     -2455.911 6        39.366                                                                    23664505.437 4  98527300.33104     -1910.430 4        27.257
R15        30.000    19901155.901 6 106346048.13606     -2794.201 6        41.228                                                                    19901162.856 6  82713362.56006     -2173.368 6        37.614
S36        31.000    38295575.737 6 201244618.22106      -861.070 6        37.777
R16        34.000    19829612.445 7 105926820.80607      1204.377 7        46.935                                                                    19829614.778 7  82387212.63107       936.801 7        43.046
C44        35.000                                                                                                                                    21651676.371 7 112746275.61607       269.506 7        47.975                                                                    21651677.085 7  91615475.02707       219.007 7        45.190
R17        36.000    19553436.269 7 104634784.38207     -2184.351 7        47.969                                                                    19553440.246 6  81382345.29506     -1699.062 6        37.849
R09        37.000    23993205.369 6 128122381.93306      3160.510 6        37.130                                                                    23993208.200 5  99650797.15905      2458.128 5        30.589
R24        38.000    23297765.887 4 124583679.39704     -5016.085 4        26.132                                                                    23297789.749 3                     -3899.483 3        20.738
C12        41.000                                                                                                                                    23124734.274 6 120416590.41306      1606.599 6        40.961    23124735.506 8  93113835.23708      1242.361 8        48.364    23124730.405 5  97848422.36405      1305.289 5        35.652
C35        42.000                                                                                                                                    22581675.978 8 117588689.84108     -2598.246 8        51.010                                                                    22581677.003 7  95550482.00807     -2111.378 7        44.799
C38        44.000                                                                                                                                    39421972.793 4 205280570.52504       410.930 4        29.526
C25        45.000                                                                                                                                    24476642.147 7 127456314.87407      1983.536 7        44.167                                                                    24476643.406 6 103568826.20806      1611.761 6        41.762
C26        48.000                                                                                                                                    23397202.399 7 121835372.86307     -3403.025 7        45.806                                                                    23397205.211 7  99001229.12507     -2765.280 7        44.090
C24        51.000                                                                                                                                    21501699.128 7 111964996.35807      -597.824 7        47.319                                                                    21501697.384 7  90980793.08607      -485.803 7        45.500
C34        52.000                                                                                                                                    25076548.659 6 130580099.48306      2375.786 6        39.489                                                                    25076535.636 4 106107043.56504      1930.417 4        27.569
I02        55.000    37711932.397 5 147989741.22905     -1021.440 5        35.533
I06        58.000    38746605.191 5 152050044.75505      -705.041 5        34.043
> 2025 01 02 15 16 40.0000000  0 40
G11         2.000    23196994.872 4 121901040.10504     -3038.646 4        28.341                                    23196990.801 1  94987799.74601     -2367.616 1         4.571    23196995.051 4  94987788.84104     -2367.328 4        26.275
G25         3.000    20164385.381 7 105964515.43107     -2058.237 7        45.368                                    20164382.975 6  82569828.86806     -1603.821 6        38.327    20164385.026 6  82569815.85806     -1603.795 6        38.787
G32         4.000    25202479.773 4                     -3757.537 4        27.162
E25         6.000    23434536.736 7 123149361.80207     -1347.141 7        42.942                                                                    23434538.639 7  91962315.27707     -1005.960 7        46.449    23434537.167 7  94361227.86807     -1032.188 7        45.743
G31         7.000    22544387.402 7 118471559.11507      1416.596 7        44.858                                    22544384.877 6  92315532.74206      1103.841 6        38.366    22544386.912 6  92315525.73706      1103.919 6        39.495
G28         8.000    21447495.233 6 112707479.37506      -200.189 6        40.365                                    21447493.345 3  87823930.67403      -156.005 3        22.914    21447494.467 6  87823909.65106      -155.956 6        41.151
G29         9.000    20564510.415 8 108067297.20508        -7.607 8        48.409                                    20564508.478 7  84208284.48607        -5.930 7        47.704    20564508.907 7  84208236.47807        -5.918 7        45.481
E11        10.000    24300854.678 6 127701942.70306       246.657 6        41.371                                                                    24300853.163 7  95361801.65307       184.210 7        45.008    24300852.855 7  97849498.61607       189.132 7        42.995
E10        11.000    24932764.198 5 131022705.77105     -1391.251 5        35.319                                                                    24932765.673 6  97841546.14606     -1039.043 6        41.380    24932766.077 7 100393990.58107     -1066.088 7        47.242
G18        12.000    24533347.745 4                      2921.140 4        28.834
E12        13.000                                                                                                                                    26411451.083 5 103644205.16015     -1964.010 5        34.562    26411446.316 5 106347962.42505     -2015.224 5        34.281
G20        14.000    24052351.473 5                       607.650 5        31.494
G12        15.000    22868598.897 6 120175258.91806     -3845.205 6        37.747                                    22868610.817 2  93643220.41702     -2996.250 2        16.377    22868609.762 4                     -2996.250 4        26.826
E24        16.000    26848394.811 6 141089300.61706     -3175.913 6        36.042                                                                    26848398.269 5                     -2371.571 5        32.281    26848397.336 5                     -2433.365 5        30.483
G26        17.000    24251842.314 5 127444333.25905      2501.698 5        30.287
E07        18.000    28007840.341 5 147182241.42105      -120.325 5        31.328                                                                                                                                    28007862.285 5 112776003.02005       -92.144 5        34.543
E08        20.000    27049685.649 6 142147014.74506     -2450.550 6        37.762                                                                    27049687.635 6 106148810.76506     -1829.888 6        36.578
E02        21.000    24706785.263 6 129835101.65206       961.785 6        41.483                                                                    24706788.603 5  96954793.46705       718.172 5        35.276    24706785.651 6  99484026.29606       736.902 6        37.512
S23        22.000    38243810.065 5 200972551.57305      -865.599 5        33.808
E36        24.000    26369750.691 5 138574010.11005      2261.361 5        34.967                                                                    26369757.260 7 103480661.12607      1688.591 7        42.186    26369756.386 7 106180143.45307      1732.591 7        42.286
R18        25.000    19990078.288 8 106708600.89108      1751.442 8        49.522                                                                    19990081.619 7  82995471.42807      1362.204 7        47.476
E03        26.000                                                                                                                                    28049937.192 4                     -2783.223 4        25.158    28049938.052 3                     -2853.766 3        22.705
S21        27.000    38525049.055 5 202450602.14905      -861.007 5        34.929
R07        28.000    23666805.231 6 126690199.36106     -2459.917 6        38.847                                                                    23666803.949 5  98536859.45505     -1913.241 5        31.698
R15        30.000    19903774.205 7 106360028.18207     -2797.583 7        42.521                                                                    19903778.622 6  82724235.90106     -2176.061 6        36.888
S36        31.000    38296391.674 6 201248925.42406      -861.363 6        36.885
R16        34.000    19828485.938 7 105920806.61507      1201.513 7        47.079                                                                    19828490.231 7  82382534.95907       934.433 7        43.829
C44        35.000                                                                                                                                    21651418.757 7 112744935.28707       266.782 7        47.316                                                                    21651419.813 7  91614385.87507       216.916 7        45.323
R17        36.000    19555479.465 8 104645717.14308     -2188.540 8        48.202                                                                    19555482.804 6  81390848.53406     -1702.353 6        37.410
R09        37.000    23990246.000 6 128106579.94606      3160.363 6        38.012                                                                    23990251.072 5  99638506.80805      2458.119 5        30.158
R24        38.000    23302446.000 5 124608760.42905     -5016.774 5        30.355                                                                    23302464.414 3                     -3902.227 3        20.857
C12        41.000                                                                                                                                    23123193.676 7 120408562.82307      1604.523 7        42.576    23123193.530 7  93107627.79807      1240.723 7        47.772    23123188.524 6  97841899.30906      1304.014 6        36.590
C35        42.000                                                                                                                                    22584172.274 8 117601686.96708     -2600.388 8        50.059                                                                    22584172.786 7  95561043.21607     -2112.919 7        44.135
C38        44.000                                                                                                                                    39421580.630 4 205278517.96204       410.297 4        28.597
C25        45.000                                                                                                                                    24474738.110 7 127446400.58607      1982.290 7        44.576                                                                    24474739.465 6 103560770.03306      1611.005 6        41.819
C26        48.000                                                                                                                                    23400471.496 7 121852393.24307     -3404.901 7        45.413                                                                    23400474.162 7  99015059.55207     -2766.629 7        43.989
C24        51.000                                                                                                                                    21502274.136 8 111967992.33408      -600.433 8        48.233                                                                    21502272.811 7  90983227.53907      -487.749 7        45.729
C34        52.000                                                                                                                                    25074273.001 6 130568223.88906      2374.688 6        38.574                                                                    25074254.782 4 106097393.69704      1930.081 4        25.699
I02        55.000    37713234.031 6 147994849.91306     -1021.631 6        36.242
I06        58.000    38747502.940 5 152053570.38805      -705.080 5        33.533
> 2025 01 02 15 16 45.0000000  0 40
G11         2.000                                                                                                                                                                    23199888.171 3                     -2368.175 3        21.095
G25         3.000    20166344.099 7 105974812.56207     -2060.826 7        46.025                                    20166342.502 6  82577852.61306     -1605.841 6        38.703    20166344.965 6  82577839.61206     -1605.972 6        39.318
G32         4.000    25206055.269 4                     -3757.917 4        27.725                                                                                                    25206088.796 3                     -2926.818 3        20.143
E25         6.000    23435819.276 7 123156100.75707     -1348.586 7        42.554                                                                    23435821.062 7  91967347.63507     -1007.137 7        46.503    23435819.449 7  94366391.49007     -1033.301 7        45.270
G31         7.000    22543040.668 7 118464482.80307      1413.733 7        46.227                                    22543037.863 6  92310018.75806      1101.601 6        38.784    22543040.373 6  92310011.76806      1101.574 6        39.132
G28         8.000    21447686.709 6 112708488.89906      -203.790 6        37.490                                    21447685.280 3  87824717.34703      -158.818 3        21.381    21447685.992 6  87824696.33106      -158.766 6        40.510
G29         9.000    20564518.764 8 108067341.51908       -10.296 8        48.461                                    20564516.893 7  84208319.01807        -8.023 7        47.987    20564517.322 7  84208270.99907        -7.976 7        45.874
E11        10.000    24300620.620 6 127700714.74206       244.102 6        41.712                                                                    24300619.568 7  95360884.67907       182.319 7        45.100    24300618.978 7  97848557.72407       187.123 7        43.033
E10        11.000    24934089.312 6 131029668.46806     -1393.978 6        36.862                                                                    24934091.230 6  97846745.58106     -1040.912 6        41.774    24934091.185 7 100399325.66007     -1068.141 7        47.382
G18        12.000    24530573.997 4                      2920.719 4        29.251
E12        13.000                                                                                                                                    26413953.789 5 103654029.89005     -1965.807 5        35.229    26413950.349 5 106358043.41205     -2017.120 5        34.338
G20        14.000    24051776.392 4                       605.149 4        28.142
G12        15.000    22872259.061 6 120194487.71506     -3846.375 6        36.575                                    22872269.378 3  93658203.89503     -2997.186 3        19.104    22872269.561 4                     -2997.404 4        26.635
E24        16.000    26851415.665 5 141105181.54005     -3176.856 5        35.609                                                                    26851422.446 5                     -2372.063 5        31.117    26851419.992 4                     -2433.768 4        28.768
G26        17.000    24249459.492 4 127431826.18904      2500.894 4        29.507
E07        18.000    28007958.158 4 147182849.32604      -122.610 4        29.896                                                                    28007992.446 4                       -91.717 4        26.778    28007976.530 5 112776468.90105       -94.235 5        34.843
E08        20.000    27052017.990 6 142159271.76106     -2452.542 6        36.223                                                                    27052020.605 6 106157963.73806     -1831.523 6        37.645
E02        21.000    24705870.789 7 129830294.96307       960.778 7        42.389                                                                    24705872.455 5  96951204.06805       717.432 5        33.713    24705870.288 6  99480343.22406       736.345 6        37.592
S23        22.000    38244632.187 5 200976880.47105      -866.100 5        34.933
E36        24.000    26367599.438 5 138562706.18405      2259.993 5        34.533                                                                    26367606.101 7 103472219.92207      1687.792 7        42.078    26367605.331 7 106171482.01607      1731.911 7        42.489
R18        25.000    19988439.850 8 106699852.70208      1747.650 8        50.621                                                                    19988442.657 7  82988667.28407      1359.317 7        46.855
E03        26.000                                                                                                                                    28053480.877 4                     -2782.793 4        24.812    28053484.004 3                     -2854.623 3        22.476
S21        27.000    38525869.074 6 202454908.64006      -861.524 6        36.692
R07        28.000    23669103.923 6 126702508.54506     -2463.954 6        40.384                                                                    23669106.527 6  98546433.22706     -1916.492 6        36.359
R15        30.000    19906393.642 6 106374023.61306     -2800.860 6        41.900                                                                    19906396.158 6  82735121.22006     -2178.247 6        36.820
S36        31.000    38297208.335 6 201253233.02306      -861.520 6        37.009
R16        34.000    19827363.492 7 105914805.64607      1198.651 7        46.850                                                                    19827367.280 7  82377867.56407       932.278 7        44.164
C44        35.000                                                                                                                                    21651164.023 7 112743607.17607       264.167 7        46.298                                                                    21651164.693 7  91613306.68707       214.822 7        45.342
R17        36.000    19557526.397 8 104656670.13608     -2192.753 8        48.707                                                                    19557528.923 6  81399367.52606     -1705.496 6        38.072
R09        37.000    23987286.533 5 128090777.82305      3160.038 5        35.614                                                                    23987291.982 4  99626216.19804      2458.392 4        28.891
R24        38.000    23307141.889 4 124633846.41304     -5018.145 4        28.645                                                                    23307172.009 3                     -3902.745 3        22.990
C12        41.000                                                                                                                                    23121653.743 7 120400544.61507      1602.514 7        43.517    23121653.302 7  93101427.60907      1239.190 7        46.869    23121649.393 6  97835383.87906      1302.255 6        38.498
C35        42.000                                                                                                                                    22586670.522 8 117614694.12608     -2602.627 8        49.862                                                                    22586670.327 7  95571612.61607     -2114.666 7        43.445
C38        44.000                                                                                                                                    39421187.134 4 205276470.64704       408.431 4        27.329
C25        45.000                                                                                                                                    24472835.266 7 127436491.30107      1981.161 7        44.476                                                                    24472836.791 7 103552717.98407      1610.065 7        42.172
C26        48.000                                                                                                                                    23403742.148 7 121869421.90807     -3406.733 7        45.013                                                                    23403744.312 7  99028896.76307     -2768.177 7        44.236
C24        51.000                                                                                                                                    21502851.744 8 111971000.54608      -603.072 8        48.546                                                                    21502850.624 7  90985672.00007      -489.907 7        45.928
C34        52.000                                                                                                                                    25071994.650 6 130556352.58306      2373.582 6        36.771                                                                    25071977.427 4 106087747.43004      1928.828 4        26.000
I02        55.000    37714536.572 5 147999959.41405     -1022.076 5        35.771
I06        58.000    38748401.295 5 152057096.18005      -705.212 5        33.186
> 2025 01 02 15 16 50.0000000  0 39
G11         2.000    23202808.049 3                     -3046.169 3        22.343
G25         3.000    20168305.640 7 105985121.79507     -2062.708 7        45.091                                    20168304.498 6  82585885.78906     -1607.310 6        38.781    20168306.976 6  82585872.78906     -1607.247 6        39.898
G32         4.000    25209624.970 4                     -3758.040 4        27.497
E25         6.000    23437102.786 7 123162846.36507     -1349.455 7        42.110                                                                    23437104.696 7  91972384.93707     -1007.680 7        46.469    23437102.922 7  94371560.21007     -1034.066 7        44.804
G31         7.000    22541695.816 7 118457419.91407      1411.574 7        47.509                                    22541693.533 6  92304515.23206      1099.919 6        38.991    22541696.033 6  92304508.24606      1099.873 6        39.553
G28         8.000    21447882.999 5 112709515.44805      -206.706 5        35.219                                    21447880.610 3  87825517.25803      -161.079 3        20.905    21447882.018 6  87825496.23906      -161.067 6        41.294
G29         9.000    20564530.044 8 108067398.31708       -12.314 8        48.464                                    20564527.755 8  84208363.27408        -9.597 8        48.127    20564528.269 7  84208315.26907        -9.547 7        46.122
E11        10.000    24300389.276 7 127699499.16807       242.197 7        42.442                                                                    24300388.343 7  95359976.95407       180.920 7        45.067    24300387.790 7  97847626.32007       185.534 7        43.697
E10        11.000    24935416.360 6 131036643.98906     -1396.208 6        36.465                                                                    24935418.730 7  97851954.57207     -1042.481 7        42.006    24935418.661 7 100404670.53407     -1069.646 7        47.698
G18        12.000    24527799.154 4                      2920.593 4        27.653
E12        13.000                                                                                                                                    26416459.465 5 103663862.27605     -1966.972 5        35.719    26416455.747 5 106368132.30005     -2018.404 5        35.300
G20        14.000    24051206.434 4                       602.482 4        25.368
G12        15.000    22875918.564 6 120213722.71706     -3847.306 6        37.013                                    22875929.553 3  93673192.20803     -2997.878 3        20.262    22875931.373 4                     -2998.154 4        29.223
E24        16.000    26854431.372 6 141121066.00506     -3177.073 6        36.344                                                                    26854444.332 4                     -2372.396 4        29.242    26854441.159 4                     -2434.570 4        25.218
E07        18.000    28008078.349 5 147183469.26405      -124.848 5        31.245                                                                    28008110.202 4                       -93.224 4        28.531    28008093.776 5 112776943.91305       -95.490 5        34.895
E08        20.000    27054350.531 5 142171538.78805     -2454.127 5        35.843                                                                    27054355.066 6 106167124.15306     -1832.635 6        37.240    27054360.576 5 108936679.59005     -1880.433 5        32.222
E02        21.000    24704957.037 7 129825492.13107       960.464 7        42.290                                                                    24704957.673 5  96947617.52105       716.872 5        32.305    24704956.957 6  99476663.15106       735.978 6        37.524
S23        22.000    38245451.544 5 200981209.95105      -865.608 5        33.898
E36        24.000    26365448.954 5 138551406.76705      2259.990 5        34.095                                                                    26365455.834 7 103463782.09607      1687.539 7        42.038    26365455.018 7 106162824.07807      1731.385 7        42.838
R18        25.000    19986804.153 8 106691122.47908      1744.564 8        51.311                                                                    19986806.856 7  82981877.11307      1356.891 7        46.944
E03        26.000                                                                                                                                    28057022.572 3                     -2782.617 3        22.895    28057030.179 3                     -2855.827 3        23.390
S21        27.000    38526681.135 6 202459215.36206      -860.964 6        37.244
R07        28.000    23671407.718 6 126714836.37506     -2467.104 6        40.846                                                                    23671410.555 6  98556021.50606     -1918.916 6        37.478
R15        30.000    19909015.635 7 106388034.48307     -2803.388 7        42.618                                                                    19909016.487 6  82746018.62506     -2180.812 6        36.798
S36        31.000    38298031.440 6 201257540.15106      -861.260 6        37.119
R16        34.000    19826243.342 7 105908818.09007      1196.413 7        45.351                                                                    19826246.493 7  82373210.59007       930.544 7        44.337
C44        35.000                                                                                                                                    21650912.121 7 112742291.25007       262.287 7        46.230                                                                    21650912.131 7  91612237.38207       213.013 7        45.658
R17        36.000    19559578.424 8 104667643.03908     -2196.325 8        49.407                                                                    19559579.487 6  81407901.98006     -1708.096 6        39.240
R09        37.000    23984325.464 5 128074975.50505      3160.844 5        34.314                                                                    23984334.766 4  99613925.68904      2458.199 4        27.497
R24        38.000                                                                                                                                    23311866.832 3                     -3902.664 3        23.943
C12        41.000                                                                                                                                    23120115.510 7 120392535.71907      1601.150 7        43.708    23120114.893 7  93095234.63207      1238.162 7        46.116    23120112.022 6  97828876.02306      1300.875 6        39.366
C35        42.000                                                                                                                                    22589170.790 8 117627711.24108     -2604.080 8        49.803                                                                    22589170.107 7  95582190.09107     -2116.122 7        42.842
C38        44.000                                                                                                                                    39420795.221 4 205274428.47904       407.980 4        27.701
C25        45.000                                                                                                                                    24470933.071 7 127426587.00607      1980.645 7        44.254                                                                    24470934.746 7 103544669.96407      1609.325 7        42.317
C26        48.000                                                                                                                                    23407014.658 7 121886458.83907     -3407.945 7        44.784                                                                    23407015.968 7  99042740.64607     -2769.251 7        44.364
C24        51.000                                                                                                                                    21503431.487 8 111974020.98708      -604.971 8        48.699                                                                    21503430.935 7  90988126.34807      -491.578 7        46.024
C34        52.000                                                                                                                                    25069710.825 5 130544485.54505      2373.350 5        34.495                                                                    25069698.846 3                      1927.745 3        22.914
I02        55.000    37715838.487 6 148005069.74506     -1021.879 6        36.057
I06        58.000    38749300.695 5 152060621.99505      -704.962 5        33.497
> 2025 01 02 15 16 55.0000000  0 40
G11         2.000    23205701.287 4                     -3045.984 4        28.872
G25         3.000    20170269.104 7 105995442.69107     -2065.744 7        44.895                                    20170268.744 6  82593928.05506     -1609.667 6        38.526    20170270.480 6  82593915.03006     -1609.628 6        40.205
G32         4.000    25213197.832 4                     -3759.327 4        29.270
E25         6.000    23438387.372 6 123169598.15206     -1351.238 6        41.404                                                                    23438389.479 7  91977426.86807     -1009.119 7        46.434    23438387.843 7  94376733.65707     -1035.409 7        44.548
G31         7.000    22540354.065 7 118450370.00407      1408.444 7        47.909                                    22540351.822 6  92299021.82006      1097.484 6        39.498    22540354.482 6  92299014.82706      1097.505 6        40.477
G28         8.000    21448080.788 5 112710558.54105      -210.445 5        33.551                                    21448079.065 3  87826330.06703      -163.974 3        19.881    21448080.418 6  87826309.03106      -163.956 6        41.011
G29         9.000    20564543.534 8 108067467.14908       -15.242 8        48.995                                    20564540.959 8  84208416.91508       -11.878 8        48.468    20564541.671 7  84208368.91207       -11.966 7        46.428
E11        10.000    24300159.768 7 127698295.50307       239.333 7        42.434                                                                    24300159.302 7  95359078.12807       178.733 7        45.272    24300158.646 7  97846704.04007       183.454 7        43.975
E10        11.000    24936746.640 6 131043631.80406     -1399.097 6        38.396                                                                    24936748.651 7  97857172.76107     -1044.722 7        42.368    24936748.539 7 100410024.85007     -1071.973 7        47.675
G18        12.000    24525026.301 4                      2920.222 4        27.437
E12        13.000                                                                                                                                    26418967.064 5 103673702.03305     -1969.030 5        35.233    26418963.189 5 106378228.71805     -2020.308 5        35.533
G20        14.000    24050621.461 4                       600.075 4        28.711
G12        15.000    22879584.404 6 120232963.44406     -3849.047 6        37.369                                    22879590.949 3  93688184.99803     -2999.238 3        20.000    22879591.919 4                     -2999.575 4        27.353
E24        16.000    26857452.140 6 141136953.39306     -3178.023 6        36.076                                                                    26857469.501 4                     -2372.846 4        27.533    26857451.781 4                     -2434.793 4        26.084
G26        17.000    24244715.840 5 127406818.66205      2499.990 5        34.038
E07        18.000    28008201.621 5 147184100.63805      -127.730 5        31.374                                                                    28008227.421 4                       -94.950 4        29.213    28008213.196 5 112777427.68705       -97.835 5        34.410
E08        20.000    27056683.078 5 142183815.28405     -2456.333 5        34.195                                                                    27056691.047 6 106176291.67706     -1834.530 6        37.119    27056698.873 5 108946086.26505     -1882.715 5        30.679
E02        21.000    24704043.963 7 129820692.73307       959.237 7        42.902                                                                    24704045.089 5  96944033.54305       716.489 5        30.453    24704044.488 6  99472985.67006       734.849 6        38.730
S23        22.000    38246271.054 5 200985539.31805      -866.348 5        35.267
E36        24.000    26363301.225 6 138540111.46006      2258.436 6        36.609                                                                    26363306.477 7 103455347.31307      1686.400 7        42.148    26363305.395 7 106154169.24407      1730.516 7        42.741
R18        25.000    19985172.299 8 106682409.70608      1740.513 8        52.185                                                                    19985175.268 7  82975100.53007      1353.780 7        46.769
E03        26.000                                                                                                                                    28060567.223 3                     -2780.524 3        22.324    28060575.286 3                     -2854.395 3        20.857
S21        27.000    38527499.392 5 202463522.00405      -861.673 5        35.857
R07        28.000    23673714.592 6 126727182.68106     -2471.311 6        37.660                                                                    23673713.915 5  98565624.14005     -1922.061 5        35.795
R15        30.000    19911639.270 7 106402060.36607     -2807.099 7        43.416                                                                    19911641.351 5  82756927.64505     -2183.124 5        33.892
S36        31.000    38298853.821 6 201261847.26106      -861.654 6        37.369
R16        34.000    19825126.353 7 105902843.25907      1193.407 7        46.791                                                                    19825128.207 7  82368563.50007       928.130 7        43.807
C44        35.000                                                                                                                                    21650662.781 7 112740987.03307       259.317 7        46.813                                                                    21650661.523 7  91611177.60007       211.073 7        45.640
R17        36.000    19561632.551 8 104678635.68908     -2200.722 8        49.323                                                                    19561633.483 6  81416451.80206     -1711.658 6        39.234
R09        37.000    23981365.644 5 128059172.56305      3160.404 5        32.677                                                                    23981373.700 4  99601634.59304      2458.158 4        26.922
R24        38.000    23316527.260 4                     -5019.204 4        26.623                                                                    23316564.093 4                     -3904.416 4        24.887
C12        41.000                                                                                                                                    23118578.950 7 120384535.69107      1598.833 7        44.135    23118578.130 7  93089048.50607      1236.289 7        45.663    23118575.999 6  97822375.32906      1299.525 6        38.976
C35        42.000                                                                                                                                    22591672.623 8 117640737.84608     -2606.529 8        50.405                                                                    22591671.709 7  95592775.27507     -2117.765 7        42.347
C38        44.000                                                                                                                                    39420411.589 4 205272390.94704       407.033 4        28.787
C25        45.000                                                                                                                                    24469031.254 7 127416687.28207      1979.193 7        43.424                                                                    24469033.338 7 103536625.61907      1608.633 7        42.284
C26        48.000                                                                                                                                    23410288.774 7 121903503.54607     -3410.019 7        45.502                                                                    23410289.052 7  99056590.86807     -2770.625 7        44.066
C24        51.000                                                                                                                                    21504013.721 8 111977053.19808      -607.939 8        49.245                                                                    21504013.402 7  90990590.26507      -493.720 7        46.441
C34        52.000                                                                                                                                                                                                                                                                    25067425.406 3                      1930.648 3        22.609
I02        55.000    37717141.595 6 148010180.71106     -1022.285 6        36.121
I06        58.000    38750199.013 5 152064147.63205      -705.229 5        32.946
> 2025 01 02 15 17  0.0000000  0 40
G11         2.000    23208593.863 5                     -3048.034 5        33.263
G25         3.000    20172235.296 7 106005775.28207     -2067.728 7        44.734                                    20172235.247 6  82601979.43606     -1611.216 6        38.237    20172236.428 6  82601966.41006     -1611.202 6        40.119
G32         4.000    25216781.686 4                     -3759.394 4        29.706
E25         6.000    23439673.807 6 123176356.20406     -1352.048 6        41.507                                                                    23439675.292 7  91982473.46407     -1009.772 7        46.608    23439674.135 7  94381911.90907     -1036.134 7        44.153
G31         7.000    22539015.001 8 118443333.11108      1406.067 8        48.334                                    22539012.746 6  92293538.55106      1095.629 6        39.811    22539015.188 6  92293531.53306      1095.791 6        40.381
G28         8.000    21448283.335 5 112711618.25505      -213.273 5        34.981                                    21448280.659 3  87827155.80503      -166.167 3        18.687    21448280.632 6  87827134.77006      -166.405 6        40.603
G29         9.000    20564559.178 8 108067548.05808       -17.379 8        49.259                                    20564556.548 8  84208479.96308       -13.548 8        48.858    20564557.160 7  84208431.96807       -13.513 7        46.637
E11        10.000    24299932.695 7 127697103.82807       237.322 7        42.720                                                                    24299932.483 7  95358188.25607       177.144 7        45.547    24299931.539 7  97845790.95907       181.709 7        43.949
E10        11.000    24938077.474 6 131050632.01906     -1401.233 6        38.625                                                                    24938080.748 7  97862400.19707     -1046.434 7        42.485    24938080.672 7 100415388.65307     -1073.719 7        47.482
G18        12.000    24522254.588 4                      2919.685 4        24.722
E12        13.000                                                                                                                                    26421476.241 5 103683549.12605     -1970.147 5        35.876    26421473.297 5 106388332.72005     -2021.931 5        35.829
G20        14.000    24050051.651 3                       596.943 3        23.848
G12        15.000    22883252.812 5 120252209.97605     -3849.959 5        34.805                                    22883253.830 3  93703182.28503     -2999.969 3        18.239    22883253.141 4                     -2999.546 4        25.564
E24        16.000    26860476.746 6 141152843.81106     -3178.269 6        36.276                                                                    26860494.871 4                     -2373.210 4        26.575    26860476.472 4                     -2434.984 4        26.156
G26        17.000    24242341.955 6 127394317.88406      2499.815 6        36.132                                                                                                    24242373.345 3                      1948.946 3        22.648
E07        18.000    28008327.627 5 147184743.41805      -129.981 5        30.309                                                                    28008347.927 4                       -96.776 4        29.289    28008334.461 5 112777920.10305       -99.350 5        33.916
E08        20.000    27059020.122 5 142196101.33305     -2458.231 5        34.871                                                                    27059029.182 6 106185466.29106     -1835.548 6        36.885    27059037.536 4 108955500.15804     -1883.243 4        26.491
E02        21.000    24703131.501 7 129815896.78807       958.834 7        43.604                                                                    24703132.064 5  96940452.13705       716.183 5        30.234    24703132.232 6  99469310.84706       734.768 6        39.252
S23        22.000    38247099.977 6 200989868.55806      -865.731 6        36.038
E36        24.000    26361152.186 6 138528820.24106      2257.905 6        38.186                                                                    26361157.843 7 103446915.61507      1686.094 7        42.135    26361156.356 7 106145517.58207      1730.092 7        42.383
R18        25.000    19983543.013 8 106673714.47508      1737.310 8        51.874                                                                    19983546.144 7  82968337.58907      1351.179 7        45.767
E03        26.000                                                                                                                                                                                                    28064117.826 3                     -2853.796 3        21.167
S21        27.000    38528323.709 6 202467828.69706      -861.466 6        36.170
R07        28.000                                                                                                                                    23676018.980 5  98575241.03005     -1924.690 5        34.781
R15        30.000    19914268.980 7 106416101.30307     -2809.594 7        44.612                                                                    19914270.215 5  82767848.43605     -2185.501 5        32.317
S36        31.000    38299671.542 6 201266154.20406      -861.454 6        37.429
R16        34.000    19824012.248 8 105896881.43708      1191.106 8        48.398                                                                    19824012.429 7  82363926.54007       926.403 7        44.381
C44        35.000                                                                                                                                    21650415.239 8 112739694.60208       257.301 8        48.043                                                                    21650413.492 7  91610127.43807       208.998 7        46.038
R17        36.000    19563690.172 8 104689647.83608     -2204.355 8        49.293                                                                    19563691.269 6  81425016.79806     -1714.502 6        38.592
R09        37.000    23978406.794 5 128043369.14505      3160.680 5        30.241
R24        38.000    23321225.066 4                     -5020.157 4        26.335                                                                    23321249.388 4                     -3904.940 4        28.019
C12        41.000                                                                                                                                    23117042.404 7 120376544.64407      1597.315 7        43.185    23117042.963 7  93082869.32707      1235.119 7        45.663    23117040.760 6  97815881.97206      1297.999 6        39.775
C35        42.000                                                                                                                                    22594175.938 8 117653774.01108     -2608.160 8        49.516                                                                    22594175.232 7  95603368.24307     -2119.422 7        42.502
C38        44.000                                                                                                                                    39420024.763 5 205270358.30405       405.951 5        32.114
C25        45.000                                                                                                                                    24467130.372 7 127406792.15807      1978.491 7        42.449                                                                    24467132.976 7 103528585.05607      1607.683 7        42.415
C26        48.000                                                                                                                                    23413563.853 7 121920556.11707     -3411.286 7        46.299                                                                    23413563.343 7  99070447.49607     -2772.042 7        44.048
C24        51.000                                                                                                                                    21504598.462 8 111980097.22208      -609.942 8        49.982                                                                    21504598.174 7  90993063.80807      -495.697 7        46.549
C34        52.000                                                                                                                                    25065138.396 5 130520763.05405      2371.409 5        31.789
I02        55.000    37718444.000 6 148015292.13606     -1022.092 6        36.953
I06        58.000    38751096.960 5 152067673.10805      -705.135 5        33.359
> 2025 01 02 15 17  5.0000000  0 38
G11         2.000    23211494.922 5 121977232.22915     -3051.617 5        33.353                                                                                                    23211567.312 3                     -2377.045 3        22.171
G25         3.000    20174204.086 7 106016119.48407     -2070.268 7        44.403                                    20174204.058 6  82610039.85106     -1613.193 6        38.000    20174205.190 6  82610026.82406     -1613.210 6        39.330
G32         4.000    25220365.324 4                     -3759.720 4        26.958
E25         6.000    23440960.828 6 123183120.42706     -1353.759 6        39.823                                                                    23440962.402 7  91987524.68007     -1010.931 7        46.642    23440961.188 7  94387094.89607     -1037.347 7        43.810
G31         7.000    22537678.060 8 118436309.20708      1403.203 8        48.089                                    22537676.316 6  92288065.40106      1093.400 6        40.229    22537677.439 6  92288058.39706      1093.380 6        41.008
G28         8.000    21448488.001 5 112712694.49905      -217.068 5        34.876                                    21448485.334 3  87827994.42803      -169.151 3        18.000    21448484.772 6  87827973.41106      -169.114 6        38.634
G29         9.000    20564576.984 8 108067640.99808       -20.084 8        49.003                                    20564574.443 8  84208552.39408       -15.656 8        49.261    20564574.955 7  84208504.40107       -15.630 7        46.892
E11        10.000    24299708.382 7 127695924.08107       234.508 7        42.315                                                                    24299708.088 7  95357307.27907       175.154 7        45.237    24299706.673 7  97844886.99807       179.692 7        44.143
E10        11.000    24939411.065 6 131057644.55806     -1404.222 6        37.032                                                                    24939415.182 7  97867636.81707     -1048.432 7        43.107    24939415.382 7 100420761.88507     -1075.789 7        47.564
E12        13.000                                                                                                                                    26423987.340 6 103693403.57106     -1971.761 6        36.495    26423985.168 6 106398444.19906     -2023.078 6        36.526
G20        14.000    24049488.701 3                       593.477 3        21.762
G12        15.000    22886920.628 5 120271462.25605     -3850.914 5        31.283                                    22886917.730 2  93718184.02102     -3000.756 2        14.667    22886917.908 3                     -2999.399 3        19.821
E24        16.000    26863500.250 5 141168737.22105     -3179.106 5        34.848                                                                    26863529.498 4                     -2374.200 4        27.473    26863499.548 4                     -2435.343 4        25.895
G26        17.000    24239963.274 5 127381819.06005      2499.426 5        35.643                                                                                                    24240003.823 3                      1947.275 3        22.724
E07        18.000    28008454.584 4 147185397.88304      -132.941 4        29.829                                                                    28008469.282 5                       -98.488 5        31.321    28008460.475 5 112778421.44105      -101.470 5        34.457
E08        20.000    27061360.950 5 142208396.85005     -2460.265 5        32.497                                                                    27061369.076 6 106194647.99106     -1837.404 6        36.696    27061378.300 4 108964921.48104     -1885.175 4        24.286
E02        21.000    24702219.574 7 129811104.27307       957.866 7        44.274                                                                    24702220.887 5  96936873.34805       715.148 5        32.527    24702220.432 6  99465638.69106       734.030 6        38.057
S23        22.000    38247917.819 5 200994197.90505      -866.087 5        35.790
E36        24.000    26359003.951 6 138517533.13106      2256.737 6        38.922                                                                    26359009.798 7 103438486.96707      1685.247 7        42.286    26359008.157 7 106136869.05807      1729.150 7        42.474
R18        25.000    19981917.428 8 106665036.77508      1733.499 8        51.856                                                                    19981919.461 7  82961588.27007      1348.320 7        44.563
S21        27.000    38529143.340 5 202472135.35605      -861.470 5        35.990
R07        28.000    23678327.518 5 126751930.07405     -2478.596 5        34.648                                                                    23678334.625 5  98584872.02005     -1927.713 5        34.452
R15        30.000    19916899.305 7 106430157.22807     -2812.874 7        44.313                                                                    19916902.502 5  82778780.77005     -2187.885 5        32.485
S36        31.000    38300494.164 6 201270460.61406      -861.487 6        36.900
R16        34.000    19822897.235 7 105890932.44607      1188.233 7        47.803                                                                    19822898.522 7  82359299.57807       924.239 7        44.916
C44        35.000                                                                                                                                    21650168.952 8 112738413.90708       254.794 8        48.424                                                                    21650167.636 7  91609086.76107       206.953 7        45.792
R17        36.000    19565750.847 8 104700679.63008     -2208.565 8        49.377                                                                    19565753.285 6  81433597.08806     -1717.844 6        38.880
R09        37.000    23975448.310 5 128027565.14805      3160.527 5        32.353                                                                    23975458.898 5  99577051.06005      2458.134 5        30.370
R24        38.000                                                                                                                                    23325934.991 4                     -3905.735 4        27.557
C12        41.000                                                                                                                                    23115508.894 6 120368562.44406      1595.299 6        41.857    23115509.655 7  93076696.98107      1233.552 7        45.275    23115507.796 6  97809395.77306      1296.212 6        39.622
C35        42.000                                                                                                                                    22596680.748 8 117666819.66408     -2610.401 8        49.586                                                                    22596680.751 7  95613968.89907     -2121.144 7        42.409
C38        44.000                                                                                                                                    39419634.887 5 205268330.34305       404.340 5        31.306
C25        45.000                                                                                                                                    24465230.961 7 127396901.57207      1977.451 7        42.974                                                                    24465234.015 7 103520548.15507      1606.745 7        42.741
C26        48.000                                                                                                                                    23416839.994 7 121937616.44407     -3413.160 7        47.078                                                                    23416839.407 7  99084310.39107     -2773.603 7        43.458
C24        51.000                                                                                                                                    21505185.485 8 111983152.99808      -612.607 8        50.540                                                                    21505185.203 7  90995546.87507      -497.882 7        46.395
C34        52.000                                                                                                                                    25062867.099 5 130508907.48505      2370.391 5        30.234                                                                    25062892.581 4                      1926.581 4        25.248
I02        55.000    37719746.288 5 148020404.06705     -1022.419 5        35.929
I06        58.000    38751994.530 5 152071198.30505      -705.360 5        33.150
> 2025 01 02 15 17 10.0000000  0 39
G11         2.000    23214395.521 5 121992494.00705     -3053.430 5        32.952
G25         3.000    20176174.468 7 106026474.83807     -2072.102 7        44.655                                    20176174.881 6  82618108.96206     -1614.623 6        37.951    20176176.185 6  82618095.93406     -1614.623 6        39.198
G32         4.000    25223950.568 4                     -3760.549 4        29.014
E25         6.000    23442247.861 6 123189890.36106     -1354.479 6        37.981                                                                    23442250.878 7  91992580.15907     -1011.532 7        46.805    23442249.353 7  94392282.24107     -1037.844 7        43.177
G31         7.000    22536343.951 7 118429297.80307      1400.971 7        47.863                                    22536342.382 6  92282601.98906      1091.661 6        40.613    22536343.127 6  92282594.98406      1091.687 6        41.006
G28         8.000    21448695.489 5 112713786.83605      -220.110 5        35.281                                    21448692.929 2  87828845.58102      -171.526 2        17.849    21448693.092 6  87828824.56906      -171.564 6        36.378
G29         9.000    20564596.396 8 108067745.55708       -22.073 8        49.341                                    20564594.516 8  84208633.87708       -17.205 8        49.645    20564595.093 7  84208585.87807       -17.210 7        46.972
E11        10.000    24299486.043 7 127694755.80607       232.498 7        42.614                                                                    24299485.662 7  95356434.87107       173.619 7        45.454    24299484.286 7  97843991.82907       178.176 7        44.057
E10        11.000    24940747.750 6 131064668.89806     -1406.097 6        36.042                                                                    24940751.698 7  97872882.27807     -1050.022 7        43.562    24940752.350 7 100426144.18107     -1077.404 7        47.474
E12        13.000    26426505.801 3                     -2641.937 3        19.463                                                                    26426500.559 6 103703264.97406     -1972.858 6        36.412    26426498.437 6 106408562.86706     -2024.527 6        36.991
G20        14.000    24048922.379 4                       592.451 4        28.028
G12        15.000    22890591.071 4 120290719.71204     -3852.085 4        28.768                                    22890582.573 1  93733189.91601     -3001.488 1        10.593
E24        16.000    26866522.745 5 141184633.13805     -3179.303 5        34.829                                                                    26866556.281 4                     -2374.457 4        27.796    26866523.036 4                     -2435.740 4        25.609
G26        17.000    24237587.399 5 127369321.63905      2499.552 5        32.383
E07        18.000    28008582.893 4 147186063.43704      -134.033 4        29.772                                                                    28008594.188 5                      -100.361 5        32.012    28008586.406 5 112778931.36105      -102.765 5        33.832
E08        20.000    27063702.285 5 142220701.36705     -2462.135 5        30.611                                                                    27063709.970 6 106203836.41006     -1838.449 6        36.076    27063721.629 4 108974349.70504     -1886.207 4        24.090
E02        21.000    24701308.065 7 129806314.71007       957.583 7        44.268                                                                    24701310.860 5  96933296.70805       715.106 5        33.084    24701307.327 6  99461968.77806       733.711 6        36.922
S23        22.000    38248751.888 6 200998526.71506      -865.767 6        36.809
E36        24.000    26356855.943 6 138506249.63606      2256.274 6        39.417                                                                    26356862.788 7 103430061.02107      1684.852 7        42.417    26356860.530 7 106128223.29607      1728.839 7        42.178
R18        25.000    19980294.680 8 106656376.11808      1730.375 8        51.636                                                                    19980296.448 7  82954852.23407      1345.803 7        43.818
E03        26.000                                                                                                                                                                                                    28071190.467 4                     -2854.710 4        26.742
S21        27.000    38529963.395 5 202476441.48905      -861.131 5        35.843
R07        28.000    23680649.991 5 126764330.73705     -2481.905 5        35.600                                                                    23680652.442 5  98594516.99805     -1930.484 5        34.876
R15        30.000    19919531.192 7 106444227.56007     -2815.641 7        44.167                                                                    19919534.184 5  82789724.36205     -2189.553 5        30.702
S36        31.000    38301308.241 5 201274765.94605      -860.693 5        35.319
R16        34.000    19821784.071 8 105884995.78808      1186.060 8        48.203                                                                    19821787.141 7  82354682.20507       922.450 7        45.907
C44        35.000                                                                                                                                    21649924.400 8 112737144.48308       252.742 8        48.467                                                                    21649923.933 7  91608055.27007       205.382 7        45.917
R17        36.000    19567815.864 8 104711730.40908     -2212.022 8        48.583                                                                    19567817.980 6  81442192.15406     -1720.646 6        39.589
R09        37.000    23972492.442 5 128011760.13205      3161.220 5        34.386                                                                    23972499.278 5  99564758.31605      2458.333 5        33.383
R24        38.000                                                                                                                                    23330623.429 5                     -3906.220 5        30.143
C12        41.000                                                                                                                                    23113976.594 6 120360588.67506      1593.851 6        41.311    23113978.517 7  93070531.16507      1232.477 7        45.044    23113976.528 6  97802916.45806      1295.270 6        40.248
C35        42.000                                                                                                                                    22599188.082 8 117679874.30608     -2611.779 8        49.598                                                                    22599187.998 6  95624576.89506     -2122.276 6        41.957
C38        44.000                                                                                                                                    39419245.869 4 205266306.50104       404.292 4        28.768
C25        45.000                                                                                                                                    24463333.055 7 127387015.05607      1976.833 7        43.124                                                                    24463335.532 7 103512514.60207      1606.387 7        43.141
C26        48.000                                                                                                                                    23420117.481 7 121954684.06707     -3414.298 7        47.870                                                                    23420117.123 7  99098179.25507     -2774.531 7        43.225
C24        51.000                                                                                                                                    21505774.973 8 111986220.06708      -614.578 8        51.012                                                                    21505774.090 7  90998039.16007      -499.411 7        46.277
C34        52.000                                                                                                                                    25060593.304 5 130497055.29405      2370.178 5        30.551                                                                    25060619.548 4                      1924.994 4        24.541
I02        55.000    37721048.891 5 148025516.01905     -1022.228 5        34.624
I06        58.000    38752893.714 5 152074722.93905      -704.866 5        33.060
> 2025 01 02 15 17 15.0000000  0 38
G25         3.000    20178147.228 7 106036842.04107     -2074.547 7        44.388                                    20178147.962 6  82626187.30306     -1616.527 6        37.856    20178149.416 6  82626174.27106     -1616.419 6        39.231
G32         4.000                                                                                                                                                                    25227552.673 3                     -2928.661 3        20.857
E25         6.000    23443536.785 6 123196666.68506     -1355.748 6        37.595                                                                    23443540.136 7  91997640.40407     -1012.413 7        47.050    23443538.745 7  94397474.49607     -1038.808 7        43.168
G31         7.000    22535012.222 7 118422299.57607      1398.456 7        46.964                                    22535011.144 6  92277148.84206      1089.707 6        40.796    22535010.968 6  92277141.82806      1089.802 6        40.434
G28         8.000    21448909.527 6 112714895.90606      -223.284 6        37.342                                    21448903.637 3  87829709.78303      -173.975 3        19.075    21448905.317 5  87829688.77105      -174.009 5        35.981
G29         9.000    20564618.995 8 108067862.37408       -24.473 8        49.663                                    20564616.861 8  84208724.91308       -19.071 8        49.918    20564617.203 7  84208676.91707       -19.120 7        46.881
E11        10.000    24299265.985 7 127693599.66607       230.073 7        42.654                                                                    24299265.615 7  95355571.52507       171.867 7        45.699    24299264.246 7  97843105.95407       176.287 7        44.027
E10        11.000    24942087.570 6 131071705.74806     -1408.491 6        37.543                                                                    24942090.789 7  97878137.06607     -1051.848 7        44.054    24942091.374 7 100431536.05307     -1079.255 7        47.182
G18        12.000    24513950.302 4                      2918.266 4        25.714
E12        13.000    26429018.633 3                     -2644.073 3        22.705                                                                    26429015.379 6 103713133.85506     -1974.369 6        36.507    26429013.563 6 106418689.18506     -2026.016 6        37.161
G20        14.000    24048358.400 4                       590.209 4        26.970
E24        16.000    26869548.451 5 141200532.22205     -3180.328 5        32.754                                                                                                                                    26869549.121 4                     -2436.730 4        25.940
G26        17.000    24235212.892 4 127356826.35104      2498.796 4        28.682                                                                                                    24235269.090 3                      1947.619 3        23.390
E07        18.000    28008705.642 5 147186740.82105      -136.731 5        31.751                                                                    28008719.796 5                      -102.060 5        31.698    28008714.686 5 112779450.34105      -104.253 5        32.587
E08        20.000    27066043.625 4 142233015.46904     -2463.752 4        28.313                                                                    27066052.031 5 106213032.00305     -1839.511 5        34.443    27066063.885 3                     -1887.844 3        22.267
E02        21.000    24700397.164 7 129801528.77007       956.860 7        44.351                                                                    24700400.842 5  96929722.82105       714.252 5        33.281    24700396.073 5  99458301.62605       733.300 5        35.538
S23        22.000    38249567.794 6 201002855.48306      -865.692 6        36.102
E36        24.000    26354709.063 6 138494970.41406      2255.649 6        40.579                                                                    26354716.468 7 103421638.25407      1684.380 7        42.737    26354714.017 6 106119580.81506      1728.216 6        41.855
R18        25.000    19978675.266 8 106647733.19408      1726.874 8        51.584                                                                    19978678.385 7  82948129.96307      1343.218 7        43.118
E03        26.000                                                                                                                                                                                                    28074740.564 4                     -2854.773 4        27.653
S21        27.000    38530780.258 6 202480747.60806      -861.208 6        36.374
R07        28.000    23682966.669 6 126776749.71606     -2485.385 6        36.336                                                                    23682972.590 6  98604176.21606     -1933.255 6        36.268
R15        30.000    19922166.598 7 106458313.06207     -2818.500 7        43.636                                                                    19922169.298 5  82800679.76105     -2192.339 5        30.694
S36        31.000    38302130.796 6 201279071.15206      -860.852 6        36.567
R16        34.000    19820674.898 8 105879072.35308      1183.472 8        48.652                                                                    19820677.859 7  82350075.09907       920.568 7        45.749
C44        35.000                                                                                                                                    21649682.297 8 112735886.97108       250.391 8        48.075                                                                    21649682.519 7  91607033.45107       203.356 7        45.613
R17        36.000    19569884.544 8 104722801.02508     -2216.089 8        48.706                                                                    19569886.583 6  81450802.60206     -1723.447 6        40.284
R09        37.000    23969530.637 5 127995954.75805      3161.620 5        35.410                                                                    23969538.954 5  99552465.29105      2458.754 5        32.886
R24        38.000    23335301.247 4                     -5022.289 4        26.874                                                                    23335321.423 4                     -3906.806 4        28.408
C12        41.000                                                                                                                                    23112447.548 6 120352624.01606      1592.032 6        41.704    23112449.455 7  93064372.38707      1231.215 7        45.102    23112447.543 6  97796444.54306      1293.599 6        40.286
C35        42.000                                                                                                                                    22601697.114 8 117692938.61008     -2613.680 8        49.021                                                                    22601696.715 6  95635192.71806     -2123.927 6        41.404
C38        44.000                                                                                                                                    39418856.741 5 205264287.65305       403.626 5        31.985
C25        45.000                                                                                                                                    24461435.371 7 127377133.28707      1975.939 7        43.357                                                                    24461437.699 7 103504484.90107      1605.573 7        43.067
C26        48.000                                                                                                                                    23423396.619 8 121971759.64308     -3415.762 8        48.429                                                                    23423396.580 7  99112054.56007     -2775.736 7        43.634
C24        51.000                                                                                                                                    21506366.539 8 111989299.11708      -616.962 8        51.128                                                                    21506365.155 7  91000541.14807      -501.347 7        46.244
C34        52.000                                                                                                                                    25058316.715 4 130485207.26204      2369.007 4        29.716                                                                    25058347.163 4                      1925.582 4        25.398
I02        55.000    37722351.680 5 148030628.59905     -1022.540 5        34.633
I06        58.000    38753791.405 5 152078247.48305      -704.970 5        33.275
> 2025 01 02 15 17 20.0000000  0 38
G11         2.000    23220179.837 5 122023057.07905     -3058.462 5        33.257
G25         3.000    20180122.838 7 106047221.34307     -2076.955 7        44.331                                    20180123.283 6  82634275.07306     -1618.403 6        37.217    20180125.036 6  82634262.03406     -1618.231 6        38.727
E25         6.000    23444826.894 5 123203449.65705     -1356.969 5        34.648                                                                    23444830.773 7  92002705.62707     -1013.465 7        46.954    23444829.222 7  94402671.85107     -1039.828 7        42.502
G31         7.000    22533682.833 7 118415314.81807      1395.720 7        47.282                                    22533682.505 6  92271706.19606      1087.571 6        40.803    22533682.246 6  92271699.17606      1087.669 6        40.663
G28         8.000    21449123.453 6 112716021.98806      -226.843 6        36.548                                    21449117.613 3  87830587.26003      -176.753 3        18.388    21449119.458 5  87830566.25505      -176.759 5        35.314
G29         9.000    20564643.580 8 108067991.68108       -26.915 8        49.813                                    20564641.522 8  84208825.68008       -20.974 8        49.808    20564641.738 7  84208777.68607       -20.987 7        46.553
E11        10.000    24299048.224 7 127692455.90807       227.660 7        42.772                                                                    24299048.183 7  95354717.43507       169.980 7        45.862    24299046.711 7  97842229.57707       174.485 7        44.223
E10        11.000    24943429.617 6 131078755.33906     -1410.903 6        39.180                                                                    24943432.319 7  97883401.39807     -1053.713 7        44.272    24943432.860 7 100436937.71107     -1081.184 7        46.822
G18        12.000    24511167.665 4                      2918.148 4        28.227                                                                                                    24511134.766 5 100368997.93115      2274.006 5        34.976
E12        13.000    26431532.369 3                     -2646.355 3        23.752                                                                    26431531.622 6 103723010.40806     -1976.004 6        36.284    26431530.198 6 106428823.35506     -2027.444 6        36.669
G12        15.000    22897947.359 4 120329252.70004     -3854.539 4        26.671                                    22897915.162 1  93763215.67101     -3003.699 1         4.429    22897891.373 4                     -3003.330 4        27.222
E24        16.000    26872573.962 5 141216434.76205     -3180.737 5        32.168                                                                    26872580.625 4                     -2375.456 4        29.649    26872573.843 4                     -2437.167 4        25.519
G26        17.000    24232832.959 4 127344333.36404      2498.659 4        27.126
E07        18.000    28008827.973 5 147187430.22505      -138.967 5        31.970                                                                    28008851.105 5                      -103.854 5        31.909    28008845.042 5 112779978.55105      -106.786 5        31.577
E08        20.000    27068390.522 4 142245339.57004     -2466.270 4        28.521                                                                    27068396.305 5 106222235.04205     -1841.363 5        33.126    27068407.378 3                     -1889.343 3        22.990
E02        21.000    24699487.087 7 129796746.72707       956.268 7        44.822                                                                    24699491.090 5  96926151.80105       713.992 5        32.144    24699487.239 6  99454637.44806       732.665 6        36.374
S23        22.000    38250385.256 5 201007184.68905      -865.807 5        35.171
E36        24.000    26352563.911 6 138483695.79606      2254.673 6        41.735                                                                    26352570.982 7 103413218.94607      1683.572 7        42.921    26352568.358 6 106110941.84806      1727.636 6        41.766
R18        25.000    19977059.793 8 106639108.29908      1723.364 8        51.829                                                                    19977062.091 7  82941421.74507      1340.339 7        42.817
E03        26.000                                                                                                                                    28078291.071 3                     -2780.717 3        20.905    28078290.169 4                     -2855.124 4        28.370
S21        27.000    38531596.847 6 202485053.96006      -860.909 6        36.836
R07        28.000    23685288.763 6 126789187.58506     -2489.474 6        39.201                                                                    23685296.854 6  98613850.07906     -1936.118 6        38.342
R15        30.000    19924805.707 7 106472414.02007     -2821.585 7        42.660                                                                    19924808.315 5  82811647.22405     -2194.372 5        32.509
S36        31.000    38302949.179 6 201283376.67406      -860.927 6        36.348
R16        34.000    19819569.101 8 105873162.23508      1180.875 8        48.945                                                                    19819570.796 7  82345478.36107       918.430 7        44.993
C44        35.000                                                                                                                                    21649442.945 8 112734641.66708       247.937 8        48.165                                                                    21649443.378 7  91606021.53307       201.623 7        46.169
R17        36.000    19571957.825 8 104733891.61308     -2219.926 8        48.918                                                                    19571960.407 6  81459428.62006     -1726.572 6        40.770
R09        37.000    23966570.516 6 127980149.32406      3161.201 6        36.972                                                                    23966578.544 5  99540172.14505      2458.537 5        32.156
R24        38.000    23339991.317 4                     -5024.033 4        27.245                                                                    23340022.784 4                     -3907.653 4        25.985
C12        41.000                                                                                                                                    23110920.329 6 120344668.68006      1590.233 6        41.092    23110921.678 7  93058220.85207      1229.702 7        44.328    23110919.847 6  97789980.18606      1292.351 6        40.236
C35        42.000                                                                                                                                    22604207.970 8 117706012.83908     -2615.701 8        48.733                                                                    22604207.229 6  95645816.58306     -2125.266 6        40.617
C38        44.000                                                                                                                                    39418469.393 5 205262273.99305       402.200 5        30.415
C25        45.000                                                                                                                                    24459538.911 7 127367256.56307      1974.866 7        43.509                                                                    24459541.145 7 103496459.27007      1604.938 7        42.988
C26        48.000                                                                                                                                    23426677.308 7 121988843.46107     -3417.390 7        47.944                                                                    23426677.367 7  99125936.54107     -2776.710 7        43.331
C24        51.000                                                                                                                                    21506959.998 8 111992390.41308      -619.330 8        50.760                                                                    21506958.799 7  91003053.06107      -503.092 7        46.400
C34        52.000                                                                                                                                    25056042.143 4 130473363.47404      2369.296 4        27.485                                                                    25056073.356 4                      1924.918 4        25.970
I02        55.000    37723655.042 5 148035742.02705     -1022.494 5        34.690
I06        58.000    38754690.146 5 152081772.14105      -704.747 5        33.916
> 2025 01 02 15 17 25.0000000  0 38
G11         2.000    23223096.850 5 122038357.85405     -3061.494 5        35.271
G25         3.000    20182100.254 7 106057612.01707     -2079.151 7        44.205                                    20182100.572 6  82642371.69806     -1620.119 6        36.488    20182101.958 6  82642358.66006     -1620.145 6        38.357
E25         6.000    23446118.904 5 123210238.59605     -1358.440 5        32.832                                                                    23446122.490 7  92007775.30207     -1014.348 7        47.063    23446121.069 7  94407873.77607     -1040.795 7        42.406
G31         7.000    22532356.844 7 118408342.84307      1393.197 7        47.030                                    22532356.262 6  92266273.50706      1085.602 6        40.946    22532356.008 6  92266266.51406      1085.565 6        41.497
G28         8.000    21449340.481 6 112717164.41606      -229.978 6        36.975                                    21449334.697 3  87831477.44603      -179.209 3        19.194    21449336.284 6  87831456.45406      -179.264 6        36.208
G29         9.000    20564670.486 8 108068132.78408       -29.262 8        49.724                                    20564668.356 8  84208935.64308       -22.803 8        49.878    20564668.490 7  84208887.63807       -22.790 7        46.250
E11        10.000    24298832.843 7 127691323.88407       225.317 7        43.009                                                                    24298832.793 7  95353872.09407       168.192 7        46.312    24298831.398 7  97841362.17907       172.628 7        44.501
E10        11.000    24944773.263 6 131085817.02906     -1413.511 6        40.694                                                                    24944776.177 7  97888674.73407     -1055.553 7        44.736    24944776.446 7 100442348.61107     -1083.038 7        46.548
G18        12.000                                                                                                                                                                    24508357.033 5 100357629.33205      2273.664 5        35.486
E12        13.000    26434048.127 4                     -2648.351 4        24.857                                                                    26434049.867 6 103732894.04706     -1977.255 6        36.272    26434048.544 6 106438964.84206     -2028.897 6        36.847
G12        15.000    22901624.178 4                     -3855.667 4        24.165                                                                                                    22901562.445 5                     -3004.242 5        31.011
E24        16.000    26875599.865 5 141232340.08505     -3181.291 5        32.737                                                                    26875610.986 5                     -2375.702 5        31.328    26875600.197 4                     -2437.565 4        25.654
G26        17.000    24230446.815 4 127331842.35904      2498.012 4        28.986
E07        18.000    28008961.390 5 147188131.02405      -141.288 5        30.551                                                                    28008982.580 5                      -105.524 5        31.615    28008978.077 5 112780515.45305      -108.061 5        30.792
E08        20.000    27070736.713 5 142257672.83005     -2467.161 5        31.268                                                                    27070742.756 5 106231444.92505     -1842.233 5        30.996    27070752.516 4                     -1890.184 4        24.662
E02        21.000    24698577.929 7 129791967.88507       955.491 7        46.317                                                                    24698581.789 5  96922583.20405       713.622 5        32.575    24698578.809 6  99450975.72906       732.127 6        36.635
S23        22.000    38251209.818 5 201011513.73805      -865.843 5        35.986
E36        24.000    26350419.475 7 138472425.05207      2253.862 7        42.660                                                                    26350426.172 7 103404802.51807      1683.115 7        43.321    26350423.544 6 106102305.87306      1726.923 6        41.785
R18        25.000    19975447.518 8 106630500.66008      1719.865 8        51.465                                                                    19975450.080 7  82934726.92707      1337.606 7        42.072
E03        26.000                                                                                                                                    28081835.699 3                     -2781.331 3        21.429    28081835.625 4                     -2855.042 4        28.379
S21        27.000    38532414.747 6 202489359.95206      -860.978 6        36.068
R07        28.000    23687618.588 6 126801643.43706     -2492.841 6        40.732                                                                    23687627.497 6  98623537.95006     -1939.034 6        39.087
R15        30.000    19927448.052 7 106486529.72107     -2824.559 7        43.227                                                                    19927451.572 6  82822626.10806     -2196.698 6        36.136
S36        31.000    38303770.119 5 201287682.59005      -861.254 5        35.648
R16        34.000    19818465.125 8 105867264.92308      1178.316 8        48.184                                                                    19818466.103 7  82340891.58807       916.394 7        44.394
C44        35.000                                                                                                                                    21649205.855 8 112733407.86008       245.688 8        48.624                                                                    21649206.548 7  91605018.96907       199.652 7        46.350
R17        36.000    19574034.900 8 104745001.40708     -2223.746 8        50.351                                                                    19574036.905 6  81468069.56506     -1729.475 6        40.563
R09        37.000    23963611.393 6 127964343.05906      3161.705 6        37.490                                                                    23963617.057 5  99527878.41705      2459.077 5        32.778
R24        38.000    23344694.471 3                     -5023.454 3        22.590
C12        41.000                                                                                                                                    23109393.316 6 120336722.03906      1588.584 6        40.648    23109395.449 7  93052076.03607      1228.322 7        43.035    23109393.754 6  97783522.91706      1290.885 6        39.715
C35        42.000                                                                                                                                    22606720.359 8 117719096.28708     -2617.456 8        48.820                                                                    22606719.690 6  95656447.97106     -2126.967 6        40.498
C38        44.000                                                                                                                                    39418083.342 4 205260264.79104       401.657 4        29.820
C25        45.000                                                                                                                                    24457643.261 7 127357384.19807      1974.084 7        44.764                                                                    24457645.254 7 103488437.19707      1604.201 7        43.278
C26        48.000                                                                                                                                    23429959.386 7 122005934.82507     -3418.908 7        47.713                                                                    23429959.287 7  99139824.66807     -2778.198 7        43.285
C24        51.000                                                                                                                                    21507555.733 8 111995493.25308      -621.652 8        50.244                                                                    21507554.475 7  91005574.37807      -505.109 7        46.224
C34        52.000                                                                                                                                    25053769.362 4 130461523.35204      2367.141 4        29.896                                                                    25053799.693 4                      1923.538 4        26.922
I02        55.000    37724958.380 5 148040855.76305     -1022.442 5        34.548
I06        58.000    38755587.513 5 152085296.38505      -704.701 5        33.772
> 2025 01 02 15 17 30.0000000  0 38
G11         2.000    23226016.430 6 122053671.61906     -3063.961 6        36.881                                    23226015.965 1  95106652.65211     -2387.548 1         6.625    23225991.501 4                     -2386.956 4        27.102
G25         3.000    20184078.833 7 106068014.54407     -2081.523 7        43.230                                    20184079.864 5  82650477.56205     -1621.968 5        35.329    20184080.750 6  82650464.53106     -1621.953 6        37.040
E25         6.000    23447411.876 5 123217033.97205     -1359.769 5        32.856                                                                    23447415.404 7  92012849.76507     -1015.263 7        46.965    23447414.054 7  94413080.61207     -1041.681 7        42.415
G31         7.000    22531032.913 7 118401384.13807      1390.632 7        47.093                                    22531032.500 6  92260851.15806      1083.605 6        41.130    22531032.080 6  92260844.16006      1083.632 6        41.716
G28         8.000    21449560.479 6 112718323.65106      -233.510 6        36.832                                    21449555.031 3  87832380.73803      -181.953 3        18.448    21449556.696 6  87832359.72406      -181.930 6        37.089
G29         9.000    20564699.453 8 108068286.13808       -31.720 8        48.865                                    20564697.457 8  84209055.14908       -24.719 8        49.349    20564697.529 7  84209007.14907       -24.752 7        46.031
E11        10.000    24298619.828 7 127690204.01107       222.913 7        43.645                                                                    24298619.688 7  95353035.82407       166.465 7        46.313    24298618.501 7  97840504.09407       170.742 7        44.677
E10        11.000    24946118.678 6 131092891.21906     -1415.803 6        39.979                                                                    24946122.319 7  97893957.40707     -1057.356 7        45.019    24946122.477 7 100447769.10107     -1084.977 7        46.185
G18        12.000    24505590.796 4                      2917.454 4        29.744                                                                                                    24505580.450 6 100346262.53506      2273.261 6        36.106
E12        13.000    26436568.606 3                     -2650.632 3        22.781                                                                    26436570.323 6 103742785.18706     -1978.823 6        36.798    26436569.067 6 106449114.00306     -2030.452 6        36.522
G12        15.000    22905245.512 3                     -3859.226 3        20.881                                                                                                    22905231.524 5                     -3005.111 5        32.000
E24        16.000    26878626.819 5 141248248.55605     -3181.868 5        32.760                                                                    26878638.489 5                     -2375.931 5        31.841    26878627.248 4                     -2437.779 4        26.240
G26        17.000    24228074.470 5 127319353.36105      2497.728 5        31.743
E07        18.000    28009098.888 5 147188843.39805      -143.253 5        32.521                                                                    28009116.894 5                      -106.971 5        30.392    28009114.616 4 112781061.29404      -110.072 4        29.526
E08        20.000    27073086.400 5 142270015.74605     -2469.309 5        33.545                                                                    27073090.906 4 106240662.04204     -1843.779 4        28.815    27073096.250 4                     -1892.515 4        27.952
E02        21.000    24697669.200 7 129787192.68507       954.861 7        46.837                                                                    24697674.446 5  96919017.34605       713.123 5        32.485    24697670.350 6  99447316.81006       731.742 6        36.726
S23        22.000    38252029.028 5 201015842.62205      -865.728 5        35.567
E36        24.000    26348275.857 7 138461158.65307      2253.033 7        43.075                                                                    26348282.330 7 103396389.34307      1682.380 7        43.503    26348279.294 6 106093673.21706      1726.309 6        41.573
R18        25.000    19973838.515 8 106621910.86408      1716.326 8        51.730                                                                    19973839.859 6  82928045.98706      1335.000 6        40.915
E03        26.000                                                                                                                                    28085384.397 3                     -2784.489 3        21.143    28085382.283 4                     -2855.363 4        28.227
S21        27.000    38533235.558 5 202493666.35305      -861.160 5        34.729
R07        28.000    23689952.168 6 126814117.73906     -2496.466 6        39.177                                                                    23689959.257 6  98633240.16606     -1941.883 6        38.703
R15        30.000    19930094.690 7 106500660.59607     -2827.440 7        44.549                                                                    19930095.628 6  82833616.82206     -2199.103 6        38.979
S36        31.000    38304589.786 6 201291988.48106      -860.628 6        36.125
R16        34.000    19817363.021 7 105861380.62607      1175.650 7        46.200                                                                    19817364.057 7  82336314.93707       914.371 7        43.310
C44        35.000                                                                                                                                    21648971.021 8 112732185.99708       243.340 8        48.904                                                                    21648971.976 7  91604026.11507       197.699 7        46.693
R17        36.000    19576116.038 8 104756130.96708     -2227.672 8        50.943                                                                    19576115.474 6  81476725.86906     -1732.737 6        38.967
R09        37.000    23960649.342 6 127948536.49506      3161.400 6        37.705                                                                    23960657.524 5  99515584.47005      2458.682 5        33.599
R24        38.000    23349388.696 4                     -5026.386 4        24.692                                                                    23349434.807 3                     -3906.585 3        20.143
C12        41.000                                                                                                                                    23107869.231 6 120328784.52906      1586.772 6        40.970    23107871.311 7  93045938.27807      1226.866 7        42.732    23107869.274 6  97777073.06406      1289.333 6        39.808
C35        42.000                                                                                                                                    22609234.411 8 117732189.39708     -2619.466 8        48.005                                                                    22609234.295 6  95667087.19106     -2128.532 6        39.991
C38        44.000                                                                                                                                    39417695.359 4 205258260.52004       401.003 4        28.834
C25        45.000                                                                                                                                    24455748.834 7 127347516.65507      1973.160 7        45.139                                                                    24455750.449 7 103480419.04007      1603.338 7        43.687
C26        48.000                                                                                                                                    23433242.469 7 122023034.14807     -3420.450 7        46.984                                                                    23433242.838 7  99153719.26007     -2779.489 7        43.274
C24        51.000                                                                                                                                    21508153.935 8 111998608.08908      -624.005 8        50.020                                                                    21508152.697 7  91008105.43907      -507.077 7        46.023
C34        52.000                                                                                                                                    25051496.750 5 130449687.29805      2366.944 5        30.762                                                                    25051526.906 4                      1923.479 4        28.408
I02        55.000    37726261.134 5 148045970.24805     -1022.872 5        34.619
I06        58.000    38756485.822 5 152088820.53105      -704.644 5        34.338
> 2025 01 02 15 17 35.0000000  0 39
G11         2.000    23228933.997 6 122068997.61906     -3066.461 6        39.288                                    23228930.975 1  95118594.98201     -2389.505 1         9.810
G25         3.000    20186058.957 7 106078428.06607     -2083.864 7        42.897                                    20186061.209 5  82658591.99305     -1623.792 5        33.982    20186062.975 5  82658578.96905     -1623.750 5        35.090
G32         4.000    25241930.650 3                     -3761.914 3        20.262                                                                                                    25241830.408 3                     -2931.044 3        19.552
E25         6.000    23448705.153 5 123223834.87905     -1360.850 5        32.587                                                                    23448709.425 7  92017928.38107     -1016.165 7        46.607    23448708.112 7  94418291.70707     -1042.686 7        42.311
G31         7.000    22529711.202 7 118394437.84407      1387.970 7        46.964                                    22529711.015 6  92255438.47806      1081.535 6        41.378    22529710.201 7  92255431.47907      1081.492 7        42.140
G28         8.000    21449784.832 6 112719498.78606      -236.600 6        38.177                                    21449778.420 3  87833296.42103      -184.377 3        18.776    21449780.104 6  87833275.43806      -184.432 6        36.427
G29         9.000    20564730.638 8 108068450.86108       -34.111 8        48.599                                    20564728.687 8  84209183.51608       -26.580 8        48.874    20564729.029 7  84209135.50807       -26.626 7        46.167
E11        10.000    24298409.179 7 127689095.43607       220.469 7        43.803                                                                    24298408.577 7  95352208.00907       164.637 7        46.281    24298407.606 7  97839654.66707       168.909 7        44.888
E10        11.000    24947466.927 6 131099977.07306     -1418.311 6        40.439                                                                    24947470.892 7  97899248.79907     -1059.185 7        44.852    24947470.581 7 100453198.53307     -1086.855 7        45.363
G18        12.000    24502808.311 4                      2917.049 4        29.346                                                                                                    24502803.850 6 100334896.82006      2272.858 6        36.548
E12        13.000    26439094.053 4                     -2651.692 4        24.797                                                                    26439092.649 5 103752683.18105     -1980.378 5        35.886    26439090.663 5 106459270.18705     -2032.106 5        35.981
G12        15.000                                                                                                                                                                    22908901.876 5                     -3006.056 5        32.090
E24        16.000    26881654.909 5 141264159.34305     -3182.227 5        30.717                                                                    26881665.236 5                     -2376.399 5        31.351    26881656.200 4                     -2438.170 4        26.036
G26        17.000    24225704.667 5 127306865.67705      2497.350 5        32.036                                                                                                    24225755.136 4                      1946.657 4        24.692
E07        18.000    28009235.995 5 147189566.80605      -145.558 5        31.487                                                                    28009253.882 5                      -109.056 5        30.521    28009253.650 4 112781615.56904      -111.808 4        29.640
E08        20.000    27075436.938 5 142282367.48905     -2471.288 5        33.742                                                                                                                                    27075448.171 4                     -1893.709 4        28.758
E02        21.000    24696760.880 7 129782420.30007       954.177 7        47.113                                                                    24696767.605 5  96915453.54905       712.783 5        33.072    24696762.335 6  99443660.03506       731.283 6        36.295
S23        22.000    38252859.610 5 201020170.85805      -865.546 5        35.171
E36        24.000    26346133.336 7 138449895.77707      2252.041 7        43.132                                                                    26346139.098 7 103387978.78507      1681.776 7        43.723    26346136.115 6 106085043.25706      1725.616 6        41.473
R18        25.000    19972232.700 8 106613338.00108      1712.843 8        51.808                                                                    19972232.747 6  82921378.22906      1332.270 6        40.286
E03        26.000                                                                                                                                    28088928.538 3                     -2784.167 3        22.057    28088927.676 4                     -2855.112 4        27.557
S21        27.000    38534050.923 5 202497972.47305      -861.103 5        35.752
R07        28.000    23692281.930 6 126826609.42906     -2500.092 6        37.077                                                                    23692292.340 6  98642955.91306     -1944.559 6        39.381
R15        30.000    19932742.675 7 106514805.77207     -2830.501 7        44.606                                                                    19932743.036 6  82844618.65806     -2201.521 6        39.559
S36        31.000    38305407.936 5 201296292.99105      -860.749 5        35.933
R16        34.000    19816263.230 7 105855508.62107      1173.151 7        44.764                                                                    19816264.924 7  82331747.86007       912.333 7        43.198
C44        35.000                                                                                                                                    21648738.912 8 112730975.24308       241.036 8        49.230                                                                    21648739.566 7  91603042.28807       195.891 7        46.883
R17        36.000    19578199.234 8 104767279.38408     -2231.613 8        51.047                                                                    19578196.302 5  81485396.81005     -1735.796 5        35.324
R09        37.000    23957689.201 6 127932728.78306      3161.485 6        38.258                                                                    23957696.982 5  99503289.60105      2459.079 5        35.129
R24        38.000    23354080.711 4                     -5025.292 4        24.511                                                                    23354124.873 3                     -3913.815 3        19.045
C12        41.000                                                                                                                                    23106347.656 6 120320855.32206      1584.972 6        41.402    23106348.730 6  93039806.95006      1225.526 6        41.518    23106347.202 6  97770629.96806      1287.831 6        39.225
C35        42.000                                                                                                                                    22611749.654 7 117745291.33107     -2621.267 7        47.256                                                                    22611750.664 6  95677733.58106     -2129.984 6        39.264
C38        44.000                                                                                                                                    39417311.411 4 205256260.43204       398.735 4        27.916
C25        45.000                                                                                                                                    24453855.482 7 127337653.07607      1972.270 7        45.853                                                                    24453856.300 7 103472404.10307      1602.709 7        43.752
C26        48.000                                                                                                                                    23436527.555 7 122040140.59607     -3422.087 7        46.488                                                                    23436528.048 7  99167619.63907     -2780.691 7        43.645
C24        51.000                                                                                                                                    21508754.243 8 112001734.08808      -626.361 8        50.158                                                                    21508753.003 7  91010645.57907      -508.855 7        46.006
C34        52.000                                                                                                                                    25049226.876 4 130437854.45904      2365.854 4        29.735                                                                    25049256.542 4                      1922.448 4        27.820
I02        55.000    37727566.007 5 148051084.85705     -1023.171 5        34.324
I06        58.000    38757382.827 5 152092344.02305      -704.684 5        34.176
