     3.04           OBSERVATION DATA    M                   RINEX VERSION / TYPE
ssrcrin-15.6.1x                         20250102 171500 UTC PGM / RUN BY / DATE 
(00000000023479385599111004) Septentrio proprietary         COMMENT             
ract                                                        MARKER NAME         
01                                                          MARKER NUMBER       
geodetic                                                    MARKER TYPE         
NFB                 CLIMERS@TUW                             OBSERVER / AGENCY   
3296359             SEPT ASTERX SB3 PROB4.14.4              REC # / TYPE / VERS 
Unknown             Unknown                                 ANT # / TYPE        
  4127446.3223  1206914.5181  4695543.3185                  APPROX POSITION XYZ 
        0.0000        0.0000        0.0000                  ANTENNA: DELTA H/E/N
G   23 X1  C1C L1C D1C S1C C1W S1W C2W L2W D2W S2W C2L L2L  SYS / # / OBS TYPES 
       D2L S2L C5Q L5Q D5Q S5Q C1L L1L D1L S1L              SYS / # / OBS TYPES 
E   21 X1  C1C L1C D1C S1C C6C L6C D6C S6C C5Q L5Q D5Q S5Q  SYS / # / OBS TYPES 
       C7Q L7Q D7Q S7Q C8Q L8Q D8Q S8Q                      SYS / # / OBS TYPES 
S    9 X1  C1C L1C D1C S1C C5I L5I D5I S5I                  SYS / # / OBS TYPES 
R   17 X1  C1C L1C D1C S1C C2P L2P D2P S2P C2C L2C D2C S2C  SYS / # / OBS TYPES 
       C3Q L3Q D3Q S3Q                                      SYS / # / OBS TYPES 
C   25 X1  C1P L1P D1P S1P C5P L5P D5P S5P C2I L2I D2I S2I  SYS / # / OBS TYPES 
       C7I L7I D7I S7I C6I L6I D6I S6I C7D L7D D7D S7D      SYS / # / OBS TYPES 
J   17 X1  C1C L1C D1C S1C C2L L2L D2L S2L C5Q L5Q D5Q S5Q  SYS / # / OBS TYPES 
       C1L L1L D1L S1L                                      SYS / # / OBS TYPES 
I    5 X1  C5A L5A D5A S5A                                  SYS / # / OBS TYPES 
SEPTENTRIO RECEIVERS OUTPUT ALIGNED CARRIER PHASES.         COMMENT             
NO FURTHER PHASE SHIFT APPLIED IN THE RINEX ENCODER.        COMMENT             
G L1C                                                       SYS / PHASE SHIFT   
G L2W                                                       SYS / PHASE SHIFT   
G L2L  0.00000                                              SYS / PHASE SHIFT   
G L5Q  0.00000                                              SYS / PHASE SHIFT   
G L1L  0.00000                                              SYS / PHASE SHIFT   
E L1C  0.00000                                              SYS / PHASE SHIFT   
E L6C  0.00000                                              SYS / PHASE SHIFT   
E L5Q  0.00000                                              SYS / PHASE SHIFT   
E L7Q  0.00000                                              SYS / PHASE SHIFT   
E L8Q  0.00000                                              SYS / PHASE SHIFT   
S L1C                                                       SYS / PHASE SHIFT   
S L5I                                                       SYS / PHASE SHIFT   
R L1C                                                       SYS / PHASE SHIFT   
R L2P  0.00000                                              SYS / PHASE SHIFT   
R L2C                                                       SYS / PHASE SHIFT   
R L3Q  0.00000                                              SYS / PHASE SHIFT   
C L1P  0.00000                                              SYS / PHASE SHIFT   
C L5P  0.00000                                              SYS / PHASE SHIFT   
C L2I                                                       SYS / PHASE SHIFT   
C L7I                                                       SYS / PHASE SHIFT   
C L6I                                                       SYS / PHASE SHIFT   
C L7D                                                       SYS / PHASE SHIFT   
J L1C                                                       SYS / PHASE SHIFT   
J L2L  0.00000                                              SYS / PHASE SHIFT   
J L5Q  0.00000                                              SYS / PHASE SHIFT   
J L1L  0.00000                                              SYS / PHASE SHIFT   
I L5A                                                       SYS / PHASE SHIFT   
  2025     1     2    17    15    0.0000000     GPS         TIME OF FIRST OBS   
 C1C    0.000 C2C    0.000 C2P    0.000                     GLONASS COD/PHS/BIS 
DBHZ                                                        SIGNAL STRENGTH UNIT
    18                                                      LEAP SECONDS        
 24 R01  1 R02 -4 R03  5 R04  6 R05  1 R06 -4 R07  5 R08  6 GLONASS SLOT / FRQ #
    R09 -2 R10 -7 R11  0 R12 -1 R13 -2 R14 -7 R15  0 R16 -1 GLONASS SLOT / FRQ #
    R17  4 R18 -3 R19  3 R20  2 R21  4 R22 -3 R23  3 R24  2 GLONASS SLOT / FRQ #
                                                            END OF HEADER       
> 2025 01 02 17 15  0.0000000  0 41
G20         1.000    24803695.807 3                     -3393.142 3        19.343
G25         3.000    23661807.001 4                     -4521.549 4        29.573                                                                                                    23661807.894 3                     -3523.632 3        21.310
G05         4.000    22964476.914 6 120679170.49606     -1389.103 6        39.955                                    22964465.244 3  94035627.55003     -1082.430 3        21.571    22964467.153 3                     -1083.766 3        23.524
E25         6.000                                                                                                                                    25323685.697 5  99375596.87105     -2397.414 5        31.698    25323687.083 6 101968024.97506     -2459.824 6        39.544
G31         7.000    22461505.181 7 118036063.01507     -3051.941 7        42.715                                    22461504.489 5  91976116.39905     -2378.132 5        30.113    22461503.788 6  91976105.37506     -2378.015 6        36.836
G28         8.000    23506741.820 5 123528840.71805     -4089.595 5        31.834                                    23506728.019 1  96256120.31001     -3186.703 1         3.000    23506735.093 4  96256137.20204     -3185.963 4        24.451
G29         9.000    21473844.035 8 112845902.48008     -2859.624 8        48.536                                    21473842.300 7  87931880.27007     -2228.276 7        44.509    21473841.662 6  87931832.27706     -2228.346 6        41.661
E11        10.000    25028065.651 5 131523457.47605     -2855.308 5        30.023                                                                    25028056.801 6  98215489.46506     -2131.939 6        37.800    25028053.963 5 100777684.79005     -2187.229 5        32.269
E10        11.000                                                                                                                                    27482836.387 3                     -2748.711 3        20.238    27482836.943 4                     -2821.310 4        24.481
G18        12.000    20763850.502 8 109114988.89608       266.610 8        50.256                                    20763846.457 6  85024543.08406       207.747 6        40.651    20763845.806 7  85024507.09007       207.722 7        47.970
G27        13.000    24930379.456 3                      2550.627 3        23.771
R02        16.000    23580834.215 4 125831737.04604       889.072 4        28.370
G26        17.000    20769028.746 8 109142011.28808       294.612 8        49.542                                    20769024.814 6  85045737.69406       229.566 6        36.246    20769026.279 5  85045731.74805       229.460 5        34.552
E30        19.000    26126420.690 6 137295403.17406      1529.786 6        41.113                                                                    26126422.703 7 102525837.96607      1142.502 7        47.253    26126422.641 7 105200366.93407      1172.315 7        44.224
E02        21.000    23222876.941 7 122037298.61307      -814.636 7        46.925                                                                    23222876.103 8  91131655.65208      -608.339 8        48.089    23222876.135 8  93509011.26308      -624.197 8        49.473
S23        22.000    38215096.234 6 200821710.26106      -866.116 6        38.060
R10        23.000    22721843.520 6 121120207.60406      3056.474 6        38.012
E36        24.000    23540398.457 7 123705652.82107      -178.910 7        45.434                                                                    23540399.591 7  92377763.17607      -133.516 7        47.077    23540398.551 8  94787599.87608      -137.029 8        48.103
R18        25.000    19987519.007 8 106694703.57608     -3202.289 8        49.085                                                                    19987519.105 7  82984796.09007     -2490.653 7        45.223
G16        26.000    22407419.572 5 117751845.34205      2140.462 5        35.062                                    22407416.463 2  91754668.94502      1667.901 2        17.736
S21        27.000    38491132.911 5 202272439.84405      -862.873 5        34.829
R01        28.000    23903807.946 4                     -2266.350 4        29.858
R19        29.000    19475484.910 6 104180767.11306       -65.922 6        37.115                                                                    19475485.564 6  81029759.99106       -51.172 6        38.523
S36        31.000    38262083.762 5 201068580.72305      -862.704 5        35.657
E34        32.000    26172660.283 5 137538269.37905      2007.177 5        35.962                                                                    26172674.369 5 102707160.63705      1498.813 5        30.075    26172656.688 5 105386454.84105      1538.078 5        32.341
R16        34.000    20294727.389 7 108410755.36207     -3888.646 7        46.286                                                                    20294728.097 6  84319499.03406     -3024.473 6        39.640
C44        35.000                                                                                                                                    22210937.778 7 115658129.25607     -2580.284 7        42.648                                                                    22210938.124 7  93981928.69007     -2096.630 7        43.670
R09        37.000    19662878.159 8 104998755.06908       518.524 8        48.893                                                                    19662874.103 6  81665730.02106       403.250 6        36.688
C11        38.000                                                                                                                                    23383086.718 6 121761911.40806      1421.554 6        39.504    23383096.726 7  94154108.64207      1099.211 7        42.345    23383089.688 5  98941560.91205      1155.189 5        34.781
C43        39.000                                                                                                                                    25347682.383 5                      2008.235 5        33.772                                                                    25347698.549 4                      1631.895 4        28.853
C35        40.000                                                                                                                                    26085953.057 3                     -3838.172 3        21.429
C12        41.000                                                                                                                                    21709422.293 7 113046759.30307     -1287.604 7        45.211    21709420.654 7  87414933.72207      -995.559 7        47.353    21709419.559 7  91859742.65407     -1046.250 7        45.326
C13        43.000                                                                                                                                    37866302.823 5 197179799.00705      -277.742 5        35.476    37866305.948 7 152471945.97107      -214.622 7        44.202    37866303.398 6 160224736.64106      -225.693 6        39.748
C38        44.000                                                                                                                                    38661771.282 5 201321985.74205     -1054.079 5        32.964                                                                    38661761.918 5                      -856.303 5        32.419
C25        45.000                                                                                                                                    22219995.936 7 115705408.39007      -911.962 7        47.895                                                                    22219993.563 7  94020297.27607      -741.064 7        43.272
C08        46.000                                                                                                                                    37819049.075 7 196933749.37107      -502.164 7        44.199    37819041.144 7 152281715.39107      -388.267 7        42.313    37819039.517 6 160024778.11206      -408.019 6        37.425
C23        47.000                                                                                                                                    25413362.520 6 132334351.98006      1793.369 6        40.927                                                                    25413354.591 7 107532366.39207      1457.452 7        44.021
C24        51.000                                                                                                                                    23429466.885 5 122003407.66705     -3762.184 5        34.314                                                                    23429467.438 7  99137748.84107     -3057.011 7        43.336
C34        52.000                                                                                                                                    21841678.915 8 113735417.10508       380.899 8        50.819                                                                    21841679.000 8  92419422.67008       309.530 8        48.524
I02        56.000    38508444.107 5 151115399.79405     -1182.169 5        34.633
I06        58.000    38776199.202 5 152166243.54805      -650.362 5        35.657
> 2025 01 02 17 15  5.0000000  0 39
G25         3.000    23666112.445 5                     -4522.025 5        30.053                                                                                                    23666107.869 3                     -3523.362 3        20.714
G05         4.000    22965800.367 6 120686124.21506     -1392.244 6        39.637                                    22965788.151 3  94041045.99903     -1084.863 3        22.114    22965792.627 4                     -1084.831 4        27.317
E25         6.000    25326733.328 5 133092935.19915     -3211.076 5        34.771                                                                    25326740.046 5  99387584.71905     -2398.487 5        30.355    25326742.373 6 101980325.48006     -2460.370 6        39.829
G31         7.000    22464409.159 6 118051328.51106     -3054.188 6        39.901                                    22464410.136 4  91988011.60704     -2379.886 4        28.190    22464409.228 6  91988000.56406     -2379.746 6        36.095
G28         8.000    23510631.982 5 123549291.82705     -4090.820 5        31.275                                    23510619.069 1  96272056.45201     -3187.543 1         2.000
G29         9.000    21476565.299 7 112860203.62607     -2860.773 7        47.874                                    21476563.770 7  87943024.02207     -2229.174 7        44.612    21476562.656 6  87942976.03206     -2229.182 6        41.509
E11        10.000    25030783.710 4 131537736.60904     -2856.459 4        28.104                                                                    25030773.646 6  98226152.42006     -2132.971 6        37.512    25030770.707 5 100788625.89505     -2188.644 5        31.245
E10        11.000                                                                                                                                    27486341.258 3                     -2747.667 3        20.976    27486340.942 4                     -2820.538 4        24.226
G18        12.000    20763598.022 8 109113662.63408       263.947 8        50.039                                    20763593.850 6  85023509.64406       205.669 6        40.451    20763593.301 7  85023473.64507       205.715 7        47.388
G27        13.000    24927946.589 4                      2550.815 4        24.496
R02        16.000    23580002.887 4 125827297.38004       886.033 4        27.401
G26        17.000    20768749.494 8 109140544.74908       292.067 8        49.141                                    20768746.653 5  85044594.93105       227.586 5        35.852    20768747.784 5  85044588.97105       227.569 5        34.548
E30        19.000    26124965.956 6 137287755.01706      1529.444 6        41.371                                                                    26124967.439 7 102520126.69607      1142.160 7        47.364    26124967.309 7 105194506.68707      1171.910 7        44.257
E02        21.000    23223652.771 7 122041375.84307      -816.192 7        46.758                                                                    23223651.949 8  91134700.34508      -609.522 8        48.059    23223652.053 8  93512135.38008      -625.324 8        49.635
S23        22.000    38215917.376 6 200826040.19406      -865.796 6        37.864
R10        23.000    22718973.456 6 121104928.37106      3055.073 6        36.057
E36        24.000    23540569.730 7 123706552.07707      -180.801 7        45.257                                                                    23540570.606 7  92378434.69607      -134.975 7        46.839    23540569.668 7  94788288.91507      -138.546 7        47.539
R18        25.000    19990519.433 8 106710720.04708     -3204.280 8        49.326                                                                    19990519.468 7  82997253.32507     -2492.128 7        45.005
G16        26.000    22405386.039 6 117741146.93006      2139.097 6        37.732                                    22405380.690 3  91746332.53103      1666.841 3        18.597
S21        27.000    38491950.507 5 202276755.13305      -863.056 5        34.462
R01        28.000    23905926.051 4                     -2270.833 4        28.882
R19        29.000    19475547.080 5 104181104.42105       -69.152 5        35.967                                                                    19475547.390 6  81030022.33706       -53.569 6        38.411
S36        31.000    38262902.101 5 201072893.49205      -862.378 5        35.471
E34        32.000    26170751.226 5 137528235.20105      2006.482 5        34.933                                                                    26170768.700 4 102699667.60204      1498.783 4        28.493    26170746.485 5 105378766.35305      1537.565 5        31.057
R16        34.000    20298367.898 7 108430206.02807     -3891.618 7        45.369                                                                    20298369.965 6  84334627.33006     -3026.823 6        40.007
C44        35.000                                                                                                                                    22213414.472 6 115671033.88606     -2581.327 6        41.452                                                                    22213416.632 7  93992414.79107     -2097.664 7        44.233
R09        37.000    19662394.302 7 104996172.05807       514.755 7        47.840                                                                    19662389.902 5  81663721.02705       400.223 5        33.796
C11        38.000                                                                                                                                    23381723.289 6 121754806.75106      1420.440 6        39.309    23381731.063 6  94148614.86006      1098.272 6        40.918    23381723.791 5  98935787.78305      1154.317 5        34.862
C43        39.000                                                                                                                                    25345753.346 5 131981993.23815      2007.680 5        33.886                                                                    25345769.111 4                      1631.356 4        28.398
C12        41.000                                                                                                                                    21710659.578 7 113053201.19207     -1289.188 7        45.339    21710657.836 7  87419915.00707      -996.812 7        47.845    21710656.598 7  91864977.23407     -1047.572 7        45.497
C13        43.000                                                                                                                                    37866570.612 5 197181189.49905      -278.632 5        35.152    37866572.576 7 152473021.19107      -215.375 7        44.238    37866570.534 6 160225866.53806      -226.423 6        39.727
C38        44.000                                                                                                                                    38662782.665 5 201327257.70605     -1054.765 5        32.988                                                                    38662774.458 5                      -857.044 5        32.659
C25        45.000                                                                                                                                    22220873.051 7 115709974.87407      -914.549 7        47.671                                                                    22220870.445 7  94024007.94107      -743.240 7        43.771
C08        46.000                                                                                                                                    37819531.905 7 196936262.54807      -503.100 7        44.129    37819523.824 7 152283658.75607      -388.904 7        42.627    37819522.183 6 160026820.30206      -408.734 6        37.365
C23        47.000                                                                                                                                    25411640.404 6 132325388.06706      1792.110 6        40.751                                                                    25411633.041 7 107525082.49207      1456.224 7        43.954
C24        51.000                                                                                                                                    23433078.844 5 122022221.90805     -3763.588 5        34.452                                                                    23433080.781 7  99153036.93707     -3058.113 7        42.986
C34        52.000                                                                                                                                    21841313.803 8 113733516.55608       379.407 8        50.684                                                                    21841313.983 8  92417878.34008       308.272 8        48.667
I02        56.000    38509948.232 5 151121311.67305     -1182.410 5        34.362
I06        58.000    38777027.571 6 152169494.26106      -650.020 6        36.064
> 2025 01 02 17 15 10.0000000  0 39
G20         1.000    24810157.620 3                     -3400.246 3        18.657
G25         3.000    23670418.403 5                     -4522.785 5        31.102
G05         4.000    22967126.697 6 120693094.74806     -1395.699 6        41.147                                    22967115.257 3  94046477.57803     -1087.564 3        23.086    22967122.801 5                     -1087.781 5        31.238
E25         6.000    25329795.276 6 133108993.64906     -3212.187 6        37.747                                                                    25329795.177 4  99399576.39704     -2398.810 4        29.517    25329798.659 6 101992630.00106     -2461.202 6        40.150
G31         7.000    22467313.686 5 118066605.93705     -3056.521 5        35.690                                    22467318.032 4  91999916.11004     -2381.707 4        24.812    22467314.921 5  91999905.05705     -2381.803 5        35.090
G28         8.000    23514524.571 5 123569748.31705     -4091.871 5        31.487                                    23514511.773 1  96287996.41001     -3188.448 1         2.400    23514528.267 4  96288013.41604     -3188.365 4        25.293
G29         9.000    21479288.164 7 112874511.26007     -2862.064 7        47.943                                    21479286.420 7  87954172.83007     -2230.181 7        44.471    21479285.055 6  87954124.83706     -2230.236 6        41.602
E11        10.000    25033503.405 4 131552022.27704     -2857.438 4        27.641                                                                    25033491.997 6  98236820.26106     -2134.001 6        37.425    25033489.270 5 100799572.03705     -2189.724 5        30.513
E10        11.000                                                                                                                                    27489844.341 3                     -2749.074 3        21.190    27489844.369 3                     -2822.330 3        23.981
G18        12.000    20763347.874 8 109112350.14408       261.200 8        50.081                                    20763343.752 6  85022486.93506       203.530 6        40.110    20763343.576 7  85022450.94607       203.483 7        47.167
R02        16.000    23579168.188 4 125822874.88904       883.101 4        28.720
G26        17.000    20768472.578 8 109139091.39108       289.409 8        48.977                                    20768471.076 5  85043462.44105       225.515 5        35.071    20768470.007 5  85043456.48205       225.390 5        33.341
E30        19.000    26123511.525 6 137280109.90506      1528.669 6        41.468                                                                    26123512.763 7 102514417.71407      1141.640 7        47.753    26123512.571 7 105188648.77907      1171.441 7        44.417
E02        21.000    23224430.321 7 122045461.48907      -817.940 7        46.686                                                                    23224429.411 8  91137751.31108      -610.717 8        48.110    23224429.596 8  93515265.94108      -626.677 8        49.930
S23        22.000    38216741.465 6 200830369.54106      -865.766 6        37.826
R10        23.000    22716108.964 5 121089656.07105      3053.568 5        35.590
E36        24.000    23540743.135 7 123707461.53607      -182.781 7        45.511                                                                    23540743.653 7  92379113.85607      -136.545 7        46.833    23540742.788 7  94788985.78707      -140.142 7        47.058
R18        25.000    19993522.017 8 106726747.06708     -3206.401 8        49.300                                                                    19993521.631 7  83009718.77507     -2493.833 7        43.932
G16        26.000    22403351.857 6 117730455.44506      2137.758 6        40.191                                    22403346.057 3  91738001.52403      1665.763 3        19.075
S21        27.000    38492769.963 5 202281069.56105      -862.881 5        34.305
R01        28.000    23908056.766 4                     -2274.242 4        28.341                                                                    23908104.785 4                     -1769.652 4        24.782
R19        29.000    19475613.431 6 104181457.46606       -72.064 6        36.147                                                                    19475615.674 6  81030296.96006       -55.958 6        39.426
S36        31.000    38263725.376 5 201077205.72905      -862.440 5        35.919
E34        32.000    26168842.157 5 137518205.38905      2005.339 5        33.844                                                                    26168863.212 4 102692177.73704      1498.250 4        25.774    26168836.716 5 105371081.21805      1536.609 5        30.136
R16        34.000    20302012.395 7 108449672.17407     -3894.726 7        44.838                                                                    20302013.855 6  84349767.66706     -3029.178 6        40.293
C44        35.000                                                                                                                                    22215891.380 6 115683944.54306     -2582.558 6        39.405                                                                    22215896.288 7  94002905.70307     -2098.636 7        44.957
R09        37.000    19661913.688 7 104993608.41407       510.861 7        46.983                                                                    19661911.754 5  81661727.14705       397.192 5        30.385
C11        38.000                                                                                                                                    23380359.260 6 121747708.01606      1419.208 6        39.165    23380365.274 6  94143125.62306      1097.272 6        39.477    23380358.578 5  98930019.45705      1153.205 5        34.414
C43        39.000                                                                                                                                    25343825.695 5 131971957.10805      2007.089 5        33.838                                                                    25343838.985 4                      1630.920 4        27.820
C12        41.000                                                                                                                                    21711898.877 7 113059651.52807     -1290.925 7        46.027    21711896.144 7  87424902.81607      -998.163 7        47.710    21711895.294 7  91870218.62807     -1049.007 7        45.685
C13        43.000                                                                                                                                    37866839.465 6 197182584.43306      -279.376 6        36.136    37866840.503 7 152474099.85707      -216.045 7        44.060    37866838.588 6 160227000.02906      -226.996 6        39.691
C38        44.000                                                                                                                                    38663794.883 5 201332533.85005     -1055.766 5        34.048                                                                    38663788.028 5                      -857.798 5        32.850
C25        45.000                                                                                                                                    22221752.505 7 115714554.77707      -917.292 7        47.253                                                                    22221749.913 7  94027729.46707      -745.476 7        44.066
C08        46.000                                                                                                                                    37820015.531 7 196938780.65407      -503.985 7        44.205    37820007.396 7 152285605.92307      -389.776 7        43.035    37820005.781 6 160028866.44306      -409.519 6        36.945
C23        47.000                                                                                                                                    25409919.804 6 132316431.12006      1790.852 6        41.154                                                                    25409912.563 7 107517804.22207      1455.078 7        43.657
C24        51.000                                                                                                                                    23436692.756 5 122041042.74605     -3764.854 5        35.405                                                                    23436695.638 7  99168330.41207     -3059.202 7        42.732
C34        52.000                                                                                                                                    21840950.441 8 113731623.99708       377.767 8        50.588                                                                    21840950.549 8  92416340.46708       306.963 8        48.702
I02        56.000    38511452.814 5 151127223.59305     -1182.419 5        33.665
I06        58.000    38777855.723 5 152172744.26105      -650.026 5        35.714
> 2025 01 02 17 15 15.0000000  0 39
G20         1.000    24813384.642 3                     -3397.634 3        21.452
G25         3.000    23674723.153 5                     -4523.705 5        30.792
G05         4.000    22968456.374 6 120700082.61606     -1399.319 6        40.913                                    22968446.115 4  94051922.65304     -1090.377 4        24.150    22968455.255 5  94051986.61015     -1090.487 5        34.343
E25         6.000    25332854.230 6 133125057.75606     -3213.394 6        40.524                                                                    25332852.124 4  99411572.32404     -2399.791 4        28.834    25332855.810 6 102004938.83706     -2462.228 6        40.291
G31         7.000    22470222.715 3 118081895.71703     -3059.547 3        22.552                                    22470227.815 3  92011830.25503     -2384.049 3        20.167    22470221.733 5  92011819.20805     -2383.874 5        32.617
G28         8.000    23518417.415 5 123590210.60605     -4092.669 5        31.781                                    23518406.896 1  96303941.12701     -3189.047 1         2.400    23518422.439 4  96303958.25604     -3190.085 4        26.084
G29         9.000    21482011.998 7 112888825.83607     -2863.669 7        47.922                                    21482010.349 7  87965327.04907     -2231.432 7        43.970    21482008.414 6  87965279.05806     -2231.522 6        41.173
E11        10.000    25036222.578 4 131566315.08404     -2859.898 4        26.862                                                                    25036211.713 6  98247493.37206     -2135.113 6        37.210    25036209.519 5 100810523.61205     -2190.915 5        30.023
E10        11.000                                                                                                                                    27493349.918 3                     -2750.356 3        21.714    27493349.298 3                     -2822.820 3        23.390
G18        12.000    20763100.649 8 109111051.90008       258.176 8        49.764                                    20763096.311 6  85021475.33406       201.172 6        39.571    20763096.633 7  85021439.33807       201.198 7        46.597
R02        16.000    23578340.788 5 125818469.82405       879.405 5        30.136
G26        17.000    20768198.387 8 109137651.67608       286.531 8        48.171                                    20768198.204 5  85042340.58105       223.278 5        34.048    20768195.157 5  85042334.60505       223.618 5        32.084
E30        19.000    26122057.505 7 137272468.29107      1528.023 7        42.421                                                                    26122058.674 7 102508711.33307      1141.027 7        47.891    26122058.380 7 105182793.54207      1170.771 7        44.570
E02        21.000    23225209.648 7 122049555.97907      -819.874 7        47.219                                                                    23225208.558 8  91140808.89408      -612.253 8        48.065    23225208.777 8  93518403.28508      -628.185 8        50.060
S23        22.000    38217562.741 6 200834698.55406      -865.825 6        38.405
R10        23.000    22713244.837 5 121074390.98005      3052.153 5        34.038
E36        24.000    23540918.256 7 123708381.68507      -185.212 7        45.735                                                                    23540918.675 7  92379800.99007      -138.270 7        46.742    23540918.039 7  94789690.83607      -141.849 7        46.619
R18        25.000    19996526.618 8 106742784.97608     -3208.749 8        49.248                                                                    19996525.892 7  83022192.70307     -2495.739 7        43.075
G16        26.000    22401318.132 6 117719771.38706      2136.118 6        40.894                                    22401312.734 3  91729676.29103      1664.497 3        19.791
S21        27.000    38493593.399 5 202285383.84105      -863.026 5        34.195
R01        28.000    23910192.350 4                     -2278.468 4        28.009                                                                    23910235.276 3                     -1773.962 3        21.857
R19        29.000    19475683.202 6 104181826.87206       -75.570 6        37.524                                                                    19475683.736 6  81030584.23506       -58.691 6        39.625
S36        31.000    38264548.740 5 201081518.20205      -862.445 5        35.852
E34        32.000    26166933.336 5 137508180.28505      2004.642 5        31.675                                                                    26166957.115 3 102684691.50003      1497.471 3        22.495    26166928.741 4 105363399.74904      1536.197 4        29.706
R16        34.000    20305659.510 7 108469154.24507     -3898.065 7        44.119                                                                    20305659.997 6  84364920.38306     -3031.698 6        40.605
C44        35.000                                                                                                                                    22218371.819 5 115696861.59205     -2584.010 5        35.990                                                                    22218377.109 7  94013401.87607     -2099.592 7        45.792
R09        37.000    19661437.996 7 104991064.67107       506.667 7        47.089                                                                    19661443.096 6  81659748.60706       394.199 6        36.129
C11        38.000                                                                                                                                    23378996.967 6 121740615.66806      1417.689 6        38.706    23379000.186 6  94137641.32306      1096.455 6        38.739    23378994.579 5  98924256.30205      1152.495 5        33.096
C43        39.000                                                                                                                                    25341898.453 5 131961924.18905      2006.123 5        33.138                                                                    25341909.779 4                      1630.363 4        27.844
C12        41.000                                                                                                                                    21713140.819 7 113066110.70407     -1292.797 7        46.302    21713135.819 7  87429897.45407      -999.670 7        47.365    21713135.708 7  91875467.25707     -1050.375 7        45.991
C13        43.000                                                                                                                                    37867109.967 6 197183984.35806      -280.391 6        37.233    37867109.331 7 152475182.38607      -216.886 7        43.719    37867107.288 6 160228137.62606      -227.939 6        39.997
C38        44.000                                                                                                                                    38664808.172 5 201337814.59905     -1056.784 5        34.381                                                                    38664802.268 5                      -858.544 5        32.671
C25        45.000                                                                                                                                    22222634.166 7 115719148.56007      -920.173 7        46.356                                                                    22222632.262 7  94031462.30707      -747.630 7        44.471
C08        46.000                                                                                                                                    37820499.600 7 196941304.23507      -505.396 7        43.731    37820492.157 7 152287557.31107      -390.689 7        43.263    37820490.311 6 160030917.07706      -410.665 6        36.703
C23        47.000                                                                                                                                    25408200.596 6 132307481.61806      1789.095 6        41.220                                                                    25408193.743 7 107510532.03707      1454.000 7        43.577
C24        51.000                                                                                                                                    23440308.327 6 122059870.65706     -3766.215 6        36.461                                                                    23440311.874 7  99183629.67807     -3060.396 7        42.087
C34        52.000                                                                                                                                    21840588.583 8 113729739.90508       375.891 8        50.306                                                                    21840588.822 8  92414809.52008       305.545 8        48.807
I02        56.000    38512958.393 5 151133135.79505     -1182.782 5        33.210
I06        58.000    38778683.666 5 152175993.89605      -650.101 5        35.914
> 2025 01 02 17 15 20.0000000  0 39
G20         1.000    24816624.717 3                     -3403.060 3        23.676
G25         3.000    23679027.179 4                     -4524.548 4        28.190                                                                                                    23679024.616 3                     -3523.666 3        18.328
G05         4.000    22969789.189 6 120707088.18706     -1403.054 6        41.366                                    22969780.800 4  94057381.54004     -1093.266 4        25.459    22969786.629 6  94057445.56806     -1093.375 6        36.098
E25         6.000    25335912.822 7 133141127.90107     -3214.795 7        42.083                                                                    25335910.517 4  99423572.74604     -2400.946 4        28.910    25335913.631 6 102017252.31806     -2463.213 6        40.260
G31         7.000                                                                                                                                                                    22473133.461 4  92023743.20804     -2385.828 4        29.052
G28         8.000    23522311.079 5 123610679.20205     -4094.422 5        30.136                                    23522301.156 1  96319890.85801     -3190.538 1         2.600    23522313.473 4  96319907.76304     -3189.832 4        26.874
G29         9.000    21484737.664 7 112903147.76407     -2865.182 7        47.982                                    21484735.616 7  87976487.00507     -2232.613 7        43.283    21484733.463 6  87976439.01606     -2232.752 6        40.682
E11        10.000    25038942.759 4 131580615.25204     -2860.816 4        28.313                                                                    25038932.945 6  98258172.05706     -2136.345 6        36.987    25038930.882 4 100821480.84404     -2192.093 4        28.379
E10        11.000    27496893.275 4 144497155.39114     -3683.591 4        29.678                                                                    27496854.535 3                     -2750.478 3        21.881    27496853.941 3                     -2822.016 3        22.248
G18        12.000    20762856.382 8 109109768.29608       255.182 8        49.521                                    20762851.740 6  85020475.13606       198.840 6        39.210    20762852.636 7  85020439.13507       198.841 7        46.857
R02        16.000    23577519.914 4 125814083.16004       875.652 4        29.839
G26        17.000    20767926.838 7 109136226.01307       283.721 7        47.329                                    20767927.948 5  85041229.66905       221.081 5        32.796    20767923.496 4  85041223.74304       220.788 4        29.782
E30        19.000    26120603.976 7 137264830.59907      1527.087 7        42.991                                                                    26120605.214 8 102503007.87708      1140.297 8        48.038    26120604.908 7 105176941.30707      1170.076 7        44.551
E02        21.000    23225990.559 7 122053659.73207      -821.720 7        47.492                                                                    23225989.541 8  91143873.39308      -613.704 8        48.189    23225989.598 8  93521547.72608      -629.677 8        50.133
S23        22.000    38218389.374 6 200839027.90406      -866.087 6        38.613
R10        23.000    22710383.522 5 121059133.47405      3050.672 5        34.629
E36        24.000    23541095.358 7 123709312.92407      -187.489 7        45.589                                                                    23541095.894 7  92380496.40207      -140.036 7        46.747    23541095.273 7  94790404.39207      -143.677 7        46.276
R18        25.000    19999533.282 8 106758834.21508     -3211.127 8        48.840                                                                    19999532.586 7  83034675.43707     -2497.579 7        42.595
G16        26.000    22399285.648 6 117709095.13706      2134.282 6        40.770                                    22399280.748 3  91721357.15403      1663.074 3        19.910
S21        27.000    38494417.322 5 202289698.23405      -862.872 5        34.276
R01        28.000    23912321.008 4                     -2280.937 4        24.211                                                                    23912366.402 3                     -1768.992 3        18.000
R19        29.000    19475757.448 6 104182212.95506       -78.870 6        38.000                                                                    19475755.650 6  81030884.53706       -61.472 6        40.212
S36        31.000    38265366.662 5 201085830.81105      -862.724 5        35.829
E34        32.000    26165026.593 4 137498160.38104      2003.321 4        29.896                                                                    26165048.814 3                      1496.559 3        22.419    26165021.729 4 105355722.21104      1535.094 4        29.536
R16        34.000    20309310.037 7 108488652.67307     -3901.404 7        42.912                                                                    20309310.516 6  84380085.85606     -3034.501 6        41.630
C44        35.000                                                                                                                                    22220854.309 5 115709785.45705     -2585.481 5        32.760                                                                    22220859.295 7  94023903.58807     -2101.001 7        46.513
R09        37.000    19660966.118 7 104988541.18607       502.616 7        47.466                                                                    19660968.698 6  81657785.94906       390.989 6        39.766
C11        38.000                                                                                                                                    23377633.484 6 121733530.09106      1416.200 6        36.204    23377637.104 6  94132162.33106      1095.197 6        39.156    23377631.478 5  98918498.65305      1151.161 5        32.850
C43        39.000                                                                                                                                    25339973.233 5 131951894.90005      2005.627 5        33.192                                                                    25339982.076 4                      1629.863 4        27.329
C12        41.000                                                                                                                                    21714383.467 7 113072579.13907     -1294.683 7        46.192    21714377.758 7  87434899.26607     -1001.177 7        47.386    21714377.870 7  91880723.39407     -1052.089 7        46.080
C13        43.000                                                                                                                                    37867379.546 6 197185389.63206      -281.514 6        37.819    37867379.477 7 152476269.04107      -217.802 7        43.598    37867377.179 6 160229279.53106      -228.962 6        40.155
C38        44.000                                                                                                                                    38665822.320 5 201343100.33605     -1057.646 5        34.176                                                                    38665817.384 5                      -859.332 5        33.000
C25        45.000                                                                                                                                    22223518.265 7 115723756.63007      -923.175 7        45.600                                                                    22223517.388 7  94035206.72707      -750.173 7        44.930
C08        46.000                                                                                                                                    37820985.133 7 196943833.65307      -506.500 7        43.230    37820978.123 7 152289513.23107      -391.663 7        43.920    37820975.871 6 160032972.43406      -411.796 6        36.832
C23        47.000                                                                                                                                    25406482.902 6 132298539.95706      1787.514 6        41.769                                                                    25406476.263 7 107503266.22907      1452.418 7        43.018
C24        51.000                                                                                                                                    23443926.598 6 122078706.06506     -3767.827 6        36.756                                                                    23443928.552 6  99198934.99206     -3061.814 6        41.242
C34        52.000                                                                                                                                    21840228.409 8 113727864.67008       374.078 8        50.141                                                                    21840228.737 8  92413285.74908       303.966 8        49.023
I02        56.000    38514464.495 5 151139048.80205     -1182.758 5        33.257
I06        58.000    38779512.330 5 152179243.50805      -650.044 5        35.776
> 2025 01 02 17 15 25.0000000  0 37
G25         3.000    23683328.818 3                     -4524.926 3        22.171
G05         4.000    22971126.199 6 120714111.62506     -1406.492 6        41.342                                    22971119.009 4  94062854.34304     -1095.960 4        26.934    22971123.702 6  94062918.38506     -1095.893 6        37.251
E25         6.000    25338971.900 7 133157204.27007     -3215.692 7        43.109                                                                    25338970.880 4  99435577.80704     -2401.109 4        29.962    25338972.552 6 102029570.56706     -2464.110 6        40.324
G31         7.000    22476069.245 6 118112540.41616     -3064.371 6        36.280                                                                                                    22476044.596 4  92035677.48404     -2388.389 4        24.602
G28         8.000    23526204.161 4 123631154.05904     -4095.127 4        26.359                                                                                                    23526212.949 4  96335862.49604     -3191.448 4        27.665
G29         9.000    21487464.110 7 112917477.18507     -2866.513 7        47.533                                    21487462.272 7  87987652.80007     -2233.652 7        42.445    21487459.991 6  87987604.80506     -2233.567 6        40.417
E11        10.000    25041664.675 4 131594922.99704     -2862.370 4        29.697                                                                    25041655.247 6  98268856.39506     -2137.404 6        36.370    25041654.086 4 100832443.91604     -2193.546 4        27.329
E10        11.000    27500395.927 4 144515576.23504     -3684.545 4        29.687                                                                    27500360.291 3                     -2750.017 3        23.105    27500359.930 3                     -2823.312 3        22.762
G18        12.000    20762614.915 8 109108499.52908       252.356 8        49.392                                    20762610.120 6  85019486.50406       196.640 6        38.862    20762611.441 7  85019450.49707       196.685 7        47.319
G26        17.000    20767658.388 7 109134814.62107       280.960 7        46.776                                    20767660.066 5  85040129.87005       218.937 5        30.566    20767656.204 4  85040123.95304       219.014 4        29.090
E30        19.000    26119151.472 7 137257197.03607      1526.328 7        43.894                                                                    26119152.745 8 102497307.49708      1139.808 8        48.143    26119152.155 7 105171092.21807      1169.608 7        44.564
E02        21.000    23226773.312 7 122057772.94807      -823.513 7        47.959                                                                    23226772.238 8  91146944.94908      -614.988 8        48.075    23226772.243 8  93524699.41308      -630.979 8        50.183
S23        22.000    38219214.424 6 200843357.59406      -865.963 6        38.694
R10        23.000    22707523.683 5 121043884.28705      3049.134 5        35.267
E36        24.000    23541274.594 7 123710255.42007      -189.557 7        45.302                                                                    23541275.173 7  92381200.22307      -141.574 7        46.888    23541274.724 7  94791126.57807      -145.289 7        46.054
R18        25.000    20002541.976 8 106774894.96308     -3213.240 8        48.435                                                                    20002540.853 7  83047167.11907     -2499.200 7        42.499
G16        26.000    22397255.074 6 117698426.87906      2132.854 6        40.501                                    22397250.547 3  91713044.23703      1661.944 3        20.143
S21        27.000    38495239.976 5 202294013.05205      -862.755 5        34.562
R01        28.000    23914460.863 4                     -2285.582 4        24.767                                                                    23914462.283 3                     -1773.581 3        20.381
R19        29.000    19475832.156 6 104182615.89106       -82.248 6        36.072                                                                    19475830.431 6  81031197.94406       -64.067 6        41.390
S36        31.000    38266184.267 5 201090143.37205      -862.491 5        35.533
E34        32.000                                                                                                                                                                                                    26163116.572 4 105348048.81804      1533.952 4        29.801
R16        34.000    20312964.006 7 108508167.54007     -3904.439 7        42.315                                                                    20312962.097 6  84395264.08606     -3036.652 6        40.493
C44        35.000                                                                                                                                    22223338.940 5 115722716.34305     -2586.710 5        31.268                                                                    22223342.790 7  94034410.97007     -2101.867 7        46.818
R09        37.000    19660496.824 7 104986038.22707       498.497 7        46.876                                                                    19660498.279 6  81655839.25106       387.865 6        41.661
C11        38.000                                                                                                                                    23376270.524 5 121726451.43905      1415.230 5        32.880    23376277.562 6  94126688.72906      1094.254 6        39.090    23376271.702 5  98912746.72705      1149.721 5        33.461
C43        39.000                                                                                                                                    25338049.712 5 131941869.38805      2004.681 5        33.497                                                                    25338055.665 4                      1629.957 4        25.504
C12        41.000                                                                                                                                    21715626.517 7 113079057.03707     -1296.452 7        45.917    21715622.097 7  87439908.37907     -1002.452 7        47.611    21715621.895 7  91885987.20807     -1053.397 7        46.137
C13        43.000                                                                                                                                    37867650.243 6 197186800.45706      -282.716 6        38.508    37867650.584 7 152477359.98607      -218.478 7        43.374    37867648.161 6 160230425.93406      -229.582 6        40.246
C38        44.000                                                                                                                                    38666837.990 5 201348391.25205     -1058.806 5        34.609                                                                    38666833.534 5                      -860.378 5        33.114
C25        45.000                                                                                                                                    22224405.475 7 115728379.14907      -925.863 7        45.615                                                                    22224405.289 7  94038962.91107      -752.193 7        45.210
C08        46.000                                                                                                                                    37821471.375 7 196946369.10707      -507.627 7        42.868    37821464.825 7 152291473.81107      -392.545 7        44.462    37821463.039 6 160035032.69606      -412.420 6        36.514
C23        47.000                                                                                                                                    25404766.834 7 132289606.35607      1786.011 7        42.419                                                                    25404760.318 7 107496006.96607      1451.362 7        42.787
C24        51.000                                                                                                                                    23447545.935 6 122097549.13006     -3769.390 6        37.225                                                                    23447546.624 6  99214246.52006     -3062.803 6        40.224
C34        52.000                                                                                                                                    21839870.267 8 113725998.48508       372.383 8        50.010                                                                    21839870.499 8  92411769.32908       302.705 8        49.018
I02        56.000    38515973.219 5 151144962.65505     -1183.073 5        32.844
I06        58.000    38780339.712 5 152182493.17505      -649.832 5        35.476
> 2025 01 02 17 15 30.0000000  0 37
G20         1.000    24823124.198 4                     -3407.160 4        26.443
G05         4.000    22972467.514 6 120721152.52906     -1410.050 6        41.194                                    22972460.465 4  94068340.77804     -1098.753 4        28.199    22972464.462 6  94068404.83506     -1098.727 6        38.252
E25         6.000    25342032.544 7 133173286.54907     -3217.019 7        43.342                                                                    25342032.369 5  99447587.32905     -2402.417 5        30.732    25342032.307 6 102041893.32906     -2465.061 6        39.649
G31         7.000    22478984.504 6 118127868.71106     -3066.822 6        37.168                                    22478988.954 2  92047701.85512     -2389.808 2        16.415    22478964.203 4  92047621.39204     -2389.215 4        25.323
G29         9.000    21490192.112 7 112931813.73007     -2868.015 7        46.973                                    21490190.266 6  87998824.14706     -2234.819 6        41.869    21490188.713 6  87998776.15406     -2234.927 6        40.691
E11        10.000    25044386.603 5 131609238.04005     -2863.871 5        30.536                                                                    25044379.146 6  98279546.21406     -2138.715 6        36.011    25044378.849 4 100843412.54204     -2194.309 4        25.383
E10        11.000    27503900.610 4 144533999.98304     -3685.295 4        29.469                                                                    27503864.814 3                     -2751.598 3        23.867    27503866.143 3                     -2822.892 3        21.738
G18        12.000    20762376.376 8 109107245.24008       249.427 8        48.889                                    20762371.438 6  85018509.15206       194.357 6        39.015    20762372.450 7  85018473.14607       194.264 7        47.678
R02        16.000    23575873.981 3                       867.494 3        22.571
G26        17.000    20767392.451 7 109133417.11307       278.070 7        46.298                                    20767394.152 4  85039040.89404       216.691 4        28.370    20767388.242 4  85039035.00804       216.056 4        25.654
E30        19.000    26117699.220 7 137249567.21807      1525.483 7        44.307                                                                    26117700.901 8 102491609.91608      1139.196 8        48.292    26117700.214 7 105165246.01007      1168.891 7        44.545
E02        21.000    23227557.602 8 122061895.27108      -825.455 8        48.214                                                                    23227556.599 8  91150023.30908      -616.445 8        48.093    23227556.559 8  93527858.08008      -632.481 8        50.047
S23        22.000    38220037.775 6 200847687.20106      -866.167 6        38.634
R10        23.000    22704665.469 5 121028642.62705      3047.459 5        34.886
E36        24.000    23541455.905 7 123711208.84707      -191.839 7        45.114                                                                    23541456.686 7  92381912.19007      -143.195 7        46.935    23541456.361 7  94791857.12407      -146.942 7        45.502
R18        25.000    20005552.851 8 106790966.87008     -3215.478 8        48.025                                                                    20005551.721 7  83059667.50707     -2500.943 7        43.302
G16        26.000    22395227.028 6 117687766.27706      2131.185 6        40.708                                    22395221.485 3  91704737.31603      1660.670 3        20.571
S21        27.000    38496060.550 5 202298327.87305      -862.812 5        34.719
R01        28.000                                                                                                                                    23916599.482 3                     -1780.022 3        21.119
R19        29.000    19475908.519 5 104183035.42105       -85.660 5        34.533                                                                    19475909.092 6  81031524.28706       -66.553 6        41.547
S36        31.000    38267005.342 5 201094455.49905      -862.669 5        35.924
E34        32.000                                                                                                                                    26161215.140 4                      1494.368 4        27.090    26161212.674 5 105340379.31005      1533.303 5        30.438
R16        34.000    20316619.955 7 108527698.40707     -3907.908 7        42.464                                                                    20316618.691 6  84410454.77806     -3039.404 6        40.353
C44        35.000                                                                                                                                    22225828.198 5 115735653.96305     -2588.420 5        33.245                                                                    22225827.396 7  94044923.79007     -2103.306 7        46.999
R09        37.000    19660031.600 7 104983555.52907       494.435 7        47.486                                                                    19660033.398 7  81653908.29107       384.578 7        42.684
C11        38.000                                                                                                                                    23374913.221 5 121719379.42805      1413.946 5        31.343    23374919.949 6  94121220.25206      1093.227 6        38.913    23374915.194 5  98907000.17105      1148.765 5        34.267
C43        39.000                                                                                                                                    25336128.703 5 131931847.32005      2003.975 5        33.024                                                                    25336127.068 3                      1628.868 3        23.486
C12        41.000                                                                                                                                    21716871.376 7 113085544.05507     -1298.316 7        45.505    21716867.975 7  87444924.55807     -1003.983 7        47.858    21716867.593 7  91891258.45207     -1055.082 7        45.971
C13        43.000                                                                                                                                    37867922.173 6 197188216.45306      -283.791 6        39.096    37867922.565 7 152478454.94107      -219.419 7        43.020    37867920.149 6 160231576.58406      -230.805 6        40.303
C38        44.000                                                                                                                                    38667854.506 5 201353686.97905     -1059.467 5        34.229                                                                    38667850.904 5                      -860.864 5        33.575
C25        45.000                                                                                                                                    22225296.261 7 115733015.77407      -928.758 7        45.374                                                                    22225296.007 7  94042730.57307      -754.785 7        45.430
C08        46.000                                                                                                                                    37821958.815 7 196948910.19507      -508.788 7        42.518    37821953.019 7 152293438.74107      -393.448 7        44.555    37821951.378 6 160037097.54706      -413.655 6        36.344
C23        47.000                                                                                                                                    25403052.368 7 132280680.45407      1784.226 7        42.743                                                                    25403046.066 7 107488753.96107      1449.804 7        42.195
C24        51.000                                                                                                                                    23451166.878 6 122116399.49906     -3770.813 6        37.936                                                                    23451165.620 6  99229563.97606     -3064.093 6        38.784
C34        52.000                                                                                                                                    21839513.285 8 113724140.99308       370.605 8        49.554                                                                    21839513.748 8  92410259.98408       301.076 8        49.021
I02        56.000    38517478.816 5 151150876.88005     -1183.053 5        32.084
I06        58.000    38781167.534 5 152185742.71805      -649.855 5        35.657
> 2025 01 02 17 15 35.0000000  0 36
G25         3.000    23691933.396 3                     -4525.280 3        21.690
G05         4.000    22973810.072 6 120728210.68806     -1413.319 6        39.390                                    22973805.100 4  94073840.66404     -1101.295 4        28.626    22973807.261 6  94073904.72206     -1101.373 6        38.523
E25         6.000    25345094.282 7 133189374.47707     -3218.091 7        43.327                                                                    25345096.118 5  99459601.07205     -2403.486 5        31.653    25345093.210 6 102054220.43506     -2465.855 6        39.018
G31         7.000    22481899.052 6 118143209.17806     -3069.322 6        39.213                                    22481909.285 2  92059655.54602     -2391.676 2        16.830    22481885.487 4  92059575.05704     -2392.402 4        26.371
G28         8.000    23533992.674 4 123672122.02204     -4097.873 4        28.360
G29         9.000    21492921.468 7 112946157.20707     -2869.412 7        46.526                                    21492919.593 6  88010000.89906     -2235.908 6        40.975    21492917.721 6  88009952.88606     -2235.829 6        40.687
E11        10.000    25047110.450 5 131623560.15205     -2864.998 5        31.140                                                                    25047104.480 5  98290241.27005     -2139.635 5        35.190    25047105.003 4 100854386.69604     -2195.728 4        25.323
E10        11.000    27507407.524 4 144552426.30104     -3684.715 4        29.128                                                                    27507372.175 4                     -2751.656 4        24.632    27507373.299 3                     -2824.333 3        22.800
G18        12.000    20762140.368 8 109106005.23708       246.648 8        48.888                                    20762135.520 6  85017542.93406       192.194 6        39.054    20762136.457 7  85017506.91807       192.150 7        47.748
G26        17.000    20767129.521 7 109132033.29407       275.402 7        46.452                                    20767129.759 4  85037962.61704       214.598 4        25.128
E30        19.000    26116247.408 7 137241940.96007      1524.895 7        44.855                                                                    26116249.749 8 102485914.98408      1138.817 8        48.246    26116248.930 7 105159402.51507      1168.498 7        44.609
E02        21.000    23228343.708 8 122066026.48408      -827.071 8        48.775                                                                    23228342.715 8  91153108.30608      -617.633 8        48.070    23228342.617 8  93531023.55708      -633.777 8        50.080
S23        22.000    38220865.933 6 200852016.82106      -865.938 6        38.631
R10        23.000    22701807.512 5 121013408.31105      3046.092 5        34.738
E36        24.000    23541639.675 7 123712172.96307      -193.898 7        45.412                                                                    23541640.111 7  92382632.16207      -144.756 7        47.047    23541639.896 7  94792595.87607      -148.580 7        45.403
R18        25.000    20008565.113 8 106807049.63608     -3217.576 8        48.057                                                                    20008564.921 7  83072176.34507     -2502.658 7        44.411
G16        26.000    22393200.279 6 117677113.17006      2130.020 6        41.416                                    22393194.034 3  91696436.17903      1659.750 3        21.405
S21        27.000    38496879.393 5 202302642.42205      -862.849 5        34.424
R19        29.000    19475987.866 5 104183471.36205       -88.585 5        33.754                                                                    19475990.249 6  81031863.32206       -69.083 6        41.683
S36        31.000    38267823.559 5 201098767.18505      -862.210 5        35.505
E34        32.000                                                                                                                                    26159316.292 4                      1493.872 4        27.856    26159309.676 5 105332713.46105      1532.728 5        31.985
R16        34.000    20320277.879 7 108547245.25107     -3910.936 7        42.292                                                                    20320278.049 6  84425657.89906     -3041.938 6        41.471
C44        35.000                                                                                                                                    22228315.748 5 115748597.85305     -2589.167 5        34.867                                                                    22228312.960 7  94055441.80607     -2104.178 7        47.138
R09        37.000    19659571.626 8 104981092.78608       490.577 8        48.387                                                                    19659571.443 7  81651992.82307       381.486 7        42.569
C11        38.000                                                                                                                                    23373563.776 5 121712313.85505      1412.788 5        32.012    23373563.874 6  94115756.69506      1092.309 6        39.838    23373559.445 5  98901258.81705      1147.708 5        35.352
C43        39.000                                                                                                                                                                                                                                                                    25334198.086 3                      1627.339 3        23.448
C12        41.000                                                                                                                                    21718118.708 7 113092039.93607     -1299.920 7        45.487    21718115.390 7  87449947.59907     -1005.278 7        47.861    21718115.074 7  91896536.89307     -1056.505 7        45.971
C13        43.000                                                                                                                                    37868194.688 6 197189637.48406      -284.591 6        39.453    37868195.550 7 152479553.78507      -220.139 7        43.145    37868193.117 6 160232731.27906      -231.230 6        40.315
C38        44.000                                                                                                                                    38668870.848 5 201358987.41905     -1060.472 5        34.257                                                                    38668869.414 5                      -861.795 5        33.545
C25        45.000                                                                                                                                    22226189.837 7 115737666.32407      -931.504 7        44.009                                                                    22226189.260 7  94046509.53107      -757.064 7        45.502
C08        46.000                                                                                                                                    37822447.966 7 196951456.77807      -509.786 7        42.169    37822441.974 7 152295407.94707      -394.242 7        45.032    37822440.326 6 160039166.85906      -414.620 6        36.329
C23        47.000                                                                                                                                    25401339.238 7 132271762.07007      1782.954 7        43.084                                                                    25401333.377 6 107481507.07606      1448.631 6        41.788
C24        51.000                                                                                                                                    23454789.578 6 122135256.93806     -3772.025 6        39.279                                                                    23454785.407 6  99244887.18406     -3065.216 6        37.130
C34        52.000                                                                                                                                    21839158.218 8 113722292.00208       368.980 8        49.149                                                                    21839158.715 8  92408757.53008       299.732 8        49.005
I02        56.000    38518984.764 5 151156791.67905     -1182.858 5        32.102
I06        58.000    38781995.715 5 152188991.91405      -649.715 5        35.857
> 2025 01 02 17 15 40.0000000  0 38
G20         1.000    24829634.635 4                     -3411.691 4        26.419
G25         3.000    23696240.239 4                     -4528.354 4        25.143
G05         4.000    22975153.484 6 120735286.21206     -1417.005 6        36.658                                    22975152.704 4  94079354.08104     -1104.166 4        28.180    22975152.758 6  94079418.15906     -1104.095 6        38.165
E25         6.000    25348156.624 7 133205468.11007     -3219.554 7        42.104                                                                    25348159.577 5  99471619.02805     -2403.986 5        32.245    25348155.345 6 102066551.91706     -2466.901 6        38.613
G31         7.000    22484816.153 6 118158561.99006     -3072.018 6        41.928                                    22484831.205 3  92071618.81003     -2393.788 3        19.104    22484806.494 4  92071538.32904     -2393.991 4        24.421
G28         8.000    23537895.545 5 123692614.91605     -4099.381 5        32.796                                                                                                    23537961.141 4  96383754.06504     -3195.059 4        25.805
G29         9.000    21495651.805 7 112960507.66907     -2871.024 7        45.461                                    21495650.162 6  88021183.08506     -2237.164 6        40.057    21495648.510 6  88021135.08406     -2237.211 6        40.443
E11        10.000    25049837.085 5 131637889.33005     -2866.938 5        30.189                                                                    25049830.826 5  98300941.62705     -2140.789 5        34.886    25049833.167 3 100865366.23903     -2196.969 3        23.695
E10        11.000    27510916.816 4 144570855.33204     -3686.331 4        28.521                                                                    27510879.824 4                     -2753.253 4        25.654    27510880.656 3                     -2824.404 3        22.305
G18        12.000    20761907.283 8 109104779.55308       243.487 8        48.764                                    20761902.396 6  85016587.87206       189.732 6        39.021    20761903.486 7  85016551.84507       189.773 7        47.863
G26        17.000    20766868.731 7 109130663.23507       272.438 7        46.520                                    20766866.201 3  85036895.09303       212.269 3        21.571
E30        19.000    26114796.572 7 137234318.28907      1523.994 7        44.966                                                                    26114799.303 8 102480222.75008      1138.054 8        48.387    26114798.349 7 105153561.78207      1167.774 7        44.579
E02        21.000    23229131.739 8 122070166.64208      -829.151 8        48.900                                                                    23229130.513 8  91156199.98808      -619.126 8        48.176    23229130.358 8  93534195.88808      -635.259 8        50.132
S23        22.000    38221685.179 6 200856346.33106      -866.060 6        38.483
R10        23.000    22698949.392 5 120998181.43705      3044.581 5        33.629
E36        24.000    23541825.168 7 123713147.83007      -196.323 7        45.473                                                                    23541825.610 7  92383360.16007      -146.574 7        47.327    23541825.383 7  94793342.87107      -150.309 7        45.368
R18        25.000    20011579.879 7 106823143.38907     -3220.056 7        46.944                                                                    20011580.399 7  83084693.71707     -2504.466 7        44.695
G16        26.000    22391174.351 6 117666467.56706      2128.350 6        40.796                                    22391168.263 3  91688140.92203      1658.455 3        21.619
S21        27.000    38497701.591 5 202306957.05905      -863.009 5        34.695
R01        28.000    23920920.685 3                     -2297.473 3        23.848                                                                    23920861.694 3                     -1786.591 3        22.686
R19        29.000    19476073.959 5 104183923.48205       -92.293 5        34.057                                                                    19476074.930 6  81032214.99806       -71.696 6        41.418
S36        31.000    38268644.608 5 201103078.67005      -862.138 5        35.419
E34        32.000    26157412.694 4                      1999.532 4        25.459                                                                    26157416.148 4                      1492.354 4        25.850    26157407.710 5 105325051.34705      1531.979 5        33.359
R16        34.000    20323939.791 6 108566807.81306     -3914.260 6        41.998                                                                    20323940.263 6  84440873.22806     -3044.537 6        41.957
C44        35.000                                                                                                                                    22230802.887 6 115761548.23106     -2591.006 6        36.336                                                                    22230799.806 7  94065965.11307     -2105.277 7        46.871
R09        37.000    19659114.502 8 104978649.93108       486.356 8        48.807                                                                    19659111.744 7  81650092.81807       378.251 7        42.233
C11        38.000                                                                                                                                    23372212.787 4 121705254.77304      1411.028 4        29.706    23372209.383 6  94110298.17106      1091.101 6        40.150    23372204.463 5  98895522.75705      1146.474 5        35.581
C43        39.000                                                                                                                                                                                                                                                                    25332276.903 4                      1627.019 4        24.737
C12        41.000                                                                                                                                    21719367.906 7 113098544.77207     -1302.162 7        45.288    21719363.943 7  87454977.54607     -1006.868 7        47.370    21719364.249 7  91901822.60807     -1058.067 7        45.836
C13        43.000                                                                                                                                    37868468.344 6 197191063.56406      -286.017 6        39.694    37868469.366 7 152480656.50407      -221.075 7        42.919    37868467.038 6 160233890.08306      -232.244 6        40.350
C38        44.000                                                                                                                                    38669888.460 5 201364292.46105     -1061.760 5        34.405                                                                    38669888.112 5                      -862.556 5        33.299
C25        45.000                                                                                                                                    22227083.757 6 115742330.86106      -934.525 6        41.242                                                                    22227084.957 7  94050299.81707      -759.207 7        45.229
C08        46.000                                                                                                                                    37822937.970 6 196954008.81906      -511.214 6        41.769    37822932.072 7 152297381.33607      -395.252 7        45.150    37822931.093 6 160041240.58306      -415.207 6        36.325
C23        47.000                                                                                                                                    25399627.785 7 132262851.25807      1781.201 7        43.511                                                                    25399621.943 6 107474266.34406      1447.511 6        41.423
C24        51.000                                                                                                                                    23458413.783 6 122154121.52106     -3773.875 6        40.548                                                                    23458407.121 5  99260216.17105     -3066.551 5        35.886
C34        52.000                                                                                                                                    21838805.119 8 113720451.52908       367.005 8        48.935                                                                    21838805.269 8  92407262.02008       298.340 8        48.820
I02        56.000    38520491.961 5 151162706.75905     -1183.233 5        31.668
I06        58.000    38782823.798 5 152192240.81605      -649.773 5        35.619
> 2025 01 02 17 15 45.0000000  0 39
G20         1.000    24832888.773 4                     -3414.257 4        24.977
G25         3.000    23700555.466 4                     -4528.127 4        27.509
G05         4.000    22976502.889 5 120742379.51805     -1420.335 5        34.462                                    22976503.509 4  94084881.35604     -1106.765 4        26.946    22976501.741 6  94084945.39506     -1106.673 6        37.180
E25         6.000    25351219.213 6 133221567.87306     -3220.467 6        40.517                                                                    25351223.216 5  99483641.58705     -2404.629 5        32.563    25351218.635 6 102078888.13106     -2467.722 6        38.096
G31         7.000    22487740.255 7 118173927.61407     -3074.430 7        44.059                                    22487754.774 3  92083592.06003     -2395.652 3        20.595    22487730.022 4  92083511.47504     -2395.286 4        24.767
G28         8.000    23541801.277 5 123713114.04605     -4100.212 5        35.624                                                                                                    23541864.694 4  96399727.39504     -3195.331 4        24.271
G29         9.000    21498384.330 7 112974865.56107     -2872.312 7        44.644                                    21498381.993 6  88032371.06006     -2238.171 6        39.312    21498380.517 6  88032323.04506     -2238.001 6        39.808
E11        10.000    25052563.900 4 131652225.99404     -2867.881 4        29.270                                                                    25052559.064 5  98311647.59205     -2141.699 5        34.371    25052560.208 3                     -2199.890 3        20.405
E10        11.000    27514426.359 4 144589287.49104     -3686.467 4        27.353                                                                    27514387.159 4                     -2753.445 4        26.347    27514388.555 3                     -2825.297 3        22.800
G18        12.000    20761676.588 8 109103568.63708       240.797 8        48.877                                    20761671.996 6  85015644.31206       187.632 6        39.189    20761673.347 7  85015608.28407       187.632 7        47.668
R02        16.000    23573488.697 4                       857.104 4        25.985
G26        17.000    20766610.837 7 109129307.37207       269.812 7        46.604                                    20766605.081 3  85035838.65203       210.236 3        19.164
E30        19.000    26113346.272 7 137226699.69007      1523.357 7        44.673                                                                    26113349.610 8 102474533.55208      1137.561 8        48.532    26113348.588 7 105147724.16807      1167.345 7        44.512
E02        21.000    23229921.724 8 122074316.20008      -830.790 8        49.310                                                                    23229920.131 8  91159298.69008      -620.368 8        48.318    23229919.993 8  93537375.42308      -636.585 8        50.080
S23        22.000    38222509.371 6 200860676.09306      -865.820 6        38.574
R10        23.000    22696096.134 5 120982962.61605      3043.023 5        32.641
E36        24.000    23542012.811 7 123714133.90407      -198.376 7        45.356                                                                    23542013.350 7  92384096.52507      -148.145 7        47.539    23542013.077 7  94794098.44507      -151.954 7        45.213
R18        25.000    20014596.615 7 106839248.50307     -3222.126 7        45.819                                                                    20014596.776 7  83097219.92807     -2506.047 7        45.403
G16        26.000    22389149.985 6 117655829.98506      2126.686 6        40.830                                    22389144.201 3  91679851.91103      1657.144 3        21.667
S21        27.000    38498520.863 5 202311272.05405      -862.893 5        34.600
R01        28.000                                                                                                                                    23923013.729 4                     -1789.984 4        24.707
R19        29.000    19476163.196 5 104184392.51705       -95.435 5        34.124                                                                    19476163.326 6  81032579.78906       -74.208 6        41.759
S36        31.000    38269467.771 5 201107390.27405      -862.258 5        35.700
E34        32.000    26155509.871 4                      1998.902 4        28.739                                                                    26155512.135 3                      1492.665 3        23.448    26155506.410 5 105317393.32105      1531.352 5        34.438
R16        34.000    20327603.190 6 108586386.88406     -3917.289 6        41.213                                                                    20327605.052 6  84456101.41206     -3046.865 6        41.445
C44        35.000                                                                                                                                    22233292.132 6 115774505.51306     -2592.073 6        38.390                                                                    22233287.821 7  94076494.01907     -2106.482 7        46.777
R09        37.000    19658660.692 8 104976227.68008       482.457 8        48.586                                                                    19658658.056 6  81648208.86106       375.162 6        41.595
C11        38.000                                                                                                                                    23370857.106 3                      1410.976 3        21.476    23370855.428 6  94104844.97906      1090.153 6        39.769    23370850.060 5  98889792.30705      1145.222 5        35.310
C43        39.000                                                                                                                                    25330399.864 5 131901801.28105      2002.032 5        32.347                                                                    25330357.731 4                      1627.407 4        26.108
C12        41.000                                                                                                                                    21720618.902 7 113105058.94407     -1303.673 7        45.002    21720615.137 7  87460014.73007     -1008.091 7        47.342    21720615.209 7  91907115.92607     -1059.508 7        45.991
C13        43.000                                                                                                                                    37868743.419 6 197192495.06606      -286.707 6        39.841    37868744.570 7 152481763.45407      -221.864 7        43.094    37868741.965 6 160235053.32206      -233.249 6        40.596
C38        44.000                                                                                                                                    38670907.936 5 201369602.60805     -1062.423 5        34.024                                                                    38670908.510 5                      -863.293 5        33.569
C25        45.000                                                                                                                                    22227982.747 6 115747009.76806      -937.106 6        40.276                                                                    22227983.192 7  94054101.81107      -761.611 7        44.960
C08        46.000                                                                                                                                    37823429.165 6 196956566.88906      -512.172 6        41.793    37823423.541 7 152299359.41407      -396.073 7        45.523    37823422.476 6 160043319.22606      -416.286 6        36.658
C23        47.000                                                                                                                                    25397918.025 7 132253948.46207      1779.833 7        43.272                                                                    25397912.447 6 107467032.11506      1446.123 6        41.404
C24        51.000                                                                                                                                    23462037.951 6 122172993.64406     -3775.122 6        41.859                                                                    23462030.767 5  99275551.30605     -3067.734 5        35.733
C34        52.000                                                                                                                                    21838453.690 8 113718620.04308       365.472 8        48.832                                                                    21838453.518 8  92405773.79908       296.807 8        48.904
I02        56.000    38522000.042 5 151168622.62005     -1183.141 5        31.970
I06        58.000    38783652.262 5 152195489.77305      -649.523 5        35.662
> 2025 01 02 17 15 50.0000000  0 38
G20         1.000    24836133.190 4                     -3416.177 4        25.684
G25         3.000    23704863.928 4                     -4529.721 4        27.593
G05         4.000    22977856.539 5 120749490.17705     -1424.079 5        35.171                                    22977857.347 4  94090422.18704     -1109.679 4        25.519    22977852.840 6  94090486.24706     -1109.472 6        36.957
E25         6.000    25354283.009 6 133237673.46606     -3221.650 6        38.946                                                                    25354287.584 5  99495668.46305     -2405.516 5        32.581    25354283.171 6 102091228.78506     -2468.683 6        37.675
G31         7.000    22490667.004 7 118189305.65507     -3076.898 7        44.524                                    22490680.878 3  92095575.01603     -2397.578 3        21.048    22490657.065 4  92095494.48704     -2397.845 4        25.489
G28         8.000    23545705.058 6 123733619.14806     -4101.749 6        37.758
G29         9.000    21501118.150 7 112989230.55507     -2873.856 7        43.920                                    21501115.044 6  88043564.56306     -2239.372 6        38.474    21501113.864 6  88043516.56106     -2239.197 6        39.129
E11        10.000    25055293.661 4 131666569.81804     -2869.026 4        29.043                                                                    25055288.827 5  98322358.91705     -2143.060 5        33.671    25055289.494 3                     -2197.368 3        21.238
E10        11.000    27517934.207 4 144607722.36004     -3687.314 4        27.174                                                                    27517894.301 4                     -2753.435 4        27.006    27517899.400 3                     -2826.806 3        22.552
G18        12.000    20761448.924 8 109102372.13208       237.849 8        48.763                                    20761444.252 6  85014711.97806       185.336 6        39.072    20761445.598 7  85014675.94807       185.300 7        47.479
G26        17.000    20766354.982 7 109127965.37207       266.950 7        47.099                                    20766348.718 2  85034793.01602       207.990 2        17.736
E30        19.000    26111896.634 7 137219084.80107      1522.484 7        44.318                                                                    26111900.612 8 102468847.11708      1137.034 8        48.371    26111899.593 7 105141889.39007      1166.573 7        44.591
E02        21.000    23230713.014 8 122078474.80208      -832.713 8        49.630                                                                    23230711.409 8  91162404.14808      -621.824 8        48.369    23230711.379 8  93540561.88508      -638.013 8        49.915
S23        22.000    38223332.950 6 200865005.81806      -866.020 6        38.550
R10        23.000    22693240.240 5 120967751.41905      3041.383 5        31.291
E36        24.000    23542202.206 7 123715130.80307      -200.496 7        45.348                                                                    23542203.117 7  92384840.96907      -149.749 7        47.539    23542202.756 7  94794862.32107      -153.561 7        45.202
R18        25.000    20017615.524 7 106855364.64207     -3224.423 7        44.214                                                                    20017616.406 7  83109754.72707     -2507.828 7        45.508
G16        26.000    22387127.323 6 117645200.01106      2125.152 6        41.425                                    22387121.566 3  91671568.81903      1655.957 3        21.905
S21        27.000    38499341.934 5 202315587.01105      -863.003 5        34.400
R19        29.000    19476254.090 5 104184877.92005       -98.777 5        32.766                                                                    19476254.408 6  81032957.30006       -76.851 6        41.342
S36        31.000    38270287.021 5 201111702.06405      -862.526 5        35.738
E34        32.000    26153610.080 4                      1997.348 4        29.839                                                                    26153610.327 3                      1491.982 3        19.731    26153606.014 5 105309739.09505      1530.540 5        34.886
R16        34.000    20331270.224 6 108605981.88406     -3920.574 6        39.916                                                                    20331273.981 6  84471342.00606     -3049.461 6        41.273
C44        35.000                                                                                                                                    22235782.535 6 115787469.35206     -2593.448 6        40.687                                                                    22235777.137 7  94087028.22307     -2107.308 7        46.997
R17        36.000                                                                                                                                    23691524.447 3                     -3726.745 3        19.522
R09        37.000    19658210.086 7 104973825.51507       478.394 7        47.429                                                                    19658208.201 6  81646340.52106       372.063 6        40.417
C11        38.000                                                                                                                                                                                                    23369502.164 6  94099396.85706      1089.114 6        38.577    23369497.646 5  98884067.14805      1144.586 5        34.781
C43        39.000                                                                                                                                    25328475.204 5 131891792.92905      2000.817 5        33.198                                                                    25328436.423 4                      1627.190 4        26.527
C12        41.000                                                                                                                                    21721871.421 7 113111582.13107     -1305.607 7        44.972    21721868.323 7  87465058.87307     -1009.569 7        47.582    21721867.926 7  91912416.54307     -1060.745 7        46.268
C13        43.000                                                                                                                                    37869018.496 6 197193931.73306      -287.809 6        39.802    37869020.525 7 152482874.37707      -222.685 7        42.969    37869017.997 6 160236220.72506      -233.933 6        40.934
C38        44.000                                                                                                                                    38671927.636 5 201374917.52205     -1063.386 5        34.029                                                                    38671928.813 5                      -864.214 5        33.695
C25        45.000                                                                                                                                    22228885.527 6 115751702.68706      -940.124 6        41.812                                                                    22228883.844 7  94057915.20007      -763.795 7        44.575
C08        46.000                                                                                                                                    37823921.156 6 196959130.47506      -513.204 6        41.509    37823915.753 7 152301341.74807      -396.993 7        45.655    37823914.775 6 160045402.35406      -417.020 6        36.733
C23        47.000                                                                                                                                    25396209.890 7 132245053.31807      1778.275 7        42.912                                                                    25396204.373 6 107459804.09106      1445.019 6        41.523
C24        51.000                                                                                                                                    23465663.108 7 122191872.93107     -3776.647 7        43.331                                                                    23465657.030 6  99290892.30306     -3068.916 6        36.488
C34        52.000                                                                                                                                    21838103.602 8 113716797.18508       363.691 8        48.204                                                                    21838103.464 8  92404292.57308       295.579 8        48.934
I02        56.000    38523507.843 5 151174539.25305     -1183.226 5        31.177
I06        58.000    38784479.708 5 152198738.48505      -649.682 5        35.767
> 2025 01 02 17 15 55.0000000  0 37
G20         1.000    24839383.085 3                     -3417.741 3        23.124
G25         3.000    23709170.919 4                     -4529.741 4        26.311
G05         4.000    22979214.513 6 120756618.13206     -1427.359 6        36.677                                    22979213.885 4  94095976.48404     -1112.232 4        25.173    22979209.333 6  94096040.50806     -1112.346 6        37.028
E25         6.000    25357348.310 6 133253784.63306     -3222.901 6        37.376                                                                    25357354.119 5  99507699.57205     -2406.993 5        32.844    25357348.873 6 102103573.70706     -2469.599 6        37.350
G31         7.000    22493593.234 7 118204695.94007     -3079.295 7        43.391                                    22493609.523 3  92107567.49003     -2399.458 3        21.143    22493581.207 4  92107486.79504     -2399.477 4        26.742
G28         8.000    23549605.819 6 123754129.92806     -4102.795 6        38.574
G29         9.000    21503852.870 7 113003602.39707     -2875.093 7        43.321                                    21503849.320 6  88054763.40206     -2240.330 6        37.856    21503849.548 6  88054715.40106     -2240.243 6        38.592
E11        10.000    25058023.289 4 131680920.67704     -2870.986 4        28.853                                                                    25058019.606 5  98333075.41705     -2144.006 5        32.389    25058018.888 3                     -2198.794 3        22.705
E10        11.000    27521443.990 4 144626159.73704     -3687.476 4        26.395                                                                    27521404.212 4                     -2753.558 4        26.515    27521408.206 3                     -2825.326 3        23.162
G18        12.000    20761223.857 8 109101189.85108       234.936 8        48.486                                    20761219.204 6  85013790.72506       183.066 6        39.192    20761220.605 7  85013754.69707       183.074 7        47.317
G26        17.000    20766102.211 7 109126637.01407       264.242 7        47.050                                    20766097.324 3  85033757.99403       205.883 3        19.254    20766158.598 4                       205.747 4        29.043
E30        19.000    26110448.143 7 137211473.41407      1521.876 7        43.638                                                                    26110452.136 8 102463163.31108      1136.406 8        48.337    26110451.186 7 105136057.30507      1166.163 7        44.727
E02        21.000    23231506.233 8 122082642.24008      -834.461 8        49.690                                                                    23231504.398 8  91165516.20508      -623.122 8        48.395    23231504.456 8  93543755.12408      -639.372 8        49.848
S23        22.000    38224157.074 6 200869335.42006      -865.767 6        38.628
R10        23.000    22690388.907 5 120952547.71505      3040.039 5        30.475
E36        24.000    23542394.081 7 123716138.34807      -202.626 7        45.099                                                                    23542394.847 7  92385593.37007      -151.344 7        47.586    23542394.426 7  94795634.35207      -155.288 7        45.217
R18        25.000    20020635.329 6 106871491.53706     -3226.438 6        41.497                                                                    20020638.000 7  83122297.90407     -2509.522 7        45.073
G16        26.000    22385106.755 6 117634577.48606      2123.639 6        41.816                                    22385100.741 3  91663291.53603      1654.757 3        22.133
S21        27.000    38500160.876 5 202319901.73305      -862.704 5        34.967
R19        29.000    19476345.826 5 104185379.68505      -102.271 5        32.509                                                                    19476347.891 7  81033347.56207       -79.449 7        42.082
S36        31.000    38271108.780 6 201116013.69706      -862.183 6        36.147
E34        32.000    26151712.279 5                      1996.592 5        31.970                                                                                                                                    26151706.135 5 105302088.52405      1529.776 5        34.976
R16        34.000    20334941.240 6 108625592.61906     -3923.748 6        40.181                                                                    20334945.453 7  84486594.80207     -3051.780 7        42.480
C44        35.000                                                                                                                                    22238272.011 7 115800439.57307     -2594.851 7        42.019                                                                    22238267.828 7  94097567.59107     -2108.436 7        46.705
R09        37.000    19657762.280 7 104971443.31107       474.419 7        45.464                                                                    19657763.140 6  81644487.72506       368.860 6        40.329
C11        38.000                                                                                                                                                                                                    23368149.967 6  94093953.62206      1088.059 6        37.297    23368151.167 5  98878347.17105      1143.412 5        34.581
C43        39.000                                                                                                                                    25326549.428 5 131881787.69805      2000.738 5        34.829                                                                    25326515.136 4                      1625.549 4        25.308
C12        41.000                                                                                                                                    21723125.641 7 113118114.13107     -1307.298 7        45.160    21723123.297 8  87470109.83408     -1010.933 8        48.175    21723122.219 7  91917724.33307     -1062.328 7        46.326
C13        43.000                                                                                                                                    37869294.795 6 197195373.35906      -288.847 6        39.574    37869297.236 7 152483989.14007      -223.432 7        43.270    37869294.855 6 160237392.15306      -234.732 6        41.046
C38        44.000                                                                                                                                    38672949.527 5 201380237.01005     -1064.511 5        34.095                                                                    38672950.664 5                      -864.917 5        33.575
C25        45.000                                                                                                                                    22229789.956 7 115756409.46007      -942.832 7        43.778                                                                    22229787.043 7  94061739.84107      -766.067 7        43.416
C08        46.000                                                                                                                                    37824414.759 6 196961699.51106      -514.377 6        41.557    37824409.032 7 152303328.27407      -397.798 7        45.932    37824408.342 6 160047489.88406      -418.131 6        36.771
C23        47.000                                                                                                                                    25394502.298 7 132236165.68307      1776.708 7        42.023                                                                    25394497.866 6 107452582.14406      1443.736 6        41.538
C24        51.000                                                                                                                                    23469289.472 7 122210759.22607     -3777.986 7        44.214                                                                    23469285.464 6  99306238.94106     -3069.794 6        37.894
C34        52.000                                                                                                                                    21837755.238 7 113714982.75407       361.947 7        47.814                                                                    21837754.996 8  92402818.18908       294.129 8        48.701
I02        56.000    38525013.630 5 151180456.05505     -1183.118 5        31.208
I06        58.000    38785307.061 5 152201986.83205      -649.455 5        35.414
> 2025 01 02 17 16  0.0000000  0 40
G20         1.000    24842639.611 3                     -3420.467 3        20.595
G25         3.000    23713481.881 4                     -4530.125 4        26.132
G05         4.000    22980573.072 6 120763763.50006     -1430.765 6        38.207                                    22980573.365 4  94101544.34304     -1114.868 4        25.504    22980568.440 6  94101608.34906     -1114.888 6        36.129
E25         6.000    25360414.757 6 133269901.52006     -3223.803 6        36.155                                                                    25360423.576 5  99519734.88905     -2407.529 5        32.725    25360415.632 6 102115923.02306     -2470.423 6        36.979
G31         7.000    22496521.039 7 118220098.54407     -3081.633 7        43.718                                    22496540.971 3  92119569.55803     -2401.266 3        20.548    22496515.191 4  92119488.82604     -2401.843 4        29.137
G28         8.000    23553507.580 6 123774646.60706     -4104.000 6        39.009
G29         9.000    21506588.843 7 113017981.21507     -2876.556 7        42.720                                    21506584.836 6  88065967.67306     -2241.471 6        37.191    21506584.643 6  88065919.67606     -2241.391 6        37.206
E11        10.000    25060756.345 4 131695278.54904     -2872.689 4        28.720                                                                    25060752.115 5  98343797.23605     -2145.390 5        31.366    25060752.480 4                     -2200.890 4        26.587
E10        11.000    27524954.869 4 144644599.87904     -3688.636 4        25.579                                                                    27524912.920 4                     -2754.323 4        27.006    27524920.809 4                     -2825.839 4        24.135
G18        12.000    20761001.825 8 109100021.92108       232.168 8        48.703                                    20760996.960 6  85012880.65106       180.910 6        39.333    20760998.858 7  85012844.62507       180.947 7        47.871
R02        16.000    23571114.941 4                       847.027 4        28.607
G26        17.000    20765852.111 7 109125322.45607       261.646 7        46.938                                    20765849.994 3  85032733.69803       203.857 3        21.143    20765909.010 4                       203.790 4        26.874
E30        19.000    26109000.779 7 137203865.68407      1521.218 7        42.832                                                                    26109004.413 7 102457482.22107      1135.950 7        47.958    26109003.397 7 105130228.01207      1165.601 7        44.631
E02        21.000    23232300.866 8 122086818.66208      -836.109 8        49.682                                                                    23232299.146 8  91168634.96708      -624.422 8        48.215    23232299.196 8  93546955.23908      -640.730 8        49.550
S23        22.000    38224981.480 6 200873664.82806      -865.586 6        38.550
R10        23.000    22687537.848 5 120937351.56305      3038.636 5        32.042
E36        24.000    23542587.937 7 123717156.66007      -204.606 7        44.713                                                                    23542588.729 7  92386353.80807      -152.855 7        47.395    23542588.138 7  94796414.63807      -156.921 7        44.984
R18        25.000    20023657.571 6 106887629.34906     -3228.730 6        41.738                                                                    20023660.836 7  83134849.54707     -2511.172 7        44.420
G16        26.000    22383086.531 6 117623962.65406      2122.413 6        41.807                                    22383081.535 3  91655020.24903      1653.835 3        22.533
S21        27.000    38500976.696 5 202324216.32805      -862.794 5        34.400
R01        28.000    23929507.453 5                     -2313.105 5        32.982
R19        29.000    19476442.284 5 104185897.72705      -104.908 5        33.126                                                                    19476444.536 7  81033750.52007       -81.843 7        42.768
S36        31.000    38271930.803 5 201120325.25905      -862.370 5        35.652
E34        32.000    26149815.014 5                      1995.531 5        33.539                                                                    26149847.895 4                      1490.216 4        29.422    26149807.177 5 105294441.73305      1528.825 5        34.267
R16        34.000    20338616.487 6 108645219.33706     -3926.920 6        41.266                                                                    20338620.373 7  84501860.03307     -3054.242 7        43.181
C44        35.000                                                                                                                                    22240762.496 7 115813416.26807     -2595.950 7        43.126                                                                    22240759.835 7  94108112.24207     -2109.266 7        46.652
R17        36.000                                                                                                                                    23700500.661 3                     -3726.009 3        22.457
R09        37.000    19657318.028 7 104969081.18907       470.545 7        42.732                                                                    19657321.071 6  81642650.51106       365.885 6        41.001
C11        38.000                                                                                                                                    23366807.488 5                      1405.850 5        35.571    23366800.635 5  94088515.43605      1087.141 5        35.500    23366811.365 5  98872632.52405      1142.536 5        35.895
C43        39.000                                                                                                                                    25324628.490 5 131871785.89405      2000.157 5        35.024                                                                    25324594.114 4                      1624.661 4        25.068
C12        41.000                                                                                                                                    21724382.711 7 113124655.08407     -1309.054 7        45.270    21724379.658 8  87475167.72408     -1012.283 8        48.340    21724378.285 7  91923039.40907     -1063.691 7        46.405
C13        43.000                                                                                                                                    37869572.051 6 197196819.97706      -289.730 6        39.060    37869575.536 7 152485107.75807      -224.090 7        43.263    37869572.698 6 160238567.66906      -235.438 6        41.070
C38        44.000                                                                                                                                    38673973.305 5 201385561.11905     -1065.135 5        34.967                                                                    38673973.614 5 163642235.58515      -865.891 5        34.052
C25        45.000                                                                                                                                    22230696.662 7 115761130.19507      -945.500 7        44.754                                                                    22230693.002 7  94065575.86207      -768.318 7        42.508
C08        46.000                                                                                                                                    37824909.475 6 196964274.02306      -515.477 6        40.975    37824903.682 7 152305319.06607      -398.596 7        46.102    37824902.694 6 160049581.90506      -418.785 6        37.036
C23        47.000                                                                                                                                    25392797.213 6 132227285.68906      1775.451 6        40.563                                                                    25392792.642 6 107445366.43706      1442.645 6        41.824
C24        51.000                                                                                                                                    23472917.313 7 122229652.63407     -3779.342 7        44.468                                                                    23472914.839 6  99321591.40806     -3071.048 6        39.517
C34        52.000                                                                                                                                    21837408.708 7 113713176.86807       360.385 7        47.695                                                                    21837408.120 8  92401350.78408       292.889 8        48.444
I02        56.000    38526522.010 5 151186373.28905     -1183.562 5        30.800
I06        58.000    38786134.498 5 152205234.87505      -649.531 5        35.405
> 2025 01 02 17 16  5.0000000  0 38
G25         3.000    23717792.552 4                     -4531.639 4        24.797
G05         4.000    22981936.324 6 120770926.33306     -1434.049 6        39.408                                    22981935.932 4  94107125.80304     -1117.434 4        26.096    22981931.729 5  94107189.79105     -1117.781 5        34.714
E25         6.000    25363483.557 6 133286024.25806     -3224.871 6        36.163                                                                                                                                    25363483.295 6 102128276.80306     -2471.101 6        37.263
G31         7.000    22499453.221 7 118235513.61807     -3084.019 7        44.488                                    22499474.043 3  92131581.37403     -2403.144 3        21.238    22499450.151 5  92131500.53905     -2402.929 5        32.587
G28         8.000    23557413.132 6 123795169.19906     -4104.891 6        38.300
G29         9.000    21509326.953 7 113032367.24007     -2877.831 7        42.684                                    21509321.723 6  88077177.55506     -2242.461 6        36.609    21509323.273 5  88077129.55205     -2242.363 5        35.962
E11        10.000    25063490.328 4 131709643.65104     -2873.728 4        28.559                                                                    25063485.683 5  98354524.38805     -2146.167 5        30.445    25063486.860 4                     -2202.001 4        29.962
E10        11.000    27528463.336 4 144663042.69904     -3688.287 4        24.511                                                                    27528423.698 4                     -2755.185 4        26.731
G18        12.000    20760782.414 8 109098868.48408       229.375 8        49.016                                    20760777.542 6  85011981.86606       178.738 6        39.670    20760779.394 8  85011945.83708       178.742 8        48.788
G27        13.000    24898830.325 5                      2546.811 5        32.509
G26        17.000    20765604.494 7 109124021.84707       258.908 7        46.773                                    20765606.129 3  85031720.26703       201.751 3        22.381    20765654.754 4                       201.357 4        25.985
E30        19.000    26107554.197 7 137196261.74907      1520.579 7        42.152                                                                    26107557.428 7 102451803.97007      1135.451 7        47.763    26107556.421 7 105124401.63307      1165.026 7        44.805
E02        21.000    23233097.232 8 122091004.19608      -837.864 8        49.576                                                                    23233095.669 8  91171760.52708      -625.626 8        48.160    23233095.778 8  93550162.33708      -642.003 8        49.554
S23        22.000    38225806.696 6 200877994.23506      -865.559 6        38.808
R10        23.000    22684687.131 5 120922163.31105      3036.872 5        32.653
E36        24.000    23542783.013 7 123718185.87307      -206.656 7        43.837                                                                    23542784.626 7  92387122.38307      -154.436 7        47.199    23542783.989 7  94797203.26607      -158.448 7        45.192
R18        25.000    20026683.152 7 106903778.21207     -3230.711 7        43.111                                                                    20026685.661 7  83147409.76307     -2512.777 7        43.628
G16        26.000    22381067.924 6 117613355.58506      2120.986 6        41.647                                    22381063.823 3  91646755.00403      1652.732 3        22.952
S21        27.000    38501804.832 5 202328530.83805      -862.712 5        34.433
R19        29.000    19476544.908 5 104186432.27505      -108.167 5        33.766                                                                    19476544.052 7  81034166.24007       -84.255 7        43.253
S36        31.000    38272745.009 6 201124636.50606      -861.977 6        36.049
E34        32.000    26147913.934 5 137408231.20115      1994.501 5        34.448                                                                    26147940.632 5                      1489.316 5        31.026    26147908.773 5 105286798.76905      1528.668 5        33.683
R16        34.000    20342296.149 7 108664861.98507     -3929.974 7        43.071                                                                    20342298.677 7  84517137.66307     -3056.684 7        43.397
C44        35.000                                                                                                                                    22243254.292 7 115826399.55107     -2597.093 7        44.548                                                                    22243253.227 7  94118662.22007     -2110.450 7        46.465
R17        36.000                                                                                                                                    23704974.761 3                     -3725.878 3        23.067
R09        37.000    19656878.964 6 104966739.33506       466.491 6        40.160                                                                    19656883.033 6  81640829.09806       362.793 6        41.588
C11        38.000                                                                                                                                    23365453.227 6 121670083.88816      1404.875 6        37.599    23365452.509 5  94083082.33805      1086.472 5        34.605    23365466.285 6  98866923.17106      1141.522 6        36.166
C43        39.000                                                                                                                                    25322711.487 5 131861787.55005      1999.412 5        33.611                                                                    25322673.248 4                      1624.503 4        24.376
C12        41.000                                                                                                                                    21725641.215 7 113131205.07207     -1310.715 7        45.254    21725637.144 8  87480232.59508     -1013.552 8        48.657    21725636.145 7  91928361.81607     -1065.133 7        46.709
C13        43.000                                                                                                                                    37869850.752 6 197198271.79906      -290.599 6        38.465    37869854.392 7 152486230.40607      -224.739 7        43.450    37869851.607 6 160239747.37806      -236.185 6        41.130
C38        44.000                                                                                                                                    38674999.533 5 201390890.03205     -1065.988 5        34.781                                                                    38674997.177 5 163646565.76405      -866.415 5        33.958
C25        45.000                                                                                                                                    22231605.638 7 115765865.04707      -948.214 7        45.425                                                                    22231601.992 6  94069423.30506      -770.586 6        41.154
C08        46.000                                                                                                                                    37825404.140 6 196966854.22606      -516.502 6        40.703    37825399.342 7 152307314.23207      -399.361 7        46.181    37825398.482 6 160051678.51806      -419.726 6        37.357
C23        47.000                                                                                                                                    25391093.266 6 132218413.45406      1773.781 6        39.420                                                                    25391089.065 7 107438156.98907      1441.326 7        42.144
C24        51.000                                                                                                                                    23476546.319 7 122248553.25607     -3780.578 7        44.614                                                                    23476545.059 6  99336949.69006     -3072.225 6        41.209
C34        52.000                                                                                                                                    21837063.476 7 113711379.66407       358.725 7        47.686                                                                    21837062.977 8  92399890.39808       291.492 8        48.284
I02        56.000    38528031.924 5 151192291.28405     -1183.055 5        30.989
I06        58.000    38786962.875 5 152208482.78005      -649.371 5        35.819
> 2025 01 02 17 16 10.0000000  0 40
G25         3.000    23722107.963 3                     -4532.317 3        23.848                                                                                                    23722106.271 3                     -3530.177 3        22.267
G05         4.000    22983303.650 6 120778106.58806     -1437.919 6        40.536                                    22983301.453 4  94112720.83304     -1120.450 4        26.491    22983298.145 5  94112784.78305     -1120.523 5        34.119
E25         6.000    25366553.066 6 133302152.77506     -3226.510 6        36.794                                                                    25366581.818 5  99543818.84805     -2409.155 5        33.425    25366552.809 6 102140635.02606     -2472.106 6        37.115
G31         7.000    22502389.363 7 118250941.08907     -3086.768 7        45.007                                    22502408.469 3  92143602.85003     -2405.293 3        23.562    22502386.901 5  92143521.98205     -2405.051 5        35.614
G28         8.000    23561319.113 6 123815697.67506     -4106.209 6        36.488
G29         9.000    21512065.824 7 113046760.24007     -2879.437 7        42.389                                    21512060.029 6  88088392.88206     -2243.716 6        36.197    21512062.801 5  88088344.88605     -2243.761 5        35.857
E11        10.000    25066226.358 4 131724015.84504     -2875.522 4        27.976                                                                    25066220.782 4  98365256.81504     -2146.844 4        29.744    25066222.943 5                     -2203.107 5        31.947
E10        11.000    27531972.643 4 144681488.29504     -3690.337 4        24.917                                                                    27531933.855 4                     -2755.197 4        27.018    27531965.435 4                     -2826.825 4        27.269
G18        12.000    20760565.658 8 109097729.44608       226.310 8        49.009                                    20760560.968 6  85011094.30506       176.348 6        40.036    20760562.632 8  85011058.28608       176.316 8        49.582
G27        13.000    24896403.500 5                      2546.533 5        32.647
R02        16.000    23569513.546 4                       839.679 4        27.760
G26        17.000    20765359.804 7 109122735.09107       255.887 7        47.168                                    20765364.595 3  85030717.61303       199.395 3        22.819
E30        19.000    26106107.949 6 137188661.55406      1519.521 6        41.251                                                                    26106111.076 7 102446128.49407      1134.796 7        47.512    26106110.059 7 105118578.10107      1164.355 7        44.880
E02        21.000    23233895.463 8 122095198.77108      -839.858 8        49.497                                                                    23233893.880 8  91174892.84308      -627.208 8        48.298    23233893.920 8  93553376.36308      -643.571 8        49.461
S23        22.000    38226626.988 6 200882323.70306      -865.944 6        38.438
R10        23.000    22681839.741 5 120906982.64505      3035.220 5        33.120
E36        24.000    23542980.568 7 123719225.91607      -209.139 7        42.720                                                                    23542982.624 7  92387899.04307      -156.201 7        47.376    23542981.972 7  94798000.19607      -160.296 7        45.246
R18        25.000    20029712.106 7 106919938.07607     -3233.157 7        46.210                                                                    20029712.598 7  83159978.52507     -2514.729 7        43.513
G16        26.000    22379050.836 6 117602756.15006      2119.189 6        41.159                                    22379047.622 3  91638495.71603      1651.327 3        23.562
S21        27.000    38502623.385 5 202332845.22705      -863.020 5        34.705
R01        28.000    23933864.150 4                     -2321.270 4        28.834                                                                    23933900.243 4                     -1804.915 4        25.383
R19        29.000    19476648.419 5 104186983.28505      -112.077 5        33.551                                                                    19476647.410 7  81034594.79207       -86.970 7        43.458
S36        31.000    38273569.984 5 201128947.94705      -862.662 5        35.662
E34        32.000    26146016.592 5 137398261.43105      1993.276 5        35.495                                                                    26146038.515 5                      1488.487 5        30.619    26146010.982 5 105279159.64605      1527.441 5        32.707
R16        34.000    20345978.780 7 108684520.59507     -3933.425 7        43.994                                                                    20345977.600 6  84532427.67906     -3059.292 6        41.876
C44        35.000                                                                                                                                    22245747.994 7 115839389.35307     -2598.740 7        46.470                                                                    22245747.784 7  94129217.53307     -2111.725 7        46.353
R17        36.000                                                                                                                                    23709448.955 3                     -3726.873 3        23.429
R09        37.000    19656444.949 6 104964417.68106       462.220 6        38.243                                                                    19656448.613 6  81639023.38106       359.478 6        41.280
C11        38.000                                                                                                                                    23364100.513 6 121663064.26706      1403.170 6        38.913    23364106.975 5  94077654.31205      1085.052 5        35.319    23364118.023 5  98861219.19005      1139.878 5        35.310
C43        39.000                                                                                                                                    25320788.316 5 131851792.55205      1998.599 5        30.687                                                                    25320753.223 3                      1626.427 3        20.643
C12        41.000                                                                                                                                    21726900.095 7 113137764.03307     -1312.756 7        45.467    21726896.708 8  87485304.39908     -1015.099 8        49.129    21726895.765 7  91933691.52807     -1066.835 7        46.984
C13        43.000                                                                                                                                    37870131.112 6 197199728.73006      -291.972 6        38.559    37870133.815 7 152487356.98407      -225.813 7        43.767    37870131.450 6 160240931.26806      -237.496 6        41.209
C38        44.000                                                                                                                                                                                                                                                                    38676021.746 5 163650899.85005      -867.353 5        33.659
C25        45.000                                                                                                                                    22232517.699 7 115770613.93507      -951.227 7        45.961                                                                    22232513.345 6  94073282.19006      -772.929 6        39.805
C08        46.000                                                                                                                                    37825901.032 6 196969439.97006      -517.883 6        40.529    37825896.147 7 152309313.70207      -400.374 7        46.253    37825895.240 6 160053779.66706      -420.973 6        37.138
C23        47.000                                                                                                                                    25389390.878 6 132209548.89606      1771.963 6        39.357                                                                    25389386.915 7 107430953.84207      1439.858 7        42.356
C24        51.000                                                                                                                                    23480176.776 7 122267461.05607     -3782.313 7        44.694                                                                    23480176.213 7  99352313.83007     -3073.582 7        42.207
C34        52.000                                                                                                                                    21836719.868 7 113709591.06007       356.779 7        47.662                                                                    21836719.473 7  92398437.04107       289.841 7        47.940
I02        56.000    38529541.148 5 151198209.78805     -1183.693 5        30.860
I06        58.000    38787790.141 5 152211730.42005      -649.755 5        35.671
> 2025 01 02 17 16 15.0000000  0 38
G25         3.000    23726424.496 4                     -4532.610 4        24.451                                                                                                    23726423.935 3                     -3532.784 3        23.162
G05         4.000    22984674.371 6 120785304.08506     -1441.433 6        40.529                                    22984669.868 4  94118329.27004     -1123.193 4        26.180    22984668.516 5  94118393.23505     -1123.034 5        33.084
E25         6.000    25369623.020 6 133318286.93406     -3227.383 6        37.648                                                                    25369653.210 5  99555867.12805     -2410.283 5        32.844    25369623.710 6 102152997.59806     -2473.207 6        37.569
G31         7.000    22505327.509 7 118266380.84907     -3089.342 7        44.587                                    22505345.015 4  92155633.85204     -2407.282 4        25.609    22505325.724 6  92155552.97706     -2407.368 6        36.276
G28         8.000    23565225.596 6 123836231.93306     -4107.710 6        36.253                                                                                                    23565228.075 4                     -3200.652 4        27.449
G29         9.000    21514806.231 6 113061160.13706     -2880.800 6        41.695                                    21514799.828 5  88099613.57905     -2244.781 5        35.590    21514803.526 5  88099565.61005     -2244.880 5        35.986
E11        10.000    25068962.173 4 131738394.99804     -2877.196 4        27.940                                                                    25068957.836 4  98375994.51204     -2147.543 4        28.787    25068959.670 5 100942311.29815     -2204.142 5        33.856
E10        11.000    27535483.492 4 144699936.38204     -3690.280 4        24.677                                                                    27535444.798 4                     -2755.593 4        27.449    27535472.126 4                     -2826.992 4        27.701
G18        12.000    20760351.645 8 109096604.72508       223.347 8        48.872                                    20760347.211 6  85010217.89606       174.036 6        40.222    20760348.250 8  85010181.89008       173.989 8        49.766
G27        13.000    24893977.935 5                      2546.316 5        31.411
G26        17.000    20765117.810 7 109121462.12107       253.099 7        47.866                                    20765126.101 3  85029725.66703       197.242 3        21.119
E30        19.000    26104662.794 6 137181064.96506      1518.838 6        40.629                                                                    26104665.474 7 102440455.72207      1134.150 7        47.279    26104664.352 7 105112757.34107      1163.697 7        45.034
E02        21.000    23234695.368 8 122099402.29108      -841.780 8        49.421                                                                    23234693.843 8  91178031.85108      -628.640 8        48.223    23234693.778 8  93556597.24908      -645.037 8        49.368
S23        22.000    38227451.318 6 200886652.77906      -866.144 6        38.198
R10        23.000    22678993.661 5 120891809.61005      3033.749 5        34.638
E36        24.000    23543181.061 6 123720276.67806      -211.482 6        41.707                                                                    23543182.627 7  92388683.71807      -157.886 7        47.322    23543182.116 7  94798805.34507      -161.951 7        45.506
R18        25.000    20032745.459 8 106936108.73608     -3235.414 8        48.252                                                                    20032742.497 7  83172555.70207     -2516.402 7        43.649
G16        26.000    22377035.340 6 117592164.25906      2117.463 6        40.656                                    22377032.454 3  91630242.31803      1649.967 3        23.429
S21        27.000    38503443.767 5 202337159.42505      -862.826 5        34.552
R19        29.000    19476752.801 5 104187550.57605      -115.409 5        34.476                                                                    19476753.264 7  81035036.02707       -89.674 7        43.462
S36        31.000    38274392.069 5 201133259.56805      -862.304 5        35.405
E34        32.000    26144118.264 5 137388296.57405      1992.446 5        35.286                                                                    26144142.588 4                      1487.771 4        29.592    26144114.064 5 105271524.28405      1526.574 5        30.860
R16        34.000    20349661.104 7 108704195.06107     -3936.760 7        43.754                                                                    20349659.794 6  84547730.04406     -3061.806 6        39.276
C44        35.000                                                                                                                                    22248243.994 7 115852385.56607     -2600.082 7        47.600                                                                    22248243.658 7  94139778.01307     -2112.792 7        46.151
R17        36.000    23713971.247 3                     -4789.952 3        23.219                                                                    23713922.719 3                     -3725.717 3        23.829
R09        37.000    19656014.741 6 104962116.12706       458.075 6        36.885                                                                    19656017.663 6  81637233.29406       356.290 6        41.278
C11        38.000                                                                                                                                    23362749.659 6 121656051.09206      1401.806 6        39.928    23362761.943 6  94072231.29206      1083.987 6        36.541    23362772.032 5  98855520.37905      1138.824 5        34.705
C43        39.000                                                                                                                                    25318857.525 4 131841800.80404      1997.596 4        27.102
C12        41.000                                                                                                                                    21728161.126 7 113144331.86607     -1314.655 7        46.082    21728158.280 8  87490383.07808     -1016.525 8        49.625    21728157.168 7  91939028.42407     -1068.261 7        47.289
C13        43.000                                                                                                                                    37870412.302 6 197201190.63406      -293.099 6        38.865    37870414.728 7 152488487.43107      -226.632 7        43.917    37870412.213 6 160242119.15106      -238.131 6        41.373
C38        44.000                                                                                                                                    38677075.145 5 201401562.12505     -1068.307 5        34.852                                                                    38677047.115 5 163655237.63205      -868.174 5        33.108
C25        45.000                                                                                                                                    22233432.898 7 115775376.77207      -954.123 7        46.556                                                                    22233427.570 6  94077152.38106      -775.209 6        38.456
C08        46.000                                                                                                                                    37826398.603 6 196972031.18506      -519.075 6        40.160    37826393.688 7 152311317.40907      -401.375 7        46.195    37826392.810 6 160055885.20506      -421.515 6        37.648
C23        47.000                                                                                                                                    25387689.921 6 132200691.93106      1770.529 6        40.212                                                                    25387685.971 7 107423756.86007      1438.618 7        42.777
C24        51.000                                                                                                                                    23483808.830 7 122286375.88107     -3783.860 7        44.631                                                                    23483808.605 7  99367683.65507     -3074.648 7        43.064
C34        52.000                                                                                                                                    21836377.770 7 113707810.97407       354.995 7        47.818                                                                    21836377.637 7  92396990.56207       288.511 7        47.723
I02        56.000    38531051.068 5 151204128.81305     -1184.126 5        31.464
I06        58.000    38788617.247 5 152214977.75705      -649.633 5        35.833
> 2025 01 02 17 16 20.0000000  0 37
G25         3.000    23730743.350 4                     -4533.916 4        26.766                                                                                                    23730738.555 4                     -3533.128 4        25.173
G05         4.000    22986044.813 6 120792518.67206     -1444.817 6        40.853                                    22986041.404 4  94123950.99704     -1125.826 4        26.802    22986041.199 5  94124014.96105     -1125.837 5        32.725
E25         6.000    25372694.509 6 133334426.74006     -3228.740 6        38.414                                                                    25372725.359 5  99567919.64405     -2410.974 5        30.875    25372697.090 6 102165364.44406     -2473.869 6        38.372
G31         7.000    22508267.402 7 118281832.76507     -3091.635 7        42.944                                    22508283.345 4  92167674.34104     -2409.081 4        26.204    22508265.990 6  92167593.42606     -2409.012 6        36.631
G28         8.000    23569138.360 5 123856771.80905     -4108.761 5        35.095                                                                                                    23569142.484 5                     -3201.363 5        30.158
G29         9.000    21517547.310 6 113075566.87806     -2882.034 6        40.238                                    21517541.156 5  88110839.60705     -2245.736 5        35.133    21517545.650 6  88110791.61006     -2245.716 6        36.454
E11        10.000                                                                                                                                    25071695.888 4  98386737.41304     -2148.874 4        28.711    25071697.471 5 100953334.45905     -2205.185 5        35.671
E10        11.000    27538993.244 4 144718386.98004     -3689.650 4        24.030                                                                    27538955.983 4                     -2755.813 4        27.162    27538977.994 4                     -2828.007 4        28.237
G18        12.000    20760140.193 8 109095494.24508       220.558 8        48.482                                    20760136.199 6  85009352.58306       171.862 6        40.629    20760136.877 8  85009316.57908       171.924 8        50.045
G27        13.000    24891549.562 5                      2545.999 5        30.438
G26        17.000    20764878.399 8 109120202.83808       250.446 8        48.248                                    20764889.364 3  85028744.29803       195.211 3        18.448    20764894.882 4                       195.213 4        25.113
E30        19.000    26103218.399 6 137173471.93906      1518.051 6        40.775                                                                    26103220.587 7 102434785.60507      1133.716 7        47.205    26103219.275 7 105106939.30107      1163.285 7        45.193
E02        21.000    23235497.038 8 122103614.69008      -843.487 8        49.234                                                                    23235495.500 8  91181177.47708      -629.893 8        48.548    23235495.298 8  93559824.93508      -646.297 8        49.404
S23        22.000    38228277.522 6 200890981.70606      -865.815 6        38.327
R10        23.000    22676148.142 5 120876644.08505      3032.224 5        34.281
E36        24.000    23543383.352 6 123721338.10206      -213.515 6        40.610                                                                    23543384.676 7  92389476.33707      -159.404 7        47.759    23543384.277 7  94799618.65007      -163.523 7        45.804
R18        25.000    20035780.679 7 106952290.09507     -3237.562 7        47.707                                                                    20035773.828 7  83185141.19607     -2517.979 7        44.065
G16        26.000    22375021.571 6 117581579.89406      2115.788 6        40.727                                    22375018.735 3  91621994.77003      1648.657 3        22.971
S21        27.000    38504265.704 5 202341473.46005      -862.893 5        34.895
R19        29.000    19476862.162 5 104188134.10705      -118.439 5        35.890                                                                    19476861.747 7  81035489.88807       -92.093 7        42.853
S36        31.000    38275213.211 5 201137571.78305      -862.765 5        35.748
E34        32.000    26142218.397 5 137378336.54905      1991.234 5        34.867                                                                    26142248.064 4                      1486.925 4        26.886
R16        34.000    20353344.682 7 108723885.02907     -3939.764 7        42.493                                                                    20353345.778 6  84563044.49806     -3064.304 6        37.285
C44        35.000                                                                                                                                    22250741.184 7 115865388.12507     -2601.225 7        47.988                                                                    22250740.637 7  94150343.67007     -2113.651 7        45.866
R17        36.000    23718441.931 4                     -4790.777 4        24.496                                                                    23718397.942 3                     -3726.583 3        23.848
R09        37.000    19655589.168 6 104959834.49806       454.208 6        38.075                                                                    19655590.590 6  81635458.70306       353.187 6        41.723
C11        38.000                                                                                                                                    23361405.191 6 121649044.29806      1400.607 6        40.474    23361415.468 5  94066813.18605      1083.015 5        34.424    23361427.081 5  98849826.79005      1138.176 5        33.671
C12        41.000                                                                                                                                    21729424.895 7 113150908.52007     -1316.273 7        46.338    21729421.416 8  87495468.58008     -1017.874 8        50.023    21729420.134 7  91944372.51507     -1069.609 7        47.522
C13        43.000                                                                                                                                    37870693.831 6 197202657.50106      -294.072 6        39.018    37870696.591 7 152489621.72207      -227.325 7        43.736    37870694.144 6 160243311.13606      -238.931 6        41.328
C38        44.000                                                                                                                                    38678102.122 5 201406904.96105     -1068.854 5        34.724                                                                    38678073.197 5 163659579.14805      -868.812 5        33.575
C25        45.000                                                                                                                                    22234350.816 7 115780153.46807      -956.865 7        46.937                                                                    22234344.456 6  94081033.87206      -777.698 6        37.285
C08        46.000                                                                                                                                    37826896.715 6 196974627.77806      -519.942 6        39.468    37826892.301 7 152313325.26407      -402.101 7        45.872    37826891.813 6 160057995.16906      -422.508 6        37.304
C23        47.000                                                                                                                                    25385990.444 6 132191842.50906      1769.018 6        41.099                                                                    25385986.659 7 107416566.03207      1437.411 7        42.883
C24        51.000                                                                                                                                    23487442.659 7 122305297.65107     -3785.164 7        44.152                                                                    23487442.438 7  99383059.15707     -3075.792 7        43.657
C34        52.000                                                                                                                                    21836037.413 7 113706039.34007       353.312 7        47.888                                                                    21836037.454 7  92395550.97907       287.157 7        47.348
I02        56.000    38532562.131 5 151210048.19605     -1184.177 5        31.042
I06        58.000    38789444.536 5 152218224.72605      -649.399 5        35.609
> 2025 01 02 17 16 25.0000000  0 39
G25         3.000    23735058.935 4                     -4534.926 4        28.133                                                                                                    23735052.812 4                     -3533.477 4        26.204
G05         4.000    22987419.934 6 120799751.04106     -1448.128 6        41.344                                    22987416.482 4  94129586.59004     -1128.408 4        26.766    22987418.081 5  94129650.57905     -1128.402 5        32.557
E25         6.000    25375767.073 6 133350572.65506     -3229.710 6        39.309                                                                    25375799.557 4  99579976.81604     -2411.902 4        29.697    25375773.085 6 102177736.00106     -2474.857 6        39.363
G31         7.000    22511209.099 6 118297297.46506     -3094.022 6        40.315                                    22511223.387 4  92179724.77804     -2410.921 4        26.323    22511209.248 6  92179643.85806     -2410.973 6        36.435
G28         8.000    23573051.312 5 123877317.94305     -4109.965 5        33.832                                                                                                    23573053.875 5                     -3202.478 5        31.321
G29         9.000    21520291.255 6 113089981.06006     -2883.470 6        39.213                                    21520284.148 5  88122071.42705     -2246.856 5        34.648    21520287.603 6  88122023.43506     -2246.898 6        37.724
E11        10.000                                                                                                                                    25074435.390 4  98397485.92204     -2150.514 4        28.768    25074436.192 6 100964363.32006     -2206.149 6        36.624
E10        11.000    27542507.307 3 144736840.73403     -3691.126 3        23.638                                                                    27542469.539 4                     -2756.242 4        27.317    27542484.462 4                     -2827.965 4        28.692
G18        12.000    20759931.862 8 109094398.56708       217.827 8        48.701                                    20759928.010 6  85008498.81106       169.734 6        40.923    20759928.710 8  85008462.81708       169.670 8        50.375
G27        13.000    24889123.779 4                      2545.750 4        29.185
R02        16.000    23567095.932 4                       829.180 4        28.351
G26        17.000    20764641.605 8 109118957.84908       247.667 8        48.714                                    20764651.514 3  85027773.98203       192.996 3        21.476    20764658.114 3                       194.453 3        23.638
E30        19.000    26101774.329 6 137165883.03506      1517.474 6        41.337                                                                    26101776.382 7 102429118.57207      1133.224 7        47.068    26101774.945 7 105101124.43107      1162.836 7        45.366
E02        21.000    23236300.406 8 122107836.52208      -845.212 8        49.188                                                                    23236298.975 8  91184330.14308      -631.118 8        48.845    23236298.635 8  93563059.84608      -647.595 8        49.345
S23        22.000    38229099.809 6 200895311.07806      -865.704 6        38.273
R10        23.000    22673305.668 5 120861486.68205      3030.838 5        34.471
E36        24.000    23543587.142 6 123722410.73706      -215.612 6        40.107                                                                    23543588.948 8  92390277.32708      -160.952 8        48.093    23543588.790 7  94800440.54607      -165.185 7        46.115
R18        25.000    20038809.783 7 106968482.77807     -3239.521 7        45.619                                                                    20038807.191 7  83197735.53007     -2519.625 7        44.370
G16        26.000    22373008.957 6 117571003.60606      2114.519 6        41.521                                    22373006.308 3  91613753.51703      1647.666 3        22.781
S21        27.000    38505088.747 5 202345787.73505      -862.750 5        34.776
R01        28.000    23940388.891 4                     -2332.746 4        26.671
R19        29.000    19476975.883 6 104188734.52206      -121.610 6        36.843                                                                    19476974.020 7  81035956.85907       -94.542 7        42.743
S36        31.000    38276034.559 5 201141885.06305      -862.807 5        35.876
E34        32.000    26140322.991 5 137368381.89105      1990.462 5        33.748                                                                    26140356.013 3                      1486.707 3        23.886
R16        34.000    20357034.343 7 108743591.41407     -3942.759 7        43.162                                                                    20357035.461 6  84578371.68306     -3066.622 6        37.119
C44        35.000                                                                                                                                    22253239.270 8 115878397.58508     -2602.433 8        48.122                                                                    22253238.886 7  94160914.89007     -2114.657 7        45.734
R17        36.000    23722919.880 4                     -4789.761 4        26.156                                                                    23722877.184 4                     -3725.717 4        24.120
R09        37.000    19655166.107 6 104957573.47106       450.356 6        39.769                                                                    19655166.184 6  81633700.11806       350.275 6        40.853
C11        38.000                                                                                                                                    23360062.544 6 121642044.46406      1399.480 6        40.987    23360071.091 5  94061400.44905      1082.056 5        31.555    23360082.568 5  98844138.81305      1137.254 5        30.543
C12        41.000                                                                                                                                    21730690.241 7 113157494.53607     -1317.884 7        46.568    21730686.131 8  87500561.31408     -1019.160 8        50.513    21730684.974 7  91949724.18207     -1070.994 7        47.931
C13        43.000                                                                                                                                    37870976.921 6 197204129.82206      -294.736 6        39.468    37870979.288 7 152490760.24407      -228.063 7        43.731    37870976.980 6 160244507.51606      -239.678 6        41.375
C38        44.000                                                                                                                                    38679123.551 5 201412252.96305     -1070.127 5        34.562                                                                    38679100.109 5 163663924.81305      -869.531 5        33.096
C25        45.000                                                                                                                                    22235271.651 7 115784944.58907      -959.499 7        47.455                                                                    22235264.012 6  94084927.04406      -779.726 6        36.446
C08        46.000                                                                                                                                    37827396.420 6 196977230.37606      -520.999 6        39.120    37827391.918 7 152315337.75607      -402.890 7        45.685    37827391.723 6 160060109.97306      -423.264 6        37.792
C23        47.000                                                                                                                                    25384293.261 7 132183001.20807      1767.614 7        42.157                                                                    25384288.739 7 107409381.76007      1436.350 7        43.407
C24        51.000                                                                                                                                    23491077.515 7 122324226.93507     -3786.510 7        43.663                                                                    23491077.604 7  99398440.72207     -3076.866 7        44.146
C34        52.000                                                                                                                                    21835698.882 7 113704276.69207       351.765 7        47.946                                                                    21835698.959 7  92394118.66607       285.870 7        47.089
I02        56.000    38534073.186 5 151215968.43305     -1183.938 5        31.313
I06        58.000    38790272.669 5 152221471.74705      -649.300 5        35.871
> 2025 01 02 17 16 30.0000000  0 39
G20         1.000    24862151.581 3                     -3429.160 3        22.495
G25         3.000    23739373.152 4                     -4535.650 4        29.204                                                                                                    23739369.126 4                     -3534.539 4        24.692
G05         4.000    22988800.522 6 120807000.44906     -1451.342 6        41.015                                    22988795.173 4  94135235.46604     -1130.909 4        27.018    22988796.932 5  94135299.46405     -1130.766 5        33.180
E25         6.000    25378841.144 6 133366724.02606     -3230.405 6        39.772                                                                    25378872.085 5  99592038.00905     -2412.550 5        31.434    25378849.109 6 102190111.72406     -2475.246 6        39.835
G31         7.000    22514154.948 6 118312774.18306     -3096.321 6        38.129                                    22514165.339 4  92191784.58104     -2412.719 4        26.491    22514154.493 5  92191703.63305     -2412.592 5        35.905
G28         8.000    23576959.567 5 123897869.51605     -4110.570 5        30.770                                                                                                    23576965.168 5                     -3203.352 5        31.713
G29         9.000    21523035.677 6 113104401.90006     -2884.657 6        39.219                                    21523028.637 5  88133308.44605     -2247.781 5        34.643    21523031.527 6  88133260.42206     -2247.812 6        38.829
E11        10.000    25077216.573 4 131781575.42204     -2880.703 4        26.144                                                                    25077176.087 4  98408239.42304     -2150.728 4        28.550    25077176.336 6 100975397.39306     -2207.131 6        37.399
E10        11.000    27546017.040 3                     -3692.286 3        22.781                                                                    27545980.665 4                     -2756.536 4        26.802    27545992.597 4                     -2828.078 4        28.777
G18        12.000    20759726.195 8 109093317.00308       215.174 8        48.762                                    20759722.489 6  85007656.03606       167.665 6        41.290    20759723.013 8  85007620.03908       167.633 8        50.615
G27        13.000    24886698.178 4                      2544.956 4        26.599
G26        17.000    20764407.315 8 109117726.44908       245.116 8        48.747                                    20764418.136 4  85026814.40904       191.002 4        27.341    20764418.198 4                       190.849 4        28.066
E30        19.000    26100330.621 7 137158297.55507      1516.994 7        42.154                                                                    26100332.770 7 102423454.10707      1132.820 7        46.813    26100331.314 7 105095312.19107      1162.330 7        45.476
E02        21.000    23237105.368 8 122112067.10008      -846.777 8        48.820                                                                    23237104.124 8  91187489.34708      -632.298 8        48.769    23237103.588 8  93566301.46308      -648.829 8        49.195
S23        22.000    38229922.145 6 200899640.02506      -865.490 6        38.156
R10        23.000    22670462.699 5 120846336.79605      3029.239 5        34.524
E36        24.000    23543792.951 6 123723493.87306      -217.658 6        39.105                                                                    23543795.208 8  92391086.16708      -162.345 8        48.299    23543795.177 7  94801270.49707      -166.613 7        46.206
R18        25.000    20041838.993 7 106984686.00807     -3241.473 7        43.691                                                                    20041841.612 7  83210338.06207     -2521.180 7        44.134
G16        26.000    22370997.085 7 117560434.72007      2113.191 7        42.599                                    22370994.525 3  91605518.04603      1646.633 3        22.895
S21        27.000    38505905.019 5 202350101.39805      -862.283 5        35.062
R01        28.000    23942577.124 4                     -2336.320 4        29.554                                                                    23942544.994 4                     -1816.648 4        27.976
R19        29.000    19477091.187 6 104189350.90706      -124.597 6        36.431                                                                    19477089.614 7  81036436.28707       -96.906 7        42.758
S36        31.000    38276855.656 5 201146198.39805      -862.272 5        35.748
E34        32.000    26138430.657 5 137358431.90505      1989.681 5        32.629                                                                    26138462.988 3                      1485.150 3        20.286    26138454.178 5 105248640.80005      1524.821 5        33.431
R16        34.000    20360727.141 7 108763313.32607     -3945.659 7        42.726                                                                    20360728.232 6  84593710.97806     -3068.895 6        38.477
C44        35.000                                                                                                                                    22255738.481 7 115891413.22307     -2603.543 7        47.791                                                                    22255738.225 7  94171491.18407     -2115.724 7        45.425
R09        37.000    19654746.996 7 104955332.46207       446.398 7        43.657                                                                    19654745.435 6  81631957.07406       347.315 6        38.673
C11        38.000                                                                                                                                    23358719.329 6 121635050.89406      1398.165 6        41.421                                                                    23358741.578 4  98838455.93904      1136.137 4        24.827
C43        39.000                                                                                                                                    25313059.504 5 131811846.05905      1996.268 5        31.351
C12        41.000                                                                                                                                    21731956.486 7 113164089.22507     -1319.596 7        46.391    21731952.651 8  87505660.75208     -1020.415 8        50.613    21731951.491 8  91955082.94008     -1072.469 8        48.323
C13        43.000                                                                                                                                    37871260.352 6 197205606.95406      -295.688 6        39.976    37871262.767 7 152491902.44307      -228.619 7        43.674    37871260.706 6 160245707.82906      -240.465 6        41.516
C38        44.000                                                                                                                                    38680150.677 5 201417605.32905     -1070.637 5        34.790                                                                    38680128.153 5 163668274.10305      -870.300 5        33.281
C25        45.000                                                                                                                                    22236193.928 7 115789749.43307      -962.127 7        47.601                                                                    22236186.345 5  94088831.41205      -782.127 5        35.524
C08        46.000                                                                                                                                    37827897.215 6 196979838.22206      -521.789 6        38.892    37827892.712 7 152317354.30907      -403.568 7        45.485    37827892.766 6 160062229.09906      -424.353 6        38.003
C23        47.000                                                                                                                                    25382597.532 7 132174167.34207      1766.292 7        42.832                                                                    25382592.291 7 107402203.58607      1435.080 7        43.848
C24        51.000                                                                                                                                    23494713.962 7 122343163.01607     -3787.708 7        43.107                                                                    23494713.990 7  99413827.86107     -3077.987 7        44.628
C34        52.000                                                                                                                                    21835361.761 8 113702522.35208       350.225 8        48.045                                                                    21835362.194 7  92392693.14107       284.458 7        46.977
I02        56.000    38535581.328 5 151221888.77005     -1183.921 5        30.966
I06        58.000    38791100.217 5 152224718.29205      -649.081 5        35.971
> 2025 01 02 17 16 35.0000000  0 40
G20         1.000    24865428.449 4                     -3433.194 4        24.451
G25         3.000    23743689.507 4                     -4536.344 4        29.450                                                                                                    23743685.101 4                     -3535.050 4        25.083
G05         4.000    22990183.101 6 120814268.07406     -1455.134 6        39.486                                    22990178.040 4  94140898.53604     -1133.871 4        27.365    22990179.851 5  94140962.54705     -1133.746 5        35.510
E25         6.000    25381916.452 6 133382881.93706     -3231.980 6        40.484                                                                    25381942.867 5  99604104.05405     -2413.660 5        33.659    25381924.111 6 102202492.47106     -2476.565 6        40.594
G31         7.000    22517101.592 6 118328263.99706     -3099.170 6        37.161                                    22517109.715 4  92203854.58304     -2414.933 4        26.371    22517101.392 5  92203773.58905     -2414.691 5        35.090
G28         8.000    23580865.435 4 123918427.66804     -4112.134 4        27.701                                                                                                    23580877.797 5                     -3204.357 5        32.862
G29         9.000    21525781.640 6 113118830.50006     -2886.357 6        39.420                                    21525774.705 5  88144551.50105     -2249.106 5        34.614    21525777.157 6  88144503.49206     -2249.097 6        39.898
E11        10.000                                                                                                                                    25079918.094 4  98418998.86304     -2152.365 4        28.417    25079917.785 6 100986437.47606     -2208.579 6        38.102
E10        11.000                                                                                                                                    27549494.480 4                     -2757.683 4        27.006    27549503.746 4                     -2828.919 4        29.374
G18        12.000    20759523.011 8 109092250.61608       211.916 8        48.796                                    20759519.818 6  85006825.08806       165.122 6        41.411    20759520.090 8  85006789.09908       165.128 8        50.809
G27        13.000    24884275.104 4                      2545.207 4        25.023
G26        17.000    20764175.799 8 109116509.69208       242.062 8        48.782                                    20764188.241 5  85025866.28405       188.622 5        31.540    20764190.767 5                       188.568 5        31.924
E30        19.000    26098887.951 7 137150716.57907      1515.844 7        43.264                                                                    26098889.990 7 102417793.00207      1131.947 7        46.626    26098888.517 7 105089503.40507      1161.480 7        45.756
E02        21.000    23237912.009 8 122116307.49008      -848.862 8        48.638                                                                    23237911.048 8  91190655.87608      -633.916 8        49.142    23237910.435 8  93569550.59308      -650.444 8        49.264
S23        22.000    38230748.125 6 200903969.77506      -865.855 6        38.303
R10        23.000    22667621.879 5 120831195.48105      3027.362 5        32.150
E36        24.000    23544000.337 6 123724588.58406      -219.961 6        38.102                                                                    23544003.559 8  92391903.66308      -164.294 8        48.583    23544003.714 7  94802109.32207      -168.489 7        46.446
R18        25.000    20044876.829 7 107000900.87107     -3244.075 7        42.129                                                                    20044879.431 7  83222949.63807     -2523.114 7        43.735
G16        26.000    22368987.617 7 117549874.29907      2111.457 7        43.854                                    22368984.142 3  91597289.17503      1645.266 3        22.838
S21        27.000    38506726.148 5 202354415.45405      -862.963 5        34.824
R01        28.000    23944756.253 4                     -2340.219 4        29.062                                                                    23944738.647 4                     -1819.831 4        24.647
R19        29.000    19477209.250 5 104189984.49505      -128.351 5        35.081                                                                    19477208.563 7  81036929.07907       -99.768 7        43.236
S36        31.000    38277673.042 5 201150511.62105      -862.456 5        35.767
E34        32.000    26136540.756 5 137348487.67905      1988.319 5        31.600                                                                                                                                    26136552.931 5 105241021.25605      1523.861 5        34.557
R16        34.000    20364421.893 6 108783051.91706     -3949.093 6        41.511                                                                    20364423.952 6  84609063.23606     -3071.713 6        39.943
C44        35.000                                                                                                                                    22258239.357 7 115904436.10007     -2605.065 7        47.565                                                                    22258238.858 7  94182073.33107     -2116.874 7        45.252
R17        36.000    23731888.524 4                     -4790.342 4        27.772
R09        37.000    19654331.662 7 104953112.41607       442.110 7        45.248                                                                    19654328.987 6  81630230.35906       343.951 6        36.722
C11        38.000                                                                                                                                    23357376.353 6 121628064.60606      1396.658 6        41.266                                                                    23357407.329 4  98832778.84504      1134.832 4        25.895
C43        39.000                                                                                                                                                                                                                                                                    25311154.961 3                      1622.618 3        23.238
C12        41.000                                                                                                                                    21733224.474 7 113170693.61307     -1321.696 7        46.183    21733220.645 8  87510767.68408     -1022.034 8        50.412    21733219.834 8  91960449.52008     -1073.775 8        48.650
C13        43.000                                                                                                                                    37871545.082 6 197207089.96906      -297.028 6        40.229    37871547.620 7 152493049.21407      -229.700 7        43.748    37871545.524 6 160246912.88906      -241.388 6        41.940
C38        44.000                                                                                                                                    38681180.120 5 201422963.20405     -1072.034 5        35.248                                                                    38681157.355 5 163672627.79705      -870.844 5        33.497
C25        45.000                                                                                                                                    22237118.580 7 115794569.06407      -965.240 7        47.962                                                                    22237111.595 5  94092747.75405      -784.117 5        35.262
C08        46.000                                                                                                                                    37828399.873 6 196982452.39206      -523.301 6        38.817    37828394.709 7 152319375.75907      -404.705 7        45.219    37828394.869 6 160064353.29906      -425.114 6        38.171
C23        47.000                                                                                                                                    25380903.441 7 132165341.96707      1764.464 7        43.372                                                                    25380897.429 7 107395032.26507      1433.795 7        44.068
C24        51.000                                                                                                                                    23498352.318 7 122362106.95507     -3789.456 7        42.777                                                                    23498352.025 7  99429221.34907     -3079.097 7        44.728
C34        52.000                                                                                                                                    21835026.304 8 113700777.37208       348.244 8        48.071                                                                    21835027.066 7  92391275.19407       283.094 7        46.776
I02        56.000    38537088.419 5 151227810.49105     -1184.111 5        30.951
I06        58.000    38791926.639 5 152227965.18505      -649.168 5        35.729
> 2025 01 02 17 16 40.0000000  0 39
G25         3.000    23748006.317 4                     -4537.001 4        29.393                                                                                                    23748001.831 3                     -3533.670 3        22.629
G05         4.000    22991568.952 6 120821553.34206     -1458.633 6        39.453                                    22991564.685 4  94146575.34304     -1136.591 4        28.351    22991567.183 6  94146639.35106     -1136.588 6        37.074
E25         6.000    25384992.222 6 133399045.74506     -3233.262 6        40.751                                                                    25385013.816 5  99616174.48505     -2414.392 5        34.767    25384998.849 6 102214877.73506     -2477.401 6        41.194
G31         7.000    22520052.773 6 118343766.29106     -3101.742 6        39.228                                    22520056.841 4  92215934.30604     -2416.931 4        26.431    22520051.516 5  92215853.29405     -2416.777 5        34.143
G28         8.000    23584776.049 5 123938991.76805     -4112.577 5        30.113                                                                                                    23584788.276 5                     -3205.235 5        32.299
G29         9.000    21528528.489 6 113133266.25306     -2887.674 6        38.565                                    21528522.245 5  88155800.12805     -2250.130 5        34.576    21528524.045 6  88155752.12706     -2250.238 6        40.172
E11        10.000                                                                                                                                    25082660.867 4  98429763.64304     -2153.286 4        26.862    25082660.776 6 100997483.07806     -2209.505 6        38.679
E10        11.000                                                                                                                                    27553009.014 4                     -2757.495 4        26.395    27553017.673 4                     -2829.636 4        29.649
G18        12.000    20759322.391 8 109091198.78808       209.026 8        48.957                                    20759319.874 6  85006005.49006       162.875 6        41.430    20759319.859 8  85005969.50808       162.847 8        50.882
G27        13.000    24881852.205 3                      2545.523 3        22.267
G26        17.000    20763946.985 8 109115307.00808       239.198 8        49.465                                    20763961.145 5  85024929.12605       186.389 5        33.952    20763962.942 5                       186.522 5        32.898
E30        19.000    26097446.390 7 137143139.48407      1515.077 7        44.412                                                                    26097447.882 7 102412134.80607      1131.444 7        46.240    26097446.487 7 105083697.60407      1160.948 7        45.979
E02        21.000    23238720.686 8 122120557.08708      -850.700 8        48.665                                                                    23238719.854 8  91193829.27708      -635.261 8        49.133    23238719.100 8  93572806.77808      -651.836 8        49.192
S23        22.000    38231572.460 6 200908299.69306      -865.859 6        38.435
R10        23.000    22664782.709 4 120816061.82204      3025.800 4        29.441
E36        24.000    23544210.405 6 123725694.29706      -222.038 6        36.609                                                                    23544213.981 8  92392729.34608      -165.880 8        48.764    23544214.142 7  94802956.55207      -170.227 7        46.613
R18        25.000    20047916.822 7 107017126.79107     -3246.157 7        43.111                                                                    20047919.010 7  83235569.80607     -2524.874 7        44.318
G16        26.000    22366979.175 7 117539321.77107      2109.803 7        45.099                                    22366975.033 3  91589066.45103      1643.996 3        23.086
S21        27.000    38507548.792 5 202358729.74605      -862.892 5        34.867
R01        28.000                                                                                                                                    23946940.036 4                     -1823.442 4        25.353
R19        29.000    19477330.506 5 104190634.67805      -131.546 5        35.629                                                                    19477330.150 7  81037434.75707      -102.370 7        43.551
S36        31.000    38278495.570 5 201154824.98305      -862.495 5        35.910
E34        32.000    26134652.380 5 137338548.60405      1987.243 5        31.019                                                                                                                                    26134658.011 5 105233405.67305      1522.975 5        35.095
R16        34.000    20368119.569 6 108802806.40506     -3952.534 6        41.251                                                                    20368121.616 6  84624427.83506     -3074.162 6        40.849
C44        35.000                                                                                                                                    22260741.973 7 115917465.60807     -2606.472 7        46.990                                                                    22260740.802 7  94192660.87607     -2118.083 7        44.933
R17        36.000    23736368.558 4                     -4790.997 4        27.389                                                                    23736349.056 3                     -3725.776 3        22.971
R09        37.000    19653920.050 7 104950912.78507       437.926 7        46.599                                                                    19653916.468 6  81628519.53306       340.628 6        37.894
C11        38.000                                                                                                                                    23356034.785 6 121621085.02406      1395.368 6        41.116    23356083.111 5  94045192.84005      1078.892 5        31.177    23356068.585 4  98827107.32604      1133.617 4        27.521
C43        39.000                                                                                                                                                                                                                                                                    25309240.910 4                      1620.413 4        25.669
C12        41.000                                                                                                                                    21734494.520 7 113177307.08507     -1323.484 7        45.801    21734490.229 8  87515881.64508     -1023.400 8        50.119    21734490.001 8  91965823.53308     -1075.517 8        48.908
C13        43.000                                                                                                                                    37871831.046 6 197208578.15806      -298.017 6        40.379    37871833.281 7 152494199.99707      -230.522 7        43.678    37871831.493 6 160248122.18406      -242.258 6        41.957
C38        44.000                                                                                                                                    38682210.796 5 201428325.93605     -1072.823 5        35.533                                                                    38682186.853 5 163676985.47305      -871.640 5        33.419
C25        45.000                                                                                                                                    22238047.132 8 115799402.88208      -968.135 8        48.473                                                                    22238040.514 5  94096675.65505      -786.696 5        35.414
C08        46.000                                                                                                                                    37828903.349 6 196985072.27906      -524.404 6        38.658    37828898.040 7 152321401.61907      -405.527 7        45.118    37828898.177 6 160066482.19206      -426.202 6        38.150
C23        47.000                                                                                                                                    25379210.675 7 132156524.50007      1762.850 7        43.380                                                                    25379204.136 7 107387867.36807      1432.374 7        44.260
C24        51.000                                                                                                                                    23501992.424 7 122381058.13407     -3790.937 7        42.053                                                                    23501991.458 7  99444620.74207     -3080.431 7        44.743
C34        52.000                                                                                                                                    21834692.277 7 113699041.15507       346.530 7        47.137                                                                    21834693.648 7  92389864.38707       281.489 7        46.458
I02        56.000    38538596.124 5 151233732.69805     -1184.280 5        31.298
I06        58.000    38792754.208 5 152231211.96105      -649.230 5        35.624
> 2025 01 02 17 16 45.0000000  0 39
G25         3.000    23752324.465 4                     -4538.219 4        28.512
G05         4.000    22992960.701 6 120828855.79706     -1462.170 6        39.826                                    22992954.877 4  94152265.57104     -1139.358 4        29.242    22992957.165 6  94152329.58606     -1139.365 6        37.962
E25         6.000    25388069.563 6 133415215.11706     -3234.461 6        40.558                                                                    25388086.688 5  99628249.08005     -2415.343 5        35.052    25388074.711 6 102227267.26706     -2478.341 6        41.661
G31         7.000    22523006.705 6 118359280.69706     -3104.210 6        41.275                                    22523006.788 4  92228023.46604     -2418.864 4        26.407    22523002.967 5  92227942.46605     -2418.858 5        32.641
G28         8.000    23588693.856 5 123959561.52905     -4114.289 5        33.928                                                                                                    23588700.932 5                     -3206.107 5        32.479
G29         9.000    21531277.938 6 113147708.83706     -2889.376 6        37.875                                    21531271.041 5  88167054.10105     -2251.454 5        34.395    21531271.532 6  88167006.09206     -2251.404 6        40.083
E11        10.000                                                                                                                                                                                                    25085404.913 6 101008533.96506     -2210.795 6        38.862
E10        11.000                                                                                                                                    27556522.516 4                     -2757.450 4        26.287    27556532.256 4                     -2830.040 4        29.052
G18        12.000    20759124.770 8 109090161.23308       206.021 8        49.137                                    20759122.536 6  85005197.01106       160.536 6        41.425    20759122.365 8  85005161.02108       160.557 8        50.915
G27        13.000    24879419.280 3                      2545.292 3        21.429
G26        17.000    20763720.854 8 109114118.05508       236.290 8        49.532                                    20763736.415 5  85024002.67205       184.121 5        34.690    20763737.452 5                       184.195 5        33.449
E30        19.000    26096005.269 7 137135566.01407      1514.175 7        44.945                                                                    26096006.560 7 102406479.30607      1130.805 7        45.853    26096005.275 7 105077894.56207      1160.300 7        46.178
E02        21.000    23239530.909 8 122124815.57608      -852.653 8        48.387                                                                    23239530.303 8  91197009.32308      -636.730 8        49.044    23239529.396 8  93576069.78008      -653.365 8        49.120
S23        22.000    38232394.393 6 200912629.28506      -866.049 6        38.102
R10        23.000    22661947.476 5 120800935.89805      3024.234 5        31.872
E36        24.000    23544422.208 5 123726810.65005      -224.244 5        35.481                                                                    23544426.421 8  92393562.97908      -167.544 8        48.789    23544426.543 7  94803811.92707      -171.894 7        46.623
R18        25.000    20050959.917 7 107033363.38607     -3248.400 7        45.523                                                                    20050960.910 7  83248198.25407     -2526.582 7        44.786
G16        26.000    22364972.352 7 117528776.82207      2108.171 7        45.589                                    22364967.493 3  91580849.63903      1642.715 3        23.943
S21        27.000    38508374.799 5 202363044.07705      -863.105 5        34.738
R01        28.000    23949128.159 4                     -2347.737 4        28.701                                                                    23949130.380 4                     -1826.693 4        26.168
R19        29.000    19477456.539 5 104191301.00505      -135.045 5        35.514                                                                    19477454.333 7  81037953.02207      -104.945 7        44.187
S36        31.000    38279314.570 5 201159137.26205      -862.538 5        35.671
E34        32.000    26132766.755 5 137328614.32605      1986.250 5        31.887                                                                                                                                    26132767.284 5 105225793.79405      1521.812 5        35.695
R16        34.000    20371820.678 6 108822576.61006     -3955.644 6        41.702                                                                    20371822.345 6  84639804.67906     -3076.565 6        41.845
C44        35.000                                                                                                                                    22263245.810 7 115930501.43507     -2607.918 7        46.349                                                                    22263244.080 7  94203253.54107     -2119.204 7        44.527
R17        36.000    23740846.879 4                     -4790.256 4        29.137                                                                    23740823.196 3                     -3725.712 3        22.781
R09        37.000    19653512.489 7 104948733.19107       433.819 7        46.784                                                                    19653507.847 5  81626824.29605       337.212 5        34.733
C11        38.000                                                                                                                                    23354695.102 6 121614111.83306      1393.989 6        41.414
C43        39.000                                                                                                                                                                                                                                                                    25307327.494 4                      1619.546 4        26.778
C12        41.000                                                                                                                                    21735766.101 7 113183929.31807     -1325.407 7        45.464    21735761.936 8  87521002.38308     -1024.854 8        49.377    21735761.810 8  91971204.65808     -1077.104 8        49.082
C13        43.000                                                                                                                                    37872118.123 6 197210071.36006      -299.161 6        40.601    37872120.305 7 152495354.62107      -231.212 7        43.437    37872118.246 6 160249335.53506      -243.206 6        41.912
C38        44.000                                                                                                                                    38683241.606 5 201433693.21205     -1073.868 5        35.733                                                                    38683217.382 5 163681346.87405      -873.007 5        33.299
C25        45.000                                                                                                                                    22238979.081 8 115804250.55208      -970.961 8        49.060                                                                    22238972.149 5  94100614.80905      -789.142 5        35.481
C08        46.000                                                                                                                                    37829407.976 6 196987697.60206      -525.595 6        38.526    37829402.319 7 152323431.69807      -406.547 7        44.736    37829402.604 6 160068615.50106      -427.262 6        38.162
C23        47.000                                                                                                                                    25377519.049 7 132147714.64307      1761.123 7        43.194                                                                    25377512.244 7 107380708.64707      1430.997 7        44.292
C24        51.000                                                                                                                                    23505633.206 6 122400016.20806     -3792.376 6        41.154                                                                    23505632.110 7  99460025.73907     -3081.714 7        44.581
C34        52.000                                                                                                                                    21834359.781 7 113697313.38707       344.663 7        46.102                                                                    21834361.829 7  92388460.43507       279.917 7        46.060
I02        56.000    38540101.170 5 151239655.29905     -1184.465 5        31.155
I06        58.000    38793582.033 6 152234458.35506      -649.364 6        36.079
> 2025 01 02 17 16 50.0000000  0 38
G25         3.000    23756644.110 4                     -4538.668 4        27.245
G05         4.000    22994354.026 6 120836175.75506     -1465.874 6        40.346                                    22994348.673 5  94157969.43905     -1142.245 5        30.030    22994351.012 6  94158033.46206     -1142.156 6        38.165
E25         6.000    25391147.447 6 133431390.45006     -3235.739 6        40.062                                                                                                                                    25391152.006 6 102239661.35406     -2479.287 6        41.990
G31         7.000    22525961.354 7 118374807.56807     -3106.707 7        42.827                                    22525959.266 4  92240122.32104     -2420.807 4        25.744    22525959.062 5  92240041.29205     -2420.624 5        30.204
G28         8.000    23592611.481 5 123980137.19605     -4115.860 5        35.733                                                                                                    23592617.090 5                     -3207.113 5        32.641
G29         9.000    21534026.635 6 113162158.62606     -2891.035 6        38.724                                    21534021.093 5  88178313.66405     -2252.753 5        34.271    21534021.557 6  88178265.66006     -2252.677 6        39.937
E11        10.000                                                                                                                                    25088151.829 4  98451308.97704     -2155.780 4        24.466    25088150.338 6 101019590.41506     -2212.004 6        38.991
E10        11.000                                                                                                                                    27560037.578 4                     -2758.326 4        25.744    27560045.516 5                     -2830.238 5        30.294
G18        12.000    20758929.888 8 109089138.28108       203.010 8        49.429                                    20758927.882 6  85004399.91506       158.188 6        41.335    20758927.558 8  85004363.92708       158.176 8        50.693
G26        17.000    20763497.086 8 109112943.20508       233.492 8        48.931                                    20763514.009 5  85023087.20305       181.943 5        34.019    20763516.974 5                       181.963 5        32.216
E30        19.000    26094564.561 7 137127996.48107      1513.403 7        44.804                                                                    26094566.057 7 102400826.75307      1130.144 7        45.317    26094564.745 7 105072094.54607      1159.574 7        46.384
E02        21.000    23240343.029 7 122129083.31707      -854.625 7        47.995                                                                    23240342.498 8  91200196.28008      -638.203 8        49.063    23240341.501 8  93579339.87208      -654.883 8        49.137
S23        22.000    38233218.799 6 200916958.97206      -866.107 6        38.453
R10        23.000    22659114.522 5 120785818.00905      3022.588 5        34.643
E36        24.000    23544636.261 5 123727938.00005      -226.539 5        32.862                                                                    23544641.027 8  92394404.83008      -169.251 8        48.799    23544640.963 7  94804675.74007      -173.674 7        46.634
R18        25.000    20054004.538 7 107049611.04507     -3250.799 7        47.487                                                                    20054005.164 7  83260835.31607     -2528.367 7        45.546
G16        26.000    22362966.777 7 117518239.80907      2106.553 7        45.067                                    22362961.555 4  91572639.00904      1641.471 4        24.391
S21        27.000    38509191.635 5 202367358.79005      -863.116 5        34.876
R01        28.000    23951328.161 4                     -2351.906 4        28.825                                                                    23951325.490 4                     -1829.376 4        27.425
R19        29.000    19477583.650 5 104191983.96505      -138.521 5        35.405                                                                    19477582.650 7  81038484.22307      -107.665 7        44.373
S36        31.000    38280137.411 5 201163450.27105      -862.677 5        35.890
E34        32.000    26130880.606 5 137318685.28105      1985.137 5        31.713                                                                                                                                    26130877.700 5 105218185.92505      1521.190 5        35.481
R16        34.000    20375523.687 6 108842362.89306     -3959.035 6        41.199                                                                    20375526.455 7  84655194.01707     -3079.350 7        42.243
C44        35.000                                                                                                                                    22265751.291 7 115943543.90807     -2609.308 7        46.112                                                                    22265748.716 7  94213851.59507     -2120.201 7        44.137
R17        36.000    23745325.392 4                     -4789.907 4        29.498                                                                    23745299.630 3                     -3725.341 3        22.895
R09        37.000    19653107.621 7 104946573.98207       429.378 7        46.296                                                                    19653103.025 4  81625144.87604       334.653 4        28.009
C11        38.000                                                                                                                                    23353358.070 7 121607145.41107      1392.519 7        42.599
C43        39.000                                                                                                                                                                                                                                                                    25305413.205 4                      1619.569 4        27.856
C12        41.000                                                                                                                                    21737039.319 7 113190560.70107     -1327.284 7        45.065    21737035.333 8  87526130.20008     -1026.378 8        48.847    21737035.208 8  91976593.19008     -1078.425 8        49.225
C13        43.000                                                                                                                                    37872405.693 6 197211569.78906      -300.428 6        41.154    37872408.244 7 152496513.31607      -232.246 7        43.257    37872405.915 6 160250553.11806      -244.065 6        41.843
C38        44.000                                                                                                                                    38684272.770 5 201439065.44605     -1075.080 5        35.952                                                                    38684249.509 5 163685712.22405      -873.412 5        32.629
C25        45.000                                                                                                                                    22239913.188 8 115809112.45608      -973.904 8        49.157                                                                    22239907.000 6  94104565.51106      -791.735 6        36.079
C08        46.000                                                                                                                                    37829912.409 6 196990328.61606      -526.881 6        38.132    37829907.679 7 152325466.16307      -407.459 7        44.536    37829907.668 6 160070753.39606      -428.003 6        37.966
C23        47.000                                                                                                                                    25375828.895 7 132138912.72407      1759.507 7        42.370                                                                    25375821.773 7 107373556.36107      1429.778 7        44.125
C24        51.000                                                                                                                                    23509274.926 6 122418981.53606     -3793.989 6        39.844                                                                    23509274.257 7  99475436.61207     -3082.740 7        44.474
C34        52.000                                                                                                                                    21834029.854 7 113695594.42307       342.761 7        45.046                                                                    21834031.869 7  92387063.60507       278.655 7        45.539
I02        56.000    38541609.429 5 151245578.59005     -1185.010 5        31.358
I06        58.000    38794408.844 5 152237704.66505      -649.350 5        35.933
> 2025 01 02 17 16 55.0000000  0 38
G25         3.000    23760964.601 4                     -4539.841 4        26.910                                                                                                    23760947.214 3                     -3539.560 3        20.286
G05         4.000    22995750.729 6 120843512.60206     -1469.206 6        41.600                                    22995745.626 5  94163686.47805     -1144.842 5        30.860    22995747.031 6  94163750.50706     -1144.647 6        38.324
E25         6.000    25394226.231 6 133447571.02506     -3236.849 6        40.014                                                                    25394222.779 6  99652411.12406     -2417.240 6        38.237    25394230.048 7 102252059.45207     -2480.113 7        42.080
G31         7.000    22528917.867 7 118390346.26107     -3109.138 7        43.414                                    22528914.208 4  92252230.40904     -2422.729 4        24.571    22528911.903 4  92252149.36204     -2422.522 4        25.654
G28         8.000    23596528.410 6 124000718.08006     -4116.703 6        36.972                                                                                                    23596533.122 5                     -3207.898 5        32.659
G29         9.000    21536777.021 6 113176614.90406     -2891.803 6        39.447                                    21536772.344 5  88189578.28105     -2253.354 5        34.338    21536772.676 6  88189530.30206     -2253.599 6        40.350
E11        10.000                                                                                                                                                                                                    25090897.018 6 101030651.88506     -2213.067 6        38.994
E10        11.000                                                                                                                                    27563552.546 4                     -2758.227 4        25.549    27563559.804 5                     -2830.678 5        30.121
G18        12.000    20758737.720 8 109088129.25408       200.295 8        49.760                                    20758735.777 6  85003613.67006       156.074 6        41.373    20758735.433 8  85003577.67908       156.040 8        50.585
G26        17.000    20763275.711 8 109111781.77508       230.863 8        48.332                                    20763293.465 5  85022182.16905       179.900 5        31.683    20763297.833 4                       180.122 4        28.815
E30        19.000    26093124.386 7 137120430.23007      1512.799 7        45.130                                                                    26093126.068 7 102395176.64207      1129.691 7        45.010    26093124.889 7 105066297.03707      1159.154 7        46.452
E02        21.000    23241156.864 7 122133359.62207      -856.210 7        47.958                                                                    23241156.357 8  91203389.62408      -639.458 8        48.943    23241155.211 8  93582616.52208      -656.122 8        49.146
S23        22.000    38234042.289 6 200921288.25706      -866.062 6        38.474
R10        23.000    22656281.332 6 120770707.46706      3021.212 6        36.699
E36        24.000    23544852.741 5 123729075.69705      -229.167 5        30.687                                                                    23544857.555 8  92395254.38308      -170.814 8        48.850    23544857.379 7  94805547.45707      -175.205 7        46.678
R18        25.000    20057050.574 8 107065869.00908     -3252.760 8        48.574                                                                    20057051.205 7  83273480.39407     -2529.888 7        46.270
G16        26.000    22360962.961 7 117507710.04807      2104.979 7        44.489                                    22360957.467 4  91564434.02904      1640.239 4        25.143
S21        27.000    38510015.031 5 202371673.11905      -863.194 5        34.524
R01        28.000    23953539.307 4                     -2354.609 4        24.481                                                                    23953523.709 4                     -1832.239 4        26.635
R19        29.000    19477713.465 5 104192682.76505      -141.510 5        35.986                                                                    19477713.347 7  81039027.73907      -110.036 7        44.445
S36        31.000    38280957.954 5 201167763.11405      -862.445 5        35.695
E34        32.000    26128995.177 5 137308760.79505      1983.925 5        32.689                                                                                                                                    26128988.564 5 105210581.54205      1520.348 5        34.433
R16        34.000    20379230.542 6 108862164.15706     -3962.001 6        41.535                                                                    20379234.320 7  84670594.99707     -3081.505 7        42.614
C44        35.000                                                                                                                                    22268257.376 7 115956592.34207     -2610.472 7        46.108                                                                    22268254.459 7  94224454.52207     -2121.189 7        43.937
R17        36.000    23749804.854 4                     -4790.146 4        28.787                                                                    23749777.083 3                     -3723.333 3        22.971
R09        37.000    19652707.062 7 104944434.58607       425.710 7        46.493                                                                    19652700.664 4  81623480.87104       331.040 4        26.898
C11        38.000                                                                                                                                    23352021.745 7 121600185.08107      1391.211 7        43.147    23352009.568 6  94029031.66906      1075.895 6        37.448
C43        39.000                                                                                                                                                                                                                                                                    25303500.710 4                      1618.685 4        29.441
C12        41.000                                                                                                                                    21738313.560 7 113197200.55307     -1328.969 7        44.150    21738310.538 8  87531264.56008     -1027.656 8        48.220    21738310.302 8  91981988.63208     -1079.858 8        49.316
C13        43.000                                                                                                                                    37872694.487 6 197213072.89706      -301.281 6        41.630    37872696.668 7 152497675.61307      -232.902 7        42.982    37872694.520 6 160251774.52606      -244.780 6        41.688
C38        44.000                                                                                                                                    38685302.929 5 201444441.86005     -1075.900 5        35.995                                                                    38685281.843 5 163690080.99605      -874.143 5        32.395
C25        45.000                                                                                                                                    22240849.039 8 115813987.90808      -976.556 8        48.915                                                                    22240843.734 6  94108527.21906      -793.576 6        36.601
C08        46.000                                                                                                                                    37830418.509 6 196992964.76606      -527.893 6        37.550    37830413.920 7 152327504.60307      -408.281 7        44.203    37830413.680 6 160072895.48606      -428.837 6        38.129
C23        47.000                                                                                                                                    25374139.734 6 132130118.13006      1757.895 6        40.946                                                                    25374132.803 7 107366410.03407      1428.582 7        43.943
C24        51.000                                                                                                                                    23512917.890 6 122437953.43106     -3795.104 6        38.544                                                                    23512917.414 7  99490852.83507     -3083.846 7        44.105
C34        52.000                                                                                                                                    21833701.581 7 113693883.56307       341.177 7        44.466                                                                    21833703.350 7  92385673.40507       277.277 7        45.120
I02        56.000    38543121.072 5 151251501.85905     -1184.569 5        30.943
I06        58.000    38795235.512 5 152240950.35205      -649.038 5        35.833
> 2025 01 02 17 17  0.0000000  0 38
G25         3.000    23765282.690 4                     -4540.231 4        28.085                                                                                                    23765261.382 3                     -3538.463 3        20.762
G05         4.000    22997149.978 7 120850866.93707     -1472.890 7        42.557                                    22997145.888 5  94169417.14905     -1147.714 5        31.608    22997146.895 6  94169481.14806     -1147.675 6        38.105
E25         6.000    25397306.033 6 133463757.41106     -3238.121 6        39.447                                                                    25397307.253 6  99664498.32806     -2417.982 6        39.039    25397309.249 6 102264462.01706     -2481.217 6        41.969
G31         7.000    22531876.504 7 118405897.21907     -3111.727 7        43.545                                    22531871.632 3  92264348.02603     -2424.740 3        22.057
G28         8.000    23600445.110 6 124021304.77606     -4118.319 6        37.705                                                                                                    23600447.522 5                     -3208.790 5        32.802
G29         9.000    21539528.731 6 113191078.26006     -2893.862 6        39.982                                    21539524.918 5  88200848.42105     -2254.958 5        34.295    21539525.067 6  88200800.41406     -2254.746 6        40.300
E11        10.000                                                                                                                                                                                                    25093645.542 6 101041718.79806     -2214.346 6        39.231
E10        11.000                                                                                                                                    27567067.420 4                     -2758.435 4        25.459    27567074.562 5                     -2831.067 5        30.566
G18        12.000    20758548.422 8 109087134.71508       197.156 8        49.298                                    20758546.395 6  85002838.71406       153.630 6        41.611    20758546.125 8  85002802.71808       153.633 8        50.161
G26        17.000    20763057.367 8 109110634.35108       227.726 8        48.299                                    20763075.151 4  85021288.01504       177.464 4        27.461    20763085.150 4                       178.526 4        26.096
E30        19.000    26091685.074 7 137112867.81507      1511.836 7        45.395                                                                    26091686.962 7 102389529.39707      1128.932 7        44.719    26091685.787 7 105060502.46707      1158.388 7        46.738
E02        21.000    23241972.169 7 122137645.06207      -858.334 7        47.808                                                                    23241971.871 8  91206589.79108      -640.972 8        49.003    23241970.617 8  93585900.16708      -657.696 8        49.047
S23        22.000    38234865.501 6 200925617.42506      -866.246 6        38.492
R10        23.000    22653447.204 6 120755604.85906      3019.493 6        37.539
E36        24.000    23545071.820 4 123730224.17904      -231.379 4        28.209                                                                    23545076.188 8  92396112.06608      -172.598 8        48.859    23545075.894 7  94806427.51507      -177.135 7        46.574
R18        25.000    20060098.627 8 107082137.86208     -3255.242 8        48.786                                                                    20060098.396 7  83286133.94907     -2531.823 7        46.508
G16        26.000    22358960.854 7 117497188.16407      2103.319 7        44.590                                    22358955.164 4  91556235.18404      1638.952 4        26.204
S21        27.000    38510836.213 5 202375987.67105      -863.143 5        34.733
R01        28.000    23955747.435 3                     -2357.091 3        21.595                                                                    23955729.694 3                     -1835.158 3        23.581
R19        29.000    19477846.469 5 104193398.03405      -145.121 5        34.924                                                                    19477846.590 7  81039584.03707      -112.750 7        43.712
S36        31.000    38281772.938 5 201172074.96705      -862.859 5        35.986
E34        32.000    26127110.022 5 137298841.44305      1983.010 5        31.321                                                                                                                                    26127100.662 5 105202981.05005      1519.438 5        32.192
R16        34.000    20382941.570 7 108881981.52907     -3965.385 7        42.514                                                                    20382945.470 7  84686008.53707     -3084.280 7        43.128
C44        35.000                                                                                                                                    22270764.655 7 115969647.29707     -2612.050 7        46.852                                                                    22270761.523 7  94235062.72107     -2122.313 7        43.936
R17        36.000    23754280.885 4                     -4789.834 4        28.493                                                                    23754250.414 3                     -3723.559 3        21.214
R09        37.000    19652311.178 7 104942315.61807       421.394 7        46.261                                                                    19652306.168 4  81621832.82904       327.642 4        29.355
C11        38.000                                                                                                                                    23350685.886 7 121593231.38007      1389.819 7        43.528    23350678.237 6  94023654.62406      1074.569 6        37.312    23350688.667 5  98804473.74405      1129.464 5        35.576
C43        39.000                                                                                                                                    25301676.268 4 131752032.53304      1991.529 4        27.461                                                                    25301588.707 5                      1618.364 5        30.460
C12        41.000                                                                                                                                    21739588.641 7 113203849.39307     -1331.004 7        43.477    21739587.843 7  87536405.86607     -1029.226 7        47.952    21739587.117 8  91987391.34208     -1081.335 8        49.668
C13        43.000                                                                                                                                    37872984.027 7 197214581.17007      -302.581 7        42.203    37872986.574 7 152498841.91007      -233.966 7        43.054    37872984.312 7 160253000.09807      -245.608 7        42.011
C38        44.000                                                                                                                                    38686331.982 5 201449823.06505     -1076.976 5        35.776                                                                    38686315.152 5 163694453.67205      -874.909 5        32.808
C25        45.000                                                                                                                                    22241788.266 8 115818877.47608      -979.651 8        49.036                                                                    22241782.836 6  94112500.36906      -795.884 6        37.694
C08        46.000                                                                                                                                    37830925.673 6 196995606.51306      -529.339 6        37.565    37830921.174 7 152329547.36407      -409.282 7        44.175    37830920.965 6 160075042.10706      -429.855 6        37.977
C23        47.000                                                                                                                                    25372452.304 6 132121331.39006      1756.067 6        39.922                                                                    25372445.241 7 107359270.05707      1427.306 7        43.738
C24        51.000                                                                                                                                    23516561.520 6 122456932.45806     -3796.808 6        38.327                                                                    23516561.988 7  99506274.81007     -3084.995 7        43.862
C34        52.000                                                                                                                                    21833375.174 7 113692181.35307       339.283 7        44.673                                                                    21833376.306 7  92384290.20707       275.852 7        44.700
I02        56.000    38544630.889 5 151257425.75305     -1185.119 5        31.102
I06        58.000    38796062.750 5 152244195.83705      -649.233 5        35.838
> 2025 01 02 17 17  5.0000000  0 39
G20         1.000    24885087.016 3                     -3446.445 3        23.638
G25         3.000    23769601.303 4                     -4540.996 4        29.725                                                                                                    23769588.003 3                     -3538.301 3        21.619
G05         4.000    22998552.694 7 120858238.58507     -1476.035 7        42.284                                    22998549.351 5  94175161.30905     -1150.158 5        31.955    22998548.975 6  94175225.29306     -1150.205 6        37.388
E25         6.000    25400387.226 6 133479949.57306     -3239.066 6        38.739                                                                    25400390.384 6  99676589.86506     -2418.741 6        39.156    25400389.503 6 102276868.98806     -2481.908 6        41.948
G31         7.000    22534837.431 7 118421460.46707     -3113.840 7        42.191                                    22534831.547 2  92276475.28302     -2426.383 2        17.736    22534830.062 3                     -2425.270 3        20.857
G28         8.000    23604362.697 6 124041897.18606     -4118.925 6        38.015                                    23604356.387 1  96655892.48311     -3209.567 1        10.518    23604366.332 5                     -3209.626 5        33.287
G29         9.000    21542282.102 6 113205548.65906     -2894.915 6        40.410                                    21542278.780 5  88212124.04405     -2255.774 5        34.348    21542278.813 6  88212076.01006     -2255.528 6        40.112
E11        10.000                                                                                                                                    25096404.119 4  98483665.67504     -2158.670 4        27.198    25096395.229 6 101052791.12006     -2215.051 6        39.489
E10        11.000                                                                                                                                    27570583.059 4                     -2759.741 4        25.850    27570590.076 5                     -2831.463 5        30.408
G18        12.000    20758361.856 8 109086154.64208       194.526 8        48.801                                    20758359.758 6  85002075.02906       151.574 6        41.735    20758359.806 8  85002039.03208       151.582 8        50.045
G26        17.000    20762841.639 8 109109500.88708       225.283 8        48.675                                    20762862.592 3  85020404.61703       175.579 3        23.543    20762873.619 3                       177.946 3        21.881
E30        19.000    26090246.800 7 137105309.23207      1511.319 7        45.360                                                                    26090248.644 7 102383885.01407      1128.544 7        44.430    26090247.420 7 105054710.83207      1157.992 7        46.983
E02        21.000    23242789.178 7 122141939.60507      -859.831 7        47.331                                                                    23242789.124 8  91209796.76008      -642.108 8        48.914    23242787.690 8  93589190.79508      -658.830 8        48.966
S23        22.000    38235691.920 6 200929946.50806      -865.842 6        38.339
R10        23.000    22650613.650 6 120740510.10206      3018.174 6        37.520
E36        24.000    23545293.617 4 123731383.57504      -232.348 4        28.825                                                                    23545296.757 8  92396977.85008      -173.959 8        48.758    23545296.316 7  94807315.88207      -178.569 7        46.513
R18        25.000    20063148.053 8 107098417.56908     -3257.022 8        48.982                                                                    20063148.063 7  83298795.93907     -2533.269 7        46.179
G16        26.000    22356960.763 7 117486674.08807      2102.036 7        45.022                                    22356954.556 4  91548042.42704      1637.946 4        27.126
S21        27.000    38511652.946 5 202380302.68105      -863.207 5        34.524
R01        28.000    23957956.036 4                     -2363.420 4        25.083
R19        29.000    19477982.366 5 104194129.69905      -147.800 5        33.515                                                                    19477982.798 7  81040153.17607      -115.279 7        43.084
S36        31.000    38282594.393 5 201176386.92205      -862.180 5        35.686
E34        32.000    26125224.756 4 137288927.23704      1982.812 4        26.084                                                                                                                                    26125215.732 4 105195384.40304      1519.027 4        29.308
R16        34.000    20386655.811 7 108901814.54907     -3968.250 7        43.554                                                                    20386658.091 7  84701434.20107     -3086.363 7        42.627
C44        35.000                                                                                                                                    22273273.156 7 115982708.73607     -2613.012 7        47.931                                                                    22273270.008 7  94245676.21407     -2123.098 7        44.008
R17        36.000    23758755.835 4                     -4789.612 4        28.114
R09        37.000    19651917.253 7 104940216.89207       417.747 7        44.083                                                                    19651914.047 5  81620200.50505       324.800 5        33.299
C11        38.000                                                                                                                                    23349351.093 7 121586284.27307      1388.794 7        43.721    23349348.393 6  94018282.67706      1073.926 6        37.898    23349359.223 5  98798828.67705      1128.775 5        33.533
C43        39.000                                                                                                                                                                                                                                                                    25299678.372 5                      1617.940 5        31.328
C12        41.000                                                                                                                                    21740867.201 7 113210507.18207     -1332.395 7        43.579    21740866.647 7  87541554.09707     -1030.341 7        47.729    21740865.671 8  91992801.35608     -1082.744 8        49.880
C13        43.000                                                                                                                                    37873274.656 7 197216094.54707      -303.279 7        42.590    37873276.913 7 152500012.14807      -234.381 7        42.724    37873275.043 7 160254229.85307      -246.235 7        42.118
C38        44.000                                                                                                                                                                                                                                                                    38687349.247 5 163698830.24505      -875.644 5        32.766
C25        45.000                                                                                                                                    22242730.182 8 115823781.10808      -982.193 8        48.964                                                                    22242724.231 6  94116484.98106      -797.943 6        38.279
C08        46.000                                                                                                                                    37831434.395 6 196998253.84106      -529.994 6        36.824    37831429.809 7 152331594.45507      -409.916 7        44.053    37831429.373 6 160077193.27706      -430.550 6        38.156
C23        47.000                                                                                                                                    25370765.177 6 132112552.46206      1755.007 6        38.694                                                                    25370759.129 7 107352136.48407      1426.113 7        43.776
C24        51.000                                                                                                                                    23520207.130 6 122475918.51906     -3797.939 6        38.462                                                                    23520207.970 7  99521702.57407     -3086.080 7        43.651
C34        52.000                                                                                                                                    21833050.088 7 113690487.79707       337.798 7        44.632                                                                    21833050.705 7  92382914.08307       274.518 7        44.038
I02        56.000    38546140.142 5 151263350.25805     -1185.087 5        31.064
I06        58.000    38796890.068 5 152247441.12905      -648.980 5        35.857
> 2025 01 02 17 17 10.0000000  0 39
G20         1.000    24888372.076 4                     -3449.058 4        25.459
G25         3.000    23773923.444 4                     -4541.619 4        29.166                                                                                                    23773908.337 3                     -3537.859 3        21.476
G05         4.000    22999958.306 6 120865627.32906     -1479.570 6        41.282                                    22999955.748 5  94180918.78905     -1152.916 5        31.819    22999954.716 5  94180982.74705     -1152.776 5        35.833
E25         6.000    25403469.339 6 133496147.23006     -3240.043 6        38.526                                                                    25403472.438 6  99688685.50306     -2419.523 6        38.994    25403471.315 6 102289280.16606     -2482.635 6        41.979
G31         7.000    22537800.374 6 118437035.70406     -3116.454 6        39.964                                    22537793.147 2  92288611.80902     -2428.427 2        12.364
G28         8.000    23608283.227 6 124062495.05506     -4119.945 6        37.490                                    23608278.366 1  96671942.84301     -3210.258 1         9.905    23608286.353 5  96671982.89915     -3210.484 5        34.490
G29         9.000    21545037.552 6 113220025.77406     -2896.167 6        41.943                                    21545033.903 5  88223404.89605     -2256.748 5        34.724    21545033.028 6  88223356.87206     -2256.698 6        39.760
E11        10.000    25099150.343 5 131896941.34715     -2891.856 5        32.066                                                                    25099166.453 4  98494461.72504     -2159.825 4        28.284    25099146.386 6 101063868.65106     -2216.149 6        39.279
E10        11.000    27574099.527 4                     -3695.522 4        24.316                                                                    27574099.512 4                     -2759.452 4        26.778    27574106.658 5                     -2831.747 5        30.891
G18        12.000    20758178.686 8 109085188.74608       191.756 8        48.715                                    20758175.872 6  85001322.39606       149.420 6        41.802    20758176.143 8  85001286.40108       149.406 8        50.181
G26        17.000    20762628.589 8 109108381.14108       222.514 8        48.807                                    20762654.251 4  85019531.97304       173.404 4        25.068    20762658.311 3                       172.653 3        21.000
E30        19.000    26088809.080 7 137097754.17907      1510.621 7        45.366                                                                    26088810.942 7 102378243.27207      1128.026 7        44.381    26088809.701 7 105048921.91107      1157.512 7        46.985
E02        21.000    23243607.970 7 122146242.97707      -861.583 7        47.255                                                                    23243608.044 8  91213010.31408      -643.350 8        48.799    23243606.441 8  93592488.18908      -660.189 8        48.808
S23        22.000    38236513.822 6 200934275.32906      -865.692 6        38.423
R10        23.000    22647782.007 6 120725423.11906      3016.533 6        37.134
E36        24.000    23545516.916 5 123732553.55405      -234.937 5        30.385                                                                    23545519.387 8  92397851.52308      -175.566 8        48.711    23545518.917 7  94808212.34007      -180.175 7        46.161
R18        25.000    20066199.302 8 107114707.79808     -3259.114 8        48.589                                                                    20066199.787 7  83311466.09607     -2534.833 7        45.579
G16        26.000    22354961.747 7 117476167.54307      2100.605 7        45.273                                    22354955.803 4  91539855.51704      1636.832 4        28.171
S21        27.000    38512474.280 5 202384617.54105      -863.266 5        34.557
R01        28.000    23960167.969 4                     -2366.281 4        24.376                                                                    23960161.899 3                     -1839.320 3        20.429
R19        29.000    19478123.520 5 104194877.47905      -151.125 5        34.814                                                                    19478123.045 7  81040734.77207      -117.616 7        43.107
S36        31.000    38283419.872 5 201180698.52905      -862.175 5        35.910
E34        32.000                                                                                                                                                                                                    26123337.144 4 105187791.33804      1518.439 4        28.673
R16        34.000    20390371.518 7 108921663.17007     -3971.329 7        43.518                                                                    20390372.466 6  84716871.99306     -3088.756 6        40.412
C44        35.000                                                                                                                                    22275783.030 8 115995776.37908     -2614.176 8        48.676                                                                    22275779.558 7  94256294.74707     -2124.141 7        43.875
R17        36.000    23763231.388 4                     -4789.653 4        26.970
R09        37.000    19651527.075 7 104938138.19007       413.715 7        44.408                                                                    19651525.197 6  81618583.80406       321.445 6        36.008
C11        38.000                                                                                                                                    23348018.506 7 121579343.54207      1387.524 7        44.113    23348016.873 6  94012915.67806      1072.794 6        39.030    23348020.147 5  98793188.79405      1127.687 5        30.151
C43        39.000                                                                                                                                                                                                                                                                    25297767.379 5                      1617.279 5        31.570
C12        41.000                                                                                                                                    21742148.798 7 113217173.66007     -1334.124 7        44.038    21742146.665 7  87546709.06107     -1031.636 7        47.629    21742146.024 8  91998218.43708     -1084.184 8        49.991
C13        43.000                                                                                                                                    37873565.967 7 197217612.83307      -304.216 7        43.033    37873568.359 7 152501186.18607      -235.227 7        42.497    37873566.493 7 160255463.58907      -247.166 7        42.133
C38        44.000                                                                                                                                    38688380.532 5 201460599.55605     -1078.676 5        35.981                                                                    38688384.314 5 163703210.41905      -876.424 5        32.527
C25        45.000                                                                                                                                    22243674.221 8 115828698.53908      -984.831 8        48.668                                                                    22243668.325 6  94120480.79206      -800.324 6        38.904
C08        46.000                                                                                                                                    37831942.020 6 197000906.60706      -530.938 6        36.333    37831938.995 7 152333645.72807      -410.605 7        43.845    37831938.715 6 160079348.86706      -431.519 6        38.042
C23        47.000                                                                                                                                    25369080.292 6 132103781.11106      1753.466 6        38.859                                                                    25369074.523 7 107345009.04807      1424.837 7        43.393
C24        51.000                                                                                                                                    23523853.678 6 122494911.39006     -3799.240 6        39.195                                                                    23523855.003 7  99537135.85007     -3087.273 7        42.783
C34        52.000                                                                                                                                    21832726.279 7 113688802.61707       336.189 7        44.665                                                                    21832726.430 7  92381544.73807       273.176 7        42.857
I02        56.000    38547647.733 5 151269275.21805     -1185.184 5        30.702
I06        58.000    38797716.499 5 152250686.00205      -648.891 5        35.929
> 2025 01 02 17 17 15.0000000  0 39
G20         1.000    24891657.140 4                     -3450.640 4        26.096
G25         3.000    23778246.081 4                     -4542.337 4        27.725                                                                                                    23778229.239 3                     -3538.307 3        20.833
G05         4.000    23001367.578 6 120873033.83106     -1483.085 6        40.768                                    23001365.069 5  94186690.09205     -1155.645 5        31.419    23001363.289 5  94186754.08905     -1155.823 5        34.019
E25         6.000    25406552.604 6 133512350.91406     -3241.464 6        38.498                                                                    25406555.662 6  99700785.66706     -2420.725 6        38.348    25406554.701 6 102301695.97406     -2483.624 6        41.826
G31         7.000    22540766.374 6 118452623.43506     -3118.745 6        37.682                                    22540757.583 1  92300758.16201     -2429.951 1         7.250
G28         8.000    23612204.539 6 124083098.95706     -4121.468 6        36.896                                    23612201.231 1  96687997.82701     -3211.550 1        10.296    23612207.109 5  96688037.83105     -3211.746 5        34.305
G29         9.000    21547795.065 7 113234510.16907     -2897.765 7        42.758                                    21547790.292 5  88234691.41505     -2257.995 5        35.029    21547789.093 6  88234643.40006     -2257.833 6        39.255
E11        10.000    25101903.229 5 131911405.73405     -2893.569 5        31.472                                                                    25101914.276 4  98505263.05404     -2161.048 4        28.512    25101898.775 6 101074951.78006     -2217.126 6        39.285
E10        11.000    27577616.338 3                     -3696.913 3        23.371                                                                    27577615.669 4                     -2759.697 4        26.192    27577623.433 5                     -2832.403 5        31.049
G18        12.000    20757998.159 8 109084237.58708       188.695 8        49.204                                    20757994.816 7  85000581.24707       147.032 7        42.066    20757995.164 8  85000545.24408       147.036 8        50.383
G26        17.000    20762417.961 8 109107275.63108       219.577 8        48.443                                    20762446.056 4  85018670.45504       171.130 4        25.639    20762439.814 3                       171.243 3        23.657
E30        19.000    26087372.244 7 137090203.21707      1509.761 7        45.028                                                                    26087373.938 7 102372604.59207      1127.299 7        44.098    26087372.930 7 105043136.12407      1156.823 7        47.131
E02        21.000    23244428.840 7 122150555.72307      -863.529 7        47.420                                                                    23244428.703 8  91216230.88408      -644.833 8        48.716    23244426.976 8  93595792.76608      -661.658 8        48.734
S23        22.000    38237338.371 6 200938604.33106      -865.974 6        38.357
R10        23.000    22644953.893 6 120710344.29706      3014.976 6        36.597
E36        24.000    23545742.124 5 123733734.62605      -237.450 5        32.605                                                                    23545744.088 8  92398733.49108      -177.244 8        48.439    23545743.449 7  94809117.30807      -181.808 7        46.045
R18        25.000    20069252.448 7 107131009.07407     -3261.444 7        47.175                                                                    20069252.981 7  83324144.86107     -2536.671 7        44.689
G16        26.000    22352964.147 7 117465669.10507      2098.916 7        45.273                                    22352958.665 4  91531674.92504      1635.521 4        29.052
S21        27.000    38513297.752 5 202388932.77405      -863.319 5        35.038
R01        28.000    23962377.389 4                     -2370.377 4        24.947
R19        29.000    19478266.613 5 104195642.02305      -154.743 5        35.814                                                                    19478266.838 7  81041329.39707      -120.261 7        42.603
S36        31.000    38284237.902 5 201185010.74105      -862.495 5        35.938
E34        32.000                                                                                                                                                                                                    26121456.267 4 105180202.37504      1517.963 4        29.156
R16        34.000    20394089.474 7 108941527.68007     -3974.545 7        42.681                                                                    20394090.618 6  84732322.15006     -3091.109 6        37.531
C44        35.000                                                                                                                                    22278293.655 8 116008850.75508     -2615.563 8        49.293                                                                    22278290.345 7  94266918.76107     -2125.186 7        43.748
R17        36.000    23767704.097 4                     -4789.169 4        25.594
R09        37.000    19651142.668 7 104936080.09607       409.535 7        45.392                                                                    19651140.174 6  81616983.04306       318.487 6        38.171
C11        38.000                                                                                                                                    23346687.619 7 121572409.65607      1386.022 7        44.167    23346685.765 6  94007553.97506      1071.711 6        39.829    23346683.256 4  98787554.40704      1126.984 4        27.186
C43        39.000                                                                                                                                                                                                                                                                    25295857.630 5                      1616.818 5        31.283
C12        41.000                                                                                                                                    21743431.239 7 113223849.39707     -1336.200 7        44.062    21743428.649 7  87551871.16807     -1033.135 7        47.996    21743428.071 8  92003643.01908     -1085.559 8        49.990
C13        43.000                                                                                                                                    37873859.094 7 197219136.47307      -305.353 7        43.336    37873861.197 7 152502364.36507      -236.218 7        42.385    37873858.979 7 160256701.66707      -247.927 7        42.027
C38        44.000                                                                                                                                    38689419.668 5 201465995.00505     -1079.801 5        35.819                                                                    38689420.243 5 163707594.65205      -877.258 5        32.437
C25        45.000                                                                                                                                    22244620.827 8 115833630.30408      -987.852 8        48.249                                                                    22244615.232 6  94124488.25006      -802.535 6        39.565
C08        46.000                                                                                                                                    37832450.951 5 197003565.15305      -532.404 5        35.229    37832449.486 7 152335701.51107      -411.688 7        43.594    37832449.156 6 160081509.16606      -432.302 6        37.849
C23        47.000                                                                                                                                    25367397.129 6 132095017.85306      1751.678 6        38.640                                                                    25367391.653 7 107337888.21107      1423.602 7        42.897
C24        51.000                                                                                                                                    23527502.261 6 122513911.57006     -3800.820 6        39.961                                                                    23527503.380 6  99552575.05706     -3088.283 6        41.964
C34        52.000                                                                                                                                    21832404.423 7 113687126.34607       334.260 7        44.426                                                                    21832403.757 6  92380182.64206       271.822 6        41.552
I02        56.000    38549160.785 5 151275200.67605     -1185.765 5        30.626
I06        58.000    38798544.638 6 152253930.86306      -649.006 6        36.155
> 2025 01 02 17 17 20.0000000  0 39
G20         1.000    24894941.345 4                     -3453.069 4        24.346
G25         3.000    23782569.245 4                     -4543.543 4        24.887                                                                                                    23782550.459 3                     -3540.508 3        18.448
G05         4.000    23002780.211 6 120880457.65606     -1486.259 6        41.247                                    23002777.284 5  94192474.88305     -1158.125 5        30.619    23002776.536 5  94192538.84005     -1158.016 5        32.042
E25         6.000    25409637.276 6 133528560.24806     -3242.246 6        38.676                                                                    25409639.610 6  99712890.02006     -2421.017 6        37.561    25409639.281 6 102314116.10906     -2484.377 6        41.540
G31         7.000    22543735.191 6 118468223.27706     -3120.828 6        36.945                                    22543724.330 1  92312914.09301     -2431.477 1         2.600    22543767.785 4                     -2432.245 4        27.509
G28         8.000    23616126.750 6 124103708.39606     -4122.312 6        36.658                                    23616124.445 1  96704057.19401     -3212.201 1        11.333    23616128.867 5  96704097.14505     -3212.135 5        33.461
G29         9.000    21550555.125 7 113249001.43107     -2898.703 7        43.941                                    21550547.906 5  88245983.29305     -2258.724 5        35.057    21550547.018 6  88245935.26806     -2258.675 6        38.946
E11        10.000    25104657.238 5 131925877.06905     -2894.866 5        31.585                                                                                                                                    25104652.497 6 101086040.22506     -2217.960 6        39.333
E10        11.000    27581136.421 3                     -3696.694 3        23.924                                                                    27581131.742 4                     -2760.128 4        26.778    27581140.288 5                     -2832.564 5        31.381
G18        12.000    20757820.043 8 109083300.78008       186.118 8        50.506                                    20757816.568 7  84999851.28207       145.026 7        42.370    20757816.573 8  84999815.27608       145.062 8        50.487
G26        17.000    20762209.934 8 109106184.00008       217.100 8        48.362                                    20762240.375 4  85017819.74304       169.188 4        25.805
E30        19.000    26085936.469 7 137082655.99207      1509.276 7        44.855                                                                    26085937.642 7 102366968.68807      1127.044 7        44.167    26085936.808 7 105037353.19707      1156.425 7        47.180
E02        21.000    23245251.304 7 122154877.47007      -865.000 7        47.289                                                                    23245251.007 8  91219458.16508      -645.946 8        48.526    23245249.223 8  93599104.24408      -662.828 8        48.541
S23        22.000    38238160.528 6 200942933.13406      -865.557 6        38.348
R10        23.000    22642124.879 5 120695273.27705      3013.476 5        35.609
E36        24.000    23545968.729 5 123734926.42105      -239.172 5        34.990                                                                    23545970.749 8  92399623.47608      -178.594 8        48.333    23545969.915 7  94810030.50607      -183.307 7        45.588
R18        25.000    20072308.643 7 107147321.02507     -3263.280 7        45.860                                                                    20072308.939 7  83336831.93107     -2538.071 7        44.810
G16        26.000    22350967.948 7 117455178.39707      2097.514 7        45.437                                    22350962.997 4  91523500.35704      1634.425 4        29.896
S21        27.000    38514117.167 5 202393247.90005      -862.815 5        35.038
R01        28.000    23964588.861 4                     -2374.000 4        24.797
R19        29.000    19478412.218 6 104196422.79706      -157.594 6        36.877                                                                    19478411.945 7  81041936.64407      -122.569 7        42.569
S36        31.000    38285056.947 5 201189323.16805      -862.567 5        35.519
E34        32.000    26119548.877 5                      1979.625 5        30.641                                                                                                                                    26119568.577 5 105172617.34205      1516.507 5        30.128
R16        34.000    20397809.923 7 108961407.95407     -3977.353 7        43.621                                                                    20397813.169 5  84747784.59005     -3093.429 5        34.524
C44        35.000                                                                                                                                    22280805.096 8 116021931.49508     -2616.580 8        49.909                                                                    22280802.317 7  94277547.94007     -2126.144 7        43.600
R17        36.000    23772179.910 4                     -4789.899 4        24.301
R09        37.000    19650761.100 7 104934042.31507       405.865 7        43.372                                                                    19650758.779 6  81615398.12406       315.422 6        40.391
C11        38.000                                                                                                                                    23345357.258 7 121565482.23907      1385.055 7        44.215    23345355.382 6  94002197.27206      1070.925 6        39.252    23345352.375 3  98781925.37403      1124.678 3        23.505
C43        39.000                                                                                                                                    25293913.876 3                      1990.151 3        21.000                                                                    25293949.611 5                      1616.404 5        30.536
C12        41.000                                                                                                                                    21744714.606 7 113230533.93007     -1337.540 7        44.287    21744712.150 8  87557040.09708     -1034.299 8        48.521    21744711.825 8  92009074.78308     -1086.863 8        50.020
C13        43.000                                                                                                                                    37874153.096 7 197220665.17107      -306.040 7        43.757    37874154.761 7 152503546.46107      -236.676 7        42.180    37874152.555 6 160257943.88006      -248.670 6        41.921
C38        44.000                                                                                                                                    38690458.661 5 201471395.08105     -1080.181 5        35.567                                                                    38690457.090 5 163711982.69005      -877.951 5        32.569
C25        45.000                                                                                                                                    22245569.688 7 115838576.03207      -990.377 7        47.962                                                                    22245565.105 6  94128507.06606      -804.786 6        39.673
C08        46.000                                                                                                                                    37832961.121 5 197006229.16305      -532.964 5        35.109    37832961.105 7 152337761.50007      -412.269 7        43.312    37832960.528 6 160083673.92806      -433.228 6        37.720
C23        47.000                                                                                                                                    25365715.716 6 132086262.32106      1750.594 6        39.237                                                                    25365710.137 7 107330773.67407      1422.374 7        42.645
C24        51.000                                                                                                                                    23531152.428 6 122532918.69706     -3801.892 6        40.248                                                                    23531153.040 6  99568019.93106     -3089.475 6        41.302
C34        52.000                                                                                                                                    21832084.433 7 113685458.58607       332.916 7        44.579                                                                    21832082.817 6  92378827.48306       270.480 6        40.324
I02        56.000    38550669.710 4 151281126.73404     -1184.893 4        29.839
I06        58.000    38799370.460 5 152257175.41105      -648.486 5        35.910
> 2025 01 02 17 17 25.0000000  0 41
G20         1.000    24898226.029 3                     -3454.882 3        22.533
G25         3.000    23786887.465 3                     -4544.146 3        23.752
G05         4.000    23004196.211 6 120887898.77906     -1489.801 6        41.168                                    23004192.275 4  94198273.16204     -1160.882 4        29.829    23004193.403 5  94198337.15005     -1161.221 5        32.371
E25         6.000    25412722.718 6 133544775.30606     -3243.412 6        38.865                                                                    25412724.190 6  99724998.68906     -2422.038 6        36.178    25412724.682 6 102326540.64506     -2485.182 6        41.318
G31         7.000    22546706.432 5 118483835.33205     -3123.481 5        35.281                                    22546693.670 1  92325079.52601     -2434.139 1         1.778
G28         8.000    23620050.272 5 124124323.49705     -4123.407 5        34.024                                    23620048.688 1  96720120.97901     -3213.032 1         9.429    23620052.184 5  96720160.85805     -3212.961 5        31.758
G29         9.000    21553315.413 7 113263499.69207     -2900.156 7        43.249                                    21553306.691 5  88257280.63505     -2259.858 5        34.300    21553306.154 6  88257232.64506     -2260.035 6        38.622
E11        10.000    25107412.682 5 131940355.45305     -2896.405 5        32.096                                                                    25107406.438 5  98526881.37005     -2162.534 5        30.906    25107407.450 6 101097134.05306     -2219.061 6        38.895
E10        11.000    27584654.761 3                     -3697.415 3        22.400                                                                    27584649.107 4                     -2761.213 4        26.719    27584657.904 5                     -2833.027 5        31.132
G18        12.000    20757644.556 8 109082378.43208       183.162 8        50.978                                    20757641.137 7  84999132.58107       142.721 7        42.753    20757641.254 8  84999096.57808       142.702 8        50.435
G27        13.000    24860075.738 5 130640589.67815      2542.061 5        32.060
G26        17.000    20762005.142 8 109105106.36608       214.214 8        48.314                                    20762038.370 4  85016979.93904       166.941 4        25.985
E30        19.000    26084501.405 7 137075112.59407      1508.469 7        44.683                                                                    26084502.164 7 102361335.64007      1126.428 7        44.173    26084501.443 7 105031573.19707      1155.781 7        47.102
E02        21.000    23246075.462 7 122159208.33607      -866.929 7        47.203                                                                    23246075.034 8  91222692.25608      -647.369 8        48.389    23246073.364 8  93602422.70108      -664.293 8        48.311
S23        22.000    38238983.584 6 200947262.12906      -865.763 6        38.099
R10        23.000    22639296.935 5 120680210.11305      3011.915 5        33.742
E36        24.000    23546199.017 6 123736129.08806      -241.510 6        37.629                                                                    23546199.462 8  92400521.55208      -180.294 8        48.044    23546198.627 7  94810952.00807      -185.024 7        45.409
R18        25.000    20075366.556 7 107163643.71607     -3265.567 7        45.207                                                                    20075367.116 7  83349527.36107     -2539.843 7        45.261
G16        26.000    22348972.968 7 117444695.53007      2095.874 7        45.693                                    22348968.761 5  91515331.89405      1633.146 5        30.340
S21        27.000    38514935.841 5 202397562.89405      -862.709 5        34.452
R01        28.000    23966807.962 4                     -2377.851 4        24.271
R19        29.000    19478562.636 6 104197220.09306      -160.934 6        36.272                                                                    19478560.477 7  81042556.75207      -125.288 7        42.690
S36        31.000    38285880.857 5 201193635.45605      -862.299 5        35.543
E34        32.000                                                                                                                                                                                                    26117682.852 5 105165036.16605      1516.014 5        30.309
R16        34.000    20401535.542 7 108981304.02507     -3980.761 7        44.986                                                                    20401536.608 5  84763259.24205     -3095.911 5        32.569
C44        35.000                                                                                                                                    22283318.226 8 116035018.70008     -2617.940 8        50.180                                                                    22283315.565 7  94288182.33807     -2127.152 7        43.534
R17        36.000    23776655.919 3                     -4790.403 3        23.524
R09        37.000    19650381.401 6 104932024.96206       401.608 6        41.659                                                                    19650380.168 6  81613829.08106       312.475 6        39.892
C11        38.000                                                                                                                                    23344027.338 7 121558561.45307      1383.588 7        43.699    23344026.217 6  93996845.68406      1069.888 6        38.138
C43        39.000                                                                                                                                                                                                                                                                    25292042.169 4                      1615.793 4        29.801
C35        40.000                                                                                                                                    26192770.238 3                     -3840.751 3        20.071
C12        41.000                                                                                                                                    21746000.523 7 113237227.41507     -1339.450 7        44.649    21745997.532 8  87562215.93708     -1035.745 8        49.257    21745997.305 8  92014513.78008     -1088.382 8        50.216
C13        43.000                                                                                                                                    37874447.836 7 197222198.97307      -307.194 7        44.089    37874449.377 7 152504732.50707      -237.544 7        42.190    37874447.161 7 160259190.19607      -249.536 7        42.231
C38        44.000                                                                                                                                    38691496.756 5 201476799.92005     -1081.148 5        35.081                                                                    38691495.551 5 163716374.52305      -879.120 5        32.521
C25        45.000                                                                                                                                    22246520.964 7 115843535.84207      -993.247 7        47.525                                                                    22246517.626 6  94132537.28306      -806.939 6        40.350
C08        46.000                                                                                                                                    37833473.070 5 197008898.69905      -534.151 5        34.438    37833473.496 7 152339825.76107      -413.123 7        43.139    37833472.941 6 160085843.12506      -434.060 6        37.599
C23        47.000                                                                                                                                    25364035.491 6 132077514.69406      1748.796 6        39.892                                                                    25364030.055 7 107323665.49407      1421.094 7        42.698
C24        51.000                                                                                                                                    23534803.537 6 122551932.87806     -3803.348 6        40.253                                                                    23534804.278 6  99583470.47606     -3090.426 6        40.717
C34        52.000                                                                                                                                    21831765.980 7 113683799.48207       331.180 7        44.498                                                                    21831763.591 6  92377479.30006       269.098 6        38.691
I02        56.000    38552179.069 5 151287053.35605     -1185.096 5        30.355
I06        58.000    38800197.026 6 152260419.78406      -648.818 6        36.042
> 2025 01 02 17 17 30.0000000  0 41
G20         1.000    24901510.933 3                     -3457.984 3        23.829
G25         3.000    23791210.348 4                     -4544.794 4        26.407
G05         4.000    23005615.264 6 120895356.44806     -1493.260 6        40.615                                    23005610.504 4  94204084.32204     -1163.578 4        29.479    23005612.331 5  94204148.34105     -1163.608 5        33.168
E25         6.000    25415809.080 6 133560995.31606     -3244.654 6        38.589                                                                    25415810.003 5  99737111.07005     -2423.124 5        34.595    25415811.371 6 102338968.96506     -2486.127 6        40.837
G31         7.000    22549678.923 5 118499458.76305     -3126.158 5        34.086                                    22549665.341 1  92337253.79301     -2435.951 1         2.200    22549696.061 4                     -2436.029 4        26.647
G28         8.000    23623979.621 5 124144943.42905     -4125.003 5        30.151                                    23623973.198 1  96736188.52301     -3214.459 1         5.000    23623975.013 4  96736228.38904     -3214.354 4        29.621
G29         9.000    21556074.869 6 113278004.05306     -2901.719 6        41.247                                    21556066.563 5  88268582.75905     -2261.078 5        32.952    21556065.982 6  88268534.74906     -2260.882 6        38.721
E11        10.000    25110168.456 5 131954840.05005     -2897.655 5        32.683                                                                    25110164.597 5  98537697.78905     -2163.397 5        31.887    25110163.741 6 101108232.64806     -2220.373 6        38.805
E10        11.000    27588172.949 3                     -3696.883 3        22.895                                                                    27588166.060 4                     -2761.410 4        27.880    27588176.181 5                     -2833.243 5        31.358
G18        12.000    20757471.395 8 109081469.71208       180.208 8        51.214                                    20757468.345 7  84998424.50207       140.420 7        43.208    20757468.273 8  84998388.49308       140.432 8        50.309
G27        13.000    24857656.972 5 130627880.29305      2541.602 5        32.108
G26        17.000    20761802.695 8 109104041.88808       211.393 8        48.460                                    20761838.886 4  85016150.38904       164.740 4        26.527
E30        19.000    26083066.722 7 137067572.20607      1507.608 7        44.632                                                                    26083067.335 7 102355704.84307      1125.799 7        44.307    26083066.604 7 105025795.50507      1155.182 7        47.142
E02        21.000    23246901.358 7 122163547.48207      -868.830 7        47.011                                                                    23246900.683 8  91225932.53208      -648.828 8        48.331    23246899.027 8  93605747.50208      -665.696 8        48.109
S23        22.000    38239813.191 6 200951590.25406      -865.729 6        38.354
R10        23.000    22636473.367 5 120665154.24305      3010.499 5        31.223
E36        24.000    23546430.857 6 123737341.73106      -243.651 6        39.973                                                                    23546430.172 7  92401427.10207      -182.009 7        47.782    23546429.353 7  94811881.17107      -186.663 7        45.165
R18        25.000    20078426.509 7 107179976.35107     -3267.654 7        46.029                                                                    20078427.007 7  83362230.53107     -2541.461 7        45.454
G16        26.000    22346979.405 7 117434219.70107      2094.255 7        46.159                                    22346975.781 5  91507168.92105      1631.889 5        30.823
S21        27.000    38515759.733 5 202401877.01105      -862.916 5        34.843
R01        28.000    23969033.211 3                     -2381.991 3        21.643
R19        29.000    19478715.429 6 104198032.89306      -164.297 6        36.140                                                                    19478712.374 7  81043188.93907      -127.833 7        42.326
S36        31.000    38286696.038 5 201197946.37905      -862.168 5        35.571
E34        32.000    26115804.868 5                      1977.473 5        33.814                                                                                                                                    26115800.985 5 105157458.22905      1515.089 5        30.445
R16        34.000    20405262.573 7 109001214.92107     -3983.747 7        43.729                                                                    20405263.044 5  84778745.50205     -3098.375 5        33.102
C44        35.000                                                                                                                                    22285832.317 8 116048111.53808     -2619.352 8        50.238                                                                    22285829.899 7  94298821.35607     -2128.384 7        43.255
R17        36.000    23781135.818 4                     -4790.472 4        24.165
R09        37.000    19650007.265 6 104930027.02706       397.496 6        40.422                                                                    19650004.434 6  81612275.15806       309.021 6        39.192
C11        38.000                                                                                                                                    23342699.545 7 121551646.45207      1382.139 7        43.769    23342697.013 5  93991498.55205      1068.844 5        35.629
C43        39.000                                                                                                                                                                                                                                                                    25290134.740 4                      1615.282 4        28.512
C35        40.000                                                                                                                                    26196456.344 3                     -3833.056 3        20.595
C12        41.000                                                                                                                                    21747287.879 7 113243929.01507     -1341.274 7        45.136    21747284.367 8  87567398.05308     -1037.187 8        49.989    21747284.243 8  92019959.40808     -1089.845 8        50.308
C13        43.000                                                                                                                                    37874743.401 7 197223737.11407      -308.290 7        44.229    37874745.065 6 152505921.89906      -238.430 6        41.998    37874742.547 7 160260440.08707      -250.371 7        42.074
C38        44.000                                                                                                                                    38692535.259 5 201482208.64405     -1082.297 5        35.038                                                                    38692533.936 5 163720769.55605      -879.398 5        32.365
C25        45.000                                                                                                                                    22247475.002 7 115848508.89607      -996.182 7        46.981                                                                    22247472.796 6  94136578.31206      -809.360 6        40.861
C08        46.000                                                                                                                                    37833986.766 5 197011573.09405      -535.599 5        34.348    37833986.856 7 152341893.76707      -414.137 7        42.840    37833986.172 6 160088016.30806      -435.237 6        37.599
C23        47.000                                                                                                                                    25362356.685 6 132068774.08906      1747.292 6        40.751                                                                    25362351.594 7 107316563.08607      1419.710 7        42.565
C24        51.000                                                                                                                                    23538455.765 6 122570953.24106     -3804.768 6        39.940                                                                    23538456.950 6  99598926.10606     -3091.733 6        40.269
C34        52.000                                                                                                                                    21831448.623 7 113682148.18207       329.253 7        44.158                                                                    21831445.911 6  92376137.51806       267.524 6        38.093
I02        56.000    38553689.662 5 151292979.71605     -1185.392 5        30.800
I06        58.000    38801022.957 6 152263663.29706      -649.020 6        36.060
> 2025 01 02 17 17 35.0000000  0 39
G20         1.000    24904802.087 3                     -3458.214 3        22.876
G25         3.000    23795535.998 4                     -4545.194 4        29.024
G05         4.000    23007037.448 6 120902830.97206     -1496.528 6        40.336                                    23007032.287 4  94209908.61504     -1166.129 4        28.938    23007035.850 5  94209972.65305     -1166.176 5        33.772
E25         6.000    25418895.890 6 133577220.53006     -3245.598 6        37.879                                                                    25418896.178 5  99749227.31405     -2423.647 5        32.964    25418898.803 6 102351401.27706     -2486.926 6        40.617
G31         7.000    22552654.010 5 118515093.89705     -3128.200 5        34.857                                    22552639.010 1  92349436.94501     -2437.576 1         4.714    22552668.992 4                     -2437.992 4        24.947
G28         8.000                                                                                                                                                                    23627895.744 4  96752299.81504     -3214.427 4        26.671
G29         9.000    21558833.717 6 113292514.83406     -2902.884 6        38.069                                    21558827.585 5  88279889.92105     -2261.990 5        30.513    21558827.142 6  88279841.94006     -2261.920 6        38.532
E11        10.000    25112925.330 5 131969331.12005     -2898.776 5        32.737                                                                    25112922.546 5  98548519.09905     -2164.825 5        32.563    25112921.124 6 101119336.19506     -2221.207 6        38.616
E10        11.000    27591689.938 3                     -3698.183 3        22.648                                                                    27591683.590 4                     -2761.501 4        28.227    27591694.319 5                     -2833.531 5        31.441
G18        12.000    20757300.999 8 109080574.93108       177.528 8        51.544                                    20757298.186 7  84997727.28007       138.331 7        43.143    20757297.919 8  84997691.27008       138.335 8        50.082
G27        13.000    24855240.343 5 130615172.03805      2541.517 5        31.698
G26        17.000    20761602.860 8 109102990.88208       208.840 8        48.649                                    20761640.695 4  85015331.32704       162.750 4        26.323
E30        19.000    26081632.328 7 137060035.13407      1507.021 7        44.588                                                                    26081633.020 7 102350076.52207      1125.428 7        44.330    26081632.333 7 105020020.35607      1154.701 7        47.297
E02        21.000    23247728.886 7 122167895.21407      -870.540 7        46.857                                                                    23247727.945 8  91229179.22108      -650.055 8        48.114    23247726.445 8  93609078.89108      -666.939 8        48.041
S23        22.000    38240636.076 6 200955917.81406      -865.569 6        38.468
R10        23.000    22633649.745 4 120650105.94504      3008.565 4        29.299
E36        24.000    23546663.355 6 123738564.68606      -245.717 6        40.877                                                                    23546662.903 7  92402340.34707      -183.377 7        47.210    23546661.920 7  94812818.24307      -188.202 7        45.254
R18        25.000    20081488.291 7 107196319.22307     -3269.661 7        46.418                                                                    20081487.844 7  83374941.64907     -2543.045 7        45.157
G16        26.000    22344987.571 7 117423751.22207      2092.921 7        47.117                                    22344983.969 5  91499011.67305      1630.843 5        30.717
S21        27.000    38516581.389 5 202406190.54805      -862.670 5        35.033
R19        29.000    19478869.415 6 104198861.53606      -167.631 6        37.180                                                                    19478867.786 7  81043833.42707      -130.224 7        42.482
S36        31.000    38287520.002 5 201202256.69305      -861.692 5        35.667
E34        32.000    26113919.294 5 137229597.71615      1976.663 5        34.800                                                                                                                                    26113921.601 5 105149883.83705      1514.467 5        31.811
R16        34.000    20408990.038 6 109021140.95306     -3986.723 6        39.571                                                                    20408993.975 5  84794243.56405     -3100.851 5        34.900
C44        35.000                                                                                                                                    22288347.225 8 116061210.29708     -2620.365 8        50.146                                                                    22288345.243 7  94309465.19507     -2129.512 7        42.844
R17        36.000    23785607.419 4                     -4789.418 4        24.797
R09        37.000    19649637.923 6 104928048.98406       393.585 6        40.203                                                                    19649633.560 6  81610736.69806       305.955 6        39.486
C11        38.000                                                                                                                                    23341372.787 7 121544737.54007      1381.016 7        44.153    23341368.148 5  93986156.13905      1068.083 5        34.014    23341396.726 5                      1122.296 5        32.581
C43        39.000                                                                                                                                    25288271.055 4                      1987.578 4        27.210                                                                    25288224.646 4                      1614.641 4        28.171
C12        41.000                                                                                                                                    21748575.839 7 113250639.03307     -1342.914 7        45.213    21748572.983 8  87572586.67408     -1038.389 8        50.585    21748572.791 8  92025411.87408     -1091.333 8        50.159
C13        43.000                                                                                                                                    37875039.656 7 197225279.77007      -309.062 7        44.418    37875041.638 7 152507114.77107      -238.908 7        42.000    37875038.802 7 160261693.64607      -251.278 7        42.138
C38        44.000                                                                                                                                    38693574.516 5 201487621.61305     -1083.079 5        34.819                                                                    38693573.499 5 163725168.03705      -880.264 5        32.569
C25        45.000                                                                                                                                    22248432.116 7 115853495.50607      -998.787 7        46.779                                                                    22248430.592 6  94140630.34406      -811.705 6        41.530
C08        46.000                                                                                                                                    37834503.112 5 197014252.57005      -536.443 5        34.248    37834501.652 7 152343965.71107      -414.629 7        42.631    37834500.866 6 160090193.62106      -436.016 6        37.516
C23        47.000                                                                                                                                    25360679.736 6 132060040.86006      1745.946 6        41.709                                                                    25360674.491 7 107309466.66507      1418.432 7        42.495
C24        51.000                                                                                                                                    23542110.136 6 122589980.11406     -3806.083 6        39.613                                                                    23542110.627 6  99614387.02106     -3092.873 6        39.414
C34        52.000                                                                                                                                    21831133.469 7 113680504.99207       327.810 7        44.527                                                                    21831130.596 6  92374802.33706       266.219 6        37.089
I02        56.000    38555201.193 5 151298906.41805     -1185.826 5        30.536
I06        58.000    38801850.381 5 152266906.16005      -648.511 5        35.910
