     3.04           OBSERVATION DATA    M                   RINEX VERSION / TYPE
ssrcrin-15.6.1x                         20250102 121500 UTC PGM / RUN BY / DATE 
(00000000023479385599111004) Septentrio proprietary         COMMENT             
ract                                                        MARKER NAME         
01                                                          MARKER NUMBER       
geodetic                                                    MARKER TYPE         
NFB                 CLIMERS@TUW                             OBSERVER / AGENCY   
3296359             SEPT ASTERX SB3 PROB4.14.4              REC # / TYPE / VERS 
Unknown             Unknown                                 ANT # / TYPE        
  4127445.5974  1206914.8501  4695543.6319                  APPROX POSITION XYZ 
        0.0000        0.0000        0.0000                  ANTENNA: DELTA H/E/N
G   23 X1  C1C L1C D1C S1C C1W S1W C2W L2W D2W S2W C2L L2L  SYS / # / OBS TYPES 
       D2L S2L C5Q L5Q D5Q S5Q C1L L1L D1L S1L              SYS / # / OBS TYPES 
E   21 X1  C1C L1C D1C S1C C6C L6C D6C S6C C5Q L5Q D5Q S5Q  SYS / # / OBS TYPES 
       C7Q L7Q D7Q S7Q C8Q L8Q D8Q S8Q                      SYS / # / OBS TYPES 
S    9 X1  C1C L1C D1C S1C C5I L5I D5I S5I                  SYS / # / OBS TYPES 
R   17 X1  C1C L1C D1C S1C C2P L2P D2P S2P C2C L2C D2C S2C  SYS / # / OBS TYPES 
       C3Q L3Q D3Q S3Q                                      SYS / # / OBS TYPES 
C   25 X1  C1P L1P D1P S1P C5P L5P D5P S5P C2I L2I D2I S2I  SYS / # / OBS TYPES 
       C7I L7I D7I S7I C6I L6I D6I S6I C7D L7D D7D S7D      SYS / # / OBS TYPES 
J   17 X1  C1C L1C D1C S1C C2L L2L D2L S2L C5Q L5Q D5Q S5Q  SYS / # / OBS TYPES 
       C1L L1L D1L S1L                                      SYS / # / OBS TYPES 
I    5 X1  C5A L5A D5A S5A                                  SYS / # / OBS TYPES 
SEPTENTRIO RECEIVERS OUTPUT ALIGNED CARRIER PHASES.         COMMENT             
NO FURTHER PHASE SHIFT APPLIED IN THE RINEX ENCODER.        COMMENT             
G L1C                                                       SYS / PHASE SHIFT   
G L2W                                                       SYS / PHASE SHIFT   
G L2L  0.00000                                              SYS / PHASE SHIFT   
G L5Q  0.00000                                              SYS / PHASE SHIFT   
G L1L  0.00000                                              SYS / PHASE SHIFT   
E L1C  0.00000                                              SYS / PHASE SHIFT   
E L6C  0.00000                                              SYS / PHASE SHIFT   
E L5Q  0.00000                                              SYS / PHASE SHIFT   
E L7Q  0.00000                                              SYS / PHASE SHIFT   
E L8Q  0.00000                                              SYS / PHASE SHIFT   
S L1C                                                       SYS / PHASE SHIFT   
S L5I                                                       SYS / PHASE SHIFT   
R L1C                                                       SYS / PHASE SHIFT   
R L2P  0.00000                                              SYS / PHASE SHIFT   
R L2C                                                       SYS / PHASE SHIFT   
R L3Q  0.00000                                              SYS / PHASE SHIFT   
C L1P  0.00000                                              SYS / PHASE SHIFT   
C L5P  0.00000                                              SYS / PHASE SHIFT   
C L2I                                                       SYS / PHASE SHIFT   
C L7I                                                       SYS / PHASE SHIFT   
C L6I                                                       SYS / PHASE SHIFT   
C L7D                                                       SYS / PHASE SHIFT   
J L1C                                                       SYS / PHASE SHIFT   
J L2L  0.00000                                              SYS / PHASE SHIFT   
J L5Q  0.00000                                              SYS / PHASE SHIFT   
J L1L  0.00000                                              SYS / PHASE SHIFT   
I L5A                                                       SYS / PHASE SHIFT   
  2025     1     2    12    15    0.0000000     GPS         TIME OF FIRST OBS   
 C1C    0.000 C2C    0.000 C2P    0.000                     GLONASS COD/PHS/BIS 
DBHZ                                                        SIGNAL STRENGTH UNIT
    18                                                      LEAP SECONDS        
 24 R01  1 R02 -4 R03  5 R04  6 R05  1 R06 -4 R07  5 R08  6 GLONASS SLOT / FRQ #
    R09 -2 R10 -7 R11  0 R12 -1 R13 -2 R14 -7 R15  0 R16 -1 GLONASS SLOT / FRQ #
    R17  4 R18 -3 R19  3 R20  2 R21  4 R22 -3 R23  3 R24  2 GLONASS SLOT / FRQ #
                                                            END OF HEADER       
> 2025 01 02 12 15  0.0000000  0 39
G17         2.000    24415485.617 4 128304122.09104     -4045.274 4        29.877                                    24415489.196 1  99977324.97701     -3152.178 1         2.600
G25         3.000    22608781.266 6 118809960.82106      2207.388 6        36.159                                    22608782.887 3  92579183.32303      1720.040 3        22.800    22608783.209 5  92579198.29905      1720.262 5        33.419
G19         4.000    21742276.070 7 114256436.79407     -2548.209 7        46.801                                    21742271.494 4  89030973.56404     -1985.606 4        29.934
E25         6.000    24926112.023 7 130987594.08307       957.890 7        44.990                                                                    24926116.362 7  97815533.45107       715.313 7        46.066    24926116.237 7 100367139.10407       733.934 7        44.859
G10         7.000    25364500.825 3                     -3000.086 3        20.786
G15         9.000    24625995.457 4                     -4743.417 4        28.834                                                                                                    24625966.939 3                     -3698.136 3        21.452
G24        12.000    20417900.417 7 107297394.59307     -2136.646 7        46.901                                    20417899.993 6  83607923.12606     -1664.918 6        36.892    20417903.753 6  83607897.16306     -1664.917 6        36.503
E31        13.000    26289282.888 6 138151101.42406     -3198.059 6        36.480                                                                    26289292.565 5                     -2387.768 5        30.536
E33        14.000    27049353.600 4                       -71.703 4        28.872                                                                    27049354.858 4                       -53.018 4        24.331    27049353.743 5 108916609.32705       -55.037 5        30.626
G12        15.000    20525191.713 8 107860705.85708       285.241 8        49.475                                    20525189.758 8  84047625.09508       222.263 8        48.798    20525190.904 7  84047231.09907       222.261 7        46.037
E24        16.000    23734538.095 7 124725811.79907     -1349.853 7        47.656                                                                    23734540.063 8  93139472.26608     -1008.012 8        48.177    23734539.981 8  95569223.32608     -1034.309 8        49.883
G32        17.000    23963054.985 7 125926537.66407      1583.825 7        46.938                                    23963059.688 6  98124637.99606      1234.142 6        40.660    23963059.558 6  98124723.02106      1234.215 6        40.546
E05        18.000    23127443.802 7 121535565.81007     -2758.408 7        43.460                                                                    23127447.473 7  90757048.28307     -2059.894 7        44.178    23127447.345 7  93124609.74907     -2113.607 7        43.098
E08        20.000                                                                                                                                    28774513.061 5 112917359.00705      1434.416 5        31.494
E09        21.000                                                                                                                                    27924665.909 4                     -3077.174 4        24.932
R14        23.000    19551468.235 8 104220263.79408      -812.210 8        49.651                                                                    19551472.076 7  81060193.17307      -631.743 7        46.826
S23        24.000    38249104.194 5 201000394.09105      -862.888 5        34.743
R23        25.000    21352314.382 4 114220471.22004     -1587.552 4        27.844
E03        26.000    25140102.849 5 132112056.87205        60.352 5        33.545                                                                    25140084.606 5  98655145.18605        44.864 5        31.947    25140086.515 6 101228769.05806        45.893 6        40.701
R13        27.000    22239036.302 3                     -3846.833 3        19.672
R04        29.000    21547893.002 7 115388174.92607     -4250.246 7        46.324                                                                    21547897.194 6  89746206.60406     -3305.675 6        39.706
R15        30.000    21723312.549 7 116082973.81207      1916.463 7        46.215                                                                    21723308.733 5  90286743.91205      1490.425 5        32.449
S36        31.000    38311507.426 6 201328358.32206      -858.780 6        36.250
C07        32.000                                                                                                                                    39995138.586 4                     -1757.696 4        24.752
C10        33.000                                                                                                                                    39104837.712 4 203629183.22504     -1484.031 4        27.796    39104841.819 6 157458975.84506     -1147.581 6        39.498    39104837.050 5 165465337.33305     -1205.964 5        30.166
C45        37.000                                                                                                                                    22581117.131 5 117585717.96505     -2436.591 5        35.814                                                                    22581118.506 5  95548047.39505     -1979.678 5        33.192
R24        38.000    21608001.178 6 115547681.56806      2501.617 6        41.778                                                                    21608012.386 6  89870497.90006      1945.499 6        36.215
C33        39.000                                                                                                                                    25831082.182 6 134509223.29706        27.761 6        39.619                                                                    25831098.539 4 109299872.17404        22.700 4        27.725
R22        41.000    24036573.131 3                     -4295.510 3        23.581                                                                    24036604.674 4                     -3341.400 4        25.113
C35        42.000                                                                                                                                    24456110.168 5 127349408.15705      2311.929 5        33.838                                                                    24456112.528 6 103481857.17806      1878.632 6        36.291
R05        44.000                                                                                                                                    21146363.086 6  87919591.88506      -534.391 6        36.779
C42        45.000                                                                                                                                    24783862.409 6 129056018.29006     -2685.958 6        39.562                                                                    24783871.824 6 104868700.02406     -2182.423 6        39.138
C29        46.000                                                                                                                                    23065128.100 6 120106444.86406      -470.089 6        38.616                                                                    23065121.147 6  97596082.59606      -381.684 6        39.544
C30        47.000                                                                                                                                    25823059.941 5                     -3276.564 5        31.072
C26        48.000                                                                                                                                    22273695.165 6 115985014.26206       460.963 6        41.530                                                                    22273699.941 7  94247354.21007       374.564 7        45.970
C24        51.000                                                                                                                                    25619481.160 4                      1957.067 4        28.313                                                                    25619416.712 5 108404226.75305      1589.605 5        32.090
C14        53.000                                                                                                                                                                                                    24936127.111 5 100407576.37805     -1042.558 5        33.425    24936128.282 6 105512999.90206     -1095.583 6        39.682
C21        55.000                                                                                                                                                                                                                                                                    26391819.797 4                     -3321.503 4        25.414
I06        58.000    38508948.559 6 151117380.37006      -751.235 6        41.051
> 2025 01 02 12 15  5.0000000  0 37
G17         2.000    24419332.332 4 128324349.13704     -4045.630 4        27.245                                    24419338.690 1  99993086.34701     -3152.496 1         1.556
G25         3.000    22606681.979 6 118798923.96806      2207.108 6        36.038                                    22606682.562 3  92570583.20503      1719.819 3        22.248    22606683.271 5  92570598.16705      1719.824 5        32.521
G19         4.000    21744701.542 7 114269183.00407     -2550.491 7        46.544                                    21744697.121 4  89040905.66604     -1987.388 4        29.687
E25         6.000    24925200.088 7 130982805.03707       957.490 7        45.550                                                                    24925205.046 7  97811957.22007       715.082 7        46.049    24925204.687 7 100363469.58007       733.591 7        45.130
G15         9.000    24630504.417 5                     -4742.763 5        30.317                                                                                                    24630478.686 3                     -3696.328 3        22.057
G24        12.000    20419934.654 7 107308082.97107     -2138.860 7        47.659                                    20419934.653 6  83616251.73206     -1666.647 6        38.471    20419936.917 6  83616225.76506     -1666.560 6        38.333
E31        13.000    26292324.870 6 138167090.96406     -3197.979 6        36.306                                                                    26292335.061 5                     -2388.042 5        32.527
E33        14.000    27049420.075 4                       -74.434 4        25.714                                                                    27049422.438 4                       -55.850 4        24.030    27049424.266 5 108916889.17305       -56.364 5        31.328
G12        15.000    20524920.861 8 107859283.44708       283.515 8        50.269                                    20524919.198 8  84046516.72608       220.919 8        48.541    20524920.197 7  84046122.72107       220.944 7        45.992
E24        16.000    23735822.427 8 124732562.16408     -1350.516 8        48.113                                                                    23735824.565 8  93144513.12108     -1008.515 8        48.415    23735824.490 8  95574395.68308     -1034.819 8        50.005
G32        17.000    23961548.359 7 125918622.16507      1582.096 7        45.917                                    23961553.024 6  98118470.07506      1232.805 6        40.072    23961553.782 6  98118555.10306      1232.727 6        39.559
E05        18.000    23130068.832 7 121549360.99607     -2759.902 7        43.507                                                                    23130072.556 7  90767349.85607     -2060.905 7        44.524    23130073.155 7  93135180.07307     -2114.693 7        42.609
E08        20.000                                                                                                                                    28772682.884 5 112910188.53205      1434.013 5        32.311
E09        21.000    27928583.531 3                     -4124.707 3        21.190                                                                    27928587.634 4                     -3076.933 4        25.925
R14        23.000    19552230.239 8 104224328.14608      -813.768 8        49.192                                                                    19552235.120 7  81063354.35007      -632.903 7        46.930
S23        24.000    38249923.681 5 201004706.66805      -862.276 5        34.957
R23        25.000    21353799.380 4 114228418.14404     -1591.378 4        26.395
E03        26.000    25140052.195 5 132111760.07805        58.453 5        34.033                                                                    25140028.306 5  98654923.62005        43.639 5        32.539    25140030.483 6 101228541.70906        44.810 6        41.244
R04        29.000    21551862.901 7 115409431.03107     -4252.454 7        46.631                                                                    21551867.087 6  89762739.10006     -3307.389 6        41.080
R15        30.000    21721517.897 7 116073391.49507      1916.161 7        46.030                                                                    21721517.424 5  90279291.00105      1489.881 5        32.862
S36        31.000    38312313.762 5 201332650.84905      -858.158 5        35.243
C07        32.000                                                                                                                                    39996820.247 4                     -1759.181 4        25.188    39996813.542 4                     -1359.790 4        25.459
C10        33.000                                                                                                                                    39106259.085 4 203636602.27104     -1483.649 4        27.305    39106266.570 6 157464712.73706     -1147.483 6        40.136    39106262.302 5 165471365.93205     -1205.660 5        30.309
C45        37.000                                                                                                                                    22583453.540 6 117597901.90106     -2437.422 6        38.117
R24        38.000    21605664.425 7 115535178.31607      2499.357 7        44.555                                                                    21605671.929 5  89860773.13905      1944.089 5        35.657
C33        39.000                                                                                                                                    25831056.798 6 134509089.66106        25.446 6        39.285                                                                    25831071.208 4 109299763.55104        20.902 4        25.789
R22        41.000    24040597.090 4                     -4299.098 4        27.557                                                                    24040628.307 4                     -3343.629 4        27.090
C35        42.000                                                                                                                                    24453892.979 5 127337848.72805      2311.367 5        30.287                                                                    24453892.197 6 103472464.30206      1878.556 6        37.274
R05        44.000    21146987.948 5 113042869.70615      -691.322 5        33.569                                                                    21147009.128 6  87922271.64206      -537.515 6        38.066
C42        45.000                                                                                                                                    24786441.357 6 129069451.44206     -2687.625 6        39.541                                                                    24786451.646 6 104879615.56406     -2183.811 6        39.417
C29        46.000                                                                                                                                    23065583.794 6 120108799.44306      -472.417 6        37.365                                                                    23065573.618 6  97597995.92606      -383.756 6        39.823
C30        47.000                                                                                                                                    25826205.688 5 134483832.39115     -3277.776 5        31.464
C26        48.000                                                                                                                                    22273252.714 7 115982711.31107       460.043 7        42.220                                                                    22273257.583 7  94245482.82807       373.903 7        45.862
C24        51.000                                                                                                                                                                                                                                                                    25617539.672 5 108396277.55805      1590.084 5        32.611
C14        53.000                                                                                                                                    24937468.245 5                     -1350.511 5        32.359                                                                    24937423.848 6 105518481.73306     -1097.505 6        40.076
C21        55.000                                                                                                                                    26395735.135 3 137449577.49213     -4088.208 3        23.562                                                                    26395746.843 4                     -3320.748 4        26.898
I06        58.000    38509904.827 6 151121134.67506      -750.759 6        40.758
> 2025 01 02 12 15 10.0000000  0 39
G17         2.000                                                                                                                                                                    24423174.734 3                     -3153.205 3        22.667
G25         3.000    22604584.927 5 118787892.77205      2205.780 5        35.229                                    22604583.336 3  92561987.50603      1718.787 3        22.514    22604584.820 5  92562002.47405      1718.728 5        32.509
G19         4.000    21747129.810 7 114281943.56407     -2553.545 7        45.204                                    21747125.749 4  89050848.94804     -1989.775 4        29.384
E25         6.000    24924289.757 7 130978020.76407       956.422 7        45.434                                                                    24924294.393 7  97808384.54807       714.234 7        45.992    24924294.129 7 100359803.70007       732.805 7        45.585
G10         7.000    25370231.290 3                     -3001.304 3        22.343
G15         9.000                                                                                                                                                                    24634991.251 3                     -3698.033 3        18.925
G24        12.000    20421971.558 7 107318784.92107     -2141.803 7        47.818                                    20421971.924 6  83624590.92006     -1668.941 6        39.775    20421973.111 6  83624564.95706     -1669.019 6        40.019
E31        13.000    26295369.077 5 138183081.95105     -3198.374 5        34.962                                                                    26295378.711 5                     -2388.412 5        33.665
E33        14.000    27049487.168 3                       -76.062 3        21.071                                                                    27049495.223 3                       -56.927 3        23.905    27049497.579 5 108917178.18805       -58.812 5        31.902
G12        15.000    20524652.261 8 107857872.33908       281.078 8        50.017                                    20524650.820 8  84045417.16608       219.022 8        48.469    20524651.139 7  84045023.15907       219.056 7        46.103
E24        16.000    23737108.132 8 124739318.60708     -1351.869 8        48.304                                                                    23737110.291 8  93149558.50208     -1009.515 8        48.806    23737110.277 8  95579572.68908     -1035.867 8        50.218
G32        17.000    23960043.545 7 125910717.97207      1579.685 7        44.506                                    23960048.484 6  98112310.96506      1230.918 6        39.562    23960049.516 6  98112395.98806      1230.924 6        39.360
E05        18.000    23132695.856 7 121563165.76607     -2761.867 7        42.936                                                                    23132699.609 7  90777658.59607     -2062.452 7        44.811    23132700.847 7  93145757.73207     -2116.124 7        42.516
E08        20.000                                                                                                                                    28770857.738 5 112903021.10905      1433.380 5        32.024
E09        21.000    27932508.100 3                     -4123.723 3        22.171                                                                    27932509.421 4                     -3077.956 4        25.368
R14        23.000    19552994.778 8 104228402.69808      -815.965 8        49.273                                                                    19552999.716 7  81066523.44107      -634.603 7        47.417
S23        24.000    38250746.598 5 201009019.07305      -862.507 5        35.181
R23        25.000    21355293.825 4 114236388.37804     -1596.553 4        26.814
E03        26.000    25139994.599 5 132111474.62005        55.872 5        33.377                                                                    25139973.879 5  98654710.50605        41.843 5        32.623    25139975.616 7 101228323.02707        42.794 7        42.569
R13        27.000    22246252.790 3                     -3851.365 3        23.657
R04        29.000    21555834.212 7 115430701.05507     -4255.395 7        45.771                                                                    21555839.932 6  89779282.43106     -3309.589 6        41.499
R15        30.000    21719723.958 7 116063813.83207      1914.960 7        44.205                                                                    21719723.718 5  90271841.74805      1489.429 5        31.917
S36        31.000    38313129.132 5 201336942.46005      -858.213 5        35.076
C07        32.000                                                                                                                                    39998501.698 3                     -1756.675 3        20.310    39998506.789 4                     -1359.465 4        26.395
C10        33.000                                                                                                                                    39107683.371 4 203644022.35204     -1483.754 4        26.970    39107692.153 6 157470450.35606     -1147.487 6        40.396    39107686.627 5 165477395.31205     -1206.026 5        30.241
C45        37.000                                                                                                                                    22585793.606 6 117610092.01406     -2438.742 6        40.574                                                                    22585782.241 6  95567853.40106     -1981.667 6        37.569
R24        38.000    21603328.095 7 115522688.67407      2496.573 7        45.914                                                                    21603334.821 6  89851058.98706      1941.808 6        36.560
C33        39.000                                                                                                                                    25831033.746 6 134508969.76306        22.579 6        39.390                                                                    25831042.511 3                        17.469 3        20.905
R22        41.000    24044627.954 4                     -4302.013 4        28.919                                                                    24044657.789 4                     -3345.615 4        26.084
C35        42.000                                                                                                                                                                                                                                                                    24451673.188 6 103463075.42406      1877.373 6        37.546
R05        44.000                                                                                                                                    21147660.043 6  87924969.46306      -541.352 6        39.141
C42        45.000                                                                                                                                    24789022.107 6 129082895.35806     -2689.881 6        39.495                                                                    24789033.417 6 104890539.88106     -2185.622 6        39.919
C29        46.000                                                                                                                                    23066036.971 5 120111168.27005      -475.063 5        34.852                                                                    23066028.480 6  97599920.84706      -386.027 6        39.955
C30        47.000                                                                                                                                    25829347.927 5 134500226.39605     -3279.227 5        30.845
C26        48.000                                                                                                                                    22272813.403 7 115980414.80307       458.702 7        44.527                                                                    22272816.483 7  94243616.74107       372.697 7        45.610
C24        51.000                                                                                                                                    25615700.564 4                      1957.572 4        25.248                                                                    25615662.057 5 108388329.06305      1589.540 5        31.306
C14        53.000                                                                                                                                    24938768.682 5                     -1353.468 5        33.072                                                                    24938722.397 6 105523974.85306     -1099.671 6        40.889
C21        55.000                                                                                                                                    26399657.369 4                     -4086.612 4        24.541                                                                    26399671.313 4                     -3321.350 4        28.502
I06        58.000    38510861.118 6 151124888.88106      -750.888 6        40.627
> 2025 01 02 12 15 15.0000000  0 38
G17         2.000    24427047.218 4 128364819.67404     -4048.400 4        26.683                                    24427039.772 1 100024621.87501     -3154.696 1         2.000    24427021.890 3                     -3155.063 3        22.381
G25         3.000    22602486.733 5 118776867.47505      2204.590 5        33.234                                    22602485.515 3  92553396.39703      1717.868 3        22.019    22602488.157 5  92553411.39805      1717.998 5        33.251
G19         4.000    21749560.275 7 114294718.72507     -2556.480 7        43.782                                    21749557.278 4  89060803.61304     -1992.058 4        28.929
E25         6.000    24923380.423 7 130973241.53507       955.214 7        44.537                                                                    24923384.850 7  97804815.65307       713.409 7        45.952    24923384.333 7 100356141.68907       731.970 7        46.029
G10         7.000    25373085.285 4                     -3003.211 4        29.355
G15         9.000    24639508.812 4                     -4743.134 4        29.024                                                                                                    24639499.912 3                     -3693.418 3        19.642
G24        12.000    20424010.626 7 107329500.75307     -2144.623 7        47.576                                    20424011.811 6  83632940.91506     -1671.133 6        40.582    20424011.851 6  83632914.93306     -1671.017 6        40.074
E31        13.000    26298413.913 5 138199074.64205     -3198.885 5        35.271                                                                    26298422.008 5 103200656.13815     -2388.799 5        34.519
E33        14.000    27049557.846 3                       -82.567 3        19.701                                                                    27049570.923 4                       -59.360 4        24.511    27049572.074 5 108917476.48905       -60.628 5        31.223
G12        15.000    20524385.511 8 107856472.78308       278.708 8        50.269                                    20524384.589 8  84044326.60808       217.174 8        48.440    20524384.898 7  84043932.60907       217.149 7        46.368
E24        16.000    23738395.405 8 124746081.39908     -1353.242 8        48.177                                                                    23738397.175 8  93154608.63708     -1010.557 8        48.902    23738397.189 8  95584754.56508     -1036.838 8        50.355
G32        17.000    23958542.132 7 125902825.37807      1577.373 7        42.942                                    23958546.073 6  98106160.89306      1229.114 6        38.535    23958548.232 6  98106245.93106      1229.300 6        39.495
E05        18.000    23135325.218 7 121576980.40607     -2763.911 7        42.391                                                                    23135328.463 7  90787974.69907     -2063.996 7        45.082    23135329.955 7  93156342.97507     -2117.869 7        43.355
E08        20.000                                                                                                                                    28769032.754 5 112895857.46905      1432.223 5        31.389
E09        21.000    27936429.538 3                     -4120.641 3        20.500                                                                    27936430.851 4                     -3077.716 4        25.910
R14        23.000    19553761.970 8 104232487.89108      -818.151 8        49.865                                                                    19553766.315 8  81069700.82008      -636.330 8        48.018
S23        24.000    38251568.299 6 201013331.76106      -862.511 6        36.132
E03        26.000                                                                                                                                    25139922.021 5  98654506.03905        40.004 5        33.263    25139923.388 7 101228113.21607        41.044 7        42.677
R13        27.000    22249854.011 4                     -3852.865 4        28.815
R04        29.000    21559807.769 7 115451984.94807     -4258.208 7        44.311                                                                    21559813.250 6  89795836.56206     -3311.937 6        41.654
R15        30.000    21717930.602 7 116054241.18107      1913.991 7        42.578                                                                    21717931.620 5  90264396.42005      1488.527 5        30.830
S36        31.000    38313944.152 5 201341234.27405      -858.146 5        34.619
C07        32.000                                                                                                                                    40000193.827 3                     -1758.407 3        21.690    40000204.597 4                     -1359.932 4        28.085
C10        33.000                                                                                                                                    39109111.443 4 203651443.75704     -1484.455 4        27.186    39109117.906 6 157476189.04706     -1147.874 6        40.377    39109112.041 5 165483425.79705     -1206.520 5        30.332
C45        37.000                                                                                                                                    22588136.164 7 117622288.70107     -2439.964 7        43.702                                                                    22588127.139 6  95577764.20506     -1982.791 6        39.024
R24        38.000    21600993.566 7 115510212.84207      2493.704 7        46.998                                                                    21601006.084 6  89841355.57406      1939.584 6        37.890
C33        39.000                                                                                                                                    25831012.583 6 134508863.87606        19.703 6        39.802                                                                    25831019.666 3                        17.242 3        19.881
R22        41.000    24048665.588 5                     -4304.244 5        30.717                                                                    24048686.649 4                     -3348.286 4        26.683
C35        42.000                                                                                                                                    24449475.649 5 127314744.74905      2309.575 5        30.958                                                                    24449455.582 6 103453690.75206      1876.292 6        37.864
R05        44.000    21148318.637 6 113049830.56506      -700.931 6        40.005                                                                    21148312.754 6  87927685.69206      -545.216 6        39.465
C42        45.000                                                                                                                                    24791604.518 6 129096350.33006     -2692.096 6        38.766                                                                    24791617.161 6 104901473.16006     -2187.729 6        39.724
C29        46.000                                                                                                                                    23066485.929 4 120113551.77604      -478.597 4        26.850                                                                    23066486.168 6  97601857.54306      -388.655 6        40.021
C30        47.000                                                                                                                                    25832496.872 5 134516629.82305     -3281.380 5        30.475
C26        48.000                                                                                                                                    22272375.485 7 115978125.05407       457.289 7        46.208                                                                    22272376.750 7  94241756.15407       371.394 7        45.290
C24        51.000                                                                                                                                    25613815.762 3                      1954.223 3        20.500                                                                    25613782.906 4 108380381.43904      1589.018 4        28.891
C14        53.000                                                                                                                                    24940061.522 5                     -1356.377 5        31.796    24940069.400 6 100423258.59306     -1048.656 6        36.454    24940023.226 6 105529479.48706     -1102.237 6        41.092
C21        55.000                                                                                                                                    26403586.539 4                     -4086.959 4        25.865                                                                    26403596.374 4                     -3321.104 4        29.431
I06        58.000    38511818.209 6 151128643.17606      -750.902 6        40.782
> 2025 01 02 12 15 20.0000000  0 38
G17         2.000    24430905.486 4 128385063.68904     -4049.390 4        24.286                                    24430891.999 1 100040396.20801     -3155.383 1         5.714    24430879.443 3                     -3155.110 3        23.657
G25         3.000    22600389.566 5 118765848.40305      2203.056 5        35.195                                    22600389.289 3  92544810.13903      1716.645 3        21.548    22600392.704 5  92544825.14605      1716.431 5        32.449
G19         4.000    21751994.063 7 114307508.71607     -2559.497 7        42.061                                    21751991.697 4  89070769.83804     -1994.407 4        28.540
E25         6.000    24922471.580 7 130968467.53907       954.229 7        43.954                                                                    24922476.371 7  97801250.65907       712.595 7        46.032    24922475.754 7 100352483.70107       731.117 7        46.055
G10         7.000    25375943.394 5                     -3004.856 5        31.426
G15         9.000    24644024.820 4                     -4742.568 4        28.882
G24        12.000    20426052.573 7 107340230.58707     -2147.464 7        47.246                                    20426054.189 6  83641301.82206     -1673.348 6        41.483    20426053.503 6  83641275.85206     -1673.342 6        40.646
E31        13.000    26301458.141 5 138215069.22205     -3199.278 5        35.081                                                                    26301463.362 5 103212600.12105     -2388.907 5        35.705
E33        14.000                                                                                                                                    27049647.191 4                       -61.249 4        24.015    27049646.496 5 108917784.25505       -62.492 5        31.351
G12        15.000    20524121.285 8 107855084.97708       276.333 8        50.708                                    20524120.526 8  84043245.20608       215.322 8        48.683    20524120.542 7  84042851.21207       215.382 7        46.279
E24        16.000    23739683.359 8 124752850.72308     -1354.570 8        48.498                                                                    23739685.415 8  93159663.64108     -1011.523 8        49.038    23739685.266 8  95589941.45008     -1037.978 8        50.665
G32        17.000    23957042.246 7 125894944.62307      1574.908 7        42.201                                    23957046.076 6  98100020.05006      1227.202 6        37.905    23957048.185 6  98100105.07806      1227.123 6        39.150
E05        18.000    23137956.793 7 121590805.09807     -2766.007 7        43.319                                                                    23137959.096 7  90798298.29307     -2065.590 7        45.236    23137961.324 7  93166935.89207     -2119.452 7        43.585
E08        20.000                                                                                                                                    28767207.112 5 112888697.28805      1431.860 5        30.347
E09        21.000    27940346.796 3                     -4120.354 3        22.019                                                                    27940352.070 4                     -3077.121 4        25.474
R14        23.000    19554530.323 8 104236583.70808      -820.272 8        49.984                                                                    19554534.151 7  81072886.46707      -638.026 7        47.517
S23        24.000    38252381.339 5 201017644.74605      -862.810 5        34.890
R23        25.000    21358283.547 4                     -1605.649 4        29.469
E03        26.000                                                                                                                                    25139872.227 5  98654310.37005        38.140 5        34.795    25139873.259 7 101227912.44307        39.254 7        42.396
R13        27.000    22253459.583 4                     -3853.379 4        29.289
R04        29.000    21563784.352 7 115473283.22307     -4261.101 7        44.489                                                                    21563790.506 6  89812401.86706     -3314.279 6        41.988
R15        30.000    21716138.924 6 116044673.76906      1912.969 6        41.864                                                                    21716143.806 5  90256955.04305      1488.144 5        31.909
S36        31.000    38314757.679 5 201345526.18505      -858.555 5        33.844
C10        33.000                                                                                                                                    39110536.722 4 203658866.45304     -1484.454 4        25.338    39110543.043 6 157481928.80006     -1148.152 6        40.207    39110537.881 5 165489457.40105     -1206.409 5        30.038
C45        37.000                                                                                                                                    22590478.802 7 117634492.16207     -2441.415 7        44.745                                                                    22590472.137 6  95587680.48206     -1983.704 6        40.520
R24        38.000    21598663.068 7 115497751.12207      2490.875 7        47.482                                                                    21598677.017 6  89831663.14406      1937.378 6        37.633
C33        39.000                                                                                                                                    25830994.495 6 134508772.09006        16.969 6        39.435                                                                    25830998.153 3                        16.459 3        19.075
R22        41.000    24052706.446 5                     -4306.766 5        32.024                                                                    24052717.486 4                     -3349.625 4        27.329
C35        42.000                                                                                                                                    24447256.738 5 127303200.75905      2308.144 5        33.251                                                                    24447238.652 6 103444310.40706      1875.489 6        38.655
R05        44.000    21148972.535 6 113053346.51806      -705.665 6        39.084                                                                    21148969.866 6  87930420.31906      -548.729 6        39.078
C42        45.000                                                                                                                                    24794186.138 6 129109816.53606     -2694.367 6        37.667                                                                    24794202.840 6 104912415.51706     -2189.443 6        39.583
C29        46.000                                                                                                                                                                                                                                                                    23066947.040 6  97603806.13806      -390.843 6        39.919
C30        47.000                                                                                                                                    25835657.321 5 134533042.67705     -3283.277 5        30.302
C26        48.000                                                                                                                                    22271937.590 7 115975842.26407       455.782 7        46.611                                                                    22271938.186 7  94239901.17807       370.478 7        44.870
C24        51.000                                                                                                                                                                                                                                                                    25611903.073 4 108372434.79604      1589.596 4        27.988
C14        53.000                                                                                                                                                                                                    24941374.971 5 100428507.99105     -1051.014 5        34.957    24941327.371 6 105534995.77906     -1104.413 6        41.302
C21        55.000                                                                                                                                    26407517.650 4                     -4087.379 4        27.748                                                                    26407521.515 5                     -3321.659 5        30.038
I06        58.000    38512775.156 6 151132397.73006      -750.996 6        40.651
> 2025 01 02 12 15 25.0000000  0 38
G17         2.000    24434757.272 4 128405312.81504     -4049.757 4        25.248                                    24434745.241 1 100056174.84601     -3155.660 1         5.429
G25         3.000    22598292.860 5 118754834.79205      2202.059 5        33.245                                    22598293.981 3  92536228.12803      1715.877 3        20.905    22598298.444 5  92536243.16105      1715.919 5        33.689
G19         4.000    21754430.099 6 114320312.86806     -2562.246 6        39.667                                    21754429.066 4  89080747.10404     -1996.556 4        27.593
E25         6.000    24921563.876 7 130963698.18207       953.224 7        43.208                                                                    24921568.661 7  97797689.12807       711.875 7        46.005    24921568.304 7 100348829.25407       730.465 7        45.922
G10         7.000    25378796.817 5                     -3006.488 5        31.691
G15         9.000    24648540.286 5                     -4742.841 5        30.445
G24        12.000    20428097.045 7 107350973.86207     -2150.104 7        47.473                                    20428098.937 6  83649673.20106     -1675.400 6        41.971    20428098.189 6  83649647.21406     -1675.377 6        41.254
E31        13.000    26304501.381 5 138231065.10405     -3199.403 5        34.386                                                                    26304507.208 6 103224545.08606     -2389.328 6        36.287
E33        14.000    27049735.302 3                       -84.036 3        20.357                                                                    27049724.264 3                       -63.714 3        22.019    27049724.949 5 108918101.04105       -64.358 5        31.502
G12        15.000    20523859.343 8 107853708.34308       274.123 8        50.593                                    20523858.467 8  84042172.50908       213.597 8        48.484    20523858.212 7  84041778.52507       213.471 7        45.994
E24        16.000    23740972.260 8 124759625.96708     -1355.768 8        48.446                                                                    23740974.680 8  93164723.06408     -1012.386 8        49.236    23740974.437 8  95595132.85608     -1038.803 8        50.568
G32        17.000    23955543.434 6 125887075.05206      1572.755 6        40.131                                    23955548.297 6  98093887.92406      1225.523 6        37.051    23955550.236 6  98093972.94906      1225.571 6        39.862
E05        18.000    23140591.560 7 121604639.20807     -2767.866 7        43.568                                                                    23140591.579 7  90808628.92807     -2066.881 7        45.386    23140593.913 7  93177536.03607     -2120.836 7        43.716
E08        20.000                                                                                                                                    28765382.573 5 112881540.12805      1431.177 5        30.340
E09        21.000    27944270.694 3                     -4120.937 3        21.881                                                                    27944273.866 4                     -3078.069 4        24.977
R14        23.000    19555300.397 8 104240689.56208      -822.291 8        49.874                                                                    19555303.955 7  81076079.92007      -639.638 7        46.452
S23        24.000    38253214.295 6 201021957.51506      -862.511 6        36.178
R23        25.000    21359788.395 5                     -1610.403 5        33.754
E03        26.000    25139815.384 5 132110687.67605        49.099 5        35.252                                                                    25139824.481 5  98654123.00905        36.512 5        35.457    25139825.493 7 101227720.22007        37.506 7        42.554
R13        27.000    22257066.908 5                     -3854.274 5        32.395
R04        29.000    21567764.958 7 115494595.02807     -4263.815 7        43.009                                                                    21567769.944 6  89828977.68206     -3316.302 6        41.824
R15        30.000    21714351.021 7 116035110.73407      1911.994 7        42.345                                                                    21714356.448 5  90249517.13505      1487.308 5        34.457
S36        31.000    38315583.954 5 201349818.12105      -858.592 5        34.010
C10        33.000                                                                                                                                    39111960.339 4 203666290.14404     -1484.516 4        25.308    39111968.474 6 157487669.26206     -1148.284 6        40.167    39111963.413 5 165495489.73605     -1206.451 5        30.279
C45        37.000                                                                                                                                    22592821.978 7 117646701.79507     -2442.693 7        46.137                                                                    22592816.398 6  95597601.79806     -1984.820 6        41.085
R24        38.000    21596333.476 7 115485302.83307      2488.229 7        46.663                                                                    21596346.507 6  89821981.19506      1935.347 6        37.021
C33        39.000                                                                                                                                    25830980.991 6 134508693.93606        14.255 6        40.391
R22        41.000    24056745.224 5 128416539.66015     -4309.705 5        34.781                                                                    24056752.714 4                     -3351.468 4        27.713
C35        42.000                                                                                                                                    24445032.880 5 127291661.61205      2307.271 5        33.437                                                                    24445022.502 6 103434933.97706      1874.957 6        38.772
R05        44.000    21149631.996 6 113056885.77606      -710.431 6        41.752                                                                    21149631.773 6  87933173.08506      -552.527 6        40.210
C42        45.000                                                                                                                                    24796772.534 6 129123293.37106     -2696.879 6        36.620                                                                    24796790.988 6 104923366.51606     -2191.059 6        39.276
C29        46.000                                                                                                                                    23067396.080 5                      -484.007 5        30.287                                                                    23067410.527 6  97605766.23406      -393.121 6        39.033
C30        47.000                                                                                                                                    25838818.902 4 134549464.49904     -3285.370 4        28.085
C26        48.000                                                                                                                                    22271499.617 7 115973565.83707       454.513 7        46.782                                                                    22271500.679 7  94238051.38207       369.530 7        44.242
C24        51.000                                                                                                                                    25610014.150 3                      1956.479 3        23.657                                                                    25610023.138 4 108364488.69304      1588.665 4        25.128
C14        53.000                                                                                                                                    24942653.918 3                     -1361.797 3        21.405    24942687.082 5 100433768.06605     -1053.162 5        35.276    24942634.031 6 105540523.26406     -1106.612 6        41.452
C21        55.000                                                                                                                                    26411450.022 4                     -4087.676 4        27.653                                                                    26411446.406 5                     -3321.822 5        30.234
I06        58.000    38513731.627 6 151136152.06606      -750.920 6        40.572
> 2025 01 02 12 15 30.0000000  0 38
G17         2.000    24438606.917 4 128425568.56904     -4051.823 4        27.162                                    24438599.681 1 100071958.47001     -3157.199 1         3.200
G25         3.000    22596196.001 5 118743828.19905      2200.323 5        32.371                                    22596200.242 3  92527651.61403      1714.521 3        20.548    22596203.869 5  92527666.62505      1714.554 5        35.133
G19         4.000    21756868.821 6 114333132.68806     -2565.810 6        36.643                                    21756869.544 4  89090736.55704     -1999.340 4        26.946
E25         6.000    24920658.075 7 130958934.88707       951.760 7        43.128                                                                    24920662.204 7  97794132.13407       710.747 7        46.035    24920661.890 7 100345179.46507       729.230 7        46.213
G10         7.000    25381659.854 5                     -3008.561 5        31.313
G15         9.000    24653055.078 5                     -4743.356 5        30.808
G24        12.000    20430144.575 8 107361732.05608     -2153.408 8        48.216                                    20430146.345 7  83658056.20707     -1677.978 7        42.468    20430145.382 6  83658030.21306     -1677.947 6        41.073
E31        13.000    26307545.321 5 138247063.72405     -3199.989 5        33.341                                                                    26307551.663 6 103236492.06606     -2389.796 6        36.635
E33        14.000    27049818.949 3                       -87.022 3        22.019                                                                    27049802.209 3                       -64.258 3        21.262    27049806.731 5 108918427.96805       -66.606 5        31.389
G12        15.000    20523599.688 8 107852344.32408       271.284 8        50.321                                    20523598.724 8  84041109.64308       211.391 8        48.327    20523598.639 7  84040715.64607       211.425 7        45.288
E24        16.000    23742263.165 8 124766408.57708     -1357.508 8        48.525                                                                    23742265.484 8  93169787.99408     -1013.787 8        49.513    23742265.088 8  95600329.92008     -1040.216 8        50.655
G32        17.000    23954047.426 6 125879218.15606      1569.771 6        37.853                                    23954052.942 6  98087765.66906      1223.195 6        36.378    23954055.313 6  98087850.69106      1223.249 6        40.250
E05        18.000    23143226.577 7 121618484.17207     -2770.322 7        43.338                                                                    23143226.287 7  90818967.68307     -2068.750 7        45.716    23143228.388 7  93188144.50207     -2122.694 7        44.311
E08        20.000                                                                                                                                    28763561.176 5 112874386.93605      1429.861 5        30.694
E09        21.000    27948186.834 3                     -4121.344 3        19.851                                                                    27948193.973 4                     -3077.646 4        24.962
R14        23.000    19556072.815 8 104244807.03808      -824.987 8        50.316                                                                    19556076.745 7  81079282.40607      -641.650 7        45.759
S23        24.000    38254028.805 6 201026271.50706      -863.095 6        37.006
R23        25.000    21361292.548 6 114268526.70416     -1615.820 6        36.491
E03        26.000    25139776.571 5 132110449.43505        46.082 5        35.586                                                                    25139779.086 6  98653945.09306        34.496 6        36.299    25139780.135 7 101227537.68407        35.285 7        42.921
R13        27.000    22260680.368 5                     -3855.850 5        35.081
R04        29.000    21571746.849 6 115515921.88706     -4267.191 6        40.014                                                                    21571752.748 7  89845565.25107     -3318.915 7        42.366
R15        30.000    21712566.168 7 116025553.71707      1910.557 7        43.854                                                                    21712567.294 5  90242083.89405      1485.845 5        35.386
S36        31.000    38316399.587 5 201354111.99605      -858.908 5        35.019
C07        32.000                                                                                                                                    40005267.115 3                     -1758.209 3        21.619    40005304.134 4                     -1360.718 4        27.461
C10        33.000                                                                                                                                    39113386.322 4 203673716.10304     -1485.993 4        25.429    39113394.486 6 157493411.45906     -1148.912 6        40.164    39113389.252 4 165501523.87104     -1206.714 4        29.943
C45        37.000                                                                                                                                    22595167.899 7 117658919.00607     -2444.497 7        46.721                                                                    22595161.899 6  95607529.27406     -1986.163 6        41.087
R24        38.000    21594007.196 7 115472869.48407      2484.900 7        45.121                                                                    21594022.469 5  89812310.86305      1932.745 5        35.505
C33        39.000                                                                                                                                    25830969.492 6 134508630.82006        10.869 6        41.380
R22        41.000    24060783.025 5 128438092.82715     -4312.121 5        35.781                                                                    24060794.274 4                     -3353.619 4        27.126
C35        42.000                                                                                                                                    24442813.902 5 127280128.75805      2305.694 5        33.725                                                                    24442807.785 6 103425562.60506      1873.778 6        38.357
R05        44.000    21150300.032 6 113060449.58506      -715.450 6        39.601                                                                    21150300.428 6  87935944.92706      -556.355 6        40.820
C42        45.000                                                                                                                                    24799363.614 5 129136782.18905     -2699.325 5        34.776                                                                    24799381.246 6 104934327.29006     -2193.463 6        38.940
C29        46.000                                                                                                                                    23067876.073 5                      -486.775 5        34.419                                                                    23067876.693 6  97607738.91106      -395.767 6        38.177
C26        48.000                                                                                                                                    22271063.866 7 115971297.19707       452.601 7        46.773                                                                    22271064.707 7  94236207.92307       367.928 7        43.518
C24        51.000                                                                                                                                    25608138.018 3                      1953.040 3        23.143
C14        53.000                                                                                                                                                                                                                                                                    24943943.377 6 105546063.07406     -1109.415 6        40.951
C21        55.000                                                                                                                                    26415379.818 4                     -4087.926 4        27.653                                                                    26415372.329 5                     -3322.023 5        30.551
I06        58.000    38514688.683 6 151139907.27506      -751.441 6        41.159
> 2025 01 02 12 15 35.0000000  0 37
G25         3.000    22594101.146 5 118732828.46005      2198.614 5        31.343                                    22594108.158 3  92519080.43103      1713.207 3        20.452    22594111.540 6  92519095.41106      1713.915 6        36.219
G19         4.000    21759311.646 6 114345967.92606     -2568.264 6        36.178                                    21759312.624 4  89100738.04904     -2001.264 4        25.835
E25         6.000    24919753.626 7 130954177.49907       950.875 7        43.259                                                                    24919756.770 7  97790579.55007       710.180 7        46.148    24919756.694 7 100341534.19807       728.647 7        46.314
G10         7.000    25384521.308 4                     -3010.553 4        29.697                                                                                                    25384525.210 4                     -2345.637 4        24.436
G15         9.000    24657567.862 4                     -4743.369 4        29.545
G24        12.000    20432194.672 8 107372504.89608     -2155.963 8        48.347                                    20432196.379 7  83666450.63107     -1679.972 7        43.113    20432195.485 6  83666424.64206     -1680.067 6        40.427
E31        13.000    26310590.260 5 138263064.91405     -3200.474 5        31.238                                                                    26310596.153 6 103248440.97406     -2389.993 6        36.696
E33        14.000                                                                                                                                    27049882.255 3                       -68.525 3        20.071    27049891.023 5 108918764.90505       -68.544 5        30.370
G12        15.000    20523342.308 8 107850992.75608       269.141 8        49.456                                    20523341.261 8  84040056.47908       209.721 8        48.138    20523341.408 7  84039662.48107       209.748 7        44.727
E24        16.000    23743555.687 8 124773198.37308     -1358.647 8        48.230                                                                    23743557.662 8  93174858.28108     -1014.532 8        49.695    23743557.095 8  95605532.48408     -1041.016 8        50.676
G32        17.000    23952555.795 6 125871373.73806      1567.783 6        39.276                                    23952560.059 5  98081653.14505      1221.650 5        35.962    23952561.877 6  98081738.18906      1221.484 6        39.754
E05        18.000    23145861.520 6 121632339.83906     -2772.075 6        41.990                                                                    23145863.062 7  90829314.42307     -2070.086 7        46.111    23145864.617 7  93198761.15407     -2124.130 7        43.998
E08        20.000                                                                                                                                    28761738.822 5 112867237.84505      1429.459 5        30.468
E09        21.000    27952107.181 3                     -4123.780 3        20.024                                                                    27952116.820 3                     -3078.622 3        23.448
R14        23.000    19556847.948 8 104248935.92708      -826.878 8        50.668                                                                    19556851.352 7  81082493.74707      -643.072 7        45.663
S23        24.000    38254847.948 6 201030586.58906      -863.123 6        36.526
R23        25.000    21362807.016 6 114276615.84006     -1620.328 6        40.060
E03        26.000    25139735.804 6 132110223.68106        43.993 6        36.522                                                                    25139735.803 6  98653776.52206        32.881 6        37.248    25139737.201 7 101227364.70107        33.602 7        42.694
R13        27.000    22264291.018 5 118890063.73215     -3856.194 5        34.657
R04        29.000    21575732.125 6 115537263.57906     -4269.792 6        36.435                                                                    21575738.845 7  89862164.39807     -3320.932 7        42.692
R15        30.000    21710782.470 7 116016002.56407      1909.690 7        44.935                                                                    21710780.400 6  90234655.24906      1485.587 6        36.590
S36        31.000    38317216.208 5 201358406.84105      -859.063 5        35.129
C07        32.000                                                                                                                                    40006952.354 3                     -1760.045 3        22.438    40006989.050 4                     -1361.154 4        27.006
C10        33.000                                                                                                                                    39114812.793 4 203681144.11604     -1485.510 4        24.045    39114820.928 6 157499155.31906     -1148.975 6        40.398    39114816.263 4 165507559.81804     -1207.175 4        29.640
C45        37.000                                                                                                                                    22597515.557 7 117671143.63407     -2445.560 7        47.488                                                                    22597508.591 6  95617462.80706     -1987.368 6        40.856
R24        38.000    21591685.068 7 115460450.97507      2482.210 7        43.439                                                                    21591700.809 5  89802652.06605      1930.703 5        32.287
C33        39.000                                                                                                                                    25830960.004 6 134508582.53306         8.181 6        40.939
R22        41.000    24064819.450 5 128459659.28815     -4314.543 5        35.638                                                                    24064831.872 4                     -3356.045 4        28.237
C35        42.000                                                                                                                                    24440599.255 5 127268601.98105      2304.744 5        34.005                                                                    24440593.821 6 103416196.17806      1872.740 6        38.351
R05        44.000    21150969.861 6 113064037.83306      -720.099 6        36.450                                                                    21150971.356 6  87938735.77906      -559.994 6        41.416
C42        45.000                                                                                                                                    24801957.623 5 129150282.90705     -2701.224 5        34.067                                                                    24801973.656 6 104945297.67806     -2195.006 6        38.631
C29        46.000                                                                                                                                    23068344.353 5 120122925.05815      -490.200 5        35.319                                                                    23068345.526 6  97609724.12206      -398.337 6        36.949
C26        48.000                                                                                                                                    22270629.765 7 115969036.16507       451.570 7        46.894                                                                    22270630.303 7  94234370.64907       366.914 7        42.880
C24        51.000                                                                                                                                    25606263.420 3                      1954.510 3        22.838                                                                    25606252.564 3                      1587.796 3        22.362
C14        53.000                                                                                                                                    24945240.739 5                     -1368.007 5        30.453    24945327.747 5 100444322.93205     -1058.049 5        30.385    24945256.029 6 105551615.09306     -1111.586 6        41.347
C21        55.000                                                                                                                                    26419305.419 4                     -4088.160 4        28.569                                                                    26419298.678 5                     -3322.057 5        30.377
I06        58.000    38515645.703 6 151143663.22506      -751.222 6        40.892
> 2025 01 02 12 15 40.0000000  0 38
G17         2.000    24446338.957 5 128466097.59705     -4053.879 5        30.823                                    24446311.929 1 100103539.69901     -3158.859 1         4.000    24446279.219 3                     -3157.927 3        23.410
G25         3.000    22592009.910 5 118721833.64605      2198.343 5        32.054                                    22592016.874 3  92510513.09103      1713.028 3        19.403    22592019.799 6  92510528.05006      1713.314 6        37.319
G19         4.000    21761758.540 6 114358816.76906     -2571.055 6        37.323                                    21761758.141 4  89110750.14704     -2003.431 4        25.759
E25         6.000    24918849.528 7 130949424.15307       950.441 7        43.810                                                                    24918852.231 7  97787029.98607       709.691 7        46.210    24918852.334 7 100337892.03007       728.134 7        46.553
G10         7.000                                                                                                                                                                    25387396.327 4                     -2346.452 4        26.156
G15         9.000    24662075.047 4                     -4742.605 4        29.962
G24        12.000    20434247.146 7 107383290.58207     -2158.314 7        47.720                                    20434248.822 7  83674855.07207     -1681.808 7        43.636    20434248.787 6  83674829.08806     -1681.915 6        40.164
E31        13.000    26313636.397 4 138279066.87004     -3200.636 4        29.479                                                                    26313640.898 6 103260390.39106     -2389.716 6        36.998
E33        14.000    27049977.821 3                       -91.960 3        22.210                                                                                                                                    27049975.684 5 108919110.32605       -69.506 5        30.770
G12        15.000    20523087.418 8 107849651.76208       267.268 8        49.328                                    20523085.779 7  84039011.55307       208.258 7        47.873    20523086.596 7  84038617.56307       208.280 7        44.825
E24        16.000    23744848.625 8 124779993.47808     -1359.404 8        48.049                                                                    23744850.796 8  93179932.54908     -1015.140 8        50.005    23744850.163 8  95610739.12308     -1041.636 8        50.695
G32        17.000    23951065.305 6 125863540.01906      1565.831 6        39.988                                    23951069.176 5  98075548.95105      1220.126 5        35.548    23951071.038 6  98075633.97606      1220.076 6        39.628
E05        18.000    23148496.818 6 121646204.31006     -2773.777 6        38.471                                                                    23148501.514 7  90839667.75907     -2071.316 7        46.410    23148502.486 7  93209384.57307     -2125.305 7        43.752
E08        20.000                                                                                                                                    28759917.467 5 112860091.24505      1429.493 5        30.128
E09        21.000                                                                                                                                    27956039.479 4                     -3078.182 4        24.797
R14        23.000    19557624.037 8 104253074.37908      -828.573 8        50.494                                                                    19557628.198 7  81085712.55507      -644.494 7        46.512
S23        24.000    38255672.077 6 201034900.73506      -862.664 6        36.389
R23        25.000    21364326.579 7 114284727.36007     -1624.433 7        42.154
E03        26.000    25139694.834 6 132110008.53006        42.070 6        37.104                                                                    25139694.643 6  98653615.84406        31.597 6        37.543    25139696.332 7 101227199.83407        32.207 7        42.684
R13        27.000    22267902.532 5 118909346.59905     -3857.131 5        32.030
R04        29.000    21579718.369 6 115558618.26506     -4272.245 6        38.655                                                                    21579726.484 7  89878773.62207     -3322.885 7        42.863
R15        30.000    21708998.493 7 116006455.32607      1909.174 7        45.243                                                                    21708991.471 5  90227229.65205      1484.849 5        35.752
S36        31.000    38318029.712 5 201362700.99005      -858.389 5        35.281
C07        32.000                                                                                                                                    40008637.829 3                     -1756.806 3        20.952    40008675.858 4                     -1360.088 4        26.180
C10        33.000                                                                                                                                    39116235.536 4                     -1485.704 4        24.767    39116247.893 6 157504899.38106     -1148.787 6        40.362    39116242.290 4 165513595.96704     -1207.450 4        29.972
C45        37.000                                                                                                                                    22599864.211 7 117683373.85007     -2446.496 7        47.321                                                                    22599856.725 6  95627400.83306     -1987.780 6        40.405
R24        38.000    21589365.489 7 115448045.40907      2479.916 7        42.718                                                                    21589382.688 4  89793003.39704      1928.552 4        29.659
C33        39.000                                                                                                                                    25830953.954 6 134508547.27006         5.786 6        41.607
R22        41.000    24068857.096 6 128481237.00616     -4316.617 6        36.147                                                                    24068873.271 4                     -3357.450 4        29.166
C35        42.000                                                                                                                                    24438384.548 5 127257079.40405      2303.963 5        34.152                                                                    24438380.765 6 103406833.16006      1872.757 6        38.060
R05        44.000    21151642.216 6 113067648.75106      -724.181 6        37.153                                                                    21151647.281 7  87941544.23107      -563.344 7        43.092
C42        45.000                                                                                                                                    24804554.475 5 129163793.53405     -2702.959 5        34.971                                                                    24804567.818 6 104956276.16606     -2196.208 6        38.372
C29        46.000                                                                                                                                    23068817.242 5 120125381.68105      -492.569 5        35.010                                                                    23068817.607 5  97611720.23905      -399.743 5        35.419
C26        48.000                                                                                                                                    22270196.967 7 115966780.92407       450.583 7        46.975                                                                    22270196.851 7  94232538.06007       366.314 7        42.093
C24        51.000                                                                                                                                    25604394.442 3                      1955.909 3        23.010                                                                    25604377.506 3                      1590.061 3        21.476
C14        53.000                                                                                                                                    24946573.595 5                     -1370.362 5        34.890                                                                    24946571.122 6 105557177.76906     -1113.348 6        41.232
C21        55.000                                                                                                                                    26423233.346 4                     -4088.069 4        28.758                                                                    26423223.850 5                     -3321.584 5        30.491
I06        58.000    38516602.909 6 151147418.53006      -750.780 6        41.116
> 2025 01 02 12 15 45.0000000  0 39
G17         2.000    24450199.078 5 128486368.62605     -4054.463 5        30.815                                    24450169.437 1 100119335.10401     -3159.118 1         2.000
G25         3.000    22589919.828 5 118710843.40905      2197.530 5        31.253                                    22589926.180 3  92501949.30003      1712.334 3        18.746    22589927.594 6  92501964.28906      1712.217 6        37.153
G19         4.000    21764205.796 6 114371678.80206     -2573.726 6        40.024                                    21764206.117 4  89120772.51304     -2005.506 4        26.467
E25         6.000    24917945.511 7 130944674.50907       949.553 7        45.406                                                                    24917948.334 7  97783483.17107       709.076 7        46.389    24917948.651 7 100334252.68807       727.566 7        46.756
G10         7.000    25390249.166 3                     -3017.728 3        21.071                                                                                                    25390271.397 4                     -2348.868 4        24.361
G15         9.000    24666582.224 5                     -4742.685 5        30.226
G24        12.000    20436301.468 7 107394088.76007     -2160.847 7        47.065                                    20436303.667 7  83683269.24507     -1683.780 7        43.822    20436303.842 6  83683243.24206     -1683.769 6        40.675
E31        13.000    26316682.739 4 138295069.11704     -3200.339 4        29.109                                                                    26316685.776 6 103272340.06506     -2389.946 6        36.801
E33        14.000    27050071.001 4                       -93.276 4        26.479                                                                                                                                    27050062.534 5 108919464.12505       -71.474 5        30.845
G12        15.000    20522834.713 8 107848321.08308       265.127 8        49.737                                    20522832.274 7  84037974.66907       206.593 7        47.572    20522833.245 7  84037580.67607       206.569 7        44.459
E24        16.000    23746142.520 7 124786793.57207     -1360.561 7        47.724                                                                    23746144.905 8  93185010.53408     -1016.003 8        50.490    23746144.092 8  95615949.57808     -1042.487 8        50.615
G32        17.000    23949577.860 6 125855716.59206      1563.518 6        41.220                                    23949580.219 5  98069452.78705      1218.334 5        35.219    23949582.018 6  98069537.80606      1218.286 6        38.919
E05        18.000    23151135.178 5 121660077.22505     -2775.399 5        33.862                                                                    23151141.602 7  90850027.41707     -2072.603 7        46.680    23151141.963 7  93220014.48007     -2126.625 7        43.191
E08        20.000                                                                                                                                    28758096.954 5 112852946.91805      1428.578 5        30.566
E09        21.000                                                                                                                                    27959961.208 4                     -3077.517 4        24.286
R14        23.000    19558401.945 8 104257221.86508      -830.448 8        50.158                                                                    19558406.346 7  81088938.37407      -645.868 7        47.134
S23        24.000    38256486.668 5 201039213.70105      -862.348 5        35.762
R23        25.000    21365850.100 7 114292860.97307     -1628.898 7        43.530
E03        26.000    25139655.612 6 132109803.61006        39.957 6        38.135                                                                    25139655.800 6  98653462.82506        29.867 6        38.180    25139657.331 7 101227042.81707        30.554 7        42.442
R13        27.000    22271512.155 4 118928632.42404     -3857.554 4        29.943
R04        29.000    21583709.048 6 115579985.53506     -4274.703 6        41.299                                                                    21583716.479 7  89895392.54407     -3324.690 7        42.311
R15        30.000    21707213.597 7 115996911.65807      1908.387 7        45.047                                                                    21707207.602 5  90219806.83305      1484.300 5        34.590
S36        31.000    38318849.361 5 201366994.09605      -858.483 5        35.333
C07        32.000                                                                                                                                                                                                    40010360.045 4                     -1360.349 4        27.018
C10        33.000                                                                                                                                    39117660.084 3                     -1485.670 3        23.257    39117674.500 6 157510643.40606     -1148.872 6        40.181    39117668.991 5 165519632.08705     -1207.220 5        30.015
C45        37.000                                                                                                                                    22602212.971 7 117695609.28207     -2447.571 7        47.234                                                                    22602205.544 6  95637343.16006     -1988.871 6        39.967
R24        38.000    21587049.254 7 115435652.40307      2477.255 7        42.474                                                                    21587073.078 4  89783364.34104      1926.736 4        27.413
C33        39.000                                                                                                                                    25830951.012 7 134508524.65107         3.190 7        42.233
R22        41.000    24072894.817 5 128502825.57715     -4318.742 5        35.876                                                                    24072922.423 5                     -3359.036 5        30.030
C35        42.000                                                                                                                                    24436171.256 5 127245560.73705      2303.463 5        34.462                                                                    24436168.542 6 103397473.37406      1871.684 6        37.584
R05        44.000    21152326.525 6 113071281.72406      -728.904 6        39.168                                                                    21152327.571 7  87944369.91807      -566.885 7        43.380
C42        45.000                                                                                                                                    24807154.064 6 129177313.83006     -2704.966 6        36.034                                                                    24807164.085 6 104967262.53806     -2198.213 6        37.985
C29        46.000                                                                                                                                    23069293.254 5 120127851.43105      -495.157 5        34.205                                                                    23069293.188 5  97613727.14705      -402.636 5        33.647
C30        47.000                                                                                                                                    25851385.758 4 134615247.75704     -3292.302 4        26.024
C26        48.000                                                                                                                                    22269765.317 7 115964531.11807       449.373 7        46.929                                                                    22269764.594 6  94230709.92806       365.164 6        41.106
C24        51.000                                                                                                                                                                                                                                                                    25602503.176 3                      1588.209 3        20.310
C14        53.000                                                                                                                                    24947892.518 6 129910204.26516     -1373.074 6        37.062    24947932.133 5 100454919.99105     -1061.685 5        33.581    24947888.208 6 105562750.91606     -1115.778 6        40.756
C21        55.000                                                                                                                                    26427161.913 4                     -4088.200 4        28.559                                                                    26427148.812 5                     -3321.527 5        30.196
I06        58.000    38517559.844 6 151151172.91806      -750.812 6        41.254
> 2025 01 02 12 15 50.0000000  0 38
G17         2.000    24454054.716 5 128506645.06405     -4055.832 5        31.026                                                                                                    24454016.870 4                     -3160.937 4        25.068
G25         3.000    22587829.018 5 118699859.03505      2196.434 5        32.042                                    22587836.425 2  92493390.05202      1711.511 2        17.358    22587835.302 6  92493405.03806      1711.815 6        36.295
G19         4.000    21766656.637 7 114384555.20107     -2576.222 7        42.557                                    21766656.727 4  89130806.07304     -2007.441 4        28.227
E25         6.000    24917042.462 7 130939929.71507       948.920 7        46.433                                                                    24917045.589 7  97779939.99007       708.553 7        46.564    24917046.007 7 100330617.07607       727.070 7        46.832
G10         7.000                                                                                                                                                                    25393142.733 4                     -2349.536 4        24.872
G15         9.000    24671093.206 5                     -4742.648 5        30.453
G24        12.000    20438358.819 7 107404900.59607     -2163.280 7        46.543                                    20438361.195 7  83691694.06107     -1685.675 7        44.111    20438361.595 6  83691668.06306     -1685.769 6        41.516
E31        13.000    26319727.993 4 138311072.93704     -3200.628 4        28.199                                                                    26319730.908 6 103284290.87606     -2389.910 6        36.355
E33        14.000    27050163.666 4                       -95.945 4        26.563                                                                                                                                    27050151.652 5 108919827.13205       -73.205 5        30.113
G12        15.000    20522583.939 8 107847001.77608       263.165 8        49.760                                    20522581.000 7  84036946.64507       205.062 7        47.682    20522582.277 7  84036552.63907       205.120 7        44.068
E24        16.000    23747437.593 7 124793599.81107     -1361.368 7        47.485                                                                    23747440.198 8  93190093.10808     -1016.583 8        50.727    23747439.259 8  95621164.74608     -1043.118 8        50.582
G32        17.000    23948092.074 7 125847904.63407      1561.611 7        42.957                                    23948093.360 5  98063365.56205      1216.841 5        35.233    23948094.751 6  98063450.58206      1216.805 6        37.868
E05        18.000    23153777.649 5 121673959.83305     -2777.185 5        30.000                                                                    23153783.543 7  90860394.26307     -2073.779 7        46.905    23153783.459 7  93230651.76507     -2127.932 7        42.487
E08        20.000                                                                                                                                    28756277.419 4 112845805.88104      1428.424 4        29.564
E09        21.000                                                                                                                                    27963884.413 3                     -3076.942 3        23.200
R14        23.000    19559181.862 8 104261379.99708      -832.182 8        50.452                                                                    19559185.955 7  81092172.48207      -647.262 7        46.928
S23        24.000    38257305.467 5 201043526.68905      -862.274 5        35.676
R23        25.000    21367375.279 7 114301017.79307     -1633.318 7        43.007
E03        26.000    25139617.540 6 132109610.11006        38.168 6        38.369                                                                    25139619.431 6  98653318.34006        28.388 6        39.072    25139620.302 6 101226894.55306        29.141 6        41.936
R13        27.000    22275126.578 4 118947922.40404     -3857.947 4        25.414
R04        29.000    21587704.287 6 115601366.69806     -4277.001 6        40.830                                                                    21587708.893 7  89912022.30207     -3326.691 7        42.025
R15        30.000    21705427.844 7 115987372.76007      1907.802 7        44.515                                                                    21705423.522 6  90212387.72406      1483.802 6        36.181
S36        31.000    38319676.973 6 201371287.25606      -858.048 6        36.004
C10        33.000                                                                                                                                    39119085.507 3                     -1484.665 3        21.976    39119100.773 6 157516388.25806     -1148.623 6        40.126    39119095.669 5 165525669.02505     -1207.364 5        30.257
C45        37.000                                                                                                                                    22604563.087 7 117707851.10307     -2448.571 7        46.910                                                                    22604556.033 6  95647290.66606     -1989.822 6        39.309
R24        38.000    21584734.814 7 115423273.27107      2474.953 7        43.223                                                                    21584758.583 4  89773736.18804      1924.584 4        29.763
C33        39.000                                                                                                                                    25830951.155 7 134508515.87407         0.713 7        42.940                                                                    25830987.318 5                         0.349 5        33.515
C40        40.000                                                                                                                                    40455826.876 3                     -2041.167 3        20.619
R22        41.000    24076941.039 5                     -4320.955 5        34.714                                                                    24076974.120 4                     -3361.132 4        29.156
C35        42.000                                                                                                                                    24433958.673 5 127234047.11205      2302.883 5        34.629                                                                    24433957.231 6 103388117.69106      1870.980 6        37.040
R05        44.000    21153011.318 6 113074938.13006      -733.069 6        38.910                                                                    21153011.049 7  87947213.76407      -570.312 7        42.980
C42        45.000                                                                                                                                    24809755.946 6 129190844.90206     -2706.758 6        36.170                                                                    24809762.438 6 104978257.64106     -2199.479 6        37.641
C29        46.000                                                                                                                                    23069772.730 5 120130335.50105      -497.583 5        32.748                                                                    23069772.206 5  97615745.66505      -404.851 5        32.162
C26        48.000                                                                                                                                    22269334.517 7 115962287.91507       448.461 7        46.873                                                                    22269333.637 6  94228887.14406       364.269 6        40.336
C24        51.000                                                                                                                                                                                                                                                                    25600628.971 3                      1589.367 3        22.724
C14        53.000                                                                                                                                    24949215.248 6 129917076.79806     -1375.344 6        37.573    24949247.524 5 100460234.34505     -1063.732 5        32.455    24949207.990 6 105568335.38806     -1117.689 6        40.536
C21        55.000                                                                                                                                    26431091.226 4                     -4087.855 4        28.654                                                                    26431074.262 4                     -3321.656 4        29.896
I06        58.000    38518516.362 6 151154927.26506      -750.622 6        41.240
> 2025 01 02 12 15 55.0000000  0 36
G17         2.000    24457910.350 5 128526926.83105     -4057.534 5        30.558                                                                                                    24457879.646 4                     -3161.639 4        25.865
G25         3.000                                                                                                                                                                    22585745.139 5  92484850.32305      1710.232 5        35.486
G19         4.000    21769109.579 7 114397445.98107     -2580.023 7        43.936                                    21769109.895 4  89140850.84504     -2010.405 4        29.422
E25         6.000    24916140.186 7 130935189.80207       947.055 7        46.470                                                                    24916143.692 7  97776400.44307       707.224 7        46.850    24916144.188 7 100326985.20207       725.681 7        47.060
G10         7.000    25396035.535 4                     -3017.498 4        26.299                                                                                                    25396008.064 4                     -2351.073 4        25.143
G15         9.000    24675605.453 5                     -4742.765 5        30.226
G24        12.000    20440418.928 7 107415726.05207     -2166.909 7        46.065                                    20440421.436 7  83700129.48807     -1688.500 7        43.799    20440421.746 7  83700103.47707     -1688.463 7        42.290
E31        13.000    26322772.928 4 138327078.19304     -3202.053 4        29.100                                                                    26322776.227 6 103296242.81906     -2390.673 6        36.227
E33        14.000                                                                                                                                                                                                    27050244.511 5 108920199.41005       -75.868 5        31.449
G12        15.000    20522335.045 8 107845693.84708       260.088 8        49.541                                    20522331.985 7  84035927.48607       202.663 7        47.545    20522333.722 7  84035533.48507       202.646 7        44.119
E24        16.000    23748734.042 7 124800412.19407     -1363.476 7        47.417                                                                    23748736.670 8  93195180.27108     -1018.177 8        51.117    23748735.582 8  95626384.62108     -1044.691 8        50.510
G32        17.000    23946607.997 7 125840104.18607      1558.649 7        43.251                                    23946608.616 5  98057287.30505      1214.521 5        35.271    23946611.386 6  98057372.32806      1214.545 6        37.414
E05        18.000                                                                                                                                    23156427.300 7  90870768.30507     -2075.782 7        46.936    23156426.775 7  93241296.43607     -2129.943 7        42.201
E08        20.000                                                                                                                                    28754458.114 4 112838667.90004      1427.262 4        29.450
E09        21.000                                                                                                                                    27967805.047 4                     -3078.918 4        24.090
R14        23.000    19559964.232 8 104265548.20208      -835.073 8        51.055                                                                    19559967.888 7  81095414.42007      -649.485 7        46.662
S23        24.000    38258129.341 5 201047839.82505      -863.014 5        35.624
R23        25.000    21368899.263 7 114309197.70407     -1638.675 7        42.402
E03        26.000    25139582.642 6 132109428.09206        34.985 6        38.204                                                                    25139584.904 6  98653182.40506        26.156 6        39.631    25139585.523 6 101226755.07306        26.798 6        41.483
R04        29.000    21591699.689 6 115622761.45906     -4280.872 6        38.523                                                                    21591704.744 7  89928662.65507     -3329.442 7        42.381
R15        30.000    21703640.403 7 115977838.72307      1905.931 7        44.287                                                                    21703639.518 6  90204972.38206      1482.422 6        37.845
S36        31.000    38320495.356 6 201375579.58106      -859.114 6        36.008
C10        33.000                                                                                                                                    39120510.560 3                     -1484.390 3        19.910    39120527.626 6 157522133.98406     -1149.532 6        39.997    39120522.461 4 165531706.92904     -1208.315 4        29.763
C45        37.000                                                                                                                                    22606915.123 7 117720099.32707     -2450.645 7        46.066                                                                    22606907.786 6  95657243.34606     -1991.434 6        38.547
R24        38.000    21582423.033 7 115410907.98107      2471.317 7        44.558                                                                    21582449.626 5  89764118.69805      1922.099 5        30.981
C33        39.000                                                                                                                                    25830952.675 7 134508520.91407        -2.709 7        43.005
R22        41.000    24080990.325 5 128546038.95915     -4324.082 5        32.359                                                                    24081025.737 4                     -3363.775 4        25.353
C35        42.000                                                                                                                                    24431750.081 6 127222538.66206      2300.731 6        36.008                                                                    24431746.429 6 103378766.12606      1869.600 6        36.287
R05        44.000    21153698.265 6 113078617.88906      -738.749 6        39.799                                                                    21153698.990 6  87950075.78706      -574.549 6        41.387
C42        45.000                                                                                                                                    24812358.024 5 129204386.80005     -2709.572 5        35.771                                                                    24812362.966 6 104989261.49806     -2201.861 6        37.459
C29        46.000                                                                                                                                    23070250.791 4 120132833.97604      -501.773 4        27.665                                                                    23070257.333 5  97617775.79005      -407.427 5        30.385
C26        48.000                                                                                                                                    22268904.868 7 115960051.33107       446.217 7        46.323                                                                    22268904.287 6  94227069.72706       362.568 6        39.880
C24        51.000                                                                                                                                    25598836.041 3                      1954.953 3        23.067                                                                    25598755.250 4                      1588.486 4        25.113
C14        53.000                                                                                                                                    24950535.582 5 129923963.30205     -1379.015 5        35.533    24950566.548 5 100465559.48205     -1066.484 5        33.132    24950530.431 6 105573931.20606     -1120.622 6        39.676
C21        55.000                                                                                                                                    26435019.582 4                     -4088.040 4        28.872                                                                    26434998.115 5                     -3321.937 5        30.008
I06        58.000    38519473.146 6 151158681.57406      -751.155 6        41.392
> 2025 01 02 12 16  0.0000000  0 39
G06         1.000    23825203.333 5                      1297.995 5        31.706
G17         2.000    24461767.356 4 128547214.00604     -4058.111 4        28.957                                                                                                    24461735.114 4                     -3161.776 4        27.234
G25         3.000    22583673.660 5 118677907.47305      2194.036 5        33.120                                    22583659.769 3  92476285.09803      1709.645 3        18.030    22583657.701 5  92476300.14805      1709.726 5        34.152
G19         4.000    21771565.261 7 114410351.20507     -2582.375 7        44.304                                    21771565.657 4  89150906.85804     -2012.226 4        29.981
E25         6.000    24915238.907 7 130930454.77307       946.731 7        47.168                                                                    24915242.790 7  97772864.55707       706.929 7        47.114    24915243.202 7 100323357.07907       725.374 7        47.669
G10         7.000    25398903.137 4                     -3018.932 4        24.737                                                                                                    25398871.356 4                     -2352.287 4        26.635
G15         9.000    24680119.180 5                     -4742.468 5        30.204
G24        12.000    20442481.530 7 107426565.18907     -2168.941 7        44.718                                    20442484.294 7  83708575.58007     -1690.084 7        43.350    20442484.728 7  83708549.58107     -1690.144 7        43.092
E31        13.000    26325818.526 5 138343085.00205     -3201.399 5        30.513                                                                    26325822.296 5 103308195.90505     -2390.725 5        35.748
E33        14.000                                                                                                                                                                                                    27050339.092 5 108920580.89005       -77.489 5        30.875
G12        15.000    20522088.282 8 107844397.35408       258.284 8        49.583                                    20522085.281 7  84034917.23607       201.259 7        47.670    20522087.251 7  84034523.23007       201.252 7        44.534
E24        16.000    23750031.703 7 124807230.72607     -1364.147 7        47.681                                                                    23750034.322 8  93200272.03008     -1018.739 8        51.578    23750033.079 8  95631609.20708     -1045.285 8        50.687
G32        17.000    23945125.395 7 125832315.29207      1556.909 7        43.947                                    23945125.969 5  98051218.05905      1213.175 5        35.386    23945129.123 6  98051303.09406      1212.966 6        37.739
E05        18.000    23159085.418 5 121701754.12905     -2781.000 5        30.657                                                                    23159072.813 7  90881149.56307     -2076.959 7        46.947    23159071.815 6  93251948.51406     -2131.147 6        41.576
E08        20.000                                                                                                                                    28752641.225 4 112831533.20404      1427.097 4        28.938
E09        21.000                                                                                                                                    27971728.171 3                     -3079.140 3        22.952
R14        23.000    19560747.945 8 104269726.93108      -836.679 8        50.154                                                                    19560751.712 7  81098664.52907      -650.807 7        46.047
S23        24.000    38258948.757 6 201052153.00306      -862.500 6        36.098
R23        25.000    21370427.777 6 114317400.85906     -1642.775 6        41.204
E03        26.000    25139549.870 6 132109257.52206        33.479 6        37.735                                                                    25139552.556 6  98653055.04806        24.617 6        39.742    25139552.810 6 101226624.37606        25.388 6        41.361
R13        27.000    22282339.700 3                     -3859.587 3        23.505
R04        29.000    21595692.739 6 115644169.74306     -4282.949 6        39.039                                                                    21595703.545 7  89945313.62307     -3331.289 7        42.506
R15        30.000    21701851.609 7 115968309.48907      1905.424 7        44.102                                                                    21701856.816 6  90197560.80006      1481.943 6        39.039
S36        31.000    38321307.166 5 201379872.36505      -858.169 5        35.981
C07        32.000                                                                                                                                                                                                    40015402.023 4                     -1360.472 4        26.635
C10        33.000                                                                                                                                                                                                    39121955.299 6 157527880.57706     -1149.404 6        39.745    39121949.843 4 165537745.70604     -1207.512 4        29.630
C45        37.000                                                                                                                                    22609268.239 7 117732353.95707     -2451.449 7        45.971                                                                    22609260.841 6  95667201.22706     -1992.049 6        38.985
R24        38.000    21580113.558 7 115398556.60907      2468.993 7        44.652                                                                    21580143.615 5  89754512.09205      1920.443 5        31.147
C33        39.000                                                                                                                                    25830955.349 7 134508539.84107        -5.027 7        42.593                                                                    25830973.792 5 109299307.86315        -4.147 5        35.510
R22        41.000    24085042.699 4 128567663.73914     -4325.993 4        29.327                                                                    24085065.606 4                     -3364.657 4        24.045
C35        42.000                                                                                                                                    24429544.341 6 127211035.30306      2300.376 6        36.318                                                                    24429536.982 5 103369418.72805      1869.171 5        35.367
R05        44.000    21154391.857 7 113082321.15007      -742.753 7        44.093                                                                    21154389.756 6  87952956.06206      -577.990 6        39.180
C42        45.000                                                                                                                                    24814959.432 6 129217939.47606     -2711.506 6        36.030                                                                    24814965.358 6 105000274.14406     -2203.147 6        36.760
C29        46.000                                                                                                                                    23070717.660 3                      -504.259 3        22.686                                                                    23070744.370 4  97619817.62904      -409.302 4        29.924
C26        48.000                                                                                                                                    22268476.332 7 115957821.36207       445.539 7        46.079                                                                    22268476.007 6  94225257.67806       362.177 6        39.513
C24        51.000                                                                                                                                                                                                                                                                    25596879.386 4                      1588.480 4        25.083
C14        53.000                                                                                                                                                                                                    24951893.291 5 100470895.49405     -1068.177 5        30.974    24951855.832 6 105579538.40506     -1122.380 6        39.165
C21        55.000                                                                                                                                    26438947.594 4                     -4087.876 4        28.929                                                                    26438920.752 4                     -3321.774 4        29.649
I06        58.000    38520429.610 6 151162435.87006      -750.807 6        41.316
> 2025 01 02 12 16  5.0000000  0 39
G06         1.000    23823963.079 4 125195821.03514      1296.394 4        29.242
G17         2.000    24465628.379 4 128567506.22604     -4059.856 4        26.754                                                                                                    24465595.068 4                     -3162.891 4        26.539
G25         3.000    22581588.003 5 118666940.03605      2192.642 5        30.445                                    22581572.854 2  92467739.04402      1708.550 2        16.755    22581570.473 5  92467754.10905      1708.643 5        32.198
G19         4.000    21774023.674 7 114423270.31407     -2585.305 7        45.213                                    21774024.003 5  89160973.68205     -2014.523 5        30.370
E25         6.000    24914338.652 7 130925724.15807       945.501 7        47.556                                                                    24914342.923 7  97769331.95507       706.019 7        47.329    24914342.957 7 100319732.32507       724.458 7        47.660
G10         7.000    25401766.957 4                     -3019.526 4        25.068                                                                                                    25401736.606 4                     -2353.597 4        26.742
G15         9.000    24684628.780 5                     -4742.545 5        30.189
G24        12.000    20444546.395 7 107437417.52507     -2171.914 7        42.944                                    20444549.652 7  83717031.95307     -1692.399 7        42.571    20444549.697 7  83717005.94207     -1692.367 7        43.179
E31        13.000    26328866.328 5 138359092.83605     -3201.958 5        31.147                                                                    26328869.268 5 103320149.77305     -2390.933 5        35.690
E33        14.000                                                                                                                                                                                                    27050435.358 5 108920971.20105       -79.191 5        30.740
G12        15.000    20521843.472 8 107843111.78208       255.854 8        50.038                                    20521840.804 7  84033915.49407       199.366 7        47.821    20521842.537 7  84033521.49407       199.364 7        44.799
E24        16.000    23751330.364 7 124814054.95407     -1365.613 7        47.903                                                                    23751332.962 8  93205368.03308     -1019.753 8        51.763    23751331.633 8  95636838.15208     -1046.365 8        50.496
G32        17.000    23943645.646 7 125824537.46707      1554.371 7        43.634                                    23943645.388 5  98045157.43605      1211.194 5        35.233    23943649.275 6  98045242.41606      1211.329 6        37.773
E05        18.000                                                                                                                                    23161720.068 7  90891537.63307     -2078.363 7        46.681    23161718.881 6  93262607.56406     -2132.559 6        40.937
E08        20.000                                                                                                                                    28750824.592 4 112824401.47704      1425.686 4        28.047
E09        21.000                                                                                                                                    27975649.717 3                     -3078.191 3        23.276
R14        23.000    19561533.372 8 104273915.43008      -838.817 8        50.493                                                                    19561537.411 7  81101922.24907      -652.432 7        45.898
S23        24.000    38259770.677 6 201056465.89306      -862.646 6        36.208
R23        25.000    21371965.997 6 114325626.88006     -1647.574 6        41.840
E03        26.000    25139519.485 6 132109097.94906        30.683 6        37.440                                                                    25139522.474 6  98652935.86206        23.000 6        40.307    25139522.235 6 101226502.07506        23.546 6        41.142
R13        27.000    22285955.177 4                     -3861.143 4        24.586
R04        29.000    21599694.223 6 115665591.47606     -4285.851 6        41.066                                                                    21599703.976 6  89961974.94506     -3333.343 6        41.857
R15        30.000    21700067.882 7 115958784.58107      1904.283 7        42.091                                                                    21700073.993 6  90190152.58106      1481.126 6        40.010
S36        31.000    38322121.390 5 201384164.14205      -858.357 5        35.695
C07        32.000                                                                                                                                                                                                    40017096.889 4                     -1361.295 4        29.194
C10        33.000                                                                                                                                                                                                    39123382.376 6 157533627.61406     -1149.632 6        39.417    39123377.393 4 165543784.97504     -1208.182 4        29.754
C45        37.000                                                                                                                                    22611622.500 7 117744614.48607     -2452.834 7        45.598                                                                    22611615.853 6  95677163.92906     -1993.068 6        39.556
R24        38.000    21577806.012 7 115386218.62307      2466.140 7        44.679
C33        39.000                                                                                                                                    25830960.778 7 134508572.15007        -7.878 7        42.201                                                                    25830979.730 6 109299334.13206        -6.422 6        36.253
R22        41.000    24089094.936 4 128589300.15114     -4328.847 4        28.152                                                                    24089112.720 4                     -3366.750 4        24.346
C35        42.000                                                                                                                                    24427334.406 5 127199536.60805      2299.085 5        35.400                                                                    24427328.391 5 103360075.09505      1868.161 5        33.994
R05        44.000    21155093.793 7 113086047.31107      -747.728 7        45.425                                                                    21155088.387 6  87955854.16006      -581.584 6        39.628
C42        45.000                                                                                                                                    24817561.824 6 129231502.43606     -2713.745 6        36.696                                                                    24817569.913 5 105011295.17205     -2205.128 5        35.938
C29        46.000                                                                                                                                    23071195.971 4                      -506.210 4        24.797                                                                    23071227.390 4  97621870.68804      -411.849 4        29.526
C26        48.000                                                                                                                                    22268049.053 7 115955597.55307       444.014 7        45.922                                                                    22268048.923 6  94223450.65106       360.885 6        39.276
C24        51.000                                                                                                                                                                                                                                                                    25595001.600 4                      1588.043 4        26.371
C14        53.000                                                                                                                                    24953171.168 4 129937777.74504     -1384.422 4        28.332                                                                    24953183.372 6 105585156.56306     -1124.781 6        38.321
C21        55.000                                                                                                                                    26442874.622 4                     -4088.000 4        29.735                                                                    26442846.931 4                     -3321.403 4        29.431
I06        58.000    38521386.441 6 151166189.77906      -750.784 6        41.218
> 2025 01 02 12 16 10.0000000  0 39
G06         1.000    23822729.365 4 125189346.39804      1293.143 4        25.955
G17         2.000                                                                                                                                                                    24469456.802 4                     -3164.366 4        26.108
G25         3.000    22579504.754 4 118655979.10204      2191.964 4        28.313                                    22579487.294 2  92459198.18202      1708.003 2        16.151    22579482.312 5  92459213.25405      1707.596 5        30.883
G19         4.000    21776484.443 7 114436204.59907     -2588.413 7        45.052                                    21776485.179 5  89171052.32005     -2016.943 5        30.558
E25         6.000    24913439.199 7 130920999.21907       944.434 7        47.665                                                                    24913444.045 7  97765803.59607       705.240 7        47.706    24913443.839 7 100316111.91907       723.744 7        47.846
G10         7.000    25404638.972 4                     -3021.661 4        29.422                                                                                                    25404611.041 4                     -2355.317 4        24.617
G15         9.000    24689141.850 5                     -4742.544 5        30.325
G24        12.000    20446614.027 7 107448284.29207     -2174.732 7        42.720                                    20446617.706 6  83725499.57506     -1694.599 6        41.940    20446617.354 7  83725473.56107     -1694.616 7        42.356
E31        13.000    26331912.994 5 138375102.99205     -3202.394 5        31.494                                                                    26331915.674 5 103332105.38605     -2391.325 5        35.452
E33        14.000    27050524.191 3                      -105.714 3        23.333                                                                                                                                    27050534.558 5 108921371.39105       -81.006 5        30.068
G12        15.000    20521601.639 8 107841838.39608       253.529 8        50.366                                    20521598.692 7  84032923.25007       197.553 7        47.919    20521600.181 7  84032529.25107       197.546 7        45.014
E24        16.000    23752629.796 8 124820886.11108     -1366.890 8        48.128                                                                    23752632.984 8  93210469.21908     -1020.734 8        52.028    23752631.481 8  95642072.41408     -1047.374 8        50.486
G32        17.000    23942167.648 7 125816772.00907      1551.869 7        43.932                                    23942167.177 5  98039106.44005      1209.243 5        35.262    23942171.169 6  98039191.45206      1209.275 6        37.357
E05        18.000    23164361.496 5 121729586.36505     -2784.982 5        31.789                                                                    23164369.228 7  90901933.51407     -2079.927 7        46.487    23164367.838 6  93273274.63706     -2134.328 6        40.200
E08        20.000    28748966.671 5 151076833.03015      1908.649 5        31.019                                                                    28749007.614 4 112817273.50504      1425.636 4        26.623
E09        21.000                                                                                                                                    27979572.265 3                     -3078.525 3        23.086
R14        23.000    19562321.680 8 104278115.29408      -841.010 8        50.407                                                                    19562325.574 7  81105188.79707      -654.088 7        45.741
S23        24.000    38260595.191 6 201060779.64006      -863.078 6        36.370
R23        25.000    21373511.437 7 114333876.79307     -1652.354 7        42.138
E03        26.000    25139491.010 6 132108950.60306        28.282 6        38.195                                                                    25139494.414 6  98652825.84606        21.223 6        40.386    25139494.029 6 101226389.18306        21.696 6        41.209
R04        29.000    21603701.569 7 115687027.66407     -4288.506 7        42.840                                                                    21603706.486 6  89978647.47906     -3335.663 6        40.984
R15        30.000    21698285.459 6 115949265.21106      1903.329 6        40.262                                                                    21698293.150 6  90182748.65906      1480.339 6        41.259
S36        31.000    38322943.565 6 201388455.17206      -857.878 6        36.057
C07        32.000                                                                                                                                                                                                    40018792.707 4                     -1360.860 4        28.957
C10        33.000                                                                                                                                                                                                    39124809.885 6 157539376.13906     -1149.794 6        39.471    39124803.926 4 165549825.78504     -1208.321 4        29.299
C45        37.000                                                                                                                                    22613978.869 7 117756882.22807     -2454.112 7        44.736                                                                    22613972.251 6  95687132.43706     -1994.177 6        40.400
R24        38.000    21575501.823 7 115373895.31807      2463.263 7        44.739
C33        39.000                                                                                                                                    25830969.459 7 134508619.11507       -10.896 7        42.197                                                                    25830989.290 6 109299372.27906        -8.663 6        36.367
R22        41.000    24093146.415 4 128610949.29304     -4331.314 4        26.359                                                                    24093174.840 4                     -3368.471 4        24.361
C35        42.000                                                                                                                                    24425118.500 5 127188043.82905      2298.049 5        35.714                                                                    24425120.406 5 103350736.30405      1867.108 5        32.934
R05        44.000    21155797.753 7 113089797.71607      -752.421 7        45.980                                                                    21155790.414 6  87958771.13506      -585.247 6        39.408
C42        45.000                                                                                                                                    24820167.341 6 129245076.98606     -2715.973 6        37.070                                                                    24820176.455 5 105022325.58905     -2206.998 5        34.571
C29        46.000                                                                                                                                    23071684.362 4                      -510.844 4        25.173                                                                    23071711.886 4  97623936.06704      -414.288 4        29.128
C30        47.000                                                                                                                                    25867298.012 5 134697676.04805     -3302.381 5        33.048
C26        48.000                                                                                                                                    22267622.989 7 115953381.16107       442.577 7        45.696                                                                    22267623.381 6  94221649.65206       359.694 6        38.895
C24        51.000                                                                                                                                    25593153.696 4                      1953.913 4        29.422                                                                    25593125.624 4                      1587.172 4        25.684
C14        53.000                                                                                                                                    24954493.028 4 129944706.52004     -1387.090 4        25.444    24954502.692 5 100481599.49405     -1072.569 5        35.862    24954514.055 6 105590786.69906     -1127.072 6        36.737
C21        55.000                                                                                                                                    26446805.388 4                     -4088.106 4        29.194                                                                    26446772.067 4                     -3321.712 4        29.763
I06        58.000    38522343.084 6 151169944.26006      -750.999 6        40.958
> 2025 01 02 12 16 15.0000000  0 38
G17         2.000                                                                                                                                                                    24473323.820 4                     -3164.241 4        24.932
G25         3.000    22577421.774 4 118645024.20804      2190.671 4        26.323                                    22577402.766 2  92450662.00502      1706.980 2        14.286    22577398.382 4  92450677.15004      1706.462 4        29.289
G19         4.000    21778949.050 7 114449153.48807     -2591.229 7        44.477                                    21778949.097 5  89181142.34505     -2019.132 5        30.460
E25         6.000    24912540.857 7 130916279.40007       943.528 7        47.594                                                                    24912546.053 7  97762279.05707       704.535 7        47.990    24912545.672 7 100312495.44407       722.979 7        47.842
G10         7.000    25407511.583 5                     -3023.522 5        32.874                                                                                                    25407488.638 4                     -2355.538 4        24.271
G15         9.000    24693652.787 4                     -4742.656 4        29.554
G24        12.000    20448685.235 7 107459164.95507     -2177.495 7        43.530                                    20448688.273 6  83733978.02706     -1696.750 6        41.557    20448687.572 6  83733952.01506     -1696.914 6        41.049
E31        13.000    26334960.513 4 138391114.88004     -3202.739 4        29.109                                                                    26334963.637 5 103344062.29005     -2391.696 5        35.057
E33        14.000                                                                                                                                                                                                    27050635.863 4 108921780.97104       -82.630 4        29.147
G12        15.000    20521361.202 8 107840576.66308       251.234 8        50.708                                    20521358.785 7  84031940.08007       195.765 7        47.990    20521360.110 7  84031546.08207       195.738 7        44.466
E24        16.000    23753930.787 7 124827723.65807     -1368.281 7        47.888                                                                    23753934.178 8  93215575.17008     -1021.824 8        52.135    23753932.660 8  95647311.56408     -1048.415 8        50.541
G32        17.000    23940692.049 7 125809018.34707      1549.576 7        44.184                                    23940691.228 5  98033064.64305      1207.461 5        35.238    23940695.934 6  98033149.65406      1207.615 6        37.153
E05        18.000    23167013.182 5 121743517.73105     -2787.322 5        33.150                                                                    23167020.204 7  90912336.74507     -2081.393 7        45.967    23167018.713 6  93283949.25006     -2135.791 6        39.369
E08        20.000    28747152.287 5 151067292.58405      1907.662 5        31.177                                                                    28747193.204 4 112810149.21104      1424.228 4        25.744
E09        21.000                                                                                                                                    27983495.353 3                     -3078.720 3        22.381
R14        23.000    19563111.485 8 104282325.73408      -843.051 8        50.097                                                                    19563115.797 7  81108463.59607      -655.740 7        45.865
S23        24.000    38261415.993 6 201065093.50006      -862.728 6        36.594
R23        25.000    21375059.198 7 114342150.11707     -1656.874 7        42.269
E03        26.000    25139464.892 6 132108814.96506        26.098 6        37.418                                                                    25139468.558 6  98652724.58006        19.457 6        40.565    25139467.783 6 101226285.27406        19.861 6        41.025
R04        29.000    21607709.676 7 115708477.67707     -4291.270 7        43.873                                                                    21607711.808 6  89995330.76706     -3337.645 6        38.991
R15        30.000    21696506.852 6 115939750.99006      1902.433 6        41.533                                                                    21696513.800 7  90175348.72807      1479.613 7        42.129
S36        31.000    38323758.728 5 201392746.32505      -858.047 5        35.914
C07        32.000                                                                                                                                                                                                    40020486.079 4                     -1361.185 4        27.916
C10        33.000                                                                                                                                    39126226.116 3                     -1485.335 3        20.833    39126237.769 6 157545125.72406     -1149.899 6        39.694    39126231.418 4 165555867.70304     -1208.434 4        29.137
C45        37.000                                                                                                                                    22616336.406 7 117769156.60507     -2455.556 7        44.202                                                                    22616329.449 6  95697106.36106     -1995.293 6        40.975
R24        38.000    21573199.535 7 115361586.16607      2460.542 7        43.500
C33        39.000                                                                                                                                    25830982.142 7 134508680.18407       -13.591 7        42.246                                                                    25831001.364 6 109299421.89906       -11.220 6        36.284
R22        41.000    24097197.460 4 128632610.62704     -4333.338 4        26.371                                                                    24097230.374 4                     -3370.160 4        24.842
C35        42.000                                                                                                                                    24422907.514 6 127176556.41206      2296.939 6        36.106                                                                    24422914.792 5 103341401.83705      1866.284 5        32.222
R05        44.000    21156502.163 7 113093571.73507      -757.079 7        47.258                                                                    21156497.920 6  87961706.47206      -588.844 6        40.343
C42        45.000                                                                                                                                    24822775.372 6 129258662.48306     -2717.897 6        38.498                                                                    24822784.660 5 105033364.92405     -2208.910 5        33.563
C29        46.000                                                                                                                                                                                                                                                                    23072201.258 4  97626013.31104      -416.471 4        29.384
C30        47.000                                                                                                                                    25870461.658 5 134714189.47805     -3303.817 5        33.359
C26        48.000                                                                                                                                    22267198.175 7 115951171.61807       441.322 7        45.723                                                                    22267199.368 6  94219854.22806       358.448 6        39.216
C24        51.000                                                                                                                                    25591283.238 4                      1953.913 4        29.213                                                                    25591246.765 4                      1587.833 4        26.383
C14        53.000                                                                                                                                    24955814.955 4 129951649.42904     -1390.245 4        26.275    24955845.529 6 100486968.19606     -1074.859 6        38.147    24955846.835 5 105596428.37605     -1129.457 5        35.133
C21        55.000                                                                                                                                    26450733.011 4                     -4088.238 4        27.820                                                                    26450697.048 4                     -3322.010 4        29.536
I06        58.000    38523300.118 6 151173698.88906      -750.898 6        41.056
> 2025 01 02 12 16 20.0000000  0 39
G17         2.000    24477258.877 4 128628416.41204     -4062.664 4        25.624                                                                                                    24477183.466 3                     -3165.685 3        22.057
G25         3.000                                                                                                                                                                    22575315.479 4  92442144.62104      1706.288 4        27.569
G19         4.000    21781416.183 7 114462115.40107     -2593.902 7        43.712                                    21781415.541 4  89191242.52104     -2021.204 4        29.915
E25         6.000    24911643.558 7 130911563.16107       942.799 7        47.409                                                                    24911648.787 8  97758757.20308       704.008 8        48.139    24911648.223 8 100308881.71608       722.346 8        48.243
G10         7.000    25410381.309 5 133532465.49915     -3025.076 5        35.800
G15         9.000    24698164.690 4                     -4741.701 4        29.545
G24        12.000    20450757.863 7 107470057.97607     -2179.956 7        44.253                                    20450761.107 6  83742466.10206     -1698.672 6        41.797    20450760.634 6  83742440.08306     -1698.635 6        40.534
E31        13.000    26338009.607 4 138407126.95204     -3202.202 4        28.095                                                                    26338011.037 5 103356019.35305     -2391.698 5        35.062
E33        14.000                                                                                                                                                                                                    27050739.305 4 108922198.82004       -84.144 4        28.682
G12        15.000    20521123.207 8 107839325.01208       249.115 8        51.019                                    20521120.743 8  84030964.76808       194.116 8        48.106    20521121.496 7  84030570.76907       194.112 7        43.886
E24        16.000    23755232.932 7 124834566.04707     -1369.221 7        47.731                                                                    23755236.315 8  93220684.72908     -1022.396 8        52.387    23755234.824 8  95652554.42108     -1049.042 8        50.777
G32        17.000    23939218.562 7 125801274.95807      1547.408 7        44.339                                    23939217.328 5  98027030.84205      1205.771 5        35.233    23939222.288 6  98027115.84706      1205.827 6        36.465
E05        18.000    23169665.920 5 121757457.33105     -2788.958 5        35.233                                                                    23169672.664 7  90922746.19007     -2082.632 7        45.147    23169671.551 6  93294630.22306     -2136.936 6        39.153
E08        20.000    28745337.648 5 151057755.16705      1907.183 5        32.323
E09        21.000                                                                                                                                    27987419.202 3                     -3079.003 3        22.800
R14        23.000    19563903.041 8 104286545.14508      -844.957 8        50.141                                                                    19563907.340 7  81111745.35407      -657.217 7        46.280
S23        24.000    38262237.747 6 201069406.06706      -862.380 6        36.571
R23        25.000    21376610.965 7 114350445.49107     -1661.496 7        42.768
E03        26.000    25139440.583 5 132108689.56105        23.834 5        35.867                                                                    25139444.684 6  98652630.90206        17.992 6        40.803    25139443.625 6 101226189.14706        18.333 6        41.545
R13        27.000    22296831.701 4                     -3863.035 4        29.156
R04        29.000    21611715.210 7 115729940.07007     -4293.838 7        42.392                                                                    21611718.961 6  90012023.71606     -3339.776 6        36.941
R15        30.000    21694730.911 7 115930240.26907      1901.638 7        42.627                                                                    21694733.996 6  90167951.52906      1479.075 6        40.844
S36        31.000    38324577.684 6 201397035.96106      -858.146 6        36.079
C07        32.000                                                                                                                                                                                                    40022177.792 4                     -1360.999 4        27.150
C10        33.000                                                                                                                                    39127654.840 3                     -1485.927 3        19.910    39127666.474 6 157550875.13406     -1150.058 6        39.715    39127659.026 4 165561909.44804     -1208.103 4        28.758
C45        37.000                                                                                                                                    22618694.393 7 117781436.09007     -2456.578 7        42.895                                                                    22618687.885 6  95707084.44706     -1996.068 6        41.897
R24        38.000    21570899.147 7 115349289.61507      2457.881 7        43.206
C33        39.000                                                                                                                                    25830996.723 6 134508753.81706       -16.315 6        41.793                                                                    25831015.771 6 109299481.74106       -13.038 6        36.484
R22        41.000    24101257.892 4 128654282.82704     -4335.981 4        27.641                                                                    24101285.648 3                     -3373.384 3        20.905
C35        42.000                                                                                                                                    24420705.147 6 127165072.85106      2296.054 6        36.998                                                                    24420709.400 5 103332070.56305      1865.571 5        31.449
R05        44.000    21157210.767 7 113097367.69807      -761.680 7        47.528                                                                    21157208.788 6  87964658.90706      -592.392 6        41.042
C42        45.000                                                                                                                                    24825386.351 6 129272257.45506     -2720.033 6        39.414                                                                    24825395.596 5 105044411.93905     -2210.108 5        33.659
C29        46.000                                                                                                                                                                                                                                                                    23072696.973 4  97628101.20404      -418.709 4        29.062
C30        47.000                                                                                                                                    25873626.229 5 134730710.61705     -3305.199 5        32.401
C26        48.000                                                                                                                                    22266775.143 7 115948967.43207       440.100 7        46.155                                                                    22266776.330 6  94218063.17006       357.704 6        40.162
C24        51.000                                                                                                                                    25589407.701 4                      1954.030 4        28.341                                                                    25589371.120 4                      1587.000 4        26.419
C14        53.000                                                                                                                                                                                                    24957189.508 6 100492346.68306     -1076.971 6        40.055    24957181.881 5 105602080.36005     -1131.394 5        33.413
C21        55.000                                                                                                                                    26454662.673 4                     -4088.102 4        26.407                                                                    26454622.005 4                     -3322.053 4        29.137
I06        58.000    38524256.513 6 151177452.54606      -750.791 6        41.163
> 2025 01 02 12 16 25.0000000  0 40
G06         1.000    23819098.303 4                      1286.774 4        26.551
G17         2.000    24481127.539 4 128648729.51204     -4063.687 4        26.263                                                                                                    24481050.096 3                     -3164.305 3        21.952
G25         3.000    22573268.122 4                      2188.411 4        29.640
G19         4.000    21783884.638 7 114475091.39007     -2596.449 7        42.214                                    21783884.525 4  89201353.66704     -2023.201 4        29.033
E25         6.000    24910747.270 7 130906851.56107       941.888 7        47.724                                                                    24910752.195 8  97755238.81008       703.396 8        48.288    24910751.729 8 100305271.53408       721.718 8        48.355
G10         7.000    25413253.117 6 133547594.81306     -3026.630 6        37.652
G15         9.000    24702674.210 4                     -4742.103 4        28.701
G24        12.000    20452833.108 7 107480964.38507     -2182.553 7        45.664                                    20452836.441 7  83750964.61507     -1700.696 7        42.265    20452836.777 6  83750938.60306     -1700.763 6        40.455
E31        13.000    26341058.378 4 138423140.35004     -3202.985 4        28.076                                                                    26341058.173 5 103367977.34405     -2391.657 5        34.710
E33        14.000    27050881.706 4                      -112.458 4        27.713                                                                                                                                    27050844.357 4 108922625.73504       -86.197 4        27.090
G12        15.000    20520886.952 8 107838084.49608       247.074 8        50.949                                    20520884.753 8  84029998.13208       192.524 8        48.093    20520886.103 7  84029604.14607       192.480 7        44.214
E24        16.000    23756536.148 7 124841414.31407     -1370.119 7        47.779                                                                    23756539.456 8  93225798.69008     -1023.160 8        52.493    23756538.122 8  95657801.79408     -1049.889 8        50.917
G32        17.000    23937746.903 7 125793542.90207      1545.320 7        44.712                                    23937745.748 5  98021005.87505      1204.140 5        35.157    23937750.908 6  98021090.88306      1204.170 6        36.586
E05        18.000    23172320.326 6 121771406.29606     -2790.699 6        36.741                                                                    23172326.923 7  90933162.62107     -2083.912 7        44.340    23172326.101 6  93305318.38106     -2138.465 6        38.865
E08        20.000    28743522.400 5 151048221.88305      1906.424 5        32.389                                                                                                                                    28743543.749 5 115738337.71715      1460.507 5        30.128
E09        21.000                                                                                                                                    27991345.001 3                     -3078.694 3        22.381
R14        23.000    19564695.921 8 104290774.63408      -846.882 8        48.769                                                                    19564700.934 7  81115034.95007      -658.679 7        45.755
S23        24.000    38263054.637 6 201073718.36706      -862.396 6        36.125
R23        25.000    21378167.538 6 114358763.81806     -1665.853 6        41.676
E03        26.000    25139418.620 5 132108575.36105        21.648 5        33.766                                                                    25139423.101 6  98652545.60706        16.317 6        41.011    25139421.654 7 101226101.62807        16.623 7        42.011
R13        27.000    22300442.751 4                     -3864.206 4        27.090
R04        29.000    21615723.254 6 115751415.71706     -4296.440 6        41.504                                                                    21615730.500 5  90028726.99505     -3341.682 5        35.271
R15        30.000    21692952.918 7 115920734.17707      1900.693 7        42.083                                                                    21692951.745 6  90160557.90406      1478.413 6        38.778
S36        31.000    38325391.260 5 201401324.74105      -857.693 5        35.848
C07        32.000                                                                                                                                                                                                    40023866.156 4                     -1361.530 4        27.174
C10        33.000                                                                                                                                    39129090.056 3                     -1487.606 3        22.819    39129094.481 6 157556625.16406     -1150.130 6        39.195    39129087.373 4 165567951.88304     -1208.331 4        28.645
C45        37.000                                                                                                                                    22621053.513 7 117793721.69707     -2457.732 7        43.348                                                                    22621047.277 7  95717067.51507     -1997.065 7        42.550
R24        38.000    21568602.357 7 115337006.85807      2455.112 7        42.178                                                                    21568627.050 4  89706640.32104      1909.184 4        27.868
C33        39.000                                                                                                                                    25831011.414 6 134508841.06106       -18.655 6        40.360                                                                    25831032.710 6 109299552.64706       -14.944 6        36.049
R22        41.000    24105321.129 4 128675966.70204     -4338.651 4        26.132
C35        42.000                                                                                                                                    24418503.086 6 127153594.22006      2295.347 6        37.879                                                                    24418506.295 5 103322743.28105      1865.086 5        32.317
R05        44.000    21157922.827 7 113101187.07307      -766.163 7        46.273                                                                    21157924.011 6  87967629.53906      -595.870 6        40.927
C42        45.000                                                                                                                                    24827999.630 6 129285862.92706     -2722.137 6        40.217                                                                    24828009.607 5 105055467.52405     -2212.151 5        34.124
C29        46.000                                                                                                                                    23073214.059 5                      -518.332 5        30.204                                                                    23073194.989 4  97630200.57504      -421.056 4        29.128
C30        47.000                                                                                                                                    25876795.504 5 134747240.60505     -3306.818 5        31.509
C26        48.000                                                                                                                                    22266353.569 7 115946769.62407       438.989 7        46.912                                                                    22266354.568 6  94216277.29106       356.692 6        40.779
C24        51.000                                                                                                                                    25587525.282 4                      1953.883 4        25.143                                                                    25587496.576 4                      1587.684 4        29.071
C14        53.000                                                                                                                                                                                                    24958527.943 6 100497735.77206     -1078.821 6        40.536    24958519.165 4 105607743.44504     -1133.873 4        28.616
C21        55.000                                                                                                                                    26458595.702 3                     -4088.836 3        23.981                                                                    26458545.586 4                     -3321.435 4        29.052
I06        58.000    38525212.619 6 151181205.99206      -750.777 6        41.087
> 2025 01 02 12 16 30.0000000  0 40
G06         1.000    23817873.740 4                      1285.318 4        27.341
G17         2.000                                                                                                                                                                    24484915.867 3                     -3166.243 3        20.571
G25         3.000    22571159.184 5                      2187.183 5        34.533
G19         4.000    21786356.294 6 114488082.66006     -2599.495 6        41.173                                    21786356.340 4  89211476.70704     -2025.575 4        28.019
E25         6.000    24909852.081 7 130902145.81207       940.707 7        47.811                                                                    24909856.753 8  97751724.77908       702.501 8        48.349    24909856.363 8 100301665.83708       720.846 8        48.648
G10         7.000    25416125.976 6 133562733.45906     -3028.530 6        38.261                                                                                                    25416181.181 3                     -2361.112 3        20.119
G15         9.000    24707184.977 4                     -4741.699 4        28.692
G24        12.000    20454911.592 7 107491885.41407     -2185.467 7        46.576                                    20454914.520 7  83759474.51507     -1702.964 7        42.337    20454914.951 6  83759448.48506     -1702.842 6        40.336
E31        13.000    26344107.577 4 138439156.20704     -3203.042 4        27.042                                                                    26344104.559 5 103379937.19205     -2392.246 5        34.400
E33        14.000    27050984.437 4                      -115.575 4        26.048                                                                                                                                    27050951.764 4 108923062.55004       -87.866 4        26.012
G12        15.000    20520653.142 8 107836856.35408       244.541 8        51.053                                    20520651.129 7  84029041.13807       190.550 7        47.664    20520652.174 7  84028647.15807       190.608 7        44.537
E24        16.000    23757840.296 7 124848269.68507     -1371.582 7        47.676                                                                    23757843.966 8  93230917.95308     -1024.213 8        52.495    23757842.736 8  95663054.60108     -1050.944 8        51.048
G32        17.000    23936277.530 7 125785823.40307      1542.773 7        45.059                                    23936276.668 5  98014990.69305      1202.161 5        34.567    23936282.698 6  98015075.71306      1201.981 6        36.174
E05        18.000    23174978.431 6 121785365.84506     -2792.630 6        37.282                                                                    23174982.999 7  90943586.94107     -2085.402 7        43.302    23174982.550 6  93316014.62206     -2139.843 6        38.994
E08        20.000    28741710.818 5 151038694.07405      1905.269 5        32.275                                                                    28741756.677 4                      1422.141 4        24.045    28741728.128 5 115731037.12205      1460.189 5        30.891
E09        21.000                                                                                                                                    27995267.530 3                     -3080.790 3        22.057
R14        23.000    19565490.868 7 104295015.58107      -849.152 7        47.510                                                                    19565496.059 7  81118333.46507      -660.437 7        44.907
S23        24.000    38263873.847 5 201078031.73305      -862.688 5        35.810
R23        25.000    21379726.364 6 114367106.32106     -1670.814 6        38.916
E03        26.000    25139398.402 5 132108473.56405        19.455 5        31.713                                                                    25139405.151 6  98652469.62506        14.377 6        41.442    25139402.429 7 101226023.63807        14.820 7        42.567
R13        27.000    22304061.483 4                     -3864.878 4        28.863
R04        29.000    21619738.632 7 115772906.00307     -4299.297 7        42.171                                                                    21619743.489 5  90045441.63405     -3343.927 5        35.557
R15        30.000    21691172.105 6 115911233.85606      1899.678 6        37.932                                                                    21691171.390 6  90153168.81206      1477.374 6        36.427
S36        31.000    38326196.760 5 201405614.55505      -858.082 5        34.686
C07        32.000                                                                                                                                                                                                    40025547.661 4                     -1360.765 4        26.120
C10        33.000                                                                                                                                    39130521.078 4                     -1488.108 4        24.887    39130522.614 6 157562376.83006     -1150.291 6        39.156    39130515.826 4 165573996.00204     -1208.650 4        28.787
C45        37.000                                                                                                                                    22623414.604 7 117806014.63307     -2459.156 7        44.524                                                                    22623408.032 7  95727056.53307     -1998.177 7        43.217
R24        38.000    21566307.777 7 115324739.01307      2452.151 7        42.220
C33        39.000                                                                                                                                    25831029.080 6 134508943.17306       -21.839 6        39.372                                                                    25831051.150 5 109299635.61005       -17.664 5        35.333
R22        41.000                                                                                                                                    24109425.602 4                     -3377.144 4        24.015
C35        42.000                                                                                                                                    24416300.003 6 127142121.73406      2293.746 6        39.105                                                                    24416303.475 5 103313420.99405      1863.800 5        34.043
R05        44.000    21158638.617 7 113105030.69207      -771.043 7        45.451                                                                    21158644.263 6  87970619.01206      -599.716 6        40.501
C42        45.000                                                                                                                                    24830615.393 6 129299480.06106     -2724.372 6        39.526                                                                    24830626.028 5 105066532.52805     -2213.550 5        34.510
C29        46.000                                                                                                                                    23073718.879 4                      -521.026 4        28.493                                                                    23073694.644 4  97632312.46204      -423.641 4        27.126
C30        47.000                                                                                                                                    25879972.617 4 134763780.59904     -3309.152 4        29.953
C26        48.000                                                                                                                                    22265933.138 7 115944579.43507       437.384 7        46.953                                                                    22265934.258 6  94214497.58106       355.556 6        41.487
C24        51.000                                                                                                                                    25585641.329 4                      1953.677 4        25.970                                                                    25585623.051 5                      1587.132 5        30.355
C14        53.000                                                                                                                                    24959861.983 5 129972558.56405     -1398.194 5        30.785    24959868.261 6 100503136.39806     -1081.308 6        40.999    24959856.877 4 105613418.62704     -1136.426 4        25.714
C21        55.000                                                                                                                                    26462528.901 3                     -4088.775 3        23.829                                                                    26462471.027 4                     -3322.117 4        28.995
I06        58.000    38526169.310 6 151184960.10206      -750.700 6        41.159
> 2025 01 02 12 16 35.0000000  0 39
G06         1.000    23816647.170 4                      1282.241 4        26.299
G17         2.000                                                                                                                                                                    24488783.968 3                     -3169.844 3        20.000
G25         3.000    22569073.272 6 118601323.39016      2185.961 6        38.535                                    22569074.548 1  92416586.70511      1703.396 1         8.762
G19         4.000    21788831.612 6 114501088.46906     -2602.320 6        39.832                                    21788830.726 4  89221611.08304     -2027.781 4        27.317
E25         6.000    24908957.578 7 130897445.19707       939.811 7        47.370                                                                    24908962.208 8  97748214.59208       701.785 8        48.587    24908961.947 8 100298064.07708       720.082 8        49.106
G10         7.000                                                                                                                                                                    25419052.531 3                     -2361.075 3        20.905
G15         9.000    24711698.051 4                     -4741.923 4        28.265
G24        12.000    20456992.046 7 107502820.32707     -2188.208 7        47.185                                    20456995.108 7  83767995.22607     -1705.098 7        42.235    20456995.266 6  83767969.21306     -1705.188 6        39.880
E31        13.000    26347155.809 4 138455173.82104     -3203.413 4        26.240                                                                    26347152.133 5 103391898.34905     -2392.146 5        33.461
E33        14.000    27051087.955 4                      -117.221 4        26.263                                                                                                                                    27051061.309 4 108923509.03004       -91.184 4        24.782
G12        15.000    20520421.800 8 107835639.82508       242.316 8        50.809                                    20520419.686 7  84028093.19907       188.815 7        47.285    20520420.406 7  84027699.21207       188.855 7        44.534
E24        16.000    23759146.262 7 124855131.43907     -1372.815 7        47.445                                                                    23759149.680 8  93236041.98208     -1025.123 8        52.769    23759148.487 8  95668312.30408     -1051.926 8        51.436
G32        17.000    23934811.090 7 125778115.76607      1540.520 7        43.096                                    23934809.940 5  98008984.75405      1200.395 5        34.024    23934816.012 6  98009069.77606      1200.373 6        36.798
E05        18.000    23177636.960 6 121799335.23506     -2794.595 6        37.013                                                                    23177641.151 7  90954018.62707     -2086.792 7        42.402    23177640.613 6  93326718.42606     -2141.454 6        38.712
E08        20.000    28739899.276 5 151029170.92005      1904.580 5        32.317                                                                    28739949.060 3                      1422.305 3        23.619    28739914.754 5 115723740.20605      1459.207 5        31.358
E09        21.000                                                                                                                                    27999188.924 3                     -3078.791 3        23.505
R14        23.000    19566288.185 7 104299267.10207      -851.181 7        46.603                                                                    19566293.709 7  81121640.20707      -662.076 7        44.825
S23        24.000    38264691.644 5 201082345.40805      -862.554 5        35.690
R23        25.000    21381288.581 6 114375472.23906     -1675.327 6        37.558
E03        26.000    25139380.358 5 132108383.53305        17.236 5        30.619                                                                    25139389.428 7  98652402.40007        12.581 7        42.000    25139385.782 7 101225954.64707        13.009 7        43.384
R13        27.000    22307685.988 4                     -3866.011 4        28.607
R04        29.000    21623755.704 7 115794410.16207     -4302.128 7        42.707                                                                    21623760.127 5  90062167.06405     -3346.144 5        35.500
R15        30.000    21689390.853 5 115901738.57605      1898.589 5        32.778                                                                    21689393.170 5  90145783.66605      1476.727 5        33.892
S36        31.000    38327021.823 5 201409905.17605      -857.985 5        34.971
C07        32.000                                                                                                                                                                                                    40027237.456 4                     -1361.305 4        26.371
C10        33.000                                                                                                                                    39131953.053 4                     -1489.376 4        26.826    39131951.570 6 157568129.48006     -1150.589 6        39.009    39131944.077 4 165580041.18904     -1209.185 4        28.483
C45        37.000                                                                                                                                    22625776.606 7 117818314.22207     -2460.420 7        45.294                                                                    22625770.245 7  95737050.94807     -1999.240 7        43.907
R24        38.000    21564018.392 7 115312485.46707      2449.612 7        43.020                                                                    21564005.993 5  89687568.23005      1905.005 5        31.374
C33        39.000                                                                                                                                    25831051.737 6 134509059.39506       -24.574 6        38.255                                                                    25831072.006 5 109299730.04605       -19.936 5        34.767
C35        42.000                                                                                                                                    24414098.577 6 127130654.61606      2293.206 6        39.703                                                                    24414101.684 5 103304103.07305      1863.102 5        35.138
R05        44.000    21159362.260 7 113108898.02107      -775.712 7        43.482                                                                    21159366.149 6  87973626.95406      -603.135 6        37.754
C42        45.000                                                                                                                                    24833230.241 6 129313108.18406     -2726.662 6        38.180                                                                    24833243.868 5 105077606.48605     -2215.769 5        35.695
C29        46.000                                                                                                                                                                                                                                                                    23074195.910 4  97634436.11804      -425.736 4        25.820
C30        47.000                                                                                                                                    25883151.995 4 134780329.84604     -3310.652 4        26.719
C26        48.000                                                                                                                                    22265513.150 7 115942396.12907       436.199 7        45.728                                                                    22265515.285 7  94212723.46807       354.488 7        42.019
C24        51.000                                                                                                                                    25583764.513 3                      1953.467 3        23.371                                                                    25583750.385 5                      1587.095 5        32.575
C14        53.000                                                                                                                                    24961202.097 5 129979557.00605     -1400.906 5        30.898    24961212.084 7 100508548.03107     -1083.333 7        42.320    24961195.885 3 105619105.40603     -1138.188 3        23.695
C21        55.000                                                                                                                                                                                                                                                                    26466396.812 4                     -3321.662 4        28.455
I06        58.000    38527126.341 6 151188714.39706      -750.763 6        41.039
> 2025 01 02 12 16 40.0000000  0 39
G17         2.000                                                                                                                                                                    24492653.800 3                     -3171.488 3        21.262
G25         3.000    22566992.299 6 118590398.66906      2184.037 6        41.404                                    22566999.000 2  92408073.87602      1701.843 2        13.818
G19         4.000    21791310.348 6 114514109.72706     -2605.811 6        40.072                                    21791308.085 4  89231757.49904     -2030.505 4        27.174
E25         6.000    24908063.949 7 130892750.58407       938.216 7        47.315                                                                    24908068.768 8  97744708.88208       700.587 8        48.762    24908068.546 8 100294466.90908       718.868 8        49.558
G10         7.000    25421872.185 6 133593037.60406     -3032.416 6        38.168                                                                                                    25421935.131 3                     -2362.650 3        21.476
G15         9.000    24716208.711 4                     -4742.650 4        26.383                                                                                                    24716213.002 3                     -3692.339 3        20.119
G24        12.000    20459075.700 8 107513770.02708     -2191.592 8        48.005                                    20459078.271 6  83776527.45906     -1707.730 6        41.783    20459078.466 6  83776501.41806     -1707.620 6        38.589
E31        13.000    26350204.455 4 138471194.11204     -3204.506 4        26.611                                                                    26350200.245 5 103403861.45505     -2392.839 5        33.150
E33        14.000    27051197.411 4                      -120.785 4        27.401                                                                                                                                    27051173.953 4 108923965.36104       -93.034 4        24.361
G12        15.000    20520192.501 8 107834435.83408       239.447 8        50.345                                    20520190.592 7  84027155.03207       186.581 7        47.072    20520190.800 7  84026761.04807       186.527 7        44.324
E24        16.000    23760453.743 7 124862000.44207     -1374.672 7        47.633                                                                    23760456.771 8  93241171.42908     -1026.537 8        52.967    23760455.625 8  95673575.56008     -1053.349 8        51.731
G32        17.000    23933346.179 7 125770420.88307      1537.528 7        42.210                                    23933345.717 5  98002988.75505      1198.069 5        33.952    23933351.153 6  98003073.73406      1198.147 6        37.214
E05        18.000    23180296.910 5 121813315.32905     -2797.358 5        35.362                                                                    23180301.403 6  90964458.31806     -2088.915 6        41.623    23180300.587 6  93337430.43806     -2143.406 6        38.904
E08        20.000    28738086.553 5 151019653.25505      1902.873 5        32.359                                                                    28738138.719 3                      1420.702 3        22.495    28738103.683 5 115716447.41405      1458.072 5        31.426
E09        21.000                                                                                                                                    28003112.478 3                     -3079.470 3        22.667
R14        23.000    19567088.391 7 104303530.22807      -853.949 7        46.105                                                                    19567093.936 7  81124955.95307      -664.177 7        44.886
S23        24.000    38265513.788 5 201086660.31505      -863.170 5        35.895
R23        25.000    21382859.275 5 114383862.53305     -1680.738 5        31.955
E03        26.000    25139363.917 5 132108306.09105        14.172 5        31.140                                                                    25139376.374 7  98652344.58007        10.589 7        42.309    25139371.260 7 101225895.31807        10.683 7        44.069
R13        27.000    22311308.879 4                     -3867.154 4        28.417
R04        29.000    21627774.377 7 115815928.96407     -4305.379 7        42.227                                                                    21627777.254 5  90078903.87105     -3348.541 5        35.143
R15        30.000                                                                                                                                    21687618.048 5  90138403.19405      1475.564 5        34.957
S36        31.000    38327841.700 5 201414197.16405      -858.559 5        34.819
C07        32.000                                                                                                                                                                                                    40028927.528 4                     -1362.178 4        25.203
C10        33.000                                                                                                                                    39133381.723 4                     -1488.464 4        27.521    39133380.789 6 157573883.84106     -1151.219 6        38.805    39133373.657 4 165586088.08104     -1209.521 4        28.284
C45        37.000                                                                                                                                    22628140.593 7 117830621.29307     -2462.280 7        45.789                                                                    22628133.860 7  95747051.43607     -2000.655 7        44.579
R24        38.000    21561731.323 7 115300246.99607      2446.042 7        43.287                                                                    21561725.176 5  89678049.46305      1901.905 5        31.079
C33        39.000                                                                                                                                    25831077.087 6 134509190.61406       -28.007 6        38.216                                                                    25831095.702 5 109299836.61005       -22.543 5        34.095
R22        41.000                                                                                                                                    24117550.741 3                     -3379.290 3        21.833
C35        42.000                                                                                                                                    24411897.119 6 127119193.86506      2291.300 6        39.916                                                                    24411901.408 6 103294790.28106      1862.296 6        36.370
R05        44.000    21160091.082 7 113112789.97707      -781.015 7        43.429                                                                    21160090.669 5  87976654.06105      -607.463 5        34.419
C42        45.000                                                                                                                                    24835847.247 5 129326748.12005     -2729.239 5        35.729                                                                    24835863.580 6 105088689.98906     -2217.618 6        36.147
C29        46.000                                                                                                                                    23074747.155 5                      -527.714 5        30.823                                                                    23074698.711 3                      -431.359 3        22.305
C30        47.000                                                                                                                                    25886333.590 4                     -3312.904 4        25.203
C26        48.000                                                                                                                                    22265094.240 7 115940220.59407       434.367 7        43.886                                                                    22265097.659 7  94210955.62607       352.998 7        42.493
C24        51.000                                                                                                                                    25581893.502 4                      1951.916 4        26.096                                                                    25581876.829 5                      1586.683 5        34.481
C14        53.000                                                                                                                                    24962549.851 5 129986570.50005     -1404.081 5        32.156    24962559.429 7 100513971.29207     -1085.930 7        42.643
C21        55.000                                                                                                                                                                                                                                                                    26470322.234 4                     -3322.335 4        27.689
I06        58.000    38528083.462 6 151192469.50006      -751.148 6        40.965
> 2025 01 02 12 16 45.0000000  0 39
G17         2.000    24496533.399 5 128730040.39505     -4067.536 5        31.253                                                                                                    24496523.819 3                     -3167.767 3        21.619
G25         3.000    22564915.164 7 118579478.97107      2183.411 7        43.215                                    22564921.851 3  92399565.02003      1701.358 3        18.985
G19         4.000    21793791.535 6 114527144.42806     -2608.423 6        41.137                                    21793787.984 4  89241914.40104     -2032.537 4        26.671
E25         6.000    24907171.315 7 130888060.03207       937.701 7        47.235                                                                    24907176.071 8  97741206.20508       700.255 8        48.768    24907175.997 8 100290872.86008       718.488 8        49.691
G10         7.000    25424762.240 6 133608201.94606     -3033.568 6        38.520                                                                                                    25424814.096 3                     -2360.067 3        19.910
G15         9.000    24720719.429 4                     -4741.697 4        26.132                                                                                                    24720731.528 3                     -3693.229 3        20.762
G24        12.000    20461162.145 8 107524732.51608     -2193.741 8        48.463                                    20461163.559 6  83785069.65106     -1709.404 6        40.918    20461164.452 6  83785043.60506     -1709.476 6        36.268
E31        13.000    26353254.213 4 138487214.96004     -3203.625 4        26.814                                                                    26353249.025 5 103415825.06305     -2392.743 5        32.443
E33        14.000    27051313.620 4                      -122.316 4        29.270                                                                                                                                    27051291.658 3 108924430.45003       -93.811 3        23.619
G12        15.000    20519965.362 8 107833242.44808       237.639 8        50.029                                    20519963.447 7  84026225.13207       185.170 7        46.866    20519963.483 7  84025831.15707       185.046 7        43.319
E24        16.000    23761762.129 8 124868874.75008     -1375.450 8        48.053                                                                    23761764.921 8  93246304.83208     -1027.086 8        53.081    23761763.775 8  95678842.87808     -1053.888 8        51.835
G32        17.000    23931883.748 6 125762736.79606      1535.756 6        41.952                                    23931883.751 5  97997001.16705      1196.689 5        34.081    23931889.063 6  97997086.16006      1196.654 6        37.720
E05        18.000    23182958.312 5 121827304.19705     -2798.501 5        33.671                                                                    23182963.429 6  90974904.55006     -2089.920 6        40.982    23182961.995 6  93348149.16406     -2144.627 6        39.042
E08        20.000    28736275.808 5 151010139.35905      1902.318 5        31.774                                                                    28736328.709 4                      1420.580 4        24.135    28736293.308 5 115709157.57705      1457.555 5        31.358
E09        21.000                                                                                                                                    28007037.131 3                     -3079.466 3        20.738
R14        23.000    19567890.160 7 104307802.84007      -855.437 7        46.250                                                                    19567895.424 7  81128279.10307      -665.406 7        44.823
S23        24.000    38266343.332 6 201090974.38006      -862.959 6        36.329
R23        25.000    21384427.634 4 114392275.09304     -1684.470 4        26.982
E03        26.000    25139351.478 5 132108239.33905        12.207 5        31.736                                                                    25139365.404 7  98652294.75807         9.049 7        42.703    25139358.980 7 101225844.17607         9.356 7        44.468
R13        27.000    22314933.675 4                     -3867.893 4        27.389
R04        29.000    21631794.737 6 115837460.37706     -4307.576 6        39.997                                                                    21631797.928 6  90095650.55106     -3350.168 6        36.276
R15        30.000    21685874.503 6 115882763.96506      1896.651 6        39.420                                                                    21685842.176 5  90131025.89705      1475.113 5        35.438
S36        31.000    38328656.175 5 201418489.63805      -858.554 5        35.776
C07        32.000                                                                                                                                                                                                    40030614.939 3                     -1360.826 3        23.086
C10        33.000                                                                                                                                    39134811.810 4                     -1488.458 4        28.218    39134809.896 6 157579638.40706     -1150.864 6        38.655    39134802.335 4 165592135.32304     -1209.676 4        28.512
C45        37.000                                                                                                                                    22630506.166 7 117842933.94807     -2463.097 7        46.305                                                                    22630498.661 7  95757056.51907     -2001.579 7        45.220
R24        38.000    21559444.115 7 115288021.83907      2443.587 7        42.574                                                                    21559441.485 5  89668541.02205      1900.796 5        30.332
C33        39.000                                                                                                                                    25831104.768 6 134509334.87206       -30.138 6        37.962                                                                    25831123.409 5 109299953.84105       -24.443 5        33.072
R22        41.000    24121666.483 5 128762827.57515     -4347.589 5        32.527                                                                    24121622.565 3                     -3383.236 3        22.648
C35        42.000                                                                                                                                    24409696.884 6 127107737.47006      2290.952 6        39.865                                                                    24409701.278 6 103285481.12006      1861.384 6        37.388
R05        44.000    21160824.595 7 113116704.45907      -785.208 7        43.022                                                                    21160823.286 5  87979698.67605      -610.748 5        34.252
C42        45.000                                                                                                                                    24838466.215 5 129340397.97905     -2731.207 5        33.599                                                                    24838485.065 6 105099781.60406     -2219.217 6        36.291
C29        46.000                                                                                                                                                                                                                                                                    23075190.916 4                      -430.586 4        25.368
C30        47.000                                                                                                                                    25889514.814 3                     -3312.993 3        22.800
C26        48.000                                                                                                                                    22264677.667 7 115938050.89707       433.336 7        42.559                                                                    22264681.147 7  94209192.59107       352.023 7        42.692
C24        51.000                                                                                                                                    25580017.227 4                      1953.310 4        26.108                                                                    25580002.223 5 108237359.31215      1586.710 5        35.790
C14        53.000                                                                                                                                    24963899.214 5 129993597.12605     -1406.908 5        31.109    24963908.508 7 100519404.69807     -1087.729 7        42.546
C21        55.000                                                                                                                                                                                                                                                                    26474247.183 4                     -3321.950 4        27.784
I06        58.000    38529040.363 6 151196223.96306      -750.816 6        40.930
> 2025 01 02 12 16 50.0000000  0 39
G17         2.000    24500410.023 5 128750381.36205     -4069.031 5        30.981                                                                                                    24500391.723 3                     -3170.263 3        19.881
G25         3.000    22562838.876 7 118568565.16407      2182.043 7        44.417                                    22562844.630 3  92391060.75903      1700.292 3        22.533    22562837.006 3                      1701.254 3        21.476
G19         4.000    21796274.566 6 114540193.45006     -2611.289 6        41.352                                    21796270.589 4  89252082.45404     -2034.775 4        26.587
E25         6.000    24906279.455 7 130883374.39107       936.504 7        47.237                                                                    24906284.324 8  97737707.20508       699.348 8        48.591    24906284.389 8 100287282.57408       717.586 8        49.672
G10         7.000    25427656.776 6 133623374.71406     -3035.452 6        37.270                                    25427718.155 1 104122253.50011     -2365.500 1         7.875
G15         9.000    24725228.569 4                     -4741.378 4        26.802                                                                                                    24725240.797 3                     -3692.161 3        20.976
G24        12.000    20463250.873 8 107535708.67808     -2196.688 8        48.214                                    20463251.185 6  83793622.49306     -1711.706 6        40.200    20463252.522 5  83793596.46505     -1711.757 5        33.557
E31        13.000    26356304.415 4 138503237.46704     -3205.049 4        26.862                                                                    26356297.875 5 103427789.81105     -2392.785 5        31.841
E33        14.000    27051428.943 4                      -125.136 4        29.630
G12        15.000    20519740.736 8 107832060.52008       235.181 8        50.350                                    20519738.390 7  84025304.16007       183.252 7        46.717    20519738.561 7  84024910.17407       183.117 7        42.834
E24        16.000    23763071.450 8 124875755.20808     -1376.752 8        48.722                                                                    23763074.173 8  93251442.83108     -1028.111 8        52.923    23763073.037 8  95684114.90908     -1054.944 8        51.865
G32        17.000    23930424.725 7 125755064.38607      1533.174 7        43.166                                    23930424.070 5  97991022.68605      1194.682 5        34.505    23930428.401 6  97991107.66106      1194.682 6        37.849
E05        18.000    23185615.532 4 121841302.72504     -2801.379 4        29.829                                                                    23185627.109 6  90985357.95506     -2091.493 6        40.033    23185626.002 6  93358875.24206     -2145.942 6        39.339
E08        20.000    28734465.990 5 151000629.93105      1900.742 5        30.785                                                                    28734519.155 4                      1419.593 4        24.436    28734483.153 5 115701871.13505      1456.811 5        31.170
E09        21.000                                                                                                                                    28010959.107 3                     -3079.647 3        22.857
R14        23.000    19568693.616 7 104312085.73607      -857.767 7        46.310                                                                    19568698.564 7  81131610.23707      -667.182 7        44.454
S23        24.000    38267156.943 6 201095288.36406      -862.925 6        36.204
R23        25.000    21385996.480 4 114400711.00504     -1689.747 4        27.964
E03        26.000    25139340.259 5 132108184.07405         9.829 5        31.411                                                                    25139356.287 7  98652253.51107         7.341 7        42.720    25139348.861 7 101225801.84307         7.525 7        45.043
R13        27.000    22318562.057 5                     -3868.563 5        30.551
R04        29.000    21635817.233 6 115859005.36806     -4310.481 6        40.574                                                                    21635821.071 6  90112407.77906     -3352.623 6        37.433
R15        30.000    21684099.901 6 115873283.53406      1895.517 6        38.414                                                                    21684069.023 5  90123652.29505      1474.142 5        35.233
S36        31.000    38329483.657 6 201422783.01006      -858.897 6        36.575
C07        32.000                                                                                                                                                                                                    40032310.887 3                     -1361.732 3        23.048
C10        33.000                                                                                                                                    39136239.975 4                     -1488.742 4        28.464    39136238.997 6 157585393.86106     -1151.219 6        38.453    39136231.589 4 165598183.39004     -1209.724 4        28.038
C45        37.000                                                                                                                                    22632872.758 7 117855253.03107     -2464.551 7        46.136                                                                    22632864.454 7  95767066.74407     -2002.733 7        45.734
R24        38.000    21557159.098 6 115275810.74806      2440.782 6        41.402                                                                    21557155.972 4  89659043.60804      1898.177 4        29.517
C33        39.000                                                                                                                                    25831135.389 6 134509493.07806       -33.076 6        37.384                                                                    25831153.631 5 109300082.37605       -26.866 5        32.719
C40        40.000                                                                                                                                    40479369.446 3                     -2036.291 3        19.910
R22        41.000                                                                                                                                    24125700.779 4                     -3383.434 4        24.256
C35        42.000                                                                                                                                    24407498.001 6 127096286.34506      2289.652 6        40.229                                                                    24407501.852 6 103276176.17206      1860.373 6        37.456
R05        44.000    21161558.748 6 113120642.45406      -790.021 6        40.238                                                                    21161564.490 5  87982761.62505      -614.802 5        31.374
C42        45.000                                                                                                                                    24841094.081 5 129354058.51305     -2733.506 5        33.790                                                                    24841108.414 6 105110881.85306     -2221.141 6        36.881
C29        46.000                                                                                                                                                                                                                                                                    23075704.478 4                      -432.729 4        27.377
C26        48.000                                                                                                                                    22264262.945 7 115935887.86507       431.752 7        42.709                                                                    22264266.065 7  94207434.92807       350.834 7        43.039
C24        51.000                                                                                                                                                                                                                                                                    25578127.908 6 108229426.51006      1586.241 6        36.552
C14        53.000                                                                                                                                    24965249.930 5 130000637.62605     -1408.968 5        30.506    24965259.371 7 100524848.87507     -1089.957 7        42.017    24965272.411 5                     -1145.294 5        33.629
C21        55.000                                                                                                                                    26478168.459 3                     -4086.233 3        20.500                                                                    26478171.895 4                     -3321.962 4        27.150
I06        58.000    38529996.322 6 151199978.41106      -751.047 6        40.782
> 2025 01 02 12 16 55.0000000  0 39
G17         2.000    24504285.435 5 128770726.75505     -4069.298 5        30.566
G25         3.000    22560762.811 7 118557656.45107      2181.076 7        43.778                                    22560768.438 4  92382560.46104      1699.542 4        24.632    22560758.864 3                      1700.351 3        23.752
G19         4.000    21798760.200 7 114553255.98807     -2613.941 7        43.105                                    21798755.707 4  89262261.03704     -2036.836 4        26.347
E25         6.000    24905388.196 7 130878692.85707       935.769 7        47.305                                                                    24905393.241 8  97734211.27008       698.745 8        48.414    24905393.493 8 100283695.43608       716.995 8        49.616
G10         7.000    25430548.442 5 133638554.99705     -3037.030 5        34.529                                    25430607.736 1 104134082.28201     -2366.545 1         4.571
G15         9.000    24729741.876 4                     -4743.533 4        25.609                                                                                                    24729757.838 3                     -3693.471 3        19.612
G24        12.000    20465341.632 7 107546697.70307     -2199.241 7        47.784                                    20465341.194 6  83802185.35206     -1713.694 6        39.192    20465341.999 5  83802159.29205     -1713.438 5        31.358
E31        13.000    26359353.453 4 138519260.58804     -3205.001 4        26.299                                                                    26359347.294 5 103439755.11205     -2393.407 5        31.864
E33        14.000    27051549.315 5                      -127.043 5        30.340                                                                                                                                    27051531.963 3                       -96.271 3        23.219
G12        15.000    20519518.115 8 107830889.29908       233.080 8        50.214                                    20519515.310 7  84024391.53407       181.617 7        46.473    20519516.152 7  84023997.53707       181.580 7        42.262
E24        16.000    23764382.055 8 124882641.01408     -1377.842 8        49.292                                                                    23764384.474 8  93256584.81908     -1028.905 8        52.985    23764383.267 8  95689391.03508     -1055.747 8        51.744
G32        17.000    23928967.193 7 125747402.83307      1531.028 7        44.268                                    23928966.446 5  97985052.66305      1193.005 5        34.833    23928970.046 6  97985137.65706      1192.960 6        38.102
E05        18.000                                                                                                                                    23188292.186 6  90995817.91406     -2092.772 6        39.093    23188291.312 6  93369608.07906     -2147.311 6        39.925
E08        20.000    28732656.210 4 150991124.00704      1900.636 4        29.261                                                                    28732710.281 4                      1419.298 4        24.421    28732674.545 5 115694587.42405      1456.575 5        30.460
E09        21.000    28014882.739 3                     -4124.421 3        20.833                                                                    28014883.206 3                     -3078.246 3        22.133
R14        23.000    19569499.255 7 104316378.48507      -859.608 7        47.209                                                                    19569503.858 7  81134949.04107      -668.579 7        43.898
S23        24.000    38267971.056 5 201099601.40305      -862.527 5        35.043
R23        25.000    21387576.257 4 114409169.34604     -1694.614 4        27.569
E03        26.000    25139334.119 4 132108139.61404         7.113 4        29.810                                                                    25139348.944 7  98652220.28907         5.806 7        42.688    25139340.673 7 101225767.73707         5.913 7        45.565
R13        27.000    22322190.993 5                     -3869.201 5        30.528
R04        29.000    21639841.848 6 115880563.03906     -4312.963 6        40.725                                                                    21639846.532 6  90129174.86106     -3354.395 6        37.800
R15        30.000                                                                                                                                    21682296.335 5  90116281.91105      1473.616 5        34.062
S36        31.000    38330297.743 6 201427075.71306      -858.825 6        36.526
C07        32.000                                                                                                                                                                                                    40034001.514 3                     -1361.331 3        23.790
C10        33.000                                                                                                                                    39137667.312 4                     -1488.749 4        28.777    39137668.554 6 157591149.53706     -1151.291 6        38.595    39137660.481 4 165604231.65704     -1209.289 4        26.874
C45        37.000                                                                                                                                    22635239.462 7 117867577.74507     -2465.553 7        45.335                                                                    22635231.207 7  95777081.53907     -2003.433 7        46.008
R24        38.000    21554878.416 6 115263613.00706      2438.107 6        40.010                                                                    21554877.897 5  89649556.48705      1896.111 5        30.725
C33        39.000                                                                                                                                    25831167.422 6 134509664.37606       -35.609 6        38.315                                                                    25831186.197 5 109300221.55805       -28.901 5        31.570
R22        41.000                                                                                                                                    24129778.747 4                     -3385.729 4        25.549
C35        42.000                                                                                                                                    24405300.965 6 127084839.66906      2288.764 6        40.632                                                                    24405303.524 6 103266874.83906      1859.798 6        37.845
R05        44.000    21162295.056 5 113124602.95605      -794.452 5        33.144                                                                    21162301.448 4  87985842.15504      -617.740 4        26.479
C42        45.000                                                                                                                                                                                                                                                                    24843734.116 6 105121990.15606     -2222.654 6        36.760
C29        46.000                                                                                                                                                                                                                                                                    23076220.217 4                      -435.154 4        29.270
C30        47.000                                                                                                                                    25895901.798 4                     -3318.022 4        25.579
C26        48.000                                                                                                                                    22263849.538 7 115933730.72707       430.595 7        43.310                                                                    22263851.899 7  94205682.05307       350.060 7        43.077
C24        51.000                                                                                                                                                                                                                                                                    25576253.428 6 108221493.85706      1586.248 6        37.036
C14        53.000                                                                                                                                    24966599.964 5 130007691.40705     -1412.450 5        30.166    24966613.849 7 100530303.28407     -1092.035 7        42.444    24966626.771 5 105641968.39715     -1147.694 5        35.486
C21        55.000                                                                                                                                                                                                                                                                    26482099.795 4                     -3322.146 4        26.563
I06        58.000    38530952.558 6 151203732.24706      -750.782 6        40.794
> 2025 01 02 12 17  0.0000000  0 38
G17         2.000    24508154.783 5 128791077.34405     -4070.243 5        30.325
G25         3.000    22558685.835 7 118546753.56007      2180.302 7        42.891                                    22558693.059 4  92374064.70904      1698.931 4        26.347
G19         4.000    21801248.403 7 114566332.78107     -2616.598 7        44.868                                    21801243.673 4  89272450.72504     -2038.911 4        26.539
E25         6.000    24904498.307 7 130874016.17407       935.063 7        47.291                                                                    24904503.182 8  97730718.95108       698.276 8        48.311    24904503.335 8 100280112.01608       716.478 8        49.605
G10         7.000    25433438.992 4 133653743.68104     -3038.510 4        29.896                                    25433499.194 1 104145917.58801     -2367.648 1         2.600
G15         9.000    24734252.947 4                     -4742.670 4        25.398                                                                                                    24734263.744 3                     -3693.785 3        21.310
G24        12.000    20467435.579 7 107557700.33207     -2201.772 7        47.898                                    20467433.762 6  83810758.80506     -1715.659 6        38.294    20467436.159 5  83810732.76405     -1715.743 5        31.653
E31        13.000    26362402.796 4 138535285.17104     -3204.451 4        26.970                                                                    26362397.056 5 103451721.48105     -2392.966 5        31.011
E33        14.000    27051673.456 4                      -129.620 4        29.716
G12        15.000    20519296.865 8 107829729.53508       230.996 8        50.221                                    20519294.416 7  84023487.83607       179.996 7        46.304    20519295.871 6  84023093.83506       179.972 6        41.945
E24        16.000    23765693.648 8 124889532.90408     -1378.815 8        49.485                                                                    23765695.995 8  93261731.35508     -1029.635 8        52.868    23765694.574 8  95694671.82708     -1056.477 8        51.700
G32        17.000    23927511.640 7 125739752.92007      1528.948 7        44.707                                    23927511.072 5  97979091.70505      1191.386 5        35.457    23927514.364 6  97979176.68306      1191.284 6        38.003
E05        18.000                                                                                                                                    23190958.781 6  91006285.02306     -2094.020 6        37.758    23190958.740 6  93380348.21306     -2148.600 6        40.365
E08        20.000    28730847.447 4 150981622.60604      1900.004 4        26.371                                                                    28730904.483 3                      1418.189 3        23.410    28730865.803 5 115687307.12505      1456.111 5        31.034
E09        21.000    28018805.935 3                     -4123.984 3        20.286                                                                    28018809.407 3                     -3080.512 3        22.286
R14        23.000    19570306.891 7 104320681.48307      -861.496 7        46.311                                                                    19570310.991 7  81138295.80907      -670.063 7        43.321
S23        24.000    38268788.710 5 201103914.46905      -862.401 5        34.581
R23        25.000    21389176.623 3                     -1697.618 3        21.524
E03        26.000    25139329.692 4 132108106.52504         5.989 4        29.033                                                                    25139343.270 7  98652195.63307         4.295 7        42.578    25139334.887 7 101225742.43407         4.271 7        46.067
R13        27.000    22325810.172 4                     -3869.948 4        27.054
R04        29.000    21643868.705 6 115902134.20406     -4315.353 6        41.497                                                                    21643874.935 6  90145952.45606     -3356.507 6        36.741
R15        30.000    21680532.204 6 115854335.59806      1893.901 6        39.562                                                                    21680525.688 5  90108915.21905      1473.131 5        35.524
S36        31.000    38331109.083 6 201431368.63106      -858.589 6        36.151
C07        32.000                                                                                                                                                                                                    40035694.233 3                     -1363.299 3        22.990
C10        33.000                                                                                                                                    39139099.645 4                     -1488.984 4        29.716    39139097.988 6 157596906.07506     -1151.294 6        38.345    39139090.042 4 165610280.92404     -1209.436 4        27.257
C45        37.000                                                                                                                                    22637607.220 7 117879908.83107     -2466.677 7        44.670                                                                    22637599.146 7  95787101.52207     -2004.280 7        46.441
R24        38.000    21552601.600 6 115251429.26706      2435.448 6        39.955                                                                    21552600.464 5  89640080.36205      1893.812 5        30.838
C33        39.000                                                                                                                                    25831204.349 6 134509849.54906       -38.168 6        39.709                                                                    25831220.989 5 109300372.05305       -30.963 5        30.898
C35        42.000                                                                                                                                    24403103.950 6 127073398.21606      2287.976 6        40.894                                                                    24403105.963 6 103257577.77506      1859.138 6        38.009
R05        44.000    21163042.008 5 113128586.93905      -799.269 5        32.251                                                                    21163052.749 5  87988940.81305      -621.352 5        34.090
C42        45.000                                                                                                                                                                                                                                                                    24846361.503 6 105133107.12006     -2224.095 6        37.032
C29        46.000                                                                                                                                    23076736.536 6 120166781.05616      -538.238 6        40.317                                                                    23076737.136 5                      -437.486 5        31.441
C30        47.000                                                                                                                                    25899086.778 4                     -3319.548 4        27.353
C26        48.000                                                                                                                                    22263436.683 7 115931580.20907       429.584 7        42.808                                                                    22263439.154 7  94203934.60307       349.073 7        43.206
C24        51.000                                                                                                                                    25574348.595 4                      1952.481 4        24.872                                                                    25574378.738 6 108213561.93906      1586.608 6        37.028
C14        53.000                                                                                                                                                                                                    24967971.377 7 100535768.45207     -1094.046 7        43.056    24967983.606 6 105647711.46906     -1149.687 6        36.881
C21        55.000                                                                                                                                                                                                                                                                    26486025.674 4                     -3322.425 4        26.168
I06        58.000    38531910.013 6 151207486.04306      -750.677 6        40.634
> 2025 01 02 12 17  5.0000000  0 38
G17         2.000    24512025.239 4 128811433.78204     -4071.598 4        29.564
G25         3.000    22556611.360 7 118535857.13407      2178.710 7        43.031                                    22556618.633 4  92365574.00804      1697.681 4        27.725    22556621.848 4                      1697.782 4        29.308
G19         4.000    21803739.432 7 114579424.39307     -2619.617 7        45.592                                    21803734.644 4  89282651.96204     -2041.253 4        26.946
E25         6.000    24903609.748 7 130869344.96907       933.907 7        47.912                                                                    24903614.065 8  97727230.73208       697.394 8        48.198    24903614.128 8 100276532.79008       715.584 8        49.421
G10         7.000    25436332.541 4 133668941.31504     -3040.538 4        29.744                                    25436392.701 1 104157759.89901     -2369.527 1         1.778    25436321.204 3                     -2369.672 3        20.381
G15         9.000    24738764.711 4                     -4743.163 4        24.150
G24        12.000    20469532.467 8 107568717.14208     -2204.573 8        48.038                                    20469529.271 6  83819343.31406     -1717.841 6        37.524    20469532.807 5  83819317.32005     -1718.049 5        33.281
E31        13.000    26365454.281 4 138551311.91104     -3205.279 4        29.137                                                                    26365447.695 5 103463689.42605     -2393.723 5        32.018
E33        14.000    27051797.190 4                      -132.266 4        29.355                                                                                                                                    27051805.801 4                      -101.617 4        24.962
G12        15.000    20519078.362 8 107828581.73908       228.604 8        50.330                                    20519075.821 7  84022593.46807       178.130 7        46.123    20519077.691 7  84022199.46207       178.123 7        42.102
E24        16.000    23767006.217 8 124896431.50508     -1380.197 8        49.823                                                                    23767008.700 8  93266882.90008     -1030.664 8        52.932    23767007.238 8  95699957.75408     -1057.546 8        51.709
G32        17.000    23926057.790 7 125732115.26307      1526.493 7        45.249                                    23926058.117 6  97973140.29906      1189.472 6        36.034    23926061.219 6  97973225.29106      1189.562 6        38.180
E05        18.000    23193640.182 5                     -2806.157 5        32.904                                                                    23193627.305 6  91016759.67306     -2095.401 6        36.786    23193628.186 6  93391096.13506     -2150.095 6        40.622
E08        20.000    28729037.481 4 150972126.18204      1898.693 4        24.211                                                                    28729100.716 4                      1418.276 4        24.165    28729059.147 5 115680030.72205      1455.159 5        30.664
E09        21.000    28022726.676 3                     -4123.401 3        20.000                                                                    28022732.558 3                     -3079.969 3        21.952
R14        23.000    19571115.325 7 104324995.36207      -863.654 7        44.773                                                                    19571120.659 7  81141651.06207      -671.679 7        43.960
S23        24.000    38269617.713 5 201108228.09505      -862.610 5        34.881
E03        26.000    25139329.996 4 132108085.60204         3.001 4        29.858                                                                    25139339.254 7  98652179.99507         2.411 7        42.461    25139331.175 7 101225726.38907         2.455 7        46.398
R13        27.000    22329432.151 4                     -3871.168 4        28.844
R04        29.000    21647899.258 7 115923719.44307     -4318.147 7        42.988                                                                    21647904.438 5  90162740.94705     -3358.584 5        35.352
R15        30.000                                                                                                                                    21678756.287 6  90101552.84406      1472.196 6        37.134
S36        31.000    38331922.033 5 201435662.12105      -858.578 5        35.538
C07        32.000                                                                                                                                                                                                    40037386.402 4                     -1361.565 4        24.812
C10        33.000                                                                                                                                    39140529.303 5                     -1489.368 5        30.619    39140528.121 6 157602663.87006     -1151.434 6        38.372
C45        37.000                                                                                                                                    22639976.615 7 117892246.85707     -2468.081 7        44.959                                                                    22639968.561 7  95797127.16107     -2005.493 7        46.579
R24        38.000    21550330.470 6 115239260.26006      2432.450 6        41.378                                                                    21550326.147 5  89630615.66805      1891.932 5        31.909
C33        39.000                                                                                                                                    25831246.204 6 134510049.15706       -41.196 6        40.775                                                                    25831258.564 5 109300534.29005       -33.603 5        30.838
R22        41.000    24137905.106 4 128849876.45314     -4356.803 4        29.194
C35        42.000                                                                                                                                    24400907.883 6 127061962.59306      2286.687 6        40.284                                                                    24400909.448 6 103248285.44106      1858.129 6        37.123
R05        44.000    21163793.002 5 113132594.93605      -804.055 5        34.429                                                                    21163805.043 6  87992058.18806      -625.348 6        36.646
C42        45.000                                                                                                                                                                                                                                                                    24848990.610 6 105144233.21906     -2225.956 6        36.548
C29        46.000                                                                                                                                    23077253.973 7 120169480.90607      -541.305 7        42.464                                                                    23077255.080 5                      -439.862 5        33.371
C30        47.000                                                                                                                                    25902274.996 4                     -3321.541 4        29.336
C26        48.000                                                                                                                                    22263024.338 6 115929436.94406       428.230 6        41.521                                                                    22263027.456 7  94202193.00907       347.915 7        43.094
C24        51.000                                                                                                                                                                                                                                                                    25572504.336 6 108205631.29906      1586.129 6        36.991
C14        53.000                                                                                                                                                                                                    24969331.838 7 100541244.84507     -1096.314 7        43.606    24969344.455 6 105653466.31706     -1152.002 6        36.839
C21        55.000                                                                                                                                    26489982.651 3                     -4088.744 3        22.229                                                                    26489952.161 4                     -3322.106 4        26.850
I06        58.000    38532866.486 6 151211240.24606      -750.636 6        40.796
> 2025 01 02 12 17 10.0000000  0 39
G17         2.000    24515896.227 4 128831794.97704     -4072.636 4        29.782
G25         3.000    22554539.167 7 118524966.06507      2177.757 7        42.891                                    22554545.182 4  92357087.46704      1696.945 4        28.616    22554542.696 5                      1696.904 5        31.374
G19         4.000    21806232.639 7 114592529.73407     -2622.374 7        46.182                                    21806228.307 4  89292863.88704     -2043.402 4        27.114
E25         6.000    24902721.802 8 130864678.12208       932.980 8        48.489                                                                    24902725.903 7  97723745.76007       696.727 7        47.971    24902725.660 8 100272956.90808       714.875 8        49.124
G10         7.000    25439220.981 5 133684146.63105     -3041.557 5        31.547                                                                                                    25439216.736 3                     -2369.930 3        20.310
G15         9.000    24743275.747 3                     -4740.786 3        22.971
G24        12.000    20471631.265 7 107579747.05407     -2207.294 7        47.872                                    20471627.665 6  83827938.02806     -1719.966 6        36.715    20471629.515 5  83827912.03005     -1720.063 5        34.205
E31        13.000    26368504.438 4 138567339.51704     -3205.328 4        29.905                                                                    26368498.325 5 103475658.04805     -2393.505 5        31.879
E33        14.000    27051919.932 5                      -134.425 5        30.634                                                                    27051930.589 5 106157582.27715      -100.018 5        31.464    27051926.235 4                      -102.511 4        25.143
G12        15.000    20518862.228 8 107827444.83108       226.365 8        49.947                                    20518859.363 7  84021707.57807       176.382 7        46.030    20518861.752 7  84021313.56207       176.524 7        42.478
E24        16.000    23768320.045 8 124903335.68008     -1381.392 8        49.932                                                                    23768322.576 8  93272038.60708     -1031.574 8        53.017    23768321.008 8  95705247.95408     -1058.493 8        51.785
G32        17.000    23924605.588 7 125724488.74807      1524.330 7        44.919                                    23924607.352 6  97967197.58506      1187.783 6        36.575    23924610.188 6  97967282.59306      1187.647 6        38.345
E05        18.000    23196307.197 5 121897427.27815     -2807.986 5        35.757                                                                    23196297.680 5  91027241.08105     -2096.826 5        35.210    23196299.068 6  93401850.97306     -2151.578 6        40.779
E08        20.000    28727223.549 3                      1897.918 3        21.167                                                                    28727295.624 3                      1418.392 3        23.029    28727252.628 5 115672757.27905      1454.672 5        30.370
E09        21.000    28026647.654 3                     -4124.332 3        21.714                                                                    28026654.891 3                     -3080.945 3        21.119
R14        23.000    19571925.236 7 104329319.08807      -865.670 7        44.051                                                                    19571931.831 7  81145013.95307      -673.354 7        43.981
S23        24.000    38270445.097 5 201112541.41505      -862.298 5        35.529
R23        25.000    21392357.700 4                     -1707.878 4        26.539
E03        26.000    25139331.883 5 132108075.71005         1.128 5        31.381                                                                    25139336.710 7  98652172.55807         0.649 7        42.011    25139329.481 7 101225718.76407         0.734 7        46.904
R13        27.000    22333060.787 4                     -3871.570 4        26.874
R04        29.000    21651935.752 7 115945317.52207     -4320.714 7        43.615                                                                    21651940.270 5  90179539.38805     -3360.608 5        34.671
R15        30.000    21676979.951 7 115835407.66707      1891.975 7        42.428                                                                    21676985.220 6  90094193.70306      1471.470 6        36.382
S36        31.000    38332743.023 5 201439954.71505      -858.333 5        34.924
C07        32.000                                                                                                                                                                                                    40039075.209 3                     -1362.565 3        22.800
C10        33.000                                                                                                                                    39141959.386 5                     -1489.125 5        30.158    39141958.604 6 157608422.10506     -1151.792 6        38.225    39141950.218 4 165622382.53604     -1210.212 4        26.539
C45        37.000                                                                                                                                    22642347.939 7 117904590.73207     -2469.311 7        45.527                                                                    22642339.001 7  95807157.55007     -2006.478 7        46.711
R24        38.000    21548061.297 6 115227104.86706      2429.869 6        40.791                                                                    21548055.568 5  89621161.55905      1890.236 5        33.880
C33        39.000                                                                                                                                    25831290.517 6 134510262.14906       -43.859 6        40.360                                                                    25831298.259 5 109300707.35605       -35.364 5        31.011
R22        41.000    24141992.264 4 128871667.84604     -4359.366 4        28.711
C35        42.000                                                                                                                                    24398711.631 6 127050531.71506      2285.823 6        40.033                                                                    24398713.647 6 103238996.93806      1857.458 6        36.344
R05        44.000    21164545.725 5 113136625.72805      -808.271 5        31.192                                                                    21164556.928 6  87995193.28406      -628.828 6        37.853
C42        45.000                                                                                                                                    24851647.553 3                     -2738.997 3        23.543                                                                    24851622.277 6 105155367.54906     -2227.734 6        36.234
C29        46.000                                                                                                                                    23077775.926 7 120172194.57707      -544.108 7        43.636                                                                    23077776.221 5  97649621.43815      -442.166 5        35.114
C30        47.000                                                                                                                                    25905463.661 5                     -3322.792 5        30.325
C26        48.000                                                                                                                                    22262613.146 6 115927299.83306       426.814 6        41.070                                                                    22262616.951 7  94200456.41007       346.815 7        42.840
C24        51.000                                                                                                                                                                                                                                                                    25570629.924 6 108197700.98406      1585.899 6        36.563
C14        53.000                                                                                                                                    24970708.029 6 130028936.76106     -1420.475 6        39.147    24970695.090 7 100546731.59307     -1098.279 7        43.558    24970707.261 5 105659232.02105     -1154.212 5        35.890
C21        55.000                                                                                                                                    26493918.533 3                     -4087.842 3        23.143                                                                    26493879.296 4                     -3322.216 4        25.714
I06        58.000    38533822.983 6 151214994.01306      -750.633 6        40.846
> 2025 01 02 12 17 15.0000000  0 38
G17         2.000    24519773.624 4 128852161.02404     -4072.941 4        27.605
G25         3.000    22552468.193 7 118514080.63407      2176.552 7        42.396                                    22552472.988 4  92348605.32804      1696.013 4        28.815    22552471.154 5                      1695.872 5        32.731
G19         4.000    21808728.987 7 114605649.05307     -2625.239 7        46.811                                    21808724.724 4  89303086.70804     -2045.635 4        27.413
E25         6.000    24901834.390 8 130860015.91208       931.990 8        48.213                                                                    24901838.695 7  97720264.24407       696.073 7        47.940    24901838.086 8 100269384.56208       714.169 8        48.947
G10         7.000    25442114.508 5 133699359.96905     -3043.291 5        30.830                                                                                                    25442114.991 3                     -2371.529 3        23.771
G15         9.000    24747787.328 3                     -4741.824 3        22.705
G24        12.000    20473732.496 7 107590790.32907     -2209.983 7        47.700                                    20473728.993 6  83836543.15806     -1722.055 6        36.219    20473730.903 5  83836517.15205     -1722.005 5        35.648
E31        13.000    26371553.452 5 138583368.45305     -3205.800 5        31.049                                                                    26371548.981 5 103487627.61405     -2394.024 5        32.228
E33        14.000    27052052.028 5                      -136.819 5        30.219                                                                    27052058.383 5 106158089.02505      -102.377 5        31.434    27052058.881 3                      -104.021 3        22.514
G12        15.000    20518647.552 8 107826319.09608       224.084 8        49.506                                    20518645.136 7  84020830.39107       174.609 7        45.842    20518647.464 7  84020436.37607       174.711 7        43.147
E24        16.000    23769635.008 8 124910245.71808     -1382.559 8        50.026                                                                    23769637.549 8  93277198.69208     -1032.423 8        53.124    23769635.875 8  95710542.64508     -1059.342 8        51.824
G32        17.000    23923156.560 7 125716873.70607      1521.894 7        45.257                                    23923158.775 6  97961263.79606      1185.884 6        37.134    23923161.046 6  97961348.80206      1185.818 6        38.405
E05        18.000    23198977.045 6 121911472.67806     -2809.925 6        38.321                                                                    23198969.575 5  91037729.41205     -2098.028 5        33.210    23198971.800 6  93412612.92506     -2153.006 6        40.956
E08        20.000                                                                                                                                    28725492.027 3                      1416.662 3        23.048    28725446.873 5 115665487.01305      1453.520 5        30.355
E09        21.000    28030570.089 3                     -4124.700 3        22.514                                                                    28030576.558 3                     -3079.303 3        21.976
R14        23.000    19572738.778 7 104333653.10307      -867.748 7        42.851                                                                    19572743.960 7  81148384.83607      -675.021 7        43.810
S23        24.000    38271261.137 5 201116854.42305      -862.187 5        35.462
R23        25.000    21393961.904 5                     -1712.102 5        34.633
E03        26.000    25139327.962 5 132108076.98805        -1.457 5        33.036                                                                    25139336.375 6  98652173.50606        -0.873 6        41.368    25139329.879 7 101225719.76107        -1.050 7        47.213
R13        27.000    22336691.620 4                     -3872.610 4        26.287
R04        29.000    21655977.972 7 115966928.73607     -4323.572 7        44.099                                                                    21655977.172 5  90196348.10005     -3362.963 5        35.781
R15        30.000    21675211.434 7 115825950.58207      1891.149 7        43.681                                                                    21675216.356 6  90086838.16806      1470.790 6        36.170
S36        31.000    38333564.429 5 201444247.14605      -858.291 5        34.848
C07        32.000                                                                                                                                                                                                    40040772.722 4                     -1362.219 4        24.556
C10        33.000                                                                                                                                    39143389.885 5                     -1489.767 5        30.551    39143388.811 6 157614180.95106     -1151.887 6        38.426    39143379.765 4 165628434.21304     -1210.100 4        27.066
C45        37.000                                                                                                                                    22644719.258 7 117916940.72107     -2470.629 7        45.892                                                                    22644710.823 7  95817192.89307     -2007.581 7        46.796
R24        38.000    21545786.877 6 115214963.26806      2426.885 6        40.782                                                                    21545784.861 5  89611718.21305      1887.483 5        35.086
C33        39.000                                                                                                                                    25831332.274 6 134510488.80206       -46.655 6        39.144                                                                    25831342.515 5 109300891.51305       -37.651 5        31.577
R22        41.000    24146086.749 4 128893470.78014     -4361.999 4        27.174
C35        42.000                                                                                                                                    24396517.112 6 127039105.85906      2284.641 6        39.045                                                                    24396518.728 5 103229712.49105      1856.453 5        35.576
R05        44.000    21165309.223 5 113140679.77705      -813.129 5        35.143                                                                    21165312.200 6  87998346.42406      -632.339 6        38.306
C42        45.000                                                                                                                                    24854280.882 4                     -2743.183 4        26.647                                                                    24854256.730 6 105166510.27906     -2229.478 6        36.473
C29        46.000                                                                                                                                    23078299.528 7 120174922.38607      -546.932 7        43.918                                                                    23078301.534 6  97651837.97706      -444.330 6        36.287
C26        48.000                                                                                                                                    22262204.249 6 115925169.12406       425.496 6        41.850                                                                    22262207.987 7  94198725.00307       345.839 7        42.423
C24        51.000                                                                                                                                    25568744.982 3                      1953.250 3        21.833                                                                    25568754.969 5 108189771.20805      1586.017 5        35.762
C14        53.000                                                                                                                                                                                                    24972059.452 7 100552228.87107     -1100.423 7        43.429    24972072.686 5 105665008.82005     -1156.414 5        35.410
C21        55.000                                                                                                                                    26497848.794 3                     -4090.708 3        22.381                                                                    26497806.079 4                     -3322.584 4        26.479
I06        58.000    38534779.729 6 151218747.57306      -750.507 6        40.779
> 2025 01 02 12 17 20.0000000  0 37
G17         2.000    24523654.593 4 128872532.38404     -4074.619 4        27.377
G25         3.000    22550397.729 7 118503201.15607      2175.220 7        42.142                                    22550401.969 4  92340127.83304      1694.973 4        28.739    22550402.273 5  92340124.90615      1694.907 5        33.737
G19         4.000    21811229.077 7 114618782.69007     -2628.179 7        47.249                                    21811224.021 4  89313320.68704     -2047.932 4        27.653
E25         6.000    24900947.673 7 130855358.65507       930.900 7        47.496                                                                    24900952.421 7  97716786.44107       695.122 7        47.929    24900951.376 8 100265816.02708       713.272 8        48.590
G10         7.000    25445013.865 5 133714581.61005     -3045.295 5        30.732                                                                                                    25445016.922 3                     -2373.013 3        22.705
G15         9.000    24752297.370 3                     -4743.398 3        21.690
G24        12.000    20475836.258 7 107601847.31507     -2212.752 7        47.180                                    20475833.284 5  83845158.96605     -1724.217 5        35.862    20475836.028 6  83845132.96106     -1724.146 6        37.278
E31        13.000    26374602.757 5 138599398.86305     -3206.150 5        30.891                                                                    26374600.071 5 103499598.35105     -2394.413 5        33.198
E33        14.000                                                                                                                                    27052190.047 5 106158604.81705      -104.186 5        31.147    27052193.571 4                      -105.818 4        24.361
G12        15.000    20518435.405 8 107825204.84808       221.656 8        48.879                                    20518433.244 7  84019962.15307       172.719 7        45.622    20518435.308 7  84019568.13907       172.806 7        43.638
E24        16.000    23770951.063 8 124917161.93308     -1383.937 8        49.772                                                                    23770953.711 8  93282363.39008     -1033.462 8        53.156    23770951.961 8  95715842.07408     -1060.431 8        51.839
G32        17.000    23921709.669 7 125709270.41707      1519.372 7        46.213                                    23921712.401 6  97955339.16606      1183.921 6        37.508    23921714.885 6  97955424.15406      1183.988 6        38.622
E05        18.000    23201649.571 6 121925527.63906     -2811.936 6        39.288                                                                    23201643.263 5  91048224.95705     -2099.985 5        31.049    23201646.854 6  93423382.24806     -2154.548 6        41.371
E08        20.000    28723618.997 3                      1898.669 3        18.955                                                                    28723690.374 3                      1415.909 3        23.905    28723641.061 4 115658220.20204      1452.771 4        29.526
E09        21.000    28034488.215 3                     -4125.181 3        21.310                                                                    28034501.104 3                     -3079.620 3        22.381
R14        23.000    19573552.728 6 104337997.46306      -869.995 6        41.645                                                                    19573558.618 7  81151763.77007      -676.552 7        42.387
S23        24.000    38272079.739 5 201121167.61605      -862.473 5        34.843
R23        25.000    21395568.745 6 114451840.91616     -1717.290 6        36.397
E03        26.000    25139328.838 5 132108089.86405        -3.858 5        34.614                                                                    25139338.414 6  98652183.13206        -2.882 6        40.484    25139332.396 7 101225729.64307        -2.916 7        47.670
R13        27.000    22340324.066 4                     -3872.423 4        25.504
R04        29.000    21660021.207 7 115988553.48407     -4326.317 7        44.710                                                                    21660014.071 5  90213167.30305     -3364.933 5        34.248
R15        30.000    21673443.274 7 115816498.43107      1890.002 7        43.145                                                                    21673447.412 6  90079486.52806      1469.839 6        38.348
S36        31.000    38334368.578 5 201448539.68805      -858.564 5        34.571
C07        32.000                                                                                                                                                                                                    40042473.816 3                     -1362.776 3        23.238
C10        33.000                                                                                                                                    39144822.069 5                     -1489.918 5        31.057    39144819.494 6 157619940.73106     -1152.019 6        38.414    39144810.594 4 165634486.82304     -1210.968 4        27.090
C45        37.000                                                                                                                                    22647091.932 7 117929297.16007     -2471.956 7        46.330                                                                    22647083.778 7  95827233.51007     -2008.655 7        46.901
R24        38.000    21543514.265 6 115202836.16306      2423.963 6        40.596                                                                    21543516.693 5  89602286.07405      1885.339 5        34.481
C33        39.000                                                                                                                                    25831371.665 6 134510729.47606       -49.592 6        38.880                                                                    25831389.756 5 109301087.08205       -40.370 5        32.796
C35        42.000                                                                                                                                    24394323.536 6 127027685.39106      2283.341 6        38.117                                                                    24394325.243 5 103220432.41105      1855.550 5        35.090
R05        44.000    21166075.117 6 113144757.19306      -817.824 6        39.553                                                                    21166074.965 6  88001517.68406      -636.286 6        39.580
C42        45.000                                                                                                                                    24856917.297 4                     -2745.870 4        29.213                                                                    24856892.939 6 105177661.74006     -2231.427 6        36.125
C29        46.000                                                                                                                                    23078826.685 7 120177664.62507      -549.901 7        43.236                                                                    23078828.727 6  97654066.30006      -446.876 6        37.977
C26        48.000                                                                                                                                    22261796.819 7 115923045.14507       424.049 7        42.100                                                                    22261800.240 7  94196999.10507       344.584 7        42.157
C24        51.000                                                                                                                                    25566881.183 4                      1951.216 4        25.534                                                                    25566881.653 5 108181842.27305      1585.919 5        34.967
C14        53.000                                                                                                                                    24973423.926 6 130043169.21706     -1426.094 6        40.846    24973425.630 7 100557736.98407     -1102.728 7        42.813    24973442.128 5 105670796.98105     -1158.938 5        33.479
C21        55.000                                                                                                                                                                                                                                                                    26501732.427 4                     -3321.871 4        26.695
I06        58.000    38535736.186 6 151222501.16906      -750.646 6        40.663
> 2025 01 02 12 17 25.0000000  0 38
G17         2.000    24527532.695 4 128892909.00414     -4075.877 4        26.611
G25         3.000    22548327.558 6 118492327.54506      2174.545 6        41.168                                    22548332.372 4  92331654.90204      1694.445 4        28.550    22548332.447 5  92331651.90005      1694.596 5        34.714
G19         4.000    21813730.920 7 114631930.48207     -2630.497 7        46.654                                    21813726.198 4  89323565.69604     -2049.735 4        28.209
E25         6.000    24900062.235 7 130850706.25207       930.407 7        46.693                                                                    24900067.154 7  97713312.25607       694.802 7        47.848    24900065.890 8 100262251.21008       712.896 8        48.616
G10         7.000    25447909.151 4 133729811.48104     -3046.092 4        28.019                                                                                                    25447917.776 3                     -2374.824 3        22.743
G15         9.000    24756809.510 3                     -4739.580 3        18.896
G24        12.000    20477942.774 7 107612917.86607     -2215.106 7        46.781                                    20477940.537 6  83853785.34306     -1726.054 6        36.178    20477942.657 6  83853759.37606     -1726.165 6        37.645
E31        13.000    26377653.302 5 138615430.70505     -3206.413 5        30.672                                                                    26377650.585 5 103511570.11105     -2394.353 5        32.766
E33        14.000    27052335.757 4                      -141.643 4        28.502                                                                    27052323.226 4 106159129.64004      -105.742 4        28.199    27052329.182 3                      -108.881 3        23.486
G12        15.000    20518225.480 8 107824102.09808       219.876 8        48.765                                    20518223.610 7  84019102.87307       171.331 7        45.604    20518225.397 7  84018708.86207       171.327 7        43.486
E24        16.000    23772268.547 8 124924084.21708     -1384.639 8        49.650                                                                    23772271.073 8  93287532.62108     -1034.013 8        53.243    23772269.313 8  95721146.14708     -1060.991 8        52.179
G32        17.000    23920265.340 7 125701678.81107      1517.524 7        46.812                                    23920268.121 6  97949423.64106      1182.479 6        38.105    23920269.457 6  97949508.61106      1182.504 6        38.598
E05        18.000    23204323.846 6 121939592.08506     -2813.392 6        40.455                                                                    23204319.176 4  91058727.53904     -2101.029 4        29.507    23204323.958 6  93434158.85706     -2155.732 6        41.852
E08        20.000    28721817.219 3                      1894.563 3        21.881                                                                    28721888.275 3                      1415.331 3        23.448    28721836.801 4 115650956.78704      1452.338 4        28.616
E09        21.000    28038412.949 3                     -4125.362 3        21.262                                                                    28038425.856 3                     -3079.293 3        21.357
R14        23.000    19574371.274 7 104342352.24807      -871.616 7        42.736                                                                    19574375.380 6  81155150.81306      -677.935 6        41.392
S23        24.000    38272887.082 5 201125480.61305      -862.390 5        33.569
R23        25.000    21397181.181 6 114460437.82806     -1721.168 6        36.095
E03        26.000    25139341.882 6 132108114.33506        -5.563 6        37.841                                                                    25139340.609 6  98652201.31106        -4.097 6        38.994    25139337.261 8 101225748.33508        -4.377 8        48.200
R04        29.000    21664060.981 7 116010191.49607     -4328.477 7        45.243                                                                    21664054.436 5  90229996.83105     -3366.794 5        32.198
R15        30.000    21671674.141 7 115807051.15307      1889.396 7        44.039                                                                    21671680.115 6  90072138.67706      1469.444 6        39.622
S36        31.000    38335190.011 5 201452832.11505      -858.139 5        35.348
C07        32.000                                                                                                                                                                                                    40044164.032 3                     -1362.595 3        22.190
C10        33.000                                                                                                                                    39146255.703 5                     -1490.019 5        32.335    39146250.236 6 157625701.27206     -1151.783 6        38.288    39146239.823 4 165640540.27604     -1210.039 4        26.946
C45        37.000                                                                                                                                    22649466.204 7 117941659.94307     -2472.756 7        46.459                                                                    22649458.042 7  95837279.27207     -2009.555 7        47.010
R24        38.000    21541246.975 6 115190723.18106      2421.647 6        40.961                                                                    21541251.034 5  89592864.91605      1883.359 5        34.852
C33        39.000                                                                                                                                    25831421.645 6 134510983.97006       -51.752 6        39.802                                                                    25831438.644 5 109301293.89405       -42.410 5        33.611
R22        41.000                                                                                                                                    24154248.959 3                     -3398.931 3        20.524
C35        42.000                                                                                                                                    24392130.190 6 127016270.11006      2283.189 6        36.960                                                                    24392132.892 5 103211156.62105      1854.720 5        34.119
R05        44.000    21166840.989 6 113148858.11806      -822.054 6        40.646                                                                    21166842.194 6  88004707.24406      -639.373 6        38.919
C42        45.000                                                                                                                                    24859552.760 5                     -2747.479 5        30.219                                                                    24859529.853 6 105188821.79606     -2232.728 6        36.083
C29        46.000                                                                                                                                    23079357.847 7 120180421.21907      -552.331 7        42.650                                                                    23079358.900 6  97656306.27306      -449.139 6        39.063
C30        47.000                                                                                                                                    25914970.992 4                     -3328.724 4        28.142
C26        48.000                                                                                                                                    22261389.247 7 115920927.81007       423.201 7        42.756                                                                    22261393.798 6  94195278.58806       343.597 6        41.597
C24        51.000                                                                                                                                    25565011.266 4                      1951.569 4        27.533                                                                    25565008.802 5 108173914.09805      1585.975 5        34.352
C14        53.000                                                                                                                                    24974796.854 6 130050306.31206     -1428.282 6        41.762    24974795.189 7 100563255.82107     -1104.562 7        42.781    24974814.120 5 105676596.42605     -1160.618 5        30.370
C21        55.000                                                                                                                                                                                                                                                                    26505658.378 4                     -3321.844 4        26.754
I06        58.000    38536692.790 6 151226254.70906      -750.495 6        40.358
> 2025 01 02 12 17 30.0000000  0 36
G17         2.000    24531415.279 4 128913290.33004     -4076.874 4        26.623
G25         3.000    22546258.329 6 118481459.49606      2172.964 6        39.580                                    22546263.934 4  92323186.30104      1693.218 4        27.437    22546264.653 5  92323183.26305      1693.414 5        34.795
G19         4.000    21816234.991 7 114645092.12607     -2633.761 7        46.790                                    21816231.282 4  89333821.50504     -2052.279 4        28.777
E25         6.000    24899177.912 7 130846058.36107       929.169 7        45.968                                                                    24899182.765 7  97709841.43107       693.825 7        47.671    24899181.228 8 100258689.84508       711.870 8        48.252
G10         7.000    25450803.047 4 133745049.22904     -3048.018 4        27.940                                                                                                    25450810.021 3                     -2376.081 3        21.714
G24        12.000    20480051.676 7 107624001.64707     -2218.189 7        46.151                                    20480050.481 6  83862422.03206     -1728.449 6        36.658    20480051.685 6  83862396.07306     -1728.552 6        37.278
E31        13.000    26380702.861 5 138631463.68805     -3206.533 5        31.064                                                                    26380702.097 5 103523542.67605     -2394.677 5        33.138
E33        14.000    27052478.406 4                      -143.901 4        24.707                                                                    27052457.229 4 106159663.17504      -107.103 4        26.251    27052465.795 3                      -111.785 3        23.886
G12        15.000    20518017.785 8 107823010.40208       217.208 8        48.403                                    20518016.082 7  84018252.20307       169.255 7        45.226    20518017.332 7  84017858.19207       169.213 7        42.897
E24        16.000    23773587.139 8 124931012.22008     -1386.225 8        49.860                                                                    23773589.446 8  93292706.12108     -1035.146 8        53.144    23773587.750 8  95726454.60608     -1062.198 8        52.206
G32        17.000    23918822.464 7 125694098.55207      1514.877 7        47.370                                    23918825.893 6  97943516.95906      1180.423 6        38.372    23918827.567 6  97943601.95406      1180.433 6        38.336
E05        18.000    23207000.284 6 121953665.66006     -2815.635 6        41.628                                                                    23206995.574 4  91069236.98104     -2102.495 4        28.370    23207002.789 7  93444942.49007     -2157.503 7        42.027
E08        20.000    28720019.332 3                      1893.239 3        22.914                                                                    28720086.153 3                      1415.423 3        23.105    28720033.591 4 115643696.63604      1451.960 4        27.521
E09        21.000    28042334.763 3                     -4126.266 3        19.254                                                                    28042347.388 3                     -3079.636 3        22.133
R14        23.000    19575190.726 7 104346716.91807      -873.929 7        43.695                                                                    19575194.432 6  81158545.57006      -679.731 6        41.783
S23        24.000    38273716.612 5 201129793.25805      -862.507 5        34.286
R23        25.000    21398799.940 5 114469057.42205     -1726.505 5        32.269
E03        26.000    25139349.148 6 132108149.90606        -8.212 6        39.901                                                                    25139342.917 6  98652227.81806        -6.130 6        37.732    25139344.005 8 101225775.55808        -6.294 8        48.423
R04        29.000    21668094.787 7 116031842.51407     -4331.500 7        44.897                                                                    21668097.211 5  90246836.46905     -3368.934 5        32.725
R15        30.000    21669906.809 7 115797608.38407      1888.205 7        43.606                                                                    21669912.123 6  90064794.32106      1468.466 6        38.862
S36        31.000    38336010.147 5 201457123.48805      -858.064 5        35.643
C07        32.000                                                                                                                                                                                                    40045852.176 3                     -1362.545 3        20.214
C10        33.000                                                                                                                                    39147683.376 5                     -1490.011 5        32.419    39147681.022 6 157631462.35506     -1152.333 6        38.063    39147671.700 4 165646594.27904     -1210.731 4        26.323
C45        37.000                                                                                                                                    22651840.716 7 117954028.71807     -2474.318 7        46.049                                                                    22651833.434 7  95847329.89807     -2010.609 7        47.074
R24        38.000    21538986.723 6 115178623.88106      2418.285 6        40.620                                                                    21538985.969 5  89583454.46005      1880.603 5        34.919
C33        39.000                                                                                                                                    25831476.211 6 134511251.98606       -55.046 6        38.456                                                                    25831490.772 5 109301511.65905       -44.338 5        34.914
R22        41.000                                                                                                                                    24158338.419 3                     -3397.844 3        22.686
C35        42.000                                                                                                                                    24389939.126 6 127004859.80206      2281.428 6        37.796                                                                    24389940.622 5 103201884.78505      1854.211 5        33.090
R05        44.000    21167607.801 5 113152981.84805      -827.244 5        34.981                                                                    21167611.230 6  88007914.65006      -643.239 6        36.673
C42        45.000                                                                                                                                    24862193.950 4                     -2750.116 4        27.234                                                                    24862168.997 6 105199990.15906     -2234.561 6        36.389
C29        46.000                                                                                                                                    23079891.343 6 120183191.86306      -555.633 6        40.574                                                                    23079891.623 6  97658557.63206      -451.527 6        39.081
C26        48.000                                                                                                                                    22260983.520 7 115918816.76007       421.499 7        43.839                                                                    22260988.001 6  94193563.19206       342.596 6        40.422
C24        51.000                                                                                                                                    25563131.968 4                      1951.604 4        26.754                                                                    25563138.231 5 108165986.37605      1585.516 5        33.497
C14        53.000                                                                                                                                    24976173.072 7 130057456.92907     -1431.437 7        42.427    24976169.587 7 100568785.12907     -1106.885 7        44.027    24976190.972 4 105682406.83604     -1163.229 4        27.689
C21        55.000                                                                                                                                    26509573.286 3                     -4087.350 3        21.524                                                                    26509581.895 4                     -3322.312 4        26.120
I06        58.000    38537648.874 6 151230007.93806      -750.576 6        40.215
> 2025 01 02 12 17 35.0000000  0 35
G25         3.000    22544189.131 6 118470596.67306      2172.122 6        37.399                                    22544196.461 4  92314721.79504      1692.545 4        25.233    22544196.430 5  92314718.79105      1692.803 5        35.495
G19         4.000    21818742.458 7 114658267.41707     -2636.149 7        46.139                                    21818739.102 4  89344087.94604     -2054.138 4        28.815
E25         6.000    24898294.284 7 130841414.75907       928.501 7        45.901                                                                    24898299.269 7  97706373.81607       693.331 7        47.473    24898297.368 7 100255131.76107       711.428 7        47.951
G10         7.000    25453702.361 4 133760294.51004     -3049.808 4        27.389                                                                                                    25453712.135 3                     -2376.331 3        23.943
G24        12.000    20482163.075 7 107635098.43407     -2220.534 7        45.619                                    20482162.987 6  83871068.86406     -1730.282 6        36.922    20482162.552 6  83871042.90806     -1730.360 6        36.979
E31        13.000    26383753.169 4 138647497.49204     -3207.124 4        29.943                                                                    26383753.013 5 103535515.94305     -2394.440 5        33.228    26383762.693 5 106236473.47815     -2456.845 5        35.105
E33        14.000                                                                                                                                                                                                    27052602.684 4                      -112.357 4        25.128
G12        15.000    20517811.897 7 107821929.50007       215.303 7        47.247                                    20517810.571 7  84017409.93707       167.769 7        44.530    20517812.133 7  84017015.92507       167.768 7        42.870
E24        16.000    23774906.438 8 124937945.72608     -1387.015 8        50.152                                                                    23774908.860 8  93297883.73608     -1035.767 8        52.933    23774907.306 8  95731767.28308     -1062.780 8        52.234
G32        17.000    23917381.867 7 125686529.43307      1512.897 7        46.718                                    23917385.718 6  97937618.96306      1178.880 6        38.574    23917387.436 6  97937703.93706      1178.934 6        39.135
E05        18.000    23209680.053 7 121967748.19607     -2817.151 7        42.834                                                                    23209673.402 4  91079753.14004     -2103.635 4        26.850    23209683.373 7  93455732.96607     -2158.720 7        42.459
E08        20.000                                                                                                                                    28718288.118 3                      1411.605 3        22.648
E09        21.000    28046261.500 3                     -4122.193 3        20.024                                                                    28046273.173 3                     -3077.896 3        21.429
R14        23.000    19576011.147 7 104351091.38707      -875.671 7        43.043                                                                    19576015.525 7  81161947.89807      -680.877 7        42.034
S23        24.000    38274540.250 5 201134105.45905      -862.289 5        34.300
R23        25.000    21400408.502 4 114477699.34004     -1729.991 4        29.374
E03        26.000    25139355.340 6 132108196.36706       -10.213 6        40.613                                                                    25139350.778 6  98652262.51506        -7.350 6        36.711    25139352.970 8 101225811.16108        -7.736 8        48.475
R04        29.000    21672136.226 6 116053506.14406     -4333.797 6        41.964                                                                    21672144.082 5  90263685.98705     -3370.538 5        32.916
R15        30.000    21668140.003 7 115788169.84807      1887.599 7        43.289                                                                    21668145.404 6  90057453.25506      1468.018 6        38.051
S36        31.000    38336827.488 5 201461413.45505      -857.922 5        35.438
C07        32.000                                                                                                                                    40047556.824 3                     -1761.679 3        20.071    40047562.648 3                     -1360.201 3        21.262
C10        33.000                                                                                                                                    39149113.910 5                     -1490.189 5        33.078    39149111.893 6 157637223.81606     -1152.012 6        38.553    39149102.415 4 165652648.70004     -1210.401 4        26.419
C45        37.000                                                                                                                                    22654216.110 7 117966403.27607     -2475.238 7        45.872                                                                    22654209.996 7  95857385.23507     -2011.600 7        47.071
R24        38.000    21536728.888 6 115166538.38006      2415.870 6        39.700                                                                    21536725.680 5  89574054.62905      1879.064 5        34.414
C33        39.000                                                                                                                                    25831526.677 5 134511533.34805       -57.273 5        35.919                                                                    25831544.850 5 109301740.28605       -46.664 5        35.233
R22        41.000                                                                                                                                    24162435.525 4                     -3400.180 4        25.970
C35        42.000                                                                                                                                    24387747.377 6 126993454.19506      2280.928 6        37.270                                                                    24387751.022 5 103192616.79405      1853.340 5        33.898
R05        44.000    21168379.018 5 113157128.52505      -831.391 5        32.958                                                                    21168386.839 6  88011139.84106      -646.677 6        37.977
C42        45.000                                                                                                                                    24864845.699 3                     -2751.550 3        23.638                                                                    24864811.000 6 105211166.71306     -2236.469 6        36.469
C29        46.000                                                                                                                                    23080423.652 6 120185976.27406      -558.084 6        37.992                                                                    23080427.027 6  97660820.19106      -453.686 6        39.453
C26        48.000                                                                                                                                    22260580.234 7 115916711.81407       420.562 7        45.105                                                                    22260583.340 6  94191852.76306       341.414 6        39.411
C24        51.000                                                                                                                                    25561256.615 4                      1951.607 4        26.192                                                                    25561270.470 5 108158058.93205      1585.300 5        33.575
C14        53.000                                                                                                                                    24977547.436 7 130064620.84907     -1433.843 7        42.400    24977548.149 7 100574324.73507     -1108.812 7        45.041    24977570.975 4 105688228.02404     -1165.553 4        25.203
C21        55.000                                                                                                                                    26513500.792 4                     -4088.507 4        25.128                                                                    26513504.930 4                     -3322.166 4        26.886
I06        58.000    38538605.721 6 151233760.68306      -750.283 6        40.648
