     3.04           OBSERVATION DATA    M                   RINEX VERSION / TYPE
ssrcrin-15.6.1x                         20250102 214500 UTC PGM / RUN BY / DATE 
(00000000023479385599111004) Septentrio proprietary         COMMENT             
ract                                                        MARKER NAME         
01                                                          MARKER NUMBER       
geodetic                                                    MARKER TYPE         
NFB                 CLIMERS@TUW                             OBSERVER / AGENCY   
3296359             SEPT ASTERX SB3 PROB4.14.4              REC # / TYPE / VERS 
Unknown             Unknown                                 ANT # / TYPE        
  4127447.2486  1206915.5346  4695543.7487                  APPROX POSITION XYZ 
        0.0000        0.0000        0.0000                  ANTENNA: DELTA H/E/N
G   23 X1  C1C L1C D1C S1C C1W S1W C2W L2W D2W S2W C2L L2L  SYS / # / OBS TYPES 
       D2L S2L C5Q L5Q D5Q S5Q C1L L1L D1L S1L              SYS / # / OBS TYPES 
E   21 X1  C1C L1C D1C S1C C6C L6C D6C S6C C5Q L5Q D5Q S5Q  SYS / # / OBS TYPES 
       C7Q L7Q D7Q S7Q C8Q L8Q D8Q S8Q                      SYS / # / OBS TYPES 
S    9 X1  C1C L1C D1C S1C C5I L5I D5I S5I                  SYS / # / OBS TYPES 
R   17 X1  C1C L1C D1C S1C C2P L2P D2P S2P C2C L2C D2C S2C  SYS / # / OBS TYPES 
       C3Q L3Q D3Q S3Q                                      SYS / # / OBS TYPES 
C   25 X1  C1P L1P D1P S1P C5P L5P D5P S5P C2I L2I D2I S2I  SYS / # / OBS TYPES 
       C7I L7I D7I S7I C6I L6I D6I S6I C7D L7D D7D S7D      SYS / # / OBS TYPES 
J   17 X1  C1C L1C D1C S1C C2L L2L D2L S2L C5Q L5Q D5Q S5Q  SYS / # / OBS TYPES 
       C1L L1L D1L S1L                                      SYS / # / OBS TYPES 
I    5 X1  C5A L5A D5A S5A                                  SYS / # / OBS TYPES 
SEPTENTRIO RECEIVERS OUTPUT ALIGNED CARRIER PHASES.         COMMENT             
NO FURTHER PHASE SHIFT APPLIED IN THE RINEX ENCODER.        COMMENT             
G L1C                                                       SYS / PHASE SHIFT   
G L2W                                                       SYS / PHASE SHIFT   
G L2L  0.00000                                              SYS / PHASE SHIFT   
G L5Q  0.00000                                              SYS / PHASE SHIFT   
G L1L  0.00000                                              SYS / PHASE SHIFT   
E L1C  0.00000                                              SYS / PHASE SHIFT   
E L6C  0.00000                                              SYS / PHASE SHIFT   
E L5Q  0.00000                                              SYS / PHASE SHIFT   
E L7Q  0.00000                                              SYS / PHASE SHIFT   
E L8Q  0.00000                                              SYS / PHASE SHIFT   
S L1C                                                       SYS / PHASE SHIFT   
S L5I                                                       SYS / PHASE SHIFT   
R L1C                                                       SYS / PHASE SHIFT   
R L2P  0.00000                                              SYS / PHASE SHIFT   
R L2C                                                       SYS / PHASE SHIFT   
R L3Q  0.00000                                              SYS / PHASE SHIFT   
C L1P  0.00000                                              SYS / PHASE SHIFT   
C L5P  0.00000                                              SYS / PHASE SHIFT   
C L2I                                                       SYS / PHASE SHIFT   
C L7I                                                       SYS / PHASE SHIFT   
C L6I                                                       SYS / PHASE SHIFT   
C L7D                                                       SYS / PHASE SHIFT   
J L1C                                                       SYS / PHASE SHIFT   
J L2L  0.00000                                              SYS / PHASE SHIFT   
J L5Q  0.00000                                              SYS / PHASE SHIFT   
J L1L  0.00000                                              SYS / PHASE SHIFT   
I L5A                                                       SYS / PHASE SHIFT   
  2025     1     2    21    45    0.0000000     GPS         TIME OF FIRST OBS   
 C1C    0.000 C2C    0.000 C2P    0.000                     GLONASS COD/PHS/BIS 
DBHZ                                                        SIGNAL STRENGTH UNIT
    18                                                      LEAP SECONDS        
 24 R01  1 R02 -4 R03  5 R04  6 R05  1 R06 -4 R07  5 R08  6 GLONASS SLOT / FRQ #
    R09 -2 R10 -7 R11  0 R12 -1 R13 -2 R14 -7 R15  0 R16 -1 GLONASS SLOT / FRQ #
    R17  4 R18 -3 R19  3 R20  2 R21  4 R22 -3 R23  3 R24  2 GLONASS SLOT / FRQ #
                                                            END OF HEADER       
> 2025 01 02 21 45  0.0000000  0 41
G10         1.000    21233287.525 7 111581652.71007     -2504.424 7        46.281                                    21233285.662 7  86946750.13107     -1951.496 7        45.714    21233284.797 7  86946742.08907     -1951.435 7        45.403
G32         3.000    22677767.683 6 119172461.39106      1321.421 6        38.327                                    22677790.008 1  92861780.88001      1029.765 1         5.714    22677761.739 3                      1029.749 3        22.629
G21         4.000    21176475.378 7 111283234.02707       508.366 7        42.150                                    21176467.636 3  86714104.23503       396.131 3        20.643
G08         5.000    20288820.981 8 106618527.78108     -1151.154 8        48.550                                    20288818.040 8  83079331.62408      -897.013 8        49.346    20288819.913 7  83079313.64607      -896.938 7        46.105
G02         6.000    22823234.301 6 119936939.56106      1495.644 6        39.087                                    22823223.915 3  93457246.08503      1165.439 3        20.524
G14         7.000    24686859.870 6 129730471.71006      1327.572 6        38.736                                                                                                    24686854.122 4                      1034.619 4        28.190
E09         8.000    27452497.765 4                     -2377.581 4        26.180                                                                    27452495.996 5                     -1775.416 5        30.445    27452484.631 3                     -1822.094 3        22.190
E03         9.000    26717276.951 5                      2110.026 5        33.251                                                                    26717275.829 6 104844358.47006      1575.761 6        40.148    26717274.170 6 107579451.51206      1616.886 6        40.641
E05        11.000    24011259.914 4 126180034.14904       234.405 4        29.829                                                                    24011262.110 5  94225433.99305       174.824 5        35.081    24011277.841 4  96683433.85904       178.754 4        25.669
E13        12.000    27564698.447 4                      1507.440 4        29.318                                                                    27564693.485 4                      1127.499 4        24.150
G27        13.000    21268677.684 7 111767624.50607     -3419.441 7        42.174                                    21268671.096 5  87091674.65405     -2664.494 5        30.657    21268674.047 5  87091667.61605     -2664.217 5        34.076
E27        14.000    25521556.594 7 134116761.19407     -2167.386 7        42.700                                                                    25521555.398 7 100152094.13307     -1618.584 7        42.808    25521553.746 7 102764767.35807     -1660.801 7        42.567
E21        15.000                                                                                                                                    27129872.202 5 106463505.31005       361.030 5        35.252    27129875.583 6 109240829.44706       370.441 6        39.934
E15        16.000    23827876.659 7 125216467.46507       137.955 7        43.223                                                                    23827877.076 6  93505706.41606       102.922 6        40.381    23827876.087 6  95945010.32606       105.520 6        39.682
S23        17.000    38180476.391 6 200639769.12006      -861.394 6        37.206
E30        19.000    27172831.880 5 142794193.43505     -3902.443 5        35.367                                                                    27172836.982 4 106632044.63304     -2914.297 4        29.460    27172870.294 4 109413726.26304     -2990.564 4        26.826
R20        20.000    20844280.323 4                     -3130.756 4        27.449                                                                    20844284.142 5  86694039.80805     -2434.797 5        35.281
S36        22.000    38223260.223 6 200864580.73106      -862.843 6        37.524
R05        28.000    20269058.704 7 108349717.32607     -2306.934 7        47.389                                                                    20269059.390 7  84272011.40407     -1794.325 7        44.155
R12        30.000    22458356.046 8 119968417.83608     -1677.417 8        48.463                                                                    22458347.256 7  93308791.39407     -1304.647 7        43.172
E34        32.000    24122991.763 7 126767173.65507     -2139.462 7        46.591                                                                    24122992.002 7  94663817.90707     -1597.651 7        45.679    24122992.494 7  97133368.13907     -1639.298 7        47.829
R11        33.000    23500679.525 4                     -4639.610 4        26.072                                                                    23500675.614 3                     -3607.854 3        22.876
R22        35.000                                                                                                                                    22887411.532 6  95024705.20806      1961.570 6        37.119
C08        36.000                                                                                                                                                                                                    40294763.451 4                     -1565.231 4        24.180
C33        37.000                                                                                                                                    23538037.808 7 122568739.65207      1929.186 7        42.423                                                                    23538046.843 6  99597146.14106      1567.965 6        40.060
C11        38.000                                                                                                                                    23360064.818 5 121641802.76005     -3105.001 5        33.150    23360038.234 6  94061426.09306     -2401.256 6        40.465    23360038.248 7  98844013.51407     -2523.000 7        43.172
R21        39.000    19610422.349 8 104939318.05008       246.493 8        50.496                                                                    19610419.585 7  81619468.54207       191.815 7        42.883
R04        40.000    23665597.345 4                     -4974.545 4        28.256                                                                    23665566.644 4                     -3869.284 4        27.545
C27        41.000                                                                                                                                    26344728.033 6 137183987.08406      2187.523 6        36.253                                                                    26344734.625 4 111473242.14804      1777.868 4        29.972
C14        42.000                                                                                                                                    22359343.704 8 116430985.46508       555.666 8        48.385    22359340.460 8  90031773.81208       429.656 8        50.193    22359339.565 8  94609697.29208       451.717 8        48.180
C13        43.000                                                                                                                                                                                                    39599846.023 3                     -1444.244 3        21.048
C05        44.000                                                                                                                                                                                                    39186546.733 5 157787998.50205      -625.026 5        32.162
C21        46.000                                                                                                                                                                                                                                                                    25483765.450 5 107830159.56005     -3003.220 5        32.605
I09        47.000    37648104.851 4 147739277.84604      -196.444 4        29.706
C43        48.000                                                                                                                                    22044833.129 7 114793233.09007     -2256.854 7        46.408                                                                    22044829.084 6  93278885.37806     -1833.614 6        38.294
C42        50.000                                                                                                                                    22459722.389 7 116953673.40607     -1218.523 7        45.475                                                                    22459726.275 6  95034550.05006      -989.862 6        39.901
C34        52.000                                                                                                                                    25355907.667 4                     -3807.230 4        27.976
I01        53.000   414169718.439 5 322150163.30305     -2328.005 5        35.048
C37        54.000                                                                                                                                    26693306.287 5                     -3209.123 5        33.234                                                                    26693327.055 4                     -2607.035 4        24.737
C28        55.000                                                                                                                                    22648730.393 6 117937869.22106      1145.495 6        41.976                                                                    22648729.984 7  95834208.56007       931.048 7        44.470
I06        58.000    38516047.343 6 151145379.14806      -545.495 6        38.480
> 2025 01 02 21 45  5.0000000  0 43
G10         1.000    21235670.855 7 111594180.38507     -2506.684 7        46.698                                    21235669.265 7  86956511.94707     -1953.265 7        45.648    21235668.223 7  86956503.94607     -1953.279 7        43.926
G23         2.000    23922687.461 3                     -4229.306 3        20.524
G32         3.000    22676512.952 6 119165860.88706      1318.945 6        38.105                                    22676534.605 1  92856637.51001      1027.805 1        10.518
G21         4.000    21175993.074 6 111280696.56006       506.752 6        40.610                                    21175984.280 3  86712126.99903       394.889 3        20.405
G08         5.000    20289917.826 8 106624290.94208     -1154.160 8        49.937                                    20289914.857 8  83083822.40808      -899.345 8        48.979    20289916.216 7  83083804.42307      -899.379 7        46.159
G02         6.000    22821811.789 6 119929463.47006      1494.766 6        39.153                                    22821801.550 3  93451420.58403      1164.758 3        20.048
G14         7.000    24685598.027 6 129723840.31606      1325.038 6        38.249                                                                                                    24685590.746 4                      1032.795 4        28.597
E09         8.000    27454762.499 4                     -2380.100 4        25.624                                                                    27454761.589 5                     -1777.094 5        30.317    27454747.969 3                     -1823.622 3        23.257
E03         9.000    26715268.674 5 140389693.12615      2109.611 5        33.647                                                                    26715268.091 6 104836480.96706      1575.259 6        40.293    26715267.487 6 107571368.49106      1616.426 6        41.030
E05        11.000    24011037.330 4 126178868.46504       231.952 4        29.649                                                                    24011044.316 5  94224563.49205       173.090 5        35.576    24011056.888 3                       180.405 3        20.857
E13        12.000    27563261.344 4                      1507.109 4        25.038                                                                    27563262.857 4                      1125.572 4        25.549    27563274.971 4 110985892.08714      1155.185 4        29.678
G27        13.000    21271927.897 6 111784727.39306     -3421.589 6        38.829                                    21271925.247 4  87105001.59804     -2666.202 4        27.281    21271928.073 5  87104994.64205     -2666.040 5        33.569
E27        14.000    25523620.512 6 134127604.53806     -2169.785 6        41.657                                                                    25523618.240 6 100160191.46106     -1620.283 6        41.650    25523616.478 6 102773075.89506     -1662.718 6        40.920
E21        15.000                                                                                                                                    27129414.091 5 106461705.00005       359.189 5        34.424    27129417.163 6 109238982.16606       368.554 6        41.004
E15        16.000    23827746.335 7 125215780.38807       136.854 7        42.011                                                                    23827746.726 6  93505193.30606       102.235 6        40.577    23827744.781 6  95944483.82406       104.965 6        39.865
S23        17.000    38181291.501 5 200644077.30305      -861.580 5        35.695
E30        19.000    27176545.030 6 142813707.90106     -3903.123 6        36.306                                                                    27176547.421 4 106646617.17304     -2914.483 4        27.569
R20        20.000    20847210.116 4                     -3132.550 4        28.227                                                                    20847212.093 5  86706217.76315     -2436.427 5        34.386
S36        22.000    38224087.411 6 200868893.78106      -862.848 6        36.238
R06        24.000    20827943.796 4                      2599.660 4        25.218
R05        28.000    20271220.630 8 108361263.38908     -2311.424 8        48.425                                                                    20271218.424 7  84280991.67607     -1797.859 7        43.213
R12        30.000    22459925.994 7 119976815.77407     -1681.705 7        47.833                                                                    22459920.253 7  93315323.12107     -1307.991 7        42.648
E34        32.000    24125027.432 7 126777873.51807     -2140.339 7        44.844                                                                    24125028.065 7  94671808.06307     -1598.426 7        45.907    24125028.914 7  97141566.72707     -1640.084 7        47.815
R11        33.000    23505026.613 3                     -4641.161 3        22.876                                                                    23505015.990 4                     -3609.694 4        24.105
R22        35.000                                                                                                                                    22885055.422 6  95014898.48006      1961.173 6        38.081
C08        36.000                                                                                                                                                                                                    40296711.956 4                     -1565.177 4        24.947
C33        37.000                                                                                                                                    23536185.120 7 122559097.97507      1927.366 7        42.950                                                                    23536194.716 6  99589311.52206      1566.384 6        38.649
C11        38.000                                                                                                                                                                                                    23363020.093 6  94073434.01906     -2402.086 6        41.600    23363020.951 7  98856632.01807     -2524.195 7        43.767
R21        39.000    19610192.580 8 104938091.13808       244.255 8        50.276                                                                    19610190.176 7  81618514.29707       189.946 7        42.859
R04        40.000                                                                                                                                    23670217.257 4                     -3870.961 4        28.379
C27        41.000                                                                                                                                    26342630.083 5 137173049.50005      2187.386 5        34.386                                                                    26342634.258 4 111464354.43004      1777.404 4        28.834
C14        42.000                                                                                                                                    22358811.110 8 116428214.23208       552.862 8        48.402    22358808.850 8  90029630.93508       427.491 8        50.737    22358807.115 8  94607445.46608       449.312 8        48.289
C13        43.000                                                                                                                                    39601594.180 4                     -1866.440 4        25.263
C05        44.000                                                                                                                                                                                                    39187323.946 5 157791122.97405      -624.783 5        33.281
C21        46.000                                                                                                                                                                                                                                                                    25487317.143 5 107845181.06405     -3005.105 5        31.509
I09        47.000    37648355.090 5 147740263.88705      -197.181 5        32.461
C43        48.000                                                                                                                                    22047001.056 7 114804522.52307     -2258.877 7        45.958                                                                    22046997.449 6  93288058.97806     -1835.529 6        38.483
C42        50.000                                                                                                                                    22460893.700 7 116959773.43107     -1221.477 7        45.436                                                                    22460896.429 6  95039506.80606      -992.636 6        37.319
C34        52.000                                                                                                                                    25359564.838 4                     -3807.708 4        27.473
I01        53.000   414172685.165 6 322161803.91206     -2328.483 6        36.234
C37        54.000                                                                                                                                    26696383.694 5                     -3209.894 5        30.272                                                                    26696404.502 4                     -2608.884 4        27.317
C28        55.000                                                                                                                                    22647629.927 6 117932144.97306      1144.293 6        40.510                                                                    22647630.614 7  95829557.16607       929.868 7        45.369
I06        58.000    38516742.729 6 151148106.70606      -545.569 6        38.369
> 2025 01 02 21 45 10.0000000  0 43
G10         1.000    21238056.387 7 111606718.85607     -2508.470 7        47.389                                    21238054.951 7  86966282.19307     -1954.650 7        45.862    21238054.649 7  86966274.18107     -1954.623 7        44.224
G23         2.000    23926675.079 4                     -4233.153 4        24.451
G32         3.000    22675257.466 6 119159271.67206      1316.838 6        36.386                                    22675280.221 2  92851502.70302      1026.085 2        12.121    22675271.510 4                      1025.577 4        26.383
G21         4.000    21175511.685 6 111278166.45906       505.533 6        40.963                                    21175502.951 3  86710155.49603       393.911 3        20.310
G08         5.000    20291017.799 8 106630069.16308     -1156.909 8        48.819                                    20291014.501 8  83088324.93008      -901.489 8        48.721    20291015.741 7  83088306.94707      -901.543 7        45.944
G02         6.000    22820388.765 6 119921991.28006      1494.237 6        37.459                                    22820380.205 3  93445598.08803      1164.325 3        19.791
G14         7.000    24684338.528 6 129717220.92306      1322.920 6        38.360                                                                                                    24684330.879 4                      1030.699 4        27.784
E09         8.000                                                                                                                                    27457020.429 4                     -1778.647 4        28.076    27457018.279 4                     -1824.995 4        25.128
E03         9.000    26713264.079 5 140379147.02805      2109.074 5        33.281                                                                    26713261.184 6 104828605.63406      1575.181 6        39.501    26713260.229 6 107563287.73706      1616.081 6        40.558
E05        11.000    24010821.273 5 126177713.99005       230.044 5        32.072                                                                    24010824.955 5  94223701.42405       171.631 5        32.281    24010840.390 4                       176.232 4        29.024
E13        12.000                                                                                                                                    27561828.727 4                      1124.936 4        24.496    27561842.077 5 110980118.21105      1154.906 5        30.521
G27        13.000    21275184.095 5 111801841.54605     -3423.897 5        35.133                                    21275182.207 4  87118337.26204     -2667.965 4        26.335    21275184.735 5  87118330.26505     -2667.843 5        35.414
E27        14.000    25525683.896 6 134138458.77806     -2171.726 6        40.541                                                                    25525684.116 7 100168296.90007     -1621.796 7        42.519    25525682.418 6 102781392.76606     -1664.016 6        40.262
E21        15.000                                                                                                                                    27128957.377 5 106459912.69305       357.764 5        34.890    27128960.971 6 109237143.11806       367.219 6        41.008
E15        16.000    23827616.645 7 125215097.72407       136.245 7        42.163                                                                    23827616.903 6  93504683.55506       101.726 6        41.797    23827614.900 6  95943960.78406       104.324 6        38.504
S23        17.000    38182121.345 6 200648385.28106      -861.239 6        40.353
E30        19.000    27180257.769 5 142833224.59005     -3903.473 5        34.243                                                                    27180261.642 4 106661191.36304     -2915.182 4        28.711
R20        20.000    20850142.057 4                     -3134.750 4        28.085                                                                    20850141.363 5  86718402.68915     -2437.360 5        34.529
S36        22.000    38224902.234 6 200873207.41406      -862.708 6        38.529
R06        24.000    20825502.330 3                      2596.382 3        20.976
R05        28.000    20273384.560 7 108372831.00607     -2315.499 7        47.375                                                                    20273383.347 7  84289988.70707     -1800.919 7        43.589
R12        30.000    22461499.288 7 119985234.56607     -1685.612 7        47.166                                                                    22461495.795 6  93321871.08106     -1311.116 6        41.707
E34        32.000    24127064.371 7 126788577.45307     -2140.987 7        46.440                                                                    24127064.748 7  94679801.25307     -1598.793 7        45.655    24127065.798 7  97149768.43007     -1640.489 7        47.425
R11        33.000    23509365.956 5                     -4642.332 5        32.371                                                                    23509356.312 3                     -3610.051 3        20.500
R22        35.000    22882671.848 4                      2521.354 4        29.554                                                                    22882689.684 6                      1961.231 6        36.646
C08        36.000                                                                                                                                                                                                    40298651.491 3                     -1566.243 3        21.595
C33        37.000                                                                                                                                    23534334.880 7 122549464.92207      1925.992 7        43.530                                                                    23534345.948 6  99581483.91806      1564.910 6        39.483
C11        38.000                                                                                                                                                                                                    23366003.443 6  94085446.79106     -2402.872 6        41.561    23366003.907 7  98869255.61107     -2525.203 7        44.400
R21        39.000    19609964.734 8 104936875.04208       242.396 8        50.058                                                                    19609963.679 7  81617568.43307       188.553 7        44.218
R04        40.000                                                                                                                                    23674868.174 5                     -3872.202 5        31.909
C27        41.000                                                                                                                                    26340529.916 5 137162111.51405      2187.885 5        35.852                                                                    26340531.291 4 111455466.59604      1776.926 4        25.910
C14        42.000                                                                                                                                    22358281.387 8 116425456.23408       550.516 8        48.891    22358279.088 8  90027498.26608       425.711 8        50.953    22358277.658 8  94605204.36508       447.184 8        48.271
C13        43.000                                                                                                                                    39603389.527 3                     -1867.478 3        23.257    39603383.533 3                     -1443.076 3        22.743
C05        44.000                                                                                                                                                                                                    39188098.243 5 157794247.38405      -624.746 5        34.795
C21        46.000                                                                                                                                    25490874.539 5                     -3698.261 5        33.437                                                                    25490867.115 5 107860208.01505     -3005.976 5        32.551
I09        47.000    37648607.937 5 147741250.94605      -197.334 5        32.766
C43        48.000                                                                                                                                    22049170.067 7 114815820.77807     -2260.317 7        45.816                                                                    22049168.079 6  93297239.73006     -1836.919 6        39.261
C42        50.000                                                                                                                                    22462066.547 7 116965887.46207     -1224.027 7        43.615                                                                    22462072.209 6  95044474.98306      -994.753 6        40.141
C34        52.000                                                                                                                                    25363225.777 4                     -3808.502 4        29.156
I01        53.000   414175650.815 5 322173445.96305     -2328.302 5        35.538
C37        54.000                                                                                                                                    26699469.954 5                     -3210.934 5        33.263                                                                    26699488.598 4                     -2608.169 4        24.060
C28        55.000                                                                                                                                    22646532.537 6 117926426.61106      1143.353 6        41.395                                                                    22646532.606 7  95824910.58307       928.859 7        44.965
I06        58.000    38517437.714 6 151150834.10606      -545.351 6        39.583
> 2025 01 02 21 45 15.0000000  0 38
G10         1.000    21240444.719 8 111619268.46108     -2511.072 8        48.585                                    21240442.699 7  86976061.10807     -1956.676 7        45.881    21240442.328 7  86976053.08207     -1956.697 7        42.631
G32         3.000    22674005.359 6 119152694.14206      1314.408 6        37.792                                    22674028.265 1  92846377.40901      1024.278 1        10.815    22674010.083 4                      1024.141 4        29.848
G21         4.000    21175032.564 6 111275644.29206       503.612 6        38.420                                    21175023.534 3  86708190.16603       392.406 3        20.667
G08         5.000    20292119.737 7 106635862.89107     -1160.281 7        47.604                                    20292117.051 8  83092839.52408      -904.122 8        48.421    20292118.181 7  83092821.54407      -904.096 7        45.986
G02         6.000    22818968.036 6 119914523.46906      1493.219 6        37.399                                    22818959.709 3  93439779.01203      1163.521 3        20.167
G14         7.000    24683081.829 6 129710614.01206      1320.135 6        37.686                                                                                                    24683075.547 4                      1028.453 4        28.720
E09         8.000    27459290.312 4                     -2384.451 4        26.862                                                                                                                                    27459279.176 3                     -1827.529 3        22.590
E03         9.000    26711257.410 5 140368604.24605      2108.258 5        35.014                                                                    26711254.668 6 104820732.81406      1574.332 6        38.778    26711253.596 6 107555209.52606      1615.499 6        40.403
E05        11.000    24010606.391 5 126176571.32705       227.630 5        35.376                                                                    24010614.747 4  94222848.00904       169.426 4        28.351
E13        12.000    27560410.908 5                      1506.762 5        32.569                                                                    27560399.739 4                      1125.850 4        25.624    27560411.508 5 110974345.32305      1154.369 5        32.946
G27        13.000    21278443.472 6 111818967.21706     -3426.462 6        37.267                                    21278441.247 4  87131681.91304     -2669.951 4        25.083    21278442.374 5  87131674.88105     -2669.767 5        35.348
E27        14.000    25527750.226 6 134149324.28706     -2174.292 6        39.835                                                                    25527751.836 7 100176410.76307     -1623.570 7        42.434    25527750.282 6 102789718.31306     -1665.991 6        40.653
E21        15.000                                                                                                                                    27128503.618 5 106458128.76905       356.088 5        35.748    27128506.487 6 109235312.65606       365.282 6        41.073
E15        16.000    23827487.255 7 125214419.98007       135.053 7        42.700                                                                    23827488.174 7  93504177.45707       100.934 7        42.743    23827485.473 6  95943441.45406       103.434 6        38.513
S23        17.000    38182940.573 6 200652693.50106      -861.653 6        39.312
E30        19.000    27183970.184 5 142852743.84905     -3904.170 5        32.234                                                                    27183976.360 5 106675767.35705     -2915.450 5        30.151    27183975.927 5 109458589.47205     -2991.334 5        35.581
R20        20.000    20853078.938 4                     -3135.868 4        28.483                                                                    20853071.315 5                     -2439.074 5        35.867
S36        22.000    38225720.398 6 200877521.68906      -862.925 6        37.648
R05        28.000    20275551.348 7 108384420.55707     -2320.191 7        46.883                                                                    20275551.340 7  84299002.80207     -1804.526 7        42.811
R12        30.000    22463077.189 7 119993674.61507     -1690.180 7        46.314                                                                    22463074.683 6  93328435.55206     -1314.521 6        40.246
E34        32.000    24129101.834 7 126799285.86007     -2142.080 7        45.840                                                                    24129102.186 7  94687797.79007     -1599.602 7        44.712    24129104.126 7  97157973.58407     -1641.410 7        47.698
R11        33.000    23513713.106 5                     -4643.491 5        32.311
C33        37.000                                                                                                                                    23532486.833 7 122539840.93707      1923.934 7        44.536                                                                    23532497.021 6  99573663.62206      1563.352 6        40.265
C11        38.000                                                                                                                                    23369021.005 4                     -3108.768 4        27.557    23368987.943 7  94097464.70107     -2404.157 7        44.114    23368989.008 7  98881884.58407     -2526.392 7        44.552
R21        39.000    19609739.778 8 104935670.00108       239.881 8        50.330                                                                    19609738.776 7  81616631.18307       186.653 7        44.254
R04        40.000                                                                                                                                    23679511.489 4                     -3873.193 4        28.455
C27        41.000                                                                                                                                    26338428.455 5 137151173.54605      2187.697 5        33.257                                                                    26338425.012 4 111446578.59404      1777.532 4        26.048
C14        42.000                                                                                                                                    22357755.533 8 116422711.77708       547.559 8        48.882    22357752.371 8  90025376.09408       423.385 8        51.124    22357750.680 8  94602974.26908       444.966 8        48.141
C05        44.000                                                                                                                                                                                                    39188876.310 5 157797372.16605      -624.888 5        34.090
C21        46.000                                                                                                                                    25494426.595 5 132756172.54215     -3700.720 5        34.414                                                                    25494419.477 5 107875240.70805     -3007.049 5        31.743
I09        47.000    37648861.015 5 147742239.44405      -197.542 5        31.985
C43        48.000                                                                                                                                    22051342.427 7 114827128.27407     -2262.496 7        45.419                                                                    22051339.013 6  93306427.98906     -1838.345 6        40.136
C42        50.000                                                                                                                                    22463242.749 7 116972015.92707     -1227.187 7        44.727                                                                    22463248.626 6  95049454.82506      -997.098 6        38.489
C34        52.000                                                                                                                                    25366878.981 4                     -3809.070 4        28.398
I01        53.000   414178618.847 6 322185089.81706     -2328.857 6        37.085
C37        54.000                                                                                                                                    26702553.991 5 139047196.09015     -3212.438 5        32.186                                                                    26702558.407 4                     -2610.822 4        24.105
C28        55.000                                                                                                                                    22645435.346 7 117920714.61907      1141.701 7        42.976                                                                    22645435.545 7  95820269.10807       927.867 7        44.954
I06        58.000    38518132.781 6 151153561.66006      -545.594 6        38.096
> 2025 01 02 21 45 20.0000000  0 42
G10         1.000    21242835.165 8 111631828.78008     -2512.969 8        48.673                                    21242832.500 7  86985848.37407     -1958.162 7        45.518    21242832.973 7  86985840.33807     -1958.091 7        42.480
G23         2.000    23934732.907 4                     -4234.431 4        24.346                                                                                                    23934765.817 3                     -3299.163 3        23.390
G32         3.000    22672756.347 6 119146128.16006      1312.334 6        39.979                                    22672778.214 2  92841260.93702      1022.670 2        12.121    22672759.196 4                      1022.580 4        28.265
G21         4.000    21174553.790 6 111273129.54906       502.333 6        40.157                                    21174545.321 3  86706230.64003       391.419 3        20.857
G08         5.000    20293224.906 7 106641671.68507     -1163.111 7        47.620                                    20293222.449 7  83097365.86607      -906.320 7        47.598    20293223.622 7  83097347.87907      -906.341 7        45.323
G02         6.000    22817547.362 5 119907059.71305      1492.546 5        34.105                                    22817540.206 3  93433963.10903      1163.059 3        18.507
G14         7.000    24681827.688 6 129704019.05806      1317.994 6        37.637                                                                                                    24681820.886 5                      1026.923 5        31.170
E09         8.000    27461559.276 4                     -2386.312 4        28.464                                                                    27461540.671 4                     -1781.710 4        27.725    27461540.860 3                     -1828.810 3        23.943
E03         9.000    26709250.250 5 140358064.48205      2107.962 5        33.299                                                                    26709248.826 6 104812862.21006      1573.885 6        38.447    26709247.449 6 107547133.57806      1615.135 6        39.751
E05        11.000    24010394.879 6 126175440.03906       225.251 6        36.756                                                                    24010404.365 5  94222002.95005       168.591 5        30.483    24010373.016 5                       172.692 5        30.694
E13        12.000    27558974.211 5 144823398.13515      1506.832 5        33.024                                                                    27558970.331 3                      1124.831 3        23.657    27558982.088 5 110968573.00405      1153.897 5        30.740
G27        13.000                                                                                                                                                                    21281702.611 5  87145028.28505     -2671.375 5        35.567
E27        14.000    25529820.156 6 134160200.69206     -2176.412 6        36.060                                                                    25529820.955 7 100184532.73507     -1624.969 7        42.356    25529819.620 6 102798052.16606     -1667.532 6        40.265
E21        15.000                                                                                                                                    27128051.248 5 106456352.92105       354.574 5        34.648    27128054.138 6 109233490.47406       363.539 6        41.433
E15        16.000    23827359.418 7 125213746.68707       134.404 7        42.739                                                                    23827360.737 7  93503674.68207       100.319 7        43.393    23827357.246 6  95942925.54906       102.984 6        37.955
S23        17.000    38183760.700 6 200657001.54406      -861.515 6        40.157
E30        19.000    27187684.630 5 142872265.13205     -3903.937 5        31.042                                                                    27187691.199 4 106690345.00204     -2915.675 4        29.573    27187691.753 5 109473547.39405     -2991.685 5        34.876
R20        20.000    20856010.359 4                     -3138.071 4        28.806                                                                    20856007.147 5                     -2440.252 5        35.019
S36        22.000    38226546.772 6 200881836.46906      -862.699 6        38.051
G16        26.000    25769049.568 3                     -4512.180 3        19.164
R05        28.000    20277723.313 7 108396031.77607     -2324.292 7        47.900                                                                    20277722.392 6  84308033.75806     -1807.642 6        39.850
R12        30.000    22464659.858 7 120002135.48107     -1694.072 7        47.350                                                                    22464658.658 6  93335016.23506     -1317.620 6        40.653
E34        32.000    24131140.629 7 126809998.34307     -2142.733 7        45.076                                                                    24131140.911 7  94695797.37707     -1600.057 7        44.542    24131143.034 7  97166181.85307     -1641.733 7        47.809
R11        33.000    23518064.684 4                     -4644.511 4        27.928
C08        36.000                                                                                                                                                                                                    40302519.686 3                     -1569.877 3        22.724
C33        37.000                                                                                                                                    23530640.667 7 122530225.57907      1922.340 7        43.860                                                                    23530649.766 6  99565850.36706      1561.864 6        39.327
C11        38.000                                                                                                                                                                                                    23371973.263 7  94109487.42907     -2404.809 7        44.057    23371974.208 7  98894518.65407     -2527.273 7        44.868
R21        39.000    19609516.701 8 104934475.84208       237.971 8        49.596                                                                    19609514.594 7  81615702.36607       185.160 7        44.065
R04        40.000    23684152.012 4                     -4981.371 4        28.976                                                                    23684159.655 4                     -3874.748 4        28.663
C27        41.000                                                                                                                                    26336323.944 5 137140235.25105      2187.944 5        35.257                                                                    26336322.658 3                      1777.934 3        23.981
C14        42.000                                                                                                                                    22357231.303 8 116419980.51908       545.126 8        48.566    22357227.779 8  90023264.10108       421.552 8        51.499    22357225.877 8  94600754.90208       442.808 8        48.160
C13        43.000                                                                                                                                    39606965.761 3                     -1867.489 3        21.976
C05        44.000                                                                                                                                                                                                    39189651.332 5 157800496.95705      -625.033 5        31.343
C21        46.000                                                                                                                                    25497980.339 5 132774679.27505     -3701.661 5        32.323                                                                    25497973.837 5 107890278.99505     -3008.566 5        31.887
I09        47.000    37649114.050 5 147743229.14405      -197.859 5        34.524
C43        48.000                                                                                                                                    22053514.143 7 114838444.58307     -2263.944 7        45.038                                                                    22053511.701 6  93315623.48506     -1839.807 6        40.153
C42        50.000                                                                                                                                    22464421.366 7 116978158.38607     -1229.709 7        44.325                                                                    22464428.288 6  95054446.07606      -999.466 6        37.081
C34        52.000                                                                                                                                    25370533.884 4                     -3809.785 4        29.175
I01        53.000   414181585.542 6 322196735.13506     -2329.078 6        37.766
C37        54.000                                                                                                                                    26705640.074 5 139063260.49205     -3213.203 5        30.438                                                                    26705649.845 4                     -2610.866 4        28.000
C28        55.000                                                                                                                                    22644339.313 6 117915008.55906      1140.761 6        41.263                                                                    22644338.995 7  95815632.47007       926.833 7        44.904
I06        58.000    38518828.155 6 151156289.03606      -545.331 6        39.231
> 2025 01 02 21 45 25.0000000  0 41
G10         1.000    21245227.291 8 111644400.32908     -2515.401 8        49.293                                    21245224.474 7  86995644.39007     -1960.050 7        45.162    21245225.229 7  86995636.37007     -1959.966 7        42.021
G23         2.000    23938766.409 4                     -4234.950 4        29.365                                                                                                    23938748.025 3                     -3300.459 3        22.438
G32         3.000    22671510.217 6 119139573.93706      1309.797 6        37.856                                    22671530.658 1  92836153.73201      1020.568 1         9.714    22671510.370 4                      1020.765 4        28.408
G21         4.000    21174077.516 6 111270622.76506       500.593 6        39.468                                    21174068.526 3  86704277.30303       390.062 3        18.925
G08         5.000    20294333.347 7 106647496.02307     -1166.276 7        47.539                                    20294330.745 7  83101904.32007      -908.791 7        47.186    20294332.199 7  83101886.33407      -908.851 7        45.232
G02         6.000    22816129.156 6 119899600.30006      1491.568 6        38.408                                    22816121.011 3  93428150.58203      1162.253 3        18.478
G14         7.000    24680574.800 6 129697436.65506      1315.467 6        36.790                                                                                                    24680569.467 5                      1024.789 5        30.460
E09         8.000                                                                                                                                    27463814.187 4                     -1783.317 4        28.626    27463816.129 4                     -1830.347 4        25.669
E03         9.000    26707244.895 5 140347528.11605      2107.064 5        34.157                                                                    26707244.471 6 104804994.14606      1573.588 6        38.610    26707242.299 6 107539060.26706      1614.502 6        40.033
E05        11.000    24010184.640 5 126174320.42105       222.672 5        35.624                                                                    24010196.065 5  94221166.78605       166.600 5        31.223
E13        12.000    27557536.647 5 144815865.93905      1506.482 5        32.401                                                                    27557537.311 4                      1124.574 4        27.808    27557548.519 4 110962801.59204      1154.174 4        29.346
G27        13.000    21284977.486 5 111853252.26005     -3430.693 5        32.647                                    21284965.644 3  87158397.54703     -2673.271 3        22.514    21284964.954 5  87158390.55905     -2673.223 5        33.054
E27        14.000    25531891.570 5 134171088.39405     -2178.565 5        35.781                                                                    25531893.610 7 100192663.21407     -1626.879 7        42.191    25531890.153 6 102806394.70606     -1669.353 6        39.273
E21        15.000                                                                                                                                    27127602.058 5 106454585.47505       352.695 5        34.605    27127604.282 6 109231676.91306       361.811 6        41.988
E15        16.000    23827232.512 7 125213078.37507       133.283 7        42.643                                                                    23827233.778 7  93503175.60807        99.409 7        43.843    23827228.768 6  95942413.49106       102.128 6        37.319
S23        17.000    38184577.303 6 200661309.88506      -861.679 6        39.958
E30        19.000    27191399.933 4 142891789.19104     -3905.421 4        27.497                                                                    27191406.782 4 106704924.58704     -2915.901 4        28.047    27191406.662 5 109488507.30205     -2992.006 5        35.329
R20        20.000    20858939.572 4                     -3139.897 4        29.128                                                                    20858942.465 6  86755000.74516     -2441.967 6        36.726
S36        22.000    38227359.051 6 200886151.96406      -863.217 6        36.344
R06        24.000    20818244.462 3                      2589.289 3        20.690
R05        28.000    20279899.467 7 108407665.02407     -2328.738 7        46.656                                                                    20279899.627 6  84317081.85606     -1811.281 6        40.875
R12        30.000    22466246.712 7 120010617.67807     -1698.490 7        46.065                                                                    22466247.361 6  93341613.50606     -1321.198 6        40.663
E34        32.000    24133179.947 7 126820715.39407     -2143.783 7        45.022                                                                    24133180.433 7  94703800.37207     -1600.858 7        44.479    24133182.219 7  97174393.62807     -1642.694 7        47.625
R11        33.000    23522411.946 4                     -4645.874 4        28.986
C33        37.000                                                                                                                                    23528796.142 7 122520619.37807      1920.348 7        45.532                                                                    23528804.129 6  99558044.55206      1560.485 6        37.713
C11        38.000                                                                                                                                    23374959.239 5                     -3111.546 5        35.133    23374960.059 6  94121515.36806     -2406.041 6        40.589    23374961.391 7  98907158.15807     -2528.352 7        44.871
R21        39.000    19609295.675 8 104933292.95008       235.579 8        49.583                                                                    19609293.264 7  81614782.36807       183.255 7        44.053
R04        40.000    23688801.923 4                     -4982.958 4        29.981                                                                    23688812.857 5  98663072.80115     -3875.402 5        31.728
C27        41.000                                                                                                                                    26334226.278 5 137129297.13305      2187.588 5        33.210                                                                    26334223.232 3                      1777.737 3        23.790
C14        42.000                                                                                                                                    22356709.540 8 116417262.93808       542.203 8        49.211    22356705.609 8  90021162.70508       419.242 8        51.954    22356703.967 7  94598546.61507       440.610 7        47.946
C13        43.000                                                                                                                                    39608759.365 4                     -1866.549 4        25.098
C05        44.000                                                                                                                                                                                                    39190427.404 5 157803622.05905      -624.836 5        31.374
C21        46.000                                                                                                                                    25501536.705 5 132793193.20805     -3703.125 5        32.467                                                                    25501529.514 5 107905323.08505     -3009.067 5        30.483
I09        47.000    37649366.372 5 147744220.42505      -198.376 5        33.575
C43        48.000                                                                                                                                    22055688.328 7 114849770.25407     -2265.958 7        46.966                                                                    22055686.603 6  93324826.46106     -1841.207 6        41.035
C42        50.000                                                                                                                                    22465603.948 7 116984315.33207     -1232.722 7        44.679                                                                    22465610.660 6  95059449.06606     -1001.574 6        38.685
C34        52.000                                                                                                                                    25374191.327 4                     -3810.274 4        24.226
I01        53.000   414184553.681 5 322208382.35505     -2329.807 5        35.852
C37        54.000                                                                                                                                    26708724.020 5 139079330.51505     -3214.440 5        34.062                                                                    26708733.181 4                     -2612.130 4        25.624
C28        55.000                                                                                                                                    22643244.632 7 117909308.90807      1139.330 7        42.112                                                                    22643244.586 7  95811001.02807       925.893 7        43.786
I06        58.000    38519523.467 6 151159016.64906      -545.555 6        39.360
> 2025 01 02 21 45 30.0000000  0 41
G10         1.000    21247621.477 8 111656982.90908     -2517.509 8        49.103                                    21247618.527 7  87005449.00207     -1961.698 7        44.673    21247619.224 6  87005440.97306     -1961.752 6        40.617
G23         2.000    23942802.165 3                     -4235.546 3        22.933
G32         3.000    22670264.130 6 119133031.43506      1307.429 6        40.095                                    22670285.401 2  92831055.94102      1018.822 2        12.909    22670265.377 4                      1018.884 4        24.617
G21         4.000    21173601.424 6 111268123.76106       499.185 6        39.279                                    21173593.206 3  86702330.01903       388.984 3        18.269
G08         5.000    20295444.881 7 106653335.78107     -1169.383 7        47.487                                    20295441.993 7  83106454.78507      -911.210 7        47.039    20295443.920 7  83106436.79907      -911.204 7        45.327
G02         6.000    22814710.386 6 119892145.24406      1490.488 6        39.571                                    22814702.281 3  93422341.45103      1161.441 3        18.507
G14         7.000    24679324.270 6 129690866.60106      1312.865 6        36.760                                                                                                    24679316.254 4                      1023.074 4        29.147
E09         8.000                                                                                                                                    27466090.592 5                     -1785.073 5        30.241    27466096.813 4                     -1831.654 4        26.970
E03         9.000    26705240.266 5 140336995.03805      2106.362 5        34.590                                                                    26705239.843 6 104797128.56106      1572.973 6        39.213    26705238.153 6 107530989.46906      1613.941 6        40.365
E05        11.000    24009970.589 5 126173212.34905       220.521 5        33.359                                                                    24009982.909 5  94220339.43305       164.701 5        31.185    24009963.236 5  96678171.08415       169.105 5        34.690
E13        12.000    27556104.184 5 144808334.94405      1506.242 5        32.353                                                                    27556107.147 4                      1124.829 4        29.355    27556114.171 4 110957031.16704      1154.311 4        29.242
G27        13.000    21288228.132 5 111870412.18605     -3433.113 5        34.752                                    21288231.064 3  87171768.84903     -2675.129 3        22.362    21288231.949 5  87171761.82705     -2674.823 5        35.505
E27        14.000    25533965.375 6 134181987.31406     -2180.490 6        36.926                                                                    25533967.725 6 100200802.02206     -1628.498 6        41.774    25533965.079 6 102814745.83006     -1670.977 6        39.165
E21        15.000                                                                                                                                    27127153.725 5 106452826.31705       351.054 5        34.352    27127156.066 6 109229871.86606       360.330 6        41.716
E15        16.000    23827106.179 7 125212414.84207       132.344 7        44.084                                                                    23827107.332 7  93502680.11807        98.780 7        44.936    23827102.348 6  95941905.07506       101.372 6        36.435
S23        17.000    38185400.417 6 200665618.42306      -861.515 6        39.126
E30        19.000    27195116.495 3                     -3904.504 3        22.838                                                                    27195119.237 4 106719505.97204     -2916.059 4        28.891    27195121.159 6 109503469.10706     -2992.545 6        37.017
R20        20.000    20861878.456 5                     -3141.585 5        30.536                                                                    20861879.554 6  86767214.59506     -2443.328 6        37.924
S36        22.000    38228186.766 6 200890467.41806      -863.087 6        37.187
R05        28.000    20282079.601 7 108419320.07807     -2333.043 7        46.039                                                                    20282079.661 6  84326146.91806     -1814.451 6        38.087
R12        30.000    22467838.177 7 120019121.04607     -1702.628 7        45.530                                                                    22467838.806 6  93348227.24906     -1324.297 6        40.307
E34        32.000    24135219.593 7 126831436.83607     -2144.623 7        44.506                                                                    24135220.406 7  94711806.65007     -1601.483 7        44.111    24135222.994 7  97182608.75907     -1643.278 7        47.613
R11        33.000    23526756.574 4                     -4646.748 4        26.371
R22        35.000    22873207.846 5                      2520.523 5        35.981
C08        36.000                                                                                                                                                                                                    40306413.115 3                     -1579.352 3        21.262
C33        37.000                                                                                                                                    23526951.981 7 122511022.15907      1918.706 7        46.280                                                                    23526961.736 6  99550246.03506      1559.082 6        38.550
C11        38.000                                                                                                                                    23377952.769 6 121735109.69616     -3112.722 6        36.854    23377947.463 6  94133548.42006     -2407.117 6        39.066    23377949.842 7  98919803.02307     -2529.506 7        44.442
R21        39.000    19609076.960 8 104932121.16508       233.420 8        48.474                                                                    19609074.709 7  81613870.95907       181.617 7        43.871
R04        40.000                                                                                                                                    23693466.730 5  98682453.23505     -3876.569 5        32.060
C27        41.000                                                                                                                                    26332129.298 5 137118358.89105      2187.841 5        34.805                                                                    26332125.437 3                      1776.803 3        22.743
C14        42.000                                                                                                                                    22356190.648 8 116414558.85708       539.544 8        48.954    22356185.728 8  90019071.74108       417.236 8        51.215    22356185.003 7  94596349.33407       438.399 7        47.913
C05        44.000                                                                                                                                                                                                    39191204.733 5 157806747.38005      -624.978 5        33.150
C21        46.000                                                                                                                                    25505093.423 5 132811714.23705     -3704.766 5        35.314                                                                    25505085.080 5 107920372.91305     -3010.656 5        31.042
I09        47.000    37649617.505 5 147745213.08205      -198.634 5        30.770
C43        48.000                                                                                                                                    22057864.362 7 114861105.08507     -2267.833 7        47.118                                                                    22057863.425 6  93334036.91606     -1842.809 6        40.758
C42        50.000                                                                                                                                    22466789.939 7 116990486.60807     -1235.547 7        46.555                                                                    22466796.243 6  95064463.75906     -1004.242 6        38.559
C34        52.000                                                                                                                                    25377847.661 3                     -3811.408 3        22.171
I01        53.000   414187521.063 5 322220031.28905     -2329.964 5        32.611
C37        54.000                                                                                                                                    26711810.949 5 139095405.96405     -3215.665 5        34.933                                                                    26711813.668 4                     -2611.748 4        24.586
C28        55.000                                                                                                                                    22642150.880 7 117903615.48407      1138.144 7        42.893                                                                    22642151.191 7  95806374.67807       924.808 7        43.278
I06        58.000    38520217.958 6 151161744.34806      -545.478 6        39.228
> 2025 01 02 21 45 35.0000000  0 40
G10         1.000    21250017.783 8 111669576.48508     -2519.864 8        49.379                                    21250014.856 7  87015262.17807     -1963.530 7        44.450    21250016.486 6  87015254.14806     -1963.413 6        40.291
G32         3.000    22669021.920 7 119126500.61607      1304.994 7        42.734                                    22669042.039 2  92825966.98502      1016.856 2        16.981
G21         4.000    21173127.034 6 111265632.39806       497.592 6        39.426                                    21173119.227 2  86700388.70702       387.748 2        17.208
G08         5.000    20296558.404 7 106659190.87807     -1172.537 7        46.811                                    20296556.196 7  83111017.21607      -913.675 7        46.472    20296557.982 7  83110999.23007      -913.637 7        45.505
G02         6.000    22813292.352 6 119884694.41306      1489.788 6        41.826                                    22813284.151 3  93416535.62203      1160.884 3        18.418
G14         7.000    24678075.547 6 129684308.93006      1310.127 6        37.777                                                                                                    24678068.180 4                      1021.464 4        28.161
E09         8.000    27468392.076 4                     -2392.523 4        25.519                                                                    27468370.422 5                     -1786.612 5        31.019
E03         9.000    26703236.305 5 140326465.24605      2105.710 5        33.216                                                                    26703236.128 6 104789265.40606      1572.360 6        39.300    26703234.461 6 107522921.21006      1613.362 6        40.319
E05        11.000                                                                                                                                    24009776.590 5  94219520.77705       163.022 5        31.351    24009754.855 5  96677330.90905       167.073 5        35.733
E13        12.000    27554671.732 5 144800805.10105      1505.824 5        34.171                                                                    27554673.777 4                      1124.617 4        29.905    27554683.414 4 110951261.54104      1154.059 4        29.573
G27        13.000    21291500.777 5 111887583.34105     -3435.472 5        34.819                                    21291499.096 3  87185148.94503     -2676.980 3        20.786    21291500.091 6  87185142.00406     -2676.820 6        36.265
E27        14.000    25536042.810 6 134192897.44606     -2183.204 6        38.057                                                                    25536043.833 7 100208949.18307     -1630.280 7        42.622    25536041.149 6 102823105.50806     -1672.696 6        38.183
E21        15.000                                                                                                                                    27126707.907 5 106451075.47205       349.418 5        34.386    27126710.027 6 109228075.35706       358.485 6        41.385
E15        16.000    23826980.366 7 125211756.11507       131.203 7        44.337                                                                    23826982.049 7  93502188.20507        97.949 7        45.481    23826977.382 5  95941400.30305       100.842 5        35.505
S23        17.000    38186220.030 6 200669927.12706      -861.685 6        39.736
E30        19.000                                                                                                                                    27198836.527 4 106734089.18204     -2916.639 4        28.929    27198837.715 6 109518432.73506     -2993.201 6        36.575
R20        20.000    20864819.585 4                     -3143.513 4        29.668                                                                    20864817.486 6  86779435.69616     -2444.920 6        36.870
S36        22.000    38229003.602 6 200894782.93706      -863.094 6        37.750
R05        28.000    20284263.767 7 108430996.98607     -2337.615 7        45.639                                                                    20284264.163 6  84335228.91106     -1818.039 6        36.514
R12        30.000    22469433.750 7 120027645.55507     -1706.996 7        45.103                                                                    22469432.363 5  93354857.41905     -1327.755 5        35.681
E34        32.000    24137260.727 7 126842162.65707     -2145.583 7        44.679                                                                    24137261.329 7  94719816.19107     -1602.240 7        43.403    24137264.317 7  97190827.24307     -1644.034 7        47.476
R11        33.000                                                                                                                                    23531101.643 3                     -3613.042 3        21.238
R22        35.000    22870852.355 5 122086126.52515      2519.905 5        35.733                                                                    22870870.248 4  94956079.60714      1959.723 4        29.573
C33        37.000                                                                                                                                    23525110.685 7 122501433.92007      1916.755 7        46.709                                                                    23525121.101 6  99542454.79406      1557.570 6        36.749
C11        38.000                                                                                                                                    23380943.530 6 121750677.53306     -3114.458 6        37.187    23380936.822 6  94145586.44706     -2407.970 6        37.361    23380939.255 7  98932453.18807     -2530.506 7        44.345
R21        39.000    19608859.406 7 104930960.43907       230.984 7        47.371                                                                    19608858.354 7  81612968.19007       179.744 7        44.685
R04        40.000    23698119.863 5                     -4985.476 5        31.706                                                                    23698120.978 4  98701839.48104     -3877.637 4        29.242
C27        41.000                                                                                                                                    26330030.960 5 137107420.69005      2187.514 5        35.752                                                                    26330020.474 3                      1777.921 3        20.762
C14        42.000                                                                                                                                    22355673.731 8 116411868.33408       536.740 8        48.089    22355669.163 8  90016991.25708       415.046 8        51.285    22355668.364 7  94594163.05007       436.235 7        47.571
C13        43.000                                                                                                                                    39612360.192 4                     -1865.859 4        26.563
C05        44.000                                                                                                                                                                                                    39191981.284 5 157809872.96705      -625.155 5        33.090
C21        46.000                                                                                                                                    25508652.262 6 132830242.25106     -3706.261 6        36.461                                                                    25508643.682 5 107935428.45405     -3011.765 5        30.189
I09        47.000    37649871.216 5 147746207.14805      -198.300 5        30.151
C43        48.000                                                                                                                                    22060043.879 7 114872449.02707     -2269.747 7        47.927                                                                    22060042.519 6  93343254.82106     -1844.379 6        40.074
C42        50.000                                                                                                                                    22467978.778 7 116996672.20307     -1238.568 7        46.043                                                                    22467984.545 6  95069490.05506     -1006.459 6        39.411
C34        52.000                                                                                                                                    25381511.789 4                     -3811.240 4        25.684
I01        53.000   414190491.146 5 322231681.85905     -2330.463 5        34.162
C37        54.000                                                                                                                                    26714901.997 5 139111486.82705     -3216.808 5        35.400                                                                    26714890.860 4                     -2614.239 4        25.353
C28        55.000                                                                                                                                    22641058.476 7 117897928.34607      1136.777 7        43.124                                                                    22641058.246 7  95801753.41307       923.798 7        43.471
I06        58.000    38520912.777 6 151164472.11606      -545.679 6        38.345
> 2025 01 02 21 45 40.0000000  0 42
G10         1.000    21252415.959 8 111682180.73008     -2521.466 8        48.556                                    21252413.090 7  87025083.67007     -1964.779 7        43.454    21252414.424 6  87025075.62106     -1964.819 6        38.682
G23         2.000                                                                                                                                                                    23950850.547 4                     -3301.016 4        26.922
G32         3.000    22667781.025 6 119119981.16606      1303.117 6        39.201                                    22667800.238 3  92820886.81303      1015.402 3        19.522    22667790.258 5                      1014.969 5        30.045
G21         4.000    21172653.222 6 111263148.44206       496.440 6        38.874                                    21172646.630 2  86698453.13402       386.820 2        15.810
G08         5.000    20297675.058 7 106665061.07507     -1175.108 7        45.526                                    20297673.346 7  83115591.39707      -915.666 7        45.899    20297674.664 7  83115573.40707      -915.801 7        45.138
G02         6.000    22811876.318 6 119877247.58406      1489.333 6        41.709                                    22811866.745 2  93410732.89502      1160.516 2        17.132
G14         7.000    24676830.820 6 129677763.28306      1308.542 6        36.491                                                                                                    24676823.186 4                      1019.245 4        29.810
E09         8.000    27470665.775 4                     -2394.919 4        29.782                                                                    27470652.072 5                     -1788.417 5        30.589    27470675.978 4                     -1834.702 4        24.045
E03         9.000    26701232.496 5 140315938.38905      2105.559 5        32.389                                                                    26701233.012 6 104781404.46806      1572.247 6        40.021    26701231.022 6 107514855.20006      1613.213 6        40.806
E05        11.000    24009543.719 5 126171030.78405       216.496 5        30.241                                                                                                                                    24009546.459 5  96676499.41305       165.706 5        35.171
E13        12.000    27553243.137 6 144793276.02206      1505.990 6        36.401                                                                    27553240.770 5                      1124.382 5        33.257    27553255.123 4 110945492.52304      1154.131 4        28.853
G27        13.000    21294773.294 5 111904765.68105     -3437.370 5        34.576                                    21294769.260 3  87198537.74903     -2678.468 3        21.571    21294770.064 6  87198530.79206     -2678.265 6        37.285
E27        14.000    25538121.965 6 134203818.31306     -2184.925 6        37.180                                                                    25538121.863 7 100217104.41507     -1631.569 7        43.473    25538119.513 6 102831473.49006     -1674.183 6        37.898
E21        15.000                                                                                                                                    27126259.885 5 106449332.72805       347.885 5        33.174    27126265.448 6 109226287.09706       357.130 6        40.594
E15        16.000    23826855.387 7 125211101.83607       130.725 7        42.804                                                                    23826857.829 7  93501699.62207        97.619 7        44.346    23826853.899 6  95940899.01206       100.138 6        37.146
S23        17.000    38187033.668 6 200674235.72006      -861.439 6        40.162
E30        19.000    27202564.997 4                     -3906.412 4        26.311                                                                    27202552.900 4 106748673.91104     -2916.911 4        27.725    27202553.790 6 109533397.95506     -2993.062 6        37.183
R20        20.000    20867758.859 4                     -3145.602 4        26.611                                                                    20867757.156 5  86791663.83415     -2445.840 5        34.738
S36        22.000    38229836.397 6 200899097.82206      -862.332 6        36.495
R06        24.000    20810948.916 3                      2575.941 3        22.076
R05        28.000    20286452.451 7 108442695.46007     -2341.417 7        46.120                                                                    20286452.659 5  84344327.68505     -1821.057 5        33.527
R12        30.000    22471033.726 7 120036190.79207     -1710.695 7        43.824                                                                    22471032.857 5  93361503.75205     -1330.657 5        33.581
E34        32.000    24139302.775 7 126852892.56407     -2145.981 7        45.025                                                                    24139303.556 7  94727828.75507     -1602.605 7        44.212    24139306.692 7  97199048.84907     -1644.318 7        47.510
R11        33.000    23535438.757 5                     -4649.662 5        30.083                                                                    23535443.584 3                     -3617.807 3        20.881
R22        35.000    22868494.402 6 122073527.05906      2520.238 6        36.556                                                                    22868501.813 4  94946279.86504      1959.651 4        27.473
C08        36.000                                                                                                                                                                                                    40310321.890 3                     -1567.436 3        23.505
C33        37.000                                                                                                                                    23523271.755 7 122491854.33607      1915.467 7        46.710                                                                    23523280.511 6  99534670.64006      1556.241 6        38.105
C11        38.000                                                                                                                                    23383937.354 7 121766251.58107     -3115.095 7        42.222    23383928.158 6  94157629.32906     -2408.747 6        36.688    23383930.520 7  98945108.39007     -2531.298 7        44.506
R21        39.000    19608643.698 7 104929810.48907       229.276 7        46.985                                                                    19608644.026 7  81612073.78607       178.307 7        44.880
R04        40.000    23702776.012 5                     -4987.121 5        31.645                                                                    23702773.870 4                     -3878.248 4        29.507
C27        41.000                                                                                                                                    26327928.732 6 137096482.14706      2187.870 6        37.474                                                                    26327924.097 3                      1778.451 3        21.905
C14        42.000                                                                                                                                    22355159.456 7 116409190.96407       534.582 7        47.687    22355154.784 8  90014920.95108       413.313 8        51.196    22355154.214 7  94591987.47507       434.297 7        47.768
C13        43.000                                                                                                                                    39614159.037 4                     -1867.127 4        26.982
C05        44.000                                                                                                                                                                                                    39192758.680 5 157812998.42905      -624.596 5        34.381
C21        46.000                                                                                                                                    25512209.550 5 132848776.96605     -3707.248 5        35.224                                                                    25512203.511 5 107950489.39905     -3012.283 5        30.362
I09        47.000    37650123.657 5 147747202.33405      -198.934 5        31.540
C43        48.000                                                                                                                                    22062223.873 7 114883801.79107     -2271.053 7        47.910                                                                    22062222.828 6  93352479.87806     -1845.396 6        41.242
C42        50.000                                                                                                                                    22469167.124 7 117002871.78707     -1240.974 7        43.196                                                                    22469175.070 6  95074527.72406     -1008.458 6        39.565
I01        53.000   414193459.602 5 322243333.92305     -2330.312 5        34.071
C37        54.000                                                                                                                                    26717995.613 6 139127572.61106     -3217.305 6        37.270                                                                    26717979.168 4                     -2614.126 4        26.994
C28        55.000                                                                                                                                    22639967.322 6 117892247.12606      1136.040 6        41.654                                                                    22639967.554 7  95797136.96207       923.045 7        43.511
I06        58.000    38521607.709 6 151167199.72906      -545.323 6        39.060
> 2025 01 02 21 45 45.0000000  0 40
G10         1.000    21254816.133 8 111694795.43808     -2524.032 8        49.038                                    21254813.345 7  87034913.31107     -1966.786 7        42.667    21254815.147 6  87034905.27206     -1966.841 6        38.943
G32         3.000    22666541.614 6 119113472.92106      1300.594 6        38.868                                    22666560.240 3  92815815.45703      1013.420 3        21.452    22666552.741 5                      1013.388 5        30.045
G21         4.000    21172181.974 6 111260671.76906       494.624 6        37.807                                    21172175.496 2  86696523.27102       385.420 2        14.905
G08         5.000    20298794.919 7 106670946.10807     -1178.520 7        45.765                                    20298793.340 7  83120177.13907      -918.324 7        45.825    20298794.761 7  83120159.13607      -918.309 7        45.789
G02         6.000    22810458.193 6 119869804.49806      1488.214 6        40.150                                    22810450.390 2  93404933.06302      1159.653 2        15.143
G14         7.000    24675586.603 5 129671229.51505      1305.693 5        34.538                                                                                                    24675581.533 5                      1017.215 5        32.263
E09         8.000    27472949.898 4                     -2396.654 4        28.047                                                                    27472931.008 5                     -1789.856 5        31.268
E03         9.000    26699229.829 4 140305414.34604      2104.788 4        29.536                                                                    26699230.620 6 104773545.59606      1571.547 6        39.829    26699228.730 6 107506791.29806      1612.602 6        41.030
E05        11.000    24009338.679 4 126169956.69404       213.408 4        28.427                                                                    24009374.104 3  94217908.26703       160.508 3        22.419    24009342.538 5  96675676.42805       163.958 5        34.695
E13        12.000    27551812.592 5 144785747.48805      1505.740 5        34.248                                                                    27551806.528 5                      1124.269 5        32.443
G27        13.000    21298045.605 5 111921958.80405     -3439.961 5        34.895                                    21298041.415 4  87211935.01004     -2680.490 4        25.714    21298042.334 6  87211928.07006     -2680.399 6        38.504
E27        14.000    25540201.976 6 134214749.82806     -2187.389 6        36.692                                                                    25540202.207 7 100225267.55207     -1633.445 7        43.221    25540200.715 6 102839849.62606     -1675.961 6        37.830
E21        15.000                                                                                                                                    27125816.826 5 106447597.83005       345.915 5        32.575    27125822.612 6 109224506.95806       355.278 6        39.538
E15        16.000    23826731.748 7 125210451.80507       129.514 7        43.795                                                                    23826734.286 7  93501214.19907        96.731 7        44.322    23826731.024 5  95940400.94705        99.246 5        35.967
S23        17.000    38187854.032 6 200678544.02006      -861.797 6        40.026
E30        19.000    27206280.464 4                     -3906.698 4        28.806                                                                    27206267.757 4 106763260.07904     -2917.229 4        29.782    27206270.193 6 109548364.59006     -2993.605 6        36.374
R20        20.000    20870702.193 4                     -3147.167 4        27.748                                                                    20870697.163 5  86803898.80615     -2447.583 5        33.293
S36        22.000    38230651.636 6 200903411.74906      -862.686 6        37.860
R06        24.000    20808538.068 3                      2578.918 3        21.524
R05        28.000    20288645.651 7 108454415.00907     -2346.091 7        46.115                                                                    20288645.883 5  84353442.87105     -1824.481 5        30.732
R12        30.000    22472638.046 7 120044756.55607     -1715.210 7        43.410                                                                    22472638.020 5  93368165.93005     -1333.975 5        32.281
E34        32.000    24141345.317 7 126863626.27707     -2147.207 7        45.074                                                                    24141346.319 7  94735844.18607     -1603.429 7        44.230    24141348.873 7  97207273.37807     -1645.222 7        47.095
R11        33.000    23539786.082 4                     -4650.200 4        26.275                                                                    23539802.750 4                     -3617.671 4        24.962
R22        35.000    22866139.670 6 122060928.41606      2519.693 6        37.251                                                                    22866148.722 5  94936480.88805      1959.460 5        30.317
C08        36.000                                                                                                                                                                                                    40312268.834 4                     -1563.308 4        25.158
C33        37.000                                                                                                                                    23521433.594 7 122482283.21807      1913.329 7        46.429                                                                    23521442.829 6  99526893.32806      1554.714 6        38.814
C11        38.000                                                                                                                                    23386930.679 7 121781831.67307     -3116.588 7        44.137    23386918.368 5  94169676.83705     -2410.272 5        34.657    23386922.446 7  98957768.48407     -2532.724 7        44.680
R21        39.000    19608429.811 7 104928671.11607       226.675 7        46.136                                                                    19608430.531 7  81611187.61707       176.365 7        44.661
R04        40.000    23707435.474 4                     -4988.869 4        26.180                                                                    23707432.345 5  98740628.19015     -3880.228 5        30.453
C27        41.000                                                                                                                                    26325826.080 6 137085542.97406      2187.676 6        37.013                                                                    26325830.747 3                      1778.000 3        22.267
C14        42.000                                                                                                                                    22354647.561 7 116406526.61007       531.530 7        47.054    22354642.915 8  90012860.69908       411.032 8        51.237    22354642.347 7  94589822.46507       431.890 7        46.953
C05        44.000                                                                                                                                                                                                    39193535.338 5 157816123.75705      -625.074 5        34.433
C21        46.000                                                                                                                                    25515770.589 5 132867318.14605     -3708.832 5        34.314                                                                    25515766.479 5 107965555.66705     -3013.771 5        30.309
I09        47.000    37650379.739 5 147748198.56105      -199.129 5        30.747
C43        48.000                                                                                                                                    22064404.965 7 114895163.17307     -2273.204 7        47.039                                                                    22064404.773 6  93361711.93406     -1847.118 6        41.712
C42        50.000                                                                                                                                    22470357.480 7 117009085.14007     -1244.102 7        42.354                                                                    22470368.730 6  95079576.57406     -1011.003 6        41.194
I01        53.000   414196429.198 5 322254987.28905     -2330.847 5        33.204
C37        54.000                                                                                                                                    26721092.476 6 139143663.25206     -3218.479 6        36.363                                                                    26721068.335 4                     -2615.608 4        26.707
C28        55.000                                                                                                                                    22638877.047 6 117886571.60406      1134.429 6        41.878                                                                    22638877.292 7  95792525.17207       921.720 7        42.796
I06        58.000    38522302.986 6 151169926.95406      -545.335 6        39.721
> 2025 01 02 21 45 50.0000000  0 40
G10         1.000    21257218.314 8 111707420.56708     -2526.011 8        49.064                                    21257215.621 6  87044751.07606     -1968.324 6        41.480    21257217.091 6  87044743.03406     -1968.447 6        39.547
G32         3.000    22665305.756 6 119106975.81706      1298.304 6        39.841                                    22665322.776 3  92810752.81203      1011.639 3        20.595    22665311.669 4                      1011.780 4        26.635
G21         4.000    21171711.737 5 111258202.32005       493.416 5        32.425                                    21171705.492 2  86694599.02302       384.446 2        13.576
G08         5.000    20299918.062 7 106676845.93307     -1181.491 7        46.368                                    20299916.160 7  83124774.41707      -920.642 7        45.682    20299917.329 7  83124756.41507      -920.646 7        45.937
G02         6.000    22809040.308 6 119862365.10306      1487.410 6        37.826                                    22809034.826 2  93399136.15602      1158.977 2        14.714
G14         7.000    24674344.047 5 129664707.53305      1303.206 5        32.760                                    24674336.468 1 101037282.59111      1015.492 1         8.762    24674337.447 5                      1015.445 5        31.721
E09         8.000    27475236.588 4                     -2398.537 4        29.991                                                                    27475212.300 5                     -1791.167 5        31.872    27475214.787 4                     -1837.551 4        28.417
E03         9.000    26697227.600 4 140294892.99804      2103.937 4        29.991                                                                    26697228.420 6 104765688.74806      1571.080 6        40.365    26697227.002 6 107498729.50606      1612.020 6        41.428
E05        11.000    24009135.327 4 126168893.61104       211.305 4        25.248                                                                    24009172.058 4                       157.808 4        26.060    24009141.171 5  96674861.93305       162.015 5        35.905
E13        12.000    27550380.545 5 144778219.47105      1505.477 5        33.329                                                                    27550372.828 5                      1124.294 5        31.872    27550367.338 4                      1153.745 4        29.118
G27        13.000    21301318.293 6 111939162.71806     -3441.943 6        39.156                                    21301315.819 4  87225340.68104     -2682.044 4        29.308    21301316.649 6  87225333.75106     -2681.992 6        39.165
E27        14.000    25542283.603 6 134225691.94406     -2189.581 6        37.713                                                                    25542284.498 7 100233438.60807     -1635.002 7        43.572    25542281.150 6 102848233.82306     -1677.449 6        37.701
E21        15.000                                                                                                                                    27125374.397 5 106445870.80605       344.560 5        30.408    27125381.799 6 109222734.89906       353.614 6        38.691
E15        16.000    23826609.305 7 125209805.97607       128.701 7        43.473                                                                    23826611.247 7  93500731.91007        96.139 7        45.044    23826612.874 5  95939906.06805        98.427 5        32.868
S23        17.000    38188679.055 6 200682852.03106      -861.518 6        40.846
E30        19.000    27209997.693 5                     -3906.940 5        31.608                                                                    27209983.791 4 106777847.62204     -2918.157 4        29.659    27209987.237 5 109563332.59805     -2993.631 5        34.724
R20        20.000    20873643.689 3                     -3150.536 3        23.543                                                                    20873642.143 5                     -2449.010 5        33.970
S36        22.000    38231468.119 6 200907724.26906      -862.483 6        37.240
R05        28.000    20290842.026 7 108466155.91607     -2350.335 7        46.801                                                                    20290840.815 4  84362574.78904     -1828.285 4        29.801
R12        30.000    22474245.989 7 120053342.77407     -1719.398 7        45.100                                                                    22474246.014 5  93374844.13205     -1337.288 5        34.471
E34        32.000    24143388.787 7 126874363.77407     -2147.960 7        45.458                                                                    24143389.603 7  94743862.45507     -1604.003 7        44.235    24143391.251 7  97215500.81407     -1645.766 7        46.301
R11        33.000                                                                                                                                    23544151.761 4                     -3617.937 4        25.910
R22        35.000    22863777.272 6 122048330.63106      2519.512 6        39.159                                                                    22863795.870 5  94926682.68505      1959.525 5        33.263
C08        36.000                                                                                                                                                                                                    40314207.023 4                     -1563.744 4        27.174
C33        37.000                                                                                                                                    23519597.203 7 122472720.55407      1911.619 7        45.571                                                                    23519608.075 6  99519122.90506      1553.254 6        37.709
C11        38.000                                                                                                                                    23389921.192 7 121797417.72907     -3117.892 7        44.305    23389913.362 5  94181728.86705     -2410.872 5        34.233    23389915.847 7  98970433.40707     -2533.643 7        44.614
R21        39.000    19608219.361 7 104927542.33307       224.649 7        46.311                                                                    19608219.400 7  81610309.65107       174.781 7        45.272
R04        40.000    23712092.016 5                     -4989.866 5        31.585                                                                    23712091.985 5  98760030.40315     -3880.842 5        30.196
C27        41.000                                                                                                                                    26323726.151 5 137074603.23605      2187.958 5        34.781
C14        42.000                                                                                                                                    22354137.283 7 116403875.18207       529.042 7        46.520    22354134.084 8  90010810.45008       409.044 8        51.111    22354132.368 7  94587667.97407       429.593 7        46.011
C13        43.000                                                                                                                                    39617766.675 4                     -1866.089 4        27.928    39617720.856 3                     -1442.256 3        23.200
C05        44.000                                                                                                                                                                                                    39194309.765 5 157819248.88205      -625.161 5        33.647
C21        46.000                                                                                                                                    25519334.505 5 132885865.71805     -3710.226 5        32.515                                                                    25519328.944 4 107980627.15004     -3015.002 4        29.678
I09        47.000    37650635.388 5 147749195.76205      -199.411 5        33.467
C43        48.000                                                                                                                                    22066589.181 7 114906533.13107     -2274.892 7        47.277                                                                    22066588.000 6  93370950.96006     -1848.787 6        40.911
C42        50.000                                                                                                                                    22471554.864 7 117015312.21307     -1246.832 7        43.016                                                                    22471565.576 7  95084636.60307     -1013.366 7        42.311
I01        53.000   414199400.238 5 322266641.94505     -2330.828 5        32.964
C37        54.000                                                                                                                                    26724183.171 6 139159758.74606     -3219.551 6        36.397                                                                    26724156.246 4                     -2616.551 4        24.797
C28        55.000                                                                                                                                    22637789.394 6 117880901.80706      1133.465 6        40.896                                                                    22637788.130 7  95787917.99907       920.828 7        42.641
I06        58.000    38522997.940 6 151172653.88306      -545.366 6        38.928
> 2025 01 02 21 45 55.0000000  0 42
G10         1.000    21259622.768 8 111720056.64408     -2528.389 8        48.074                                    21259620.156 6  87054597.37106     -1970.169 6        40.565    21259621.190 6  87054589.34906     -1970.259 6        38.550
G23         2.000    23962965.185 3                     -4237.845 3        23.790
G32         3.000    22664071.560 6 119100490.46606      1295.740 6        39.462                                    22664088.429 3  92805699.33603      1009.651 3        20.095
G21         4.000    21171241.617 5 111255740.63405       490.979 5        30.679                                    21171237.058 1  86692680.86101       382.568 1        11.778
G08         5.000    20301043.606 7 106682761.10307     -1184.707 7        47.019                                    20301041.900 7  83129383.64707      -923.151 7        45.973    20301043.077 7  83129365.66107      -923.190 7        46.065
G02         6.000    22807623.213 4 119854929.92704      1486.915 4        26.455                                    22807619.965 2  93393342.47902      1158.599 2        15.476
G14         7.000    24673106.590 4 129658197.95404      1300.626 4        29.848                                    24673098.951 1 101032210.16101      1013.540 1         8.857    24673100.185 5                      1013.466 5        30.551
E09         8.000    27477517.817 4                     -2401.342 4        26.000                                                                    27477498.591 5                     -1792.885 5        32.527    27477502.554 4                     -1839.751 4        28.313
E03         9.000    26695225.341 4 140284374.96704      2103.374 4        28.929                                                                    26695226.889 6 104757834.36306      1570.510 6        40.749    26695225.695 6 107490670.21506      1611.468 6        41.962
E05        11.000    24008961.264 4                       209.844 4        26.731                                                                                                                                    24008941.875 6  96674056.28106       160.136 6        36.129
E13        12.000    27548948.727 5 144770692.58405      1505.228 5        31.177                                                                    27548940.191 5                      1124.115 5        32.311    27548933.673 4                      1153.296 4        27.677
G27        13.000    21304595.443 6 111956377.99306     -3444.487 6        41.237                                    21304592.252 5  87238755.18405     -2684.035 5        32.198    21304592.803 6  87238748.28006     -2683.931 6        39.486
E27        14.000    25544367.308 6 134236645.15906     -2191.963 6        37.841                                                                    25544369.047 7 100241617.95707     -1636.820 7        44.355    25544366.404 6 102856626.57906     -1679.557 6        37.384
E21        15.000                                                                                                                                    27124936.304 5 106444152.09705       342.631 5        30.196    27124942.430 6 109220971.34406       351.722 6        37.641
E15        16.000    23826486.963 7 125209164.89807       127.549 7        42.586                                                                    23826488.956 7  93500253.17407        95.297 7        45.327
S23        17.000    38189499.880 6 200687160.25306      -861.865 6        41.797
E30        19.000    27213715.444 5                     -3907.803 5        33.365                                                                    27213701.624 5 106792436.83305     -2918.302 5        30.906    27213704.349 5 109578302.42805     -2993.966 5        33.617
R20        20.000    20876588.601 4                     -3151.551 4        24.180                                                                    20876584.029 5                     -2450.822 5        33.126
S36        22.000    38232285.804 6 200912036.02306      -862.670 6        36.374
R06        24.000    20803738.689 4                      2570.301 4        24.857
R05        28.000    20293042.768 7 108477918.68107     -2354.817 7        47.721                                                                    20293042.767 5  84371723.44505     -1831.462 5        30.468
R12        30.000    22475857.816 7 120061950.08207     -1723.735 7        45.436                                                                    22475857.020 6  93381538.77906     -1340.675 6        36.246
E34        32.000    24145432.770 7 126885105.61907     -2148.991 7        45.890                                                                    24145433.627 7  94751883.96207     -1604.711 7        44.361    24145435.141 7  97223731.57207     -1646.580 7        45.691
R11        33.000    23548507.664 4                     -4653.044 4        26.922                                                                    23548506.253 4                     -3619.107 4        27.856
R22        35.000    22861418.105 6 122035734.26806      2519.066 6        40.532                                                                    22861437.642 5  94916885.47205      1959.417 5        35.062
C08        36.000                                                                                                                                                                                                    40316144.421 4                     -1564.498 4        24.286
C33        37.000                                                                                                                                    23517762.545 7 122463166.84607      1909.726 7        45.583                                                                    23517773.400 6  99511359.76706      1551.764 6        39.192
C11        38.000                                                                                                                                    23392915.022 7 121813010.27907     -3119.222 7        44.618    23392911.089 6  94193786.07106     -2412.003 6        38.691    23392910.381 7  98983103.62307     -2534.730 7        44.781
R21        39.000    19608010.669 7 104926424.62907       222.188 7        46.779                                                                    19608010.371 7  81609440.31707       172.923 7        45.082
R04        40.000    23716756.750 5                     -4991.520 5        32.240                                                                    23716753.529 4  98779438.33904     -3882.413 4        27.677
C27        41.000                                                                                                                                    26321625.301 5 137063663.41205      2187.936 5        31.819
C14        42.000                                                                                                                                    22353631.036 7 116401237.23907       526.197 7        46.565    22353627.399 8  90008770.62808       406.824 8        51.037    22353625.124 7  94585524.40907       427.540 7        44.685
C13        43.000                                                                                                                                    39619549.408 4                     -1866.243 4        25.474
C05        44.000                                                                                                                                                                                                    39195087.689 5 157822374.16105      -625.247 5        33.311
C21        46.000                                                                                                                                    25522898.698 5 132904420.26405     -3711.723 5        34.038                                                                    25522890.998 4 107995704.21804     -3015.870 4        28.701
I09        47.000    37650887.296 5 147750194.34005      -199.827 5        33.180
C43        48.000                                                                                                                                    22068775.427 8 114917912.17008     -2276.871 8        48.434                                                                    22068773.295 6  93380197.35606     -1850.162 6        41.099
C42        50.000                                                                                                                                    22472753.147 7 117021553.54607     -1249.827 7        43.661                                                                    22472764.557 7  95089708.17207     -1015.552 7        43.746
I01        53.000   414202370.754 5 322278298.36005     -2331.624 5        34.057
C37        54.000                                                                                                                                    26727270.748 6 139175859.57406     -3220.780 6        36.586                                                                    26727246.816 3                     -2615.685 3        22.800
C28        55.000                                                                                                                                    22636702.353 6 117875238.25506      1132.007 6        41.435                                                                    22636700.272 6  95783315.89006       919.694 6        41.709
I06        58.000    38523692.904 6 151175380.82206      -545.438 6        39.321
> 2025 01 02 21 46  0.0000000  0 41
G10         1.000    21262029.505 7 111732703.93707     -2530.660 7        47.778                                    21262026.908 6  87064452.39906     -1971.942 6        39.742    21262028.160 6  87064444.37406     -1971.917 6        38.309
G23         2.000    23967004.165 3                     -4238.119 3        18.687                                                                                                    23966972.844 3                     -3303.672 3        22.381
G32         3.000    22662839.744 6 119094017.13706      1293.304 6        38.075                                    22662857.092 3  92800655.18803      1007.794 3        20.119    22662840.771 4                      1007.930 4        27.689
G21         4.000    21170772.767 4 111253287.01304       489.812 4        29.554                                    21170769.971 1  86690768.82901       381.643 1         9.714
G08         5.000    20302171.868 7 106688691.92707     -1187.832 7        47.089                                    20302170.627 7  83134005.07007      -925.583 7        46.146    20302171.688 7  83133987.07007      -925.544 7        46.191
G14         7.000    24671870.772 4 129651701.04404      1298.136 4        29.365                                    24671862.784 1 101027147.62301      1011.543 1         7.500    24671864.814 5                      1011.548 5        32.503
E09         8.000    27479804.158 5                     -2403.109 5        30.136                                                                    27479785.173 5                     -1794.471 5        32.814    27479791.310 4                     -1841.036 4        26.790
E03         9.000    26693225.962 5 140273860.48005      2102.962 5        30.687                                                                    26693226.147 6 104749982.64206      1570.000 6        41.349    26693224.872 7 107482613.67007      1610.926 7        42.309
E05        11.000    24008762.728 5                       206.765 5        31.117                                                                    24008744.407 6  94215492.42716       154.248 6        36.378    24008744.433 6  96673259.76106       158.236 6        36.620
E13        12.000    27547517.582 5 144763167.09305      1505.027 5        32.114                                                                    27547505.118 5                      1124.146 5        31.374    27547500.916 4                      1153.130 4        28.834
G27        13.000    21307873.410 6 111973604.93606     -3446.468 6        40.391                                    21307870.940 5  87252178.79505     -2685.553 5        34.305    21307871.805 6  87252171.85606     -2685.742 6        40.102
E27        14.000    25546454.924 6 134247609.76006     -2194.119 6        37.629                                                                    25546455.405 7 100249805.80907     -1638.504 7        44.156    25546452.062 6 102865028.01906     -1681.313 6        36.941
E21        15.000                                                                                                                                    27124501.391 5 106442441.85505       341.214 5        31.253    27124504.357 5 109219216.53505       349.836 5        35.638
E15        16.000    23826365.615 7 125208528.84507       126.630 7        42.332                                                                    23826367.580 7  93499778.21407        94.497 7        44.578    23826381.279 5  95938927.31805        97.067 5        33.401
S23        17.000    38190318.585 6 200691468.97506      -861.961 6        40.918
E30        19.000    27217433.107 5                     -3908.131 5        32.856                                                                    27217419.722 4 106807028.03904     -2918.494 4        29.564    27217421.794 5 109593274.26005     -2994.508 5        32.467
R20        20.000    20879533.419 3                     -3154.684 3        22.381                                                                    20879532.618 6                     -2452.172 6        37.028
S36        22.000    38233106.794 6 200916348.43306      -862.765 6        36.000
R06        24.000    20801336.372 4                      2568.397 4        25.985
R05        28.000    20295247.483 7 108489703.34807     -2359.216 7        47.108                                                                    20295241.231 3                     -1835.266 3        22.838
R12        30.000    22477472.830 7 120070578.73607     -1728.023 7        45.624                                                                    22477473.412 6  93388249.99006     -1343.965 6        38.925
E34        32.000    24147477.922 7 126895852.09807     -2149.860 7        46.264                                                                    24147478.532 7  94759908.93607     -1605.436 7        44.230    24147480.124 7  97231965.87707     -1647.154 7        45.071
R11        33.000    23552860.132 4                     -4652.980 4        24.917                                                                    23552856.637 4                     -3619.885 4        28.626
R22        35.000    22859062.934 6 122023139.59306      2518.713 6        40.527                                                                    22859073.841 5  94907089.62705      1958.946 5        33.856
C08        36.000                                                                                                                                    40318079.245 3                     -2019.685 3        20.595
C33        37.000                                                                                                                                    23515929.388 7 122453622.43507      1907.803 7        45.073                                                                    23515939.769 6  99503604.14506      1550.487 6        38.258
C11        38.000                                                                                                                                    23395910.577 7 121828609.62407     -3120.713 7        45.147    23395907.741 6  94205848.49306     -2413.136 6        41.066    23395906.214 7  98995779.35707     -2535.616 7        45.068
R21        39.000    19607803.849 7 104925318.32507       220.019 7        47.207                                                                    19607803.427 7  81608579.85407       171.179 7        43.227
R04        40.000    23721417.057 5                     -4992.819 5        30.083                                                                    23721418.051 4                     -3883.096 4        26.922
C27        41.000                                                                                                                                    26319523.911 5 137052723.88605      2187.598 5        32.677
C14        42.000                                                                                                                                    22353127.478 7 116398613.07707       523.389 7        46.238    22353123.297 8  90006741.46608       404.694 8        50.785    22353120.732 7  94583392.07707       425.417 7        43.972
C13        43.000                                                                                                                                    39621336.693 4                     -1865.692 4        26.802    39621308.966 5                     -1443.117 5        30.875
C05        44.000                                                                                                                                                                                                    39195862.867 5 157825499.86305      -625.275 5        33.287
C21        46.000                                                                                                                                    25526465.055 5 132922982.04905     -3713.192 5        33.108                                                                    25526456.419 4 108010787.20404     -3017.324 4        26.719
I09        47.000    37651142.325 4 147751194.49404      -200.214 4        29.943
C43        48.000                                                                                                                                    22070963.019 8 114929300.61008     -2278.793 8        48.783                                                                    22070960.533 6  93389451.38906     -1851.429 6        41.774
C42        50.000                                                                                                                                    22473954.681 7 117027809.43107     -1252.808 7        44.828                                                                    22473966.069 7  95094791.59907     -1017.769 7        44.391
I01        53.000   414205340.871 5 322289956.60005     -2331.951 5        33.593
C37        54.000                                                                                                                                    26730360.415 5 139191965.98405     -3221.713 5        35.486                                                                    26730340.522 3                     -2618.624 3        20.548
C28        55.000                                                                                                                                    22635616.795 6 117869581.20706      1130.681 6        40.837                                                                    22635613.810 6  95778719.07606       918.965 6        41.688
I06        58.000    38524387.612 6 151178108.04606      -545.549 6        39.249
> 2025 01 02 21 46  5.0000000  0 42
G10         1.000    21264438.327 7 111745361.99007     -2532.599 7        47.022                                    21264435.543 6  87074315.80006     -1973.455 6        38.802    21264436.409 6  87074307.76806     -1973.465 6        38.658
G23         2.000    23971039.612 4                     -4239.636 4        27.629
G32         3.000    22661610.544 6 119087555.34106      1291.510 6        37.240                                    22661628.040 3  92795620.04703      1006.373 3        20.214    22661613.547 4                      1006.326 4        28.758
G21         4.000    21170311.840 5 111250840.88205       488.671 5        34.129                                    21170304.323 1  86688862.82701       380.780 1         8.667
G08         5.000    20303303.637 7 106694637.95007     -1190.485 7        46.368                                    20303302.260 7  83138638.34207      -927.646 7        46.406    20303303.349 7  83138620.32707      -927.706 7        46.251
G02         6.000    22804850.816 4                      1485.439 4        28.445
G14         7.000                                                                                                                                                                    24670632.328 5 101022113.45515      1010.081 5        33.251
E09         8.000    27482096.736 4                     -2405.088 4        29.839                                                                    27482071.831 5                     -1796.114 5        32.168    27482086.593 3                     -1841.007 3        20.548
E03         9.000    26691224.477 5 140263349.11605      2102.231 5        31.660                                                                    26691225.925 6 104742133.26306      1569.761 6        41.743    26691224.518 7 107474559.53307      1610.635 7        42.601
E05        11.000    24008561.416 5 126165841.28415       205.751 5        33.838                                                                    24008548.721 6  94214724.67406       152.995 6        36.302    24008549.802 6  96672471.96006       156.959 6        37.214
E13        12.000    27546087.479 5 144755642.56005      1504.829 5        30.943                                                                    27546071.936 4                      1123.576 4        28.607    27546071.302 5                      1152.922 5        30.777
G27        13.000    21311152.912 6 111990843.06206     -3448.584 6        40.224                                    21311151.707 6  87265611.11406     -2687.210 6        36.129    21311152.435 6  87265604.15706     -2687.109 6        41.559
E27        14.000    25548545.564 6 134258585.30106     -2196.195 6        39.459                                                                    25548544.077 7 100258001.81907     -1639.863 7        44.767    25548540.995 5 102873437.81005     -1682.551 5        35.652
E21        15.000                                                                                                                                    27124066.725 5 106440739.83005       339.482 5        30.136    27124069.346 5 109217470.10205       348.703 5        34.586
E15        16.000    23826246.014 6 125207897.38406       126.033 6        41.502                                                                    23826247.332 7  93499306.67407        94.138 7        44.176    23826261.233 5  95938443.48305        96.705 5        32.635
S23        17.000    38191135.411 6 200695777.75806      -861.645 6        40.822
E30        19.000    27221151.234 5                     -3908.478 5        32.593                                                                    27221138.184 5 106821620.87605     -2918.623 5        30.838    27221139.515 5 109608247.73205     -2994.825 5        33.275
R20        20.000                                                                                                                                    20882483.812 6  86852909.36516     -2453.245 6        39.060
S36        22.000    38233931.656 6 200920660.51406      -862.278 6        36.318
R06        24.000    20798939.506 4                      2564.304 4        24.120
R05        28.000    20297455.899 7 108501509.55407     -2363.244 7        46.481                                                                    20297451.916 4                     -1837.378 4        24.992
R12        30.000    22479092.072 7 120079228.23807     -1731.797 7        44.858                                                                    22479093.690 6  93394977.39406     -1346.945 6        39.763
E34        32.000    24149523.967 7 126906602.74907     -2150.381 7        46.562                                                                    24149524.511 7  94767937.01807     -1605.847 7        44.242    24149525.669 7  97240203.39007     -1647.622 7        44.480
R11        33.000    23557212.107 4                     -4654.812 4        29.280                                                                    23557212.342 4                     -3620.643 4        27.293
R22        35.000    22856704.901 6 122010546.13406      2518.601 6        39.021                                                                    22856716.794 5  94897294.75505      1959.254 5        32.084
C08        36.000                                                                                                                                    40320026.596 3                     -2018.539 3        21.429
C33        37.000                                                                                                                                    23514097.630 7 122444086.82707      1906.371 7        44.400                                                                    23514108.468 6  99495855.71206      1548.964 6        36.836
C11        38.000                                                                                                                                    23398907.447 7 121844215.32007     -3121.591 7        45.418    23398904.438 7  94217915.76907     -2413.840 7        43.496    23398903.171 7  99008460.26607     -2536.626 7        45.389
R21        39.000    19607599.608 7 104924223.02507       218.133 7        47.133                                                                    19607598.316 7  81607727.96107       169.606 7        42.521
R04        40.000    23726078.160 4                     -4994.024 4        29.630
C27        41.000                                                                                                                                    26317423.416 5 137041784.09005      2188.195 5        35.148
C14        42.000                                                                                                                                    22352625.537 7 116396002.27407       520.976 7        45.398    22352622.397 8  90004722.62108       402.868 8        50.941    22352619.397 7  94581270.58907       423.422 7        43.306
C13        43.000                                                                                                                                                                                                    39623097.204 4                     -1442.461 4        28.104
C05        44.000                                                                                                                                                                                                    39196638.242 5 157828625.62905      -625.285 5        33.772
C21        46.000                                                                                                                                    25530031.505 5 132941550.62505     -3714.288 5        33.030                                                                    25530021.403 4 108025875.61204     -3018.091 4        25.398
I09        47.000    37651397.237 4 147752195.89504      -200.715 4        29.194
C43        48.000                                                                                                                                    22073150.859 8 114940697.97808     -2280.156 8        49.067                                                                    22073149.008 6  93398712.71106     -1852.825 6        41.685
C42        50.000                                                                                                                                    22475158.335 7 117034079.39607     -1255.304 7        44.366                                                                    22475170.199 7  95099886.48607     -1020.029 7        45.127
I01        53.000   414208311.698 5 322301616.46005     -2332.154 5        33.886
C37        54.000                                                                                                                                    26733453.481 5 139208077.54305     -3222.592 5        33.952                                                                    26733436.105 3                     -2619.699 3        22.133
C28        55.000                                                                                                                                    22634531.754 6 117863930.28306      1129.751 6        38.483                                                                    22634528.461 6  95774127.21806       918.106 6        41.316
I06        58.000    38525083.170 6 151180835.18506      -545.348 6        39.054
> 2025 01 02 21 46 10.0000000  0 40
G10         1.000    21266850.152 7 111758030.54007     -2534.890 7        47.640                                    21266845.896 6  87084187.37706     -1975.232 6        38.330    21266845.212 6  87084179.35006     -1975.263 6        36.669
G23         2.000    23975074.728 4                     -4240.319 4        29.611                                                                                                    23975038.721 3                     -3303.900 3        23.467
G32         3.000    22660382.366 6 119081104.88506      1288.726 6        37.497                                    22660400.691 3  92790593.68303      1004.211 3        19.075    22660380.091 5                      1004.560 5        30.777
G21         4.000    21169849.515 6 111248402.09606       486.984 6        37.406                                    21169840.083 1  86686962.49701       379.468 1         8.000
G08         5.000    20304438.156 7 106700598.88507     -1193.877 7        46.644                                    20304436.760 7  83143283.23107      -930.288 7        46.611    20304437.313 7  83143265.20607      -930.212 7        46.063
G02         6.000    22803426.452 5                      1483.787 5        34.257
G14         7.000    24669404.569 5 129638743.45505      1293.417 5        30.626                                    24669397.431 1 101017050.78001      1007.974 1         6.375    24669399.317 5 101017069.81905      1007.369 5        34.381
E09         8.000    27484386.480 4                     -2407.391 4        27.892                                                                    27484360.913 5                     -1797.547 5        32.946    27484383.822 3                     -1845.640 3        21.381
E03         9.000    26689226.516 5 140252840.65205      2101.344 5        33.102                                                                    26689226.084 7 104734286.03507      1569.145 7        42.055    26689224.916 7 107466507.58607      1610.172 7        42.700
E05        11.000    24008364.502 5 126164824.33805       202.139 5        33.323                                                                    24008357.007 5  94213965.29105       150.957 5        35.629    24008357.023 6  96671692.76406       154.933 6        37.898
E13        12.000    27544655.689 5 144748118.57505      1504.579 5        31.087                                                                    27544639.479 4                      1123.713 4        27.054    27544639.297 5                      1153.095 5        31.457
G27        13.000    21314435.496 6 112008092.04906     -3451.001 6        40.343                                    21314434.584 6  87279051.89106     -2689.101 6        37.705    21314435.244 7  87279044.94707     -2689.138 7        42.457
E27        14.000    25550636.589 6 134269571.48006     -2198.483 6        39.438                                                                    25550634.855 7 100266205.80307     -1641.726 7        45.383    25550632.026 5 102881855.82405     -1684.452 5        35.910
E21        15.000                                                                                                                                    27123635.283 5 106439045.74105       337.877 5        30.332    27123637.173 5 109215731.81205       347.108 5        33.347
E15        16.000    23826126.998 7 125207270.26107       124.905 7        42.603                                                                    23826128.154 7  93498838.35107        93.398 7        43.951    23826145.564 5  95937962.87205        95.730 5        32.042
S23        17.000    38191959.388 6 200700086.34606      -861.834 6        41.402
E30        19.000    27224868.257 5                     -3908.948 5        31.940                                                                    27224856.971 5 106836215.09005     -2918.825 5        30.408    27224857.683 5 109623222.66405     -2994.858 5        32.317
R20        20.000    20885426.369 4                     -3155.029 4        24.150                                                                    20885435.852 6  86865179.67506     -2454.846 6        40.598
S36        22.000    38234751.135 6 200924972.01806      -862.366 6        37.104
R05        28.000    20299668.743 7                     -2367.750 7        47.169                                                                    20299661.931 4                     -1841.285 4        28.284
R12        30.000    22480713.435 7 120087898.32107     -1736.310 7        45.124                                                                    22480716.521 6  93401720.73606     -1350.335 6        38.036
E34        32.000    24151570.512 7 126917357.30807     -2151.418 7        46.225                                                                    24151571.089 7  94775968.01907     -1606.603 7        44.423    24151571.829 7  97248443.90007     -1648.479 7        43.890
R11        33.000    23561569.466 5                     -4655.763 5        34.343                                                                    23561570.193 4                     -3621.446 4        27.425
C08        36.000                                                                                                                                    40321970.022 3                     -2023.457 3        20.333
C33        37.000                                                                                                                                    23512267.425 7 122434559.80707      1904.409 7        43.769                                                                    23512278.324 6  99488114.24906      1547.388 6        37.611
C11        38.000                                                                                                                                    23401906.016 7 121859827.06607     -3122.971 7        44.959    23401902.245 7  94229987.78207     -2414.969 7        44.483    23401901.186 7  99021146.08107     -2537.783 7        45.923
R21        39.000    19607396.993 7 104923138.29907       215.680 7        47.408                                                                    19607396.353 7  81606884.29207       167.818 7        42.457
R04        40.000    23730744.303 4                     -4996.251 4        25.173                                                                    23730752.907 4                     -3885.257 4        25.233
C27        41.000                                                                                                                                    26315324.419 5 137030843.78905      2188.119 5        33.210
C14        42.000                                                                                                                                    22352125.690 7 116393404.54407       518.204 7        45.509    22352123.773 8  90002713.89708       400.656 8        51.416    22352120.427 7  94579159.73307       421.084 7        42.773
C13        43.000                                                                                                                                    39624893.184 4                     -1863.171 4        24.992    39624891.724 5                     -1442.549 5        30.226
C05        44.000                                                                                                                                                                                                    39197414.847 5 157831751.23605      -625.054 5        33.186
C21        46.000                                                                                                                                    25533598.594 5 132960125.66705     -3715.881 5        33.575
I09        47.000    37651653.156 4 147753198.33904      -201.001 4        29.744
C43        48.000                                                                                                                                    22075340.743 8 114952104.04508     -2282.222 8        48.413                                                                    22075339.291 6  93407981.07906     -1854.573 6        41.044
C42        50.000                                                                                                                                    22476364.794 7 117040363.20107     -1258.183 7        44.138                                                                    22476376.975 7  95104992.59107     -1022.450 7        45.968
I01        53.000   414211283.033 5 322313277.63105     -2332.090 5        34.505
C37        54.000                                                                                                                                    26736551.635 5 139224193.95305     -3224.128 5        33.407                                                                    26736534.233 3                     -2620.284 3        21.929
C28        55.000                                                                                                                                    22633448.893 6 117858285.21206      1128.245 6        36.072                                                                    22633444.253 6  95769540.10106       916.775 6        40.613
I06        58.000    38525777.791 6 151183562.06906      -545.522 6        38.865
> 2025 01 02 21 46 15.0000000  0 41
G10         1.000    21269263.369 8 111770709.74108     -2537.138 8        48.774                                    21269258.184 6  87094067.24206     -1976.983 6        38.219    21269258.376 5  87094059.21605     -1976.882 5        34.790
G23         2.000    23979111.687 4                     -4240.680 4        29.915                                                                                                    23979073.596 3                     -3304.276 3        23.829
G32         3.000    22659155.762 6 119074665.82906      1286.465 6        36.586                                    22659174.698 2  92785576.20602      1002.446 2        16.755    22659153.967 5                      1002.552 5        32.371
G21         4.000    21169388.254 6 111245970.85806       485.487 6        39.483                                    21169377.338 1  86685068.04301       378.320 1         8.571
G08         5.000    20305576.111 7 106706574.89207     -1196.930 7        47.992                                    20305574.077 7  83147939.86107      -932.670 7        46.974    20305574.522 7  83147921.85307      -932.710 7        46.152
G02         6.000    22802007.131 6 119825416.76416      1483.201 6        38.162
G14         7.000    24668176.116 4 129632282.80404      1291.114 4        28.607                                    24668169.134 1 101012016.52601      1006.122 1         7.125    24668169.861 5 101012035.55105      1005.654 5        35.438
E09         8.000    27486668.640 3                     -2408.243 3        22.571                                                                    27486652.217 5                     -1799.202 5        33.581
E03         9.000    26687228.023 5 140242335.23605      2100.483 5        33.665                                                                    26687227.014 7 104726441.08907      1568.593 7        42.233    26687225.845 7 107458458.00807      1609.511 7        42.552
E05        11.000    24008171.556 5 126163818.70105       199.918 5        32.964                                                                    24008167.036 5  94213214.36705       149.381 5        34.686    24008166.351 6  96670922.24806       153.078 6        38.108
E13        12.000    27543221.968 4 144740595.53104      1504.555 4        29.052                                                                    27543206.489 3                      1123.869 3        23.486    27543206.553 4                      1152.724 4        29.820
G27        13.000    21317720.585 6 112025352.10806     -3453.334 6        41.449                                    21317719.577 6  87292501.30006     -2690.915 6        39.333    21317720.277 7  87292494.34807     -2690.848 7        43.848
E27        14.000    25552728.050 6 134280568.49906     -2200.825 6        38.865                                                                    25552727.511 7 100274417.85707     -1643.421 7        45.338    25552724.834 6 102890282.12606     -1686.332 6        36.752
E21        15.000                                                                                                                                    27123205.722 5 106437359.73605       336.398 5        30.143    27123207.192 5 109214001.87505       345.191 5        31.955
E15        16.000    23826008.816 7 125206647.62407       123.781 7        42.929                                                                    23826009.617 7  93498373.39007        92.515 7        43.814    23826032.651 5  95937485.69105        94.951 5        33.641
S23        17.000    38192777.548 6 200704394.79906      -862.043 6        41.707
E30        19.000    27228587.256 5 143087185.73315     -3909.620 5        33.000                                                                    27228576.109 4 106850810.83304     -2919.458 4        29.915    27228576.364 4 109638199.08104     -2995.340 4        29.943
R20        20.000    20888372.520 3                     -3158.656 3        21.024                                                                    20888387.646 6  86877457.00006     -2456.335 6        40.620
S36        22.000    38235576.516 6 200929283.67806      -862.511 6        36.268
R05        28.000    20301885.557 7 108525186.04217     -2372.113 7        47.494                                                                    20301877.378 3                     -1848.868 3        22.190
R12        30.000    22482339.973 7 120096589.17607     -1740.552 7        45.693                                                                    22482341.883 5  93408480.23905     -1353.377 5        34.857
E34        32.000    24153617.854 7 126928115.95507     -2152.404 7        46.185                                                                    24153618.277 7  94784002.07007     -1607.246 7        44.324    24153618.740 7  97256687.52307     -1649.240 7        43.575
R11        33.000    23565927.292 5 125929166.19615     -4657.404 5        35.286                                                                    23565925.991 4                     -3623.218 4        26.575
R22        35.000    22851973.601 5 121985362.24405      2518.060 5        34.529
C08        36.000                                                                                                                                    40323911.667 3                     -2022.065 3        21.810    40323874.591 3                     -1563.760 3        23.733
C33        37.000                                                                                                                                    23510439.095 7 122425041.54707      1902.571 7        43.318                                                                    23510449.212 6  99480379.85406      1546.061 6        37.939
C11        38.000                                                                                                                                    23404905.578 7 121875445.06007     -3124.473 7        44.974    23404901.773 7  94242064.59807     -2415.984 7        45.734    23404900.527 7  99033836.93607     -2538.734 7        46.157
R21        39.000    19607196.610 7 104922064.53607       213.439 7        46.876                                                                    19607195.279 6  81606049.13906       166.020 6        41.790
R04        40.000    23735415.700 4                     -4997.011 4        27.401                                                                    23735399.013 4                     -3886.017 4        24.887
C27        41.000                                                                                                                                    26313226.836 5 137019903.22905      2187.972 5        30.068                                                                    26313224.376 3                      1776.365 3        20.476
C14        42.000                                                                                                                                    22351629.278 7 116390820.07707       515.321 7        45.660    22351627.618 8  90000715.42108       398.534 8        51.449    22351623.883 7  94577059.62707       418.897 7        42.408
C13        43.000                                                                                                                                    39626696.764 4                     -1865.623 4        28.483    39626684.147 5                     -1442.665 5        31.102
C05        44.000                                                                                                                                                                                                    39198192.900 5 157834876.84405      -625.435 5        34.124
C21        46.000                                                                                                                                    25537166.458 5 132978707.27005     -3717.178 5        35.786                                                                    25537154.591 3                     -3020.528 3        22.248
I09        47.000    37651909.044 4 147754201.89504      -200.764 4        26.934
C43        48.000                                                                                                                                    22077533.752 7 114963518.97707     -2284.084 7        46.484                                                                    22077531.233 6  93417256.59206     -1855.844 6        40.343
C42        50.000                                                                                                                                    22477575.845 7 117046660.98607     -1261.281 7        42.845                                                                    22477586.427 7  95110110.04507     -1024.661 7        46.023
I01        53.000   414214255.616 5 322324940.36005     -2332.864 5        34.629
C37        54.000                                                                                                                                    26739650.850 5 139240315.36805     -3224.871 5        33.168
C28        55.000                                                                                                                                    22632365.866 6 117852646.07006      1127.148 6        36.749                                                                    22632361.272 6  95764957.83006       915.862 6        40.303
I06        58.000    38526472.050 6 151186288.79606      -545.484 6        38.847
> 2025 01 02 21 46 20.0000000  0 41
G10         1.000    21271678.244 8 111783399.48908     -2539.222 8        49.842                                    21271672.350 6  87103955.33306     -1978.609 6        38.520    21271674.353 5  87103947.30305     -1978.749 5        35.386
G23         2.000    23983142.349 4                     -4241.898 4        27.916
G32         3.000    22657931.977 6 119068238.24406      1284.145 6        36.147                                    22657950.627 2  92780567.66102      1000.594 2        16.566    22657931.497 5                      1000.760 5        32.419
G21         4.000    21168931.067 6 111243547.07706       483.827 6        39.273                                    21168915.969 1  86683179.33301       377.038 1         6.375
G08         5.000    20306716.318 8 106712565.93108     -1199.904 8        49.236                                    20306714.243 7  83152608.20707      -934.990 7        47.455    20306714.743 7  83152590.19207      -934.964 7        45.920
G14         7.000    24666947.796 5 129625834.28405      1288.340 5        34.090                                    24666942.077 1 101006991.65501      1003.919 1         7.125    24666942.860 6 101007010.68806      1003.835 6        36.382
E09         8.000    27488965.466 4                     -2411.324 4        29.194                                                                    27488944.872 5                     -1800.755 5        33.018
E03         9.000    26685228.941 5 140231832.81805      2099.932 5        33.407                                                                    26685228.521 7 104718598.38907      1568.169 7        42.406    26685227.101 7 107450410.72007      1609.031 7        42.576
E05        11.000    24007981.867 5 126162824.39305       197.683 5        33.048                                                                    24007978.749 5  94212471.84405       147.841 5        33.910    24007977.727 6  96670160.38906       151.344 6        38.517
E13        12.000    27541789.448 4 144733073.26804      1503.900 4        28.540                                                                    27541768.992 3                      1123.388 3        20.643    27541774.422 5                      1152.678 5        30.475
G27        13.000    21321008.144 7 112042623.15407     -3455.457 7        42.239                                    21321006.626 6  87305959.26806     -2692.564 6        40.741    21321007.180 7  87305952.29207     -2692.566 7        45.010
E27        14.000    25554820.780 6 134291576.27006     -2202.827 6        37.622                                                                    25554822.193 7 100282637.93507     -1644.940 7        45.406    25554818.964 6 102898716.61806     -1687.874 6        36.000
E21        15.000                                                                                                                                    27122779.541 5 106435681.89405       334.181 5        30.468    27122778.260 5 109212280.19705       343.242 5        30.974
E15        16.000    23825891.025 7 125206029.40707       123.038 7        42.140                                                                    23825891.837 7  93497911.73207        91.933 7        44.185    23825918.283 5  95937011.94905        94.279 5        35.348
S23        17.000    38193594.893 6 200708703.12806      -861.867 6        41.085
E30        19.000    27232305.008 5 143106733.42605     -3909.938 5        33.443                                                                    27232295.893 5 106865408.02905     -2919.581 5        30.423    27232295.275 4 109653177.11704     -2995.633 4        29.564
R20        20.000    20891332.694 3                     -3159.410 3        22.495                                                                    20891338.186 6  86889741.27706     -2457.633 6        39.751
S36        22.000    38236391.594 6 200933595.77406      -862.523 6        36.382
R06        24.000    20791700.084 5                      2556.116 5        30.657
R05        28.000    20304105.619 7 108537056.39407     -2376.393 7        46.577                                                                    20304100.633 4                     -1847.920 4        24.301
R12        30.000    22483971.318 7 120105300.72807     -1744.488 7        44.939                                                                    22483972.483 5  93415255.90605     -1356.955 5        34.552
E34        32.000    24155665.727 7 126938878.59107     -2153.047 7        46.479                                                                    24155666.362 7  94792039.10607     -1607.759 7        44.393    24155666.085 7  97264934.21407     -1649.682 7        43.554
R11        33.000    23570286.393 5 125952455.03005     -4658.431 5        35.405                                                                    23570288.068 4                     -3623.216 4        26.647
R22        35.000    22849618.926 6 121972772.05806      2517.766 6        36.722
C08        36.000                                                                                                                                    40325851.783 3                     -2017.779 3        21.262
C33        37.000                                                                                                                                    23508612.991 7 122415531.99707      1900.831 7        42.747                                                                    23508623.179 6  99472652.55006      1544.800 6        36.658
C11        38.000                                                                                                                                    23407905.473 7 121891069.19607     -3125.566 7        44.716    23407902.879 7  94254146.15807     -2416.856 7        46.801    23407900.929 7  99046532.82907     -2539.769 7        46.410
R21        39.000    19606999.528 8 104921001.60208       211.343 8        48.236                                                                    19606996.466 6  81605222.40306       164.389 6        41.797
R04        40.000    23740074.938 4                     -4998.603 4        24.466                                                                    23740070.637 3                     -3888.643 3        20.405
C27        41.000                                                                                                                                    26311130.783 5 137008962.33105      2187.948 5        30.249                                                                    26311121.850 3                      1777.605 3        22.914
C14        42.000                                                                                                                                    22351136.515 7 116388248.75207       512.749 7        45.142    22351133.800 8  89998727.14108       396.497 8        51.605    22351130.475 7  94574970.24807       416.669 7        42.535
C13        43.000                                                                                                                                    39628490.417 4                     -1865.722 4        28.085    39628476.955 5                     -1442.386 5        32.144
C05        44.000                                                                                                                                                                                                    39198967.814 5 157838002.36905      -624.973 5        33.419
C21        46.000                                                                                                                                    25540736.680 5 132997295.56405     -3718.312 5        35.133                                                                    25540722.271 3                     -3022.748 3        21.214
I09        47.000    37652165.656 4 147755206.70304      -200.780 4        25.053
C43        48.000                                                                                                                                    22079727.807 7 114974942.66407     -2285.747 7        45.794                                                                    22079725.243 6  93426539.27406     -1857.282 6        40.231
C42        50.000                                                                                                                                    22478788.933 7 117052972.68607     -1263.933 7        44.230                                                                    22478798.586 7  95115238.84707     -1027.027 7        46.218
I01        53.000   414217227.330 5 322336604.49605     -2332.933 5        35.062
C37        54.000                                                                                                                                    26742745.998 5 139256441.70605     -3225.801 5        32.940                                                                    26742751.837 4                     -2621.267 4        28.929
C28        55.000                                                                                                                                    22631284.525 6 117847012.86106      1125.930 6        37.905                                                                    22631279.517 6  95760380.41306       914.897 6        40.470
I06        58.000    38527167.314 6 151189015.34706      -545.360 6        38.604
> 2025 01 02 21 46 25.0000000  0 40
G10         1.000    21274094.791 8 111796100.02008     -2541.408 8        50.174                                    21274088.851 6  87113851.82206     -1980.306 6        39.117    21274091.127 5  87113843.77905     -1980.281 5        35.629
G23         2.000    23987176.750 5                     -4241.935 5        30.438                                                                                                    23987144.642 3                     -3305.826 3        23.410
G32         3.000    22656712.436 6 119061822.33006      1281.890 6        38.072                                    22656729.538 2  92775568.35402       998.883 2        15.762    22656708.571 5                       999.086 5        31.683
G21         4.000    21168475.122 6 111241130.83606       482.334 6        39.952                                    21168456.125 1  86681296.48401       375.796 1         8.952
G08         5.000    20307859.371 8 106718572.17808     -1202.953 8        49.930                                    20307857.261 8  83157288.40408      -937.368 8        48.144    20307857.698 7  83157270.39207      -937.361 7        45.941
G14         7.000    24665723.237 5 129619397.99805      1286.055 5        33.886                                    24665717.250 1 101001976.42801      1002.078 1         5.714    24665719.456 6 101001995.40906      1001.856 6        37.312
E09         8.000    27491266.129 5                     -2413.342 5        30.513                                                                    27491238.465 5                     -1802.181 5        33.192
E03         9.000    26683231.474 5 140221333.63005      2099.082 5        33.066                                                                    26683230.507 7 104710758.07207      1567.599 7        42.701    26683228.648 7 107442365.86907      1608.590 7        42.459
E05        11.000    24007793.222 5 126161841.56405       195.363 5        33.742                                                                    24007793.917 5  94211737.88405       145.762 5        30.838    24007791.258 6  96669407.30206       149.586 6        39.066
E13        12.000    27540351.357 4 144725551.90204      1504.247 4        26.551                                                                                                                                    27540343.910 5                      1152.631 5        30.626
G27        13.000    21324296.452 7 112059905.36007     -3457.944 7        42.167                                    21324295.827 6  87319425.93306     -2694.500 6        41.673    21324296.031 7  87319418.94507     -2694.463 7        45.276
E27        14.000    25556917.857 6 134302595.00306     -2205.033 6        36.775                                                                    25556918.860 7 100290866.18307     -1646.665 7        46.185    25556915.555 5 102907159.51705     -1689.611 5        35.476
E21        15.000                                                                                                                                    27122355.092 5 106434012.15005       332.996 5        31.275    27122351.615 4 109210566.94604       341.653 4        29.915
E15        16.000    23825774.313 7 125205415.81807       121.998 7        42.808                                                                    23825775.404 7  93497453.52107        91.063 7        44.561    23825802.815 5  95936541.76405        93.548 5        35.486
S23        17.000    38194417.873 6 200713011.49006      -861.893 6        40.825
E30        19.000    27236024.671 5 143126283.14605     -3910.190 5        33.162                                                                    27236015.820 5 106880006.86805     -2920.148 5        31.200    27236015.958 4 109668156.80104     -2996.220 4        29.829
R20        20.000    20894292.586 4                     -3161.195 4        26.000                                                                    20894290.525 6  86902032.61606     -2459.204 6        37.180
S36        22.000    38237211.373 6 200937909.18806      -862.969 6        37.146
R06        24.000    20789315.318 5                      2553.321 5        31.351
R05        28.000    20306328.694 7 108548948.15007     -2380.780 7        44.179
R12        30.000    22485606.013 7 120114033.16207     -1748.774 7        45.579                                                                    22485607.621 6  93422047.78106     -1360.168 6        36.941
E34        32.000    24157714.481 7 126949645.45307     -2154.038 7        46.672                                                                    24157715.305 7  94800079.27607     -1608.395 7        44.464    24157714.542 7  97273184.12707     -1650.500 7        43.082
R11        33.000    23574645.372 5 125975749.51305     -4659.470 5        35.300                                                                    23574647.006 4                     -3624.349 4        28.057
R22        35.000    22847265.033 6 121960183.16106      2517.402 6        37.921                                                                    22847323.291 5  94858123.39605      1957.739 5        31.532
C08        36.000                                                                                                                                                                                                    40327777.526 3                     -1568.398 3        21.214
C33        37.000                                                                                                                                    23506788.954 7 122406031.31007      1899.020 7        42.045                                                                    23506798.898 6  99464932.47506      1543.248 6        36.250
C11        38.000                                                                                                                                    23410905.763 7 121906699.67507     -3126.905 7        42.853    23410904.740 7  94266232.64007     -2417.939 7        47.088    23410902.721 7  99059233.85307     -2540.859 7        46.436
R21        39.000    19606803.073 8 104919949.64708       209.077 8        48.938                                                                    19606799.856 6  81604404.22006       162.666 6        41.349
R04        40.000    23744750.051 4                     -4998.784 4        26.910                                                                    23744740.563 3                     -3892.562 3        18.209
C27        41.000                                                                                                                                                                                                                                                                    26309021.502 3                      1780.687 3        20.976
C14        42.000                                                                                                                                    22350645.276 7 116385690.83607       510.028 7        45.251    22350642.609 8  89996749.21208       394.382 8        51.939    22350639.353 7  94572891.75307       414.449 7        42.902
C13        43.000                                                                                                                                    39630278.234 4                     -1865.220 4        28.047    39630268.265 5                     -1442.226 5        33.605
C05        44.000                                                                                                                                                                                                    39199742.966 5 157841128.01905      -625.324 5        31.728
C21        46.000                                                                                                                                    25544306.004 5 133015890.58205     -3720.114 5        34.667                                                                    25544292.562 3                     -3020.728 3        19.791
C43        48.000                                                                                                                                    22081924.164 7 114986375.30107     -2287.667 7        46.634                                                                    22081921.047 6  93435829.21506     -1858.843 6        39.886
C42        50.000                                                                                                                                    22480005.132 7 117059298.50207     -1266.752 7        44.658                                                                    22480013.286 7  95120379.08907     -1029.359 7        46.503
I01        53.000   414220201.039 5 322348270.24905     -2333.291 5        34.538
C37        54.000                                                                                                                                    26745838.449 5 139272573.15705     -3227.122 5        34.019                                                                    26745845.659 5                     -2621.925 5        30.151
C28        55.000                                                                                                                                    22630203.951 6 117841385.85606      1124.675 6        36.423                                                                    22630199.247 6  95755807.95406       913.789 6        40.543
I06        58.000    38527861.735 6 151191741.82506      -545.492 6        38.976
> 2025 01 02 21 46 30.0000000  0 42
G10         1.000    21276513.572 8 111808811.58608     -2543.222 8        50.086                                    21276508.289 6  87123756.91406     -1981.727 6        40.036    21276510.719 6  87123748.91606     -1981.743 6        36.019
G23         2.000    23991211.450 4                     -4242.632 4        29.820                                                                                                    23991177.303 3                     -3303.496 3        20.548
G32         3.000    22655496.052 6 119055418.34106      1279.909 6        40.656                                    22655510.784 2  92770578.21802       997.354 2        16.113    22655489.651 5                       996.936 5        31.147
G21         4.000    21168019.759 6 111238722.53006       481.151 6        38.871                                    21167997.775 1  86679419.96601       374.921 1         8.381
G08         5.000    20309004.410 8 106724593.96108     -1205.751 8        49.796                                    20309003.226 8  83161980.69708      -939.546 8        48.445    20309003.570 7  83161962.68407      -939.526 7        45.953
G02         6.000    22797731.228 6 119803185.32906      1480.985 6        38.766                                    22797735.555 2  93352911.86812      1153.958 2        14.952
G14         7.000    24664498.970 5 129612974.38405      1283.985 5        33.748                                    24664495.683 1 100996970.92701      1000.456 1         7.875    24664496.838 6 100996989.93606      1000.539 6        36.979
E09         8.000    27493563.050 4                     -2415.636 4        27.066                                                                    27493535.730 5                     -1803.715 5        32.946
E03         9.000    26681233.570 5 140210837.96005      2098.842 5        32.820                                                                    26681233.154 7 104702920.38607      1567.381 7        42.343    26681231.051 7 107434323.73307      1608.259 7        42.269
E05        11.000    24007607.825 5 126160870.54805       193.156 5        33.401                                                                    24007612.407 5  94211012.69605       144.618 5        30.196    24007607.490 6  96668663.26806       148.284 6        38.526
E13        12.000                                                                                                                                    27538947.461 4                      1123.034 4        29.858    27538911.904 5                      1152.289 5        30.128
G27        13.000    21327587.032 7 112077199.02707     -3459.677 7        42.669                                    21327587.107 7  87332901.52207     -2695.847 7        42.334    21327586.884 7  87332894.52107     -2695.868 7        45.397
E27        14.000    25559018.054 6 134313624.89606     -2206.829 6        38.763                                                                    25559017.441 7 100299102.82807     -1648.004 7        46.239    25559015.516 6 102915611.07006     -1691.179 6        36.820
E21        15.000                                                                                                                                    27121932.822 5 106432350.88405       331.630 5        31.849    27121928.145 4 109208862.32804       340.298 4        29.858
E15        16.000    23825658.373 7 125204807.13407       121.442 7        43.064                                                                    23825659.327 7  93496998.98907        90.696 7        44.621    23825688.956 6  95936075.35606        92.968 6        36.223
S23        17.000    38195237.097 6 200717320.18006      -861.464 6        40.889
E30        19.000    27239743.274 5 143145835.38205     -3910.299 5        33.281                                                                    27239736.951 4 106894607.50504     -2919.833 4        29.687    27239736.419 4 109683138.37104     -2996.320 4        28.995
R20        20.000    20897250.743 4                     -3163.326 4        29.545                                                                    20897248.477 6                     -2460.342 6        36.325
S36        22.000    38238035.591 6 200942222.54706      -862.213 6        37.618
R06        24.000    20786924.109 5                      2550.081 5        30.475
R05        28.000    20308557.788 7 108560861.90907     -2384.643 7        44.122                                                                    20308554.785 3                     -1855.007 3        23.410
R12        30.000    22487244.892 7 120122786.76107     -1752.625 7        45.585                                                                    22487245.408 6  93428856.12006     -1363.094 6        37.180
E34        32.000    24159764.289 7 126960416.79307     -2154.506 7        46.734                                                                    24159764.952 7  94808122.81707     -1608.824 7        44.298    24159764.082 7  97281437.48807     -1650.876 7        42.305
R11        33.000    23579004.713 5 125999049.88505     -4660.300 5        34.462                                                                    23579006.185 4                     -3625.189 4        29.517
R22        35.000    22844903.794 5 121947595.88005      2517.705 5        32.575
C08        36.000                                                                                                                                                                                                    40329704.285 3                     -1564.438 3        23.486
C33        37.000                                                                                                                                    23504967.183 7 122396539.83507      1897.579 7        42.753                                                                    23504976.427 6  99457219.90606      1541.848 6        37.342
C11        38.000                                                                                                                                    23413906.587 6 121922336.86106     -3127.845 6        40.462    23413908.284 7  94278324.30307     -2418.759 7        46.849    23413905.694 7  99071940.33607     -2541.790 7        46.299
R21        39.000    19606608.331 8 104918908.91808       207.254 8        49.627                                                                    19606605.175 6  81603594.76406       161.248 6        41.156
R04        40.000                                                                                                                                    23749412.344 4                     -3890.070 4        24.827
C27        41.000                                                                                                                                                                                                                                                                    26306920.407 3                      1777.879 3        22.476
C14        42.000                                                                                                                                    22350157.015 7 116383146.61807       507.756 7        46.213    22350154.194 8  89994781.86508       392.560 8        52.199    22350151.225 7  94570824.37807       412.482 7        43.826
C13        43.000                                                                                                                                    39632068.887 5                     -1865.334 5        30.785    39632060.647 5 159581879.18215     -1442.224 5        34.976
C05        44.000                                                                                                                                                                                                    39200518.707 5 157844254.04905      -624.988 5        33.407
C21        46.000                                                                                                                                    25547884.632 5 133034492.64705     -3720.847 5        33.988                                                                    25547867.257 3                     -3024.113 3        23.029
C43        48.000                                                                                                                                    22084121.733 8 114997817.18208     -2289.054 8        48.869                                                                    22084117.626 6  93445126.69306     -1860.121 6        38.895
C42        50.000                                                                                                                                    22481222.853 7 117065638.73207     -1269.295 7        44.587                                                                    22481230.889 7  95125531.05507     -1031.474 7        46.536
C34        52.000                                                                                                                                    25421813.459 4                     -3818.938 4        25.654
I01        53.000   414223173.240 5 322359937.82105     -2333.506 5        34.890
C37        54.000                                                                                                                                    26748933.555 5 139288710.00505     -3227.981 5        32.629                                                                    26748944.167 4                     -2623.009 4        27.557
C28        55.000                                                                                                                                    22629126.142 5 117835765.28805      1123.787 5        35.609                                                                    22629120.135 6  95751240.76106       912.980 6        41.225
I06        58.000    38528555.852 6 151194468.47606      -545.142 6        37.645
> 2025 01 02 21 46 35.0000000  0 42
G10         1.000    21278934.606 8 111821533.50608     -2545.454 8        50.192                                    21278929.991 6  87133670.08306     -1983.463 6        40.486    21278931.170 5  87133662.11905     -1983.891 5        35.067
G23         2.000    23995245.717 4                     -4242.919 4        28.322                                                                                                    23995214.745 3                     -3307.570 3        22.171
G32         3.000    22654278.848 7 119049025.64307      1277.346 7        42.660                                    22654294.154 3  92765597.04503       995.294 3        18.746    22654268.657 4                       995.365 4        26.731
G21         4.000    21167562.580 6 111236321.37906       479.602 6        37.066                                    21167540.900 1  86677549.02201       373.637 1         8.667
G08         5.000    20310153.031 8 106730630.55208     -1208.755 8        50.511                                    20310152.008 8  83166684.53408      -941.889 8        48.779    20310152.337 7  83166666.53507      -941.938 7        45.797
G02         6.000    22796331.740 6 119795782.92806      1480.141 6        37.134                                    22796328.684 2  93347143.78902      1153.339 2        17.962
G14         7.000    24663278.219 4 129606562.68404      1281.522 4        29.848                                    24663275.927 1 100991974.75401       998.674 1         8.095    24663276.933 6 100991993.75306       998.264 6        37.860
E09         8.000    27495853.545 4                     -2417.457 4        27.353                                                                    27495833.330 5                     -1805.310 5        32.335
E03         9.000    26679236.460 5 140200345.09905      2098.182 5        34.824                                                                    26679236.349 7 104695084.80407      1566.876 7        42.260    26679234.370 6 107426283.74506      1607.687 6        41.988
E05        11.000    24007425.242 5 126159910.63005       190.968 5        33.611                                                                    24007430.737 5  94210295.84505       142.637 5        30.891    24007425.977 6  96667927.74306       146.287 6        39.366
E13        12.000    27537483.316 4                      1503.643 4        26.012                                                                    27537512.803 4                      1122.867 4        29.431    27537481.043 5                      1152.245 5        31.592
G27        13.000    21330879.284 7 112094503.42907     -3461.966 7        43.321                                    21330880.331 7  87346385.46507     -2697.637 7        43.346    21330879.677 7  87346378.48007     -2697.688 7        45.859
E27        14.000    25561120.304 6 134324665.36006     -2209.132 6        40.713                                                                    25561118.149 7 100307347.34207     -1649.719 7        45.532    25561116.020 6 102924070.62506     -1692.750 6        36.219
E21        15.000                                                                                                                                    27121512.827 5 106430697.51805       329.617 5        32.162    27121507.192 5 109207165.81805       338.540 5        30.664
E15        16.000    23825543.483 7 125204202.68207       120.383 7        43.710                                                                    23825544.014 7  93496547.62507        89.862 7        44.278    23825570.720 6  95935612.12506        92.248 6        36.824
S23        17.000    38196056.709 6 200721628.44306      -861.661 6        40.915
E30        19.000    27243463.228 5 143165389.31705     -3910.940 5        33.072                                                                    27243457.104 5 106909209.49205     -2920.602 5        30.551    27243456.906 5 109698121.23305     -2996.652 5        30.589
R20        20.000    20900215.890 4                     -3165.299 4        27.760                                                                    20900208.765 5                     -2461.926 5        35.195
S36        22.000    38238855.678 5 200946535.17405      -862.375 5        35.590
R06        24.000    20784532.654 5                      2547.398 5        32.653
R05        28.000    20310792.709 7                     -2389.187 7        44.042                                                                    20310785.991 4                     -1857.574 4        27.449
R12        30.000    22488887.473 7 120131560.76707     -1756.863 7        47.039                                                                    22488887.457 6  93435680.37406     -1366.707 6        36.004
E34        32.000    24161815.044 7 126971191.93807     -2155.439 7        47.283                                                                    24161815.427 7  94816169.20407     -1609.622 7        44.483    24161813.799 7  97289693.77007     -1651.562 7        42.009
R11        33.000    23583365.848 5 126022355.51305     -4661.942 5        34.357                                                                    23583373.346 4                     -3625.894 4        29.877
R22        35.000    22842540.624 6 121935009.37406      2517.182 6        36.582
C08        36.000                                                                                                                                    40331644.337 3                     -2019.435 3        19.821    40331636.428 3                     -1558.083 3        22.495
C33        37.000                                                                                                                                    23503146.549 7 122387056.87207      1895.719 7        44.072                                                                    23503156.613 6  99449514.25806      1540.206 6        37.293
C11        38.000                                                                                                                                    23416910.738 6 121937980.01106     -3129.392 6        40.102    23416912.403 7  94290420.54407     -2419.789 7        46.892    23416910.013 7  99084651.63607     -2543.003 7        46.569
R21        39.000    19606416.182 8 104917878.82308       204.934 8        49.500                                                                    19606412.342 6  81602793.58706       159.317 6        39.180
R04        40.000    23754090.573 4                     -5002.655 4        25.639                                                                    23754082.480 4                     -3891.295 4        27.042
C27        41.000                                                                                                                                    26304874.410 3                      2187.509 3        21.190
C14        42.000                                                                                                                                    22349672.469 7 116380615.39407       504.943 7        46.259    22349668.562 8  89992824.55008       390.435 8        51.997    22349665.118 7  94568767.56107       410.086 7        44.274
C13        43.000                                                                                                                                    39633863.000 5                     -1865.009 5        30.483    39633850.792 5 159589090.04205     -1442.048 5        34.090
C05        44.000                                                                                                                                                                                                    39201295.862 5 157847379.79505      -625.251 5        32.928
C21        46.000                                                                                                                                    25551466.990 5 133053101.09305     -3722.282 5        33.659                                                                    25551440.218 4                     -3025.339 4        24.015
C43        48.000                                                                                                                                    22086320.226 8 115009267.67708     -2291.005 8        48.177                                                                    22086316.123 6  93454431.15306     -1861.865 6        38.129
C42        50.000                                                                                                                                    22482442.595 7 117071992.67007     -1272.101 7        43.115                                                                    22482450.800 7  95130694.16707     -1034.017 7        46.595
C34        52.000                                                                                                                                    25425482.940 3                     -3820.832 3        20.167
I01        53.000   414226147.369 5 322371606.65305     -2334.039 5        35.552
C37        54.000                                                                                                                                                                                                                                                                    26752039.079 4                     -2623.644 4        28.389
C28        55.000                                                                                                                                    22628045.352 5 117830150.47305      1122.452 5        35.267                                                                    22628042.191 7  95746678.25307       911.722 7        42.097
I06        58.000    38529251.628 6 151197194.74806      -545.092 6        38.438
> 2025 01 02 21 46 40.0000000  0 41
G10         1.000    21281357.682 8 111834266.04408     -2547.450 8        50.222                                    21281353.614 6  87143591.52206     -1985.023 6        40.608    21281353.918 6  87143583.55206     -1985.304 6        36.662
G23         2.000    23999286.396 5                     -4243.229 5        30.936                                                                                                    23999251.448 4                     -3306.194 4        24.316
G32         3.000    22653064.158 7 119042644.52707      1275.058 7        44.075                                    22653080.672 3  92760624.69703       993.553 3        18.597    22653059.284 4                       993.568 4        28.976
G21         4.000    21167104.282 5 111233927.79505       478.193 5        33.120                                    21167085.322 1  86675683.97201       372.599 1         7.125
G08         5.000    20311305.042 8 106736682.25408     -1211.779 8        50.585                                    20311303.657 8  83171400.15108      -944.247 8        48.973    20311304.261 7  83171382.15207      -944.192 7        45.837
G02         6.000    22794927.428 6 119788384.65606      1479.259 6        40.539                                    22794921.952 3  93341378.89903      1152.656 3        19.672
G14         7.000                                                                                                                                                                    24662059.525 6 100987007.05506       996.468 6        39.508
E09         8.000    27498146.221 5                     -2419.487 5        30.438                                                                    27498132.540 5                     -1806.749 5        31.577
E03         9.000    26677240.570 5 140189855.33205      2097.382 5        35.414                                                                    26677240.420 7 104687251.54407      1566.548 7        42.313    26677237.980 6 107418246.15706      1607.294 6        41.507
E05        11.000    24007246.732 5 126158962.04805       188.754 5        35.471                                                                    24007247.933 5  94209587.47205       140.953 5        32.006    24007245.342 6  96667200.91906       144.515 6        37.270
E13        12.000    27536054.033 5                      1503.419 5        30.257                                                                                                                                    27536048.415 5                      1152.381 5        30.226
G27        13.000    21334174.391 7 112111818.91207     -3464.087 7        44.620                                    21334175.582 7  87359878.04307     -2699.277 7        44.128    21334174.703 7  87359871.04307     -2699.441 7        45.946
E27        14.000    25563222.244 6 134335716.63906     -2211.286 6        41.502                                                                    25563221.195 7 100315599.92307     -1651.167 7        45.345    25563219.279 6 102932538.47806     -1694.326 6        36.945
E21        15.000                                                                                                                                    27121094.096 5 106429052.30305       328.137 5        34.124    27121087.584 5 109205477.70505       336.572 5        30.543
E15        16.000    23825429.235 7 125203602.72707       119.588 7        43.907                                                                    23825429.752 7  93496099.60307        89.323 7        44.700    23825453.296 6  95935152.34606        91.732 6        36.529
S23        17.000    38196882.703 6 200725936.52306      -861.450 6        41.738
E30        19.000    27247185.321 5 143184945.28805     -3911.458 5        33.359                                                                    27247178.137 4 106923812.92504     -2920.653 4        29.962    27247177.869 5 109713105.66005     -2996.771 5        30.068
R20        20.000    20903172.759 4                     -3166.618 4        29.374                                                                    20903170.859 6  86938949.20816     -2463.313 6        37.936
S36        22.000    38239679.167 5 200950847.67005      -862.515 5        35.600
R06        24.000    20782148.658 5                      2544.603 5        31.517
R05        28.000    20313030.533 7 108584752.98317     -2393.285 7        42.588
R12        30.000    22490533.113 7 120140355.49107     -1760.922 7        46.784                                                                    22490533.950 5  93442520.66605     -1369.642 5        35.238
E34        32.000    24163866.177 7 126981971.17207     -2156.182 7        46.559                                                                    24163866.629 7  94824218.62407     -1610.088 7        44.426    24163864.609 7  97297953.18307     -1652.146 7        42.021
R11        33.000    23587730.931 5 126045666.60605     -4662.773 5        34.152                                                                    23587731.725 4                     -3626.838 4        28.303
R22        35.000    22840184.974 5 121922424.24005      2517.046 5        32.677                                                                    22840198.646 5  94828755.37605      1957.663 5        34.486
C08        36.000                                                                                                                                    40333588.106 3                     -2019.127 3        22.000
C33        37.000                                                                                                                                    23501327.023 7 122377582.73407      1894.041 7        44.536                                                                    23501338.936 6  99441815.76306      1538.981 6        37.202
C11        38.000                                                                                                                                    23419921.212 6 121953629.32306     -3130.362 6        41.037    23419917.261 7  94302521.59607     -2420.663 7        46.752    23419915.612 7  99097368.00207     -2543.851 7        46.177
R21        39.000    19606225.223 8 104916859.68608       202.826 8        50.619                                                                    19606222.570 6  81602000.93006       157.669 6        37.807
R04        40.000    23758767.174 4                     -5004.319 4        26.431                                                                    23758750.031 4                     -3891.840 4        24.496
C14        42.000                                                                                                                                    22349189.205 7 116378097.44807       502.280 7        46.374    22349184.747 8  89990877.51508       388.455 8        52.282    22349181.829 7  94566721.54507       408.065 7        44.727
C13        43.000                                                                                                                                    39635655.410 4                     -1864.889 4        29.299    39635640.628 5 159596300.37405     -1441.818 5        34.843
C05        44.000                                                                                                                                                                                                    39202072.681 5 157850505.52305      -625.162 5        34.133
C21        46.000                                                                                                                                    25555050.048 5 133071716.12605     -3723.592 5        35.810                                                                    25555018.119 4                     -3025.465 4        26.623
C43        48.000                                                                                                                                    22088520.733 7 115020727.00307     -2292.652 7        47.267                                                                    22088516.960 6  93463742.78306     -1862.936 6        38.733
C42        50.000                                                                                                                                    22483664.214 7 117078360.59507     -1274.890 7        42.459                                                                    22483673.819 7  95135868.63607     -1036.067 7        46.625
C34        52.000                                                                                                                                    25429142.605 3                     -3820.215 3        19.881
I01        53.000   414229119.994 5 322383276.97205     -2334.059 5        34.395
C37        54.000                                                                                                                                    26755120.410 4 139320998.07604     -3229.714 4        28.626                                                                    26755131.027 4                     -2624.532 4        27.281
C28        55.000                                                                                                                                    22626966.148 5 117824541.69005      1121.349 5        34.671                                                                    22626965.141 7  95742120.63907       911.079 7        42.339
I06        58.000    38529947.097 6 151199920.90806      -545.225 6        39.204
> 2025 01 02 21 46 45.0000000  0 40
G10         1.000    21283782.885 8 111847009.17008     -2549.356 8        50.608                                    21283779.322 6  87153521.22106     -1986.508 6        40.911    21283779.564 6  87153513.25706     -1986.539 6        37.932
G23         2.000    24003327.177 4                     -4243.577 4        28.938                                                                                                    24003289.051 3                     -3307.020 3        19.493
G32         3.000    22651853.914 7 119036274.94907      1272.950 7        44.643                                    22651867.829 3  92755661.32503       991.932 3        19.582    22651849.424 5                       992.024 5        32.371
G21         4.000    21166649.126 4                       473.833 4        26.647
G08         5.000    20312459.446 8 106742749.05808     -1214.624 8        49.957                                    20312458.145 8  83176127.53408      -946.462 8        49.016    20312458.559 7  83176109.52307      -946.440 7        45.710
G02         6.000    22793520.223 6 119780990.39706      1478.715 6        39.231                                    22793515.407 3  93335617.14503      1152.250 3        19.612
G14         7.000                                                                                                                                                                    24660845.569 6 100982029.87906       994.506 6        39.583
E09         8.000    27500443.535 5                     -2421.530 5        30.694                                                                    27500435.193 5                     -1808.485 5        30.091
E03         9.000    26675244.548 5 140179368.68505      2097.439 5        35.505                                                                    26675244.839 7 104679420.62107      1566.118 7        42.220    26675242.386 6 107410210.94106      1606.867 6        41.342
E05        11.000    24007071.090 5 126158024.86105       186.738 5        35.633                                                                                                                                    24007065.469 6  96666482.79106       142.969 6        36.147
E13        12.000    27534623.324 5                      1503.575 5        30.506                                                                    27534631.241 4                      1122.775 4        29.299    27534618.793 4                      1152.262 4        29.896
G27        13.000    21337472.084 7 112129145.38407     -3466.206 7        44.038                                    21337472.795 7  87373379.19907     -2700.932 7        44.615    21337471.658 7  87373372.16907     -2700.949 7        45.982
E27        14.000    25565325.456 6 134346778.73306     -2213.265 6        40.267                                                                    25565326.435 7 100323860.55707     -1652.726 7        44.990    25565324.315 6 102941014.62206     -1695.847 6        37.490
E21        15.000                                                                                                                                    27120680.696 5 106427415.21705       326.859 5        35.343    27120671.059 5 109203797.89305       335.036 5        30.355
E15        16.000    23825315.407 7 125203007.26607       118.932 7        43.664                                                                    23825316.529 7  93495654.93707        88.830 7        45.166    23825335.359 5  95934695.99605        91.214 5        35.824
S23        17.000    38197703.277 6 200730244.36506      -861.340 6        41.092
E30        19.000    27250907.308 5 143204503.19005     -3911.573 5        31.638                                                                    27250898.507 4 106938417.91604     -2920.632 4        28.464    27250900.012 5 109728091.54005     -2997.264 5        31.245
R20        20.000    20906125.363 4                     -3168.759 4        29.204                                                                    20906134.099 6  86951268.64716     -2464.395 6        38.631
S36        22.000    38240498.480 5 200955160.32505      -862.091 5        35.357
R06        24.000    20779767.062 5                      2541.711 5        33.599
R05        28.000    20315269.592 7 108596730.55307     -2397.459 7        42.512
R12        30.000    22492183.252 7 120149170.98607     -1764.938 7        47.233                                                                    22492186.163 6  93449377.15706     -1372.747 6        39.303
E34        32.000    24165918.022 7 126992754.48707     -2156.802 7        46.013                                                                    24165918.810 7  94832271.08707     -1610.655 7        44.439    24165916.990 6  97306215.71806     -1652.730 6        41.893
R11        33.000    23592096.097 5 126068982.97605     -4663.428 5        34.695                                                                    23592093.023 5                     -3627.203 5        30.083
R22        35.000    22837826.092 5 121909840.22105      2516.929 5        32.132
C08        36.000                                                                                                                                    40335526.980 3                     -2019.143 3        23.505
C33        37.000                                                                                                                                    23499508.680 7 122368117.38607      1892.359 7        45.518                                                                    23499522.883 6  99434124.41006      1537.701 6        38.153
C11        38.000                                                                                                                                    23422936.348 6 121969284.88706     -3131.468 6        39.730    23422922.524 7  94314627.46407     -2421.420 7        47.088    23422921.390 7  99110089.41707     -2544.655 7        45.917
R21        39.000    19606036.284 8 104915851.33808       200.805 8        50.022                                                                    19606035.086 6  81601216.65206       156.145 6        40.880
R04        40.000    23763445.811 4                     -5006.044 4        28.872
C14        42.000                                                                                                                                    22348706.444 7 116375592.75807       499.836 7        47.013    22348703.511 8  89988940.73608       386.473 8        52.146    22348701.204 7  94564686.29507       406.079 7        45.874
C13        43.000                                                                                                                                    39637448.012 5                     -1864.504 5        30.664    39637433.566 5 159603510.15605     -1441.858 5        35.581
C05        44.000                                                                                                                                                                                                    39202849.437 5 157853631.25605      -624.737 5        33.515
C21        46.000                                                                                                                                    25558625.745 5 133090337.68805     -3724.792 5        34.843                                                                    25558593.589 4                     -3027.272 4        26.275
C43        48.000                                                                                                                                    22090723.053 7 115032195.18007     -2294.307 7        47.212                                                                    22090719.787 6  93473061.60906     -1864.336 6        39.090
C42        50.000                                                                                                                                    22484890.871 7 117084742.48207     -1277.602 7        42.669                                                                    22484899.910 7  95141054.45207     -1038.178 7        46.904
I01        53.000   414232095.390 5 322394948.78805     -2334.561 5        35.114
C37        54.000                                                                                                                                    26758223.903 4 139337149.53104     -3230.751 4        27.892                                                                    26758230.823 4                     -2625.265 4        27.677
C28        55.000                                                                                                                                    22625888.250 6 117818938.85406      1120.108 6        36.688                                                                    22625889.074 7  95737567.94307       910.289 7        42.303
I06        58.000    38530640.825 6 151202646.92306      -545.154 6        38.676
> 2025 01 02 21 46 50.0000000  0 42
G10         1.000    21286209.435 8 111859762.90208     -2551.631 8        50.700                                    21286206.935 6  87163459.18506     -1988.280 6        41.247    21286207.198 6  87163451.21806     -1988.308 6        36.885
G23         2.000    24007364.096 4                     -4244.500 4        26.838                                                                                                    24007333.186 3                     -3308.470 3        19.582
G32         3.000    22650643.499 7 119029916.95207      1270.612 7        43.816                                    22650655.425 3  92750706.94303       990.106 3        18.448    22650637.145 5                       990.016 5        32.737
G21         4.000    21166200.927 5                       474.507 5        30.611
G08         5.000    20313616.593 8 106748830.95608     -1217.765 8        50.155                                    20313615.486 8  83180866.66808      -948.910 8        49.024    20313616.010 7  83180848.66407      -948.839 7        44.761
G02         6.000    22792114.707 6 119773600.14506      1477.858 6        38.039                                    22792109.641 3  93329858.51303      1151.585 3        20.881
G14         7.000                                                                                                                                                                    24659631.614 6 100977062.22406       992.658 6        39.159
E09         8.000    27502748.456 5                     -2423.534 5        30.204                                                                    27502742.054 5                     -1810.004 5        31.238
E03         9.000    26673249.272 6 140168885.16406      2096.534 6        36.639                                                                    26673249.770 7 104671592.03807      1565.525 7        42.133    26673247.885 6 107402178.13106      1606.372 6        41.375
E05        11.000    24006896.625 5 126157099.01105       184.348 5        33.036                                                                    24006876.975 5  94208196.17005       137.607 5        35.043    24006889.228 5  96665773.38605       141.026 5        34.067
E13        12.000    27533195.714 5 144687916.20815      1503.335 5        33.880                                                                    27533202.365 5                      1122.321 5        30.196    27533186.085 4                      1152.187 4        28.891
G27        13.000    21340770.706 7 112146482.82907     -3468.579 7        44.238                                    21340772.075 7  87386888.89107     -2702.789 7        44.725    21340771.101 7  87386881.87207     -2702.743 7        46.011
E27        14.000    25567432.965 6 134357851.63206     -2215.538 6        39.724                                                                    25567433.488 7 100332129.25507     -1654.501 7        45.076    25567430.850 6 102949499.00506     -1697.568 6        38.384
E21        15.000    27120290.425 4 142518086.38314       435.164 4        27.413                                                                    27120270.257 6 106425786.31506       325.018 6        36.760    27120258.306 5 109202126.42805       333.382 5        31.736
E15        16.000    23825203.053 7 125202416.31607       117.944 7        43.145                                                                    23825204.217 7  93495213.63907        88.039 7        44.998
S23        17.000    38198519.764 6 200734552.11706      -861.438 6        41.077
E30        19.000    27254629.933 5 143224063.12605     -3912.102 5        30.241                                                                    27254621.257 4 106953024.37404     -2921.394 4        29.052    27254623.264 5 109743079.01005     -2997.219 5        32.210
R20        20.000    20909092.409 5                     -3170.639 5        31.675                                                                    20909097.022 6  86963595.01806     -2465.931 6        39.883
S36        22.000    38241321.742 5 200959472.07305      -862.232 5        35.429
R06        24.000    20777385.217 5 110872120.25015      2538.706 5        34.310
R05        28.000    20317513.405 6 108608729.59116     -2401.799 6        38.691                                                                    20317526.725 5                     -1868.097 5        30.913
R12        30.000    22493838.459 7 120158007.07207     -1769.121 7        46.849                                                                    22493842.339 6  93456249.68306     -1375.914 6        39.544
E34        32.000    24167970.996 7 127003541.87607     -2157.781 7        46.953                                                                    24167971.661 7  94840326.60007     -1611.193 7        43.852    24167969.328 6  97314481.35906     -1653.221 6        41.423
R11        33.000    23596458.069 5 126092304.77205     -4664.805 5        34.133                                                                    23596462.013 5                     -3628.291 5        32.000
R22        35.000    22835467.021 3                      2515.584 3        21.238
C08        36.000                                                                                                                                    40337467.963 3                     -2022.224 3        22.362
C33        37.000                                                                                                                                    23497692.658 7 122358660.84707      1890.523 7        45.749                                                                    23497707.587 6  99426440.19006      1535.892 6        38.108
C11        38.000                                                                                                                                    23425947.183 6 121984946.69106     -3132.694 6        38.727    23425930.815 7  94326738.17807     -2422.531 7        46.032    23425928.648 7  99122815.90807     -2545.978 7        45.090
R21        39.000    19605849.174 8 104914853.99008       198.548 8        49.459                                                                    19605848.609 6  81600440.95206       154.390 6        41.609
R04        40.000    23768120.517 4                     -5006.555 4        29.441                                                                    23768112.415 3                     -3896.805 3        20.976
C27        41.000                                                                                                                                                                                                                                                                    26298515.568 3                      1780.603 3        21.405
C14        42.000                                                                                                                                    22348228.016 7 116373101.38107       497.080 7        46.692    22348224.603 8  89987014.24808       384.338 8        51.240    22348222.855 7  94562661.84407       403.723 7        46.446
C13        43.000                                                                                                                                    39639238.758 5                     -1864.434 5        31.781    39639225.643 6 159610719.34706     -1441.782 6        36.620
C05        44.000                                                                                                                                                                                                    39203626.722 5 157856756.99705      -625.229 5        34.990
C21        46.000                                                                                                                                    25562199.537 5 133108965.85105     -3726.165 5        35.609                                                                    25562171.929 4                     -3028.020 4        26.874
C43        48.000                                                                                                                                    22092927.427 7 115043672.18107     -2296.146 7        47.926                                                                    22092923.384 6  93482387.60406     -1866.148 6        38.649
C42        50.000                                                                                                                                    22486119.780 7 117091138.32707     -1280.314 7        42.940                                                                    22486127.645 7  95146251.63207     -1040.672 7        46.534
C34        52.000                                                                                                                                    25436496.005 4                     -3821.338 4        26.060
I01        53.000   414235069.386 6 322406622.14306     -2334.699 6        36.072
C37        54.000                                                                                                                                    26761328.800 4 139353305.95004     -3231.756 4        27.377                                                                    26761334.147 4                     -2626.392 4        26.683
C28        55.000                                                                                                                                    22624815.749 6 117813342.15206      1118.808 6        38.183                                                                    22624814.363 7  95733020.15807       908.992 7        42.174
I06        58.000    38531335.052 6 151205372.78506      -545.078 6        39.165
> 2025 01 02 21 46 55.0000000  0 40
G10         1.000    21288638.195 8 111872527.84808     -2553.939 8        50.681                                    21288636.300 6  87173405.88806     -1990.079 6        41.116    21288634.693 6  87173397.90306     -1989.916 6        36.049
G23         2.000    24011399.592 5                     -4245.393 5        30.219                                                                                                    24011367.877 3                     -3306.287 3        19.045
G32         3.000    22649434.073 6 119023571.17206      1268.151 6        41.967                                    22649444.469 3  92745762.03603       988.188 3        19.015    22649429.704 5                       987.898 5        31.992
G21         4.000    21165751.515 5                       473.105 5        32.659
G08         5.000    20314776.976 8 106754928.58808     -1220.877 8        50.091                                    20314775.751 8  83185618.06508      -951.332 8        48.899    20314775.977 7  83185600.06007      -951.370 7        44.172
G02         6.000    22790709.551 6 119766214.58306      1476.722 6        36.688                                    22790704.778 3  93324103.53303      1150.699 3        21.786
G14         7.000    24658473.076 5 129581038.45005      1271.871 5        30.325                                    24658419.526 1 100972085.58301       991.109 1         8.000    24658420.396 6 100972104.58006       990.690 6        39.529
E09         8.000    27505056.010 4                     -2425.859 4        27.976                                                                    27505047.802 4                     -1811.609 4        29.810
E03         9.000    26671255.221 6 140158405.41506      2095.669 6        36.907                                                                    26671255.305 6 104663766.25506      1565.043 6        41.881    26671253.957 6 107394148.18906      1605.845 6        41.676
E05        11.000    24006720.201 4 126156185.06004       181.690 4        26.407                                                                    24006706.094 5  94207513.83105       135.447 5        35.952    24006717.223 5  96665073.18605       139.211 5        31.004
E13        12.000    27531762.385 5 144680400.78405      1503.119 5        34.910                                                                    27531773.315 5                      1122.373 5        31.140    27531758.014 4                      1151.766 4        29.896
G27        13.000    21344072.929 7 112163831.89307     -3470.695 7        44.480                                    21344073.424 7  87400407.65007     -2704.436 7        45.070    21344072.304 7  87400400.62707     -2704.407 7        46.209
E27        14.000    25569542.022 6 134368935.92306     -2217.813 6        39.694                                                                    25569542.537 7 100340406.45907     -1656.227 7        45.309    25569540.075 6 102957992.15206     -1699.375 6        38.489
E21        15.000    27119873.310 5 142515916.49705       432.981 5        30.098                                                                    27119860.502 6 106424165.97106       323.276 6        36.688    27119846.028 5 109200463.81305       331.478 5        32.048
E15        16.000    23825091.308 7 125201830.50907       116.756 7        42.935                                                                    23825092.888 7  93494776.17807        87.158 7        45.031    23825087.845 6  95933794.12406        89.476 6        40.143
S23        17.000    38199343.379 6 200738860.23606      -861.395 6        41.173
E30        19.000    27258354.987 4 143243625.70204     -3913.197 4        28.190                                                                    27258345.001 5 106967632.70705     -2921.738 5        30.083    27258346.490 5 109758068.49905     -2997.975 5        32.443
R20        20.000    20912059.452 5                     -3172.345 5        31.985                                                                    20912061.832 6  86975928.88816     -2467.230 6        37.406
S36        22.000    38242139.427 6 200963784.08606      -862.368 6        36.907
R06        24.000    20775007.023 5 110859435.23605      2535.696 5        33.024
R05        28.000    20319758.952 6                     -2405.997 6        36.302                                                                    20319765.036 4                     -1871.583 4        28.569
R12        30.000    22495496.844 7 120166864.48907     -1773.553 7        46.079                                                                    22495497.835 6  93463138.77306     -1379.431 6        36.926
E34        32.000    24170024.710 7 127014333.97607     -2158.705 7        46.983                                                                    24170025.053 7  94848385.63707     -1612.094 7        43.372    24170022.914 6  97322750.61106     -1654.141 6        40.844
R11        33.000    23600819.618 5 126115632.55005     -4666.004 5        31.260                                                                    23600827.497 5                     -3629.082 5        30.136
R22        35.000                                                                                                                                    22833109.165 5  94799396.03105      1957.227 5        31.706
C33        37.000                                                                                                                                    23495877.585 7 122349213.77107      1888.667 7        44.789                                                                    23495892.715 6  99418763.63706      1534.810 6        39.225
C11        38.000                                                                                                                                    23428953.649 6 122000615.29206     -3134.357 6        38.306    23428939.655 7  94338854.16307     -2423.497 7        44.772    23428937.215 7  99135547.91607     -2546.689 7        44.224
R21        39.000    19605665.524 8 104913868.23908       196.183 8        49.725                                                                    19605664.317 6  81599674.25606       152.628 6        41.583
R04        40.000    23772791.345 4                     -5008.197 4        27.976                                                                    23772788.829 3                     -3895.942 3        21.690
C14        42.000                                                                                                                                    22347752.530 7 116370623.90107       494.282 7        46.104    22347748.445 8  89985098.49208       382.209 8        50.551    22347747.038 7  94560648.66207       401.722 7        47.211
C13        43.000                                                                                                                                    39641027.492 5                     -1864.545 5        32.389    39641016.384 6 159617928.45406     -1441.563 6        36.514
C05        44.000                                                                                                                                                                                                    39204404.113 5 157859883.23305      -625.507 5        34.300
C21        46.000                                                                                                                                    25565773.987 5 133127601.23405     -3727.587 5        33.988                                                                    25565751.386 4                     -3028.690 4        26.108
C43        48.000                                                                                                                                    22095132.875 7 115055158.68207     -2298.137 7        47.675                                                                    22095129.301 6  93491721.26106     -1867.172 6        38.258
C42        50.000                                                                                                                                    22487352.510 7 117097548.74507     -1283.371 7        44.333                                                                    22487358.331 7  95151460.63207     -1042.726 7        46.154
C34        52.000                                                                                                                                    25440167.999 4                     -3821.365 4        25.594
I01        53.000   414238045.203 5 322418297.47005     -2335.146 5        35.867
C37        54.000                                                                                                                                    26764434.626 4                     -3232.695 4        29.299                                                                    26764435.817 4                     -2626.683 4        26.563
C28        55.000                                                                                                                                    22623743.351 6 117807752.08506      1117.487 6        38.658                                                                    22623740.981 7  95728477.76507       908.122 7        42.036
I06        58.000    38532030.002 6 151208098.97606      -545.103 6        38.309
> 2025 01 02 21 47  0.0000000  0 41
G10         1.000    21291069.018 8 111885303.28308     -2556.084 8        50.613                                    21291067.289 6  87183360.76106     -1991.755 6        40.698    21291066.241 6  87183352.78106     -1991.716 6        36.533
G23         2.000    24015436.751 5                     -4245.228 5        30.038
G32         3.000    22648227.372 6 119017236.91106      1265.794 6        38.429                                    22648234.806 3  92740826.22303       986.345 3        20.071    22648225.639 5                       986.263 5        33.186
G21         4.000    21165296.925 5                       471.876 5        31.902
G08         5.000    20315940.463 8 106761041.23708     -1223.957 8        50.167                                    20315938.905 8  83190381.16508      -953.730 8        48.753    20315939.352 7  83190363.15607      -953.804 7        44.047
G02         6.000    22789304.339 6 119758832.91406      1476.115 6        36.291                                    22789300.603 3  93318351.60003      1150.208 3        22.076
G14         7.000    24657265.596 6 129574688.21006      1268.951 6        36.677                                    24657240.520 1 100967137.31501       988.835 1         4.000    24657211.926 6 100967156.38206       988.725 6        39.057
E09         8.000    27507366.627 4 144552178.40114     -2427.925 4        29.744                                                                    27507356.219 4                     -1812.861 4        29.005
E03         9.000    26669261.723 6 140147928.70006      2095.043 6        37.070                                                                    26669261.486 6 104655942.75706      1564.477 6        41.321    26669260.625 6 107386120.60006      1605.340 6        41.833
E05        11.000    24006537.540 4 126155282.49604       179.137 4        27.365                                                                    24006535.254 6  94206839.89006       133.953 6        37.233
E13        12.000    27530333.692 5 144672886.10305      1502.776 5        34.152                                                                    27530342.427 5                      1122.231 5        30.468    27530329.004 5                      1151.528 5        31.132
G27        13.000    21347376.592 7 112181191.87207     -3473.084 7        44.993                                    21347376.782 7  87413934.90807     -2706.299 7        45.102    21347375.488 7  87413927.87907     -2706.362 7        46.093
E27        14.000    25571653.257 6 134380030.89706     -2220.063 6        39.366                                                                    25571653.817 7 100348691.66107     -1657.797 7        44.698    25571650.888 6 102966493.51206     -1701.118 6        40.222
E21        15.000                                                                                                                                    27119446.490 6 106422553.68106       321.737 6        36.544    27119437.811 5 109198809.49805       330.116 5        33.377
E15        16.000    23824980.668 7 125201249.12607       115.846 7        42.599                                                                    23824982.174 7  93494342.00907        86.596 7        45.440    23824980.601 6  95933348.64606        88.854 6        40.944
S23        17.000    38200160.648 6 200743168.14806      -861.511 6        41.306
E30        19.000    27262080.673 4 143263190.06904     -3912.975 4        28.645                                                                    27262066.986 4 106982242.48404     -2922.152 4        29.384    27262068.064 5 109773059.40905     -2998.188 5        32.425
R20        20.000    20915025.148 5                     -3174.103 5        31.849                                                                    20915027.070 5  86988269.77315     -2468.848 5        35.943
S36        22.000    38242961.647 5 200968096.11305      -862.404 5        35.629
R06        24.000    20772633.034 5 110846764.81805      2532.522 5        34.843
R05        28.000    20322011.762 6 108632792.73616     -2410.543 6        40.968                                                                    20322014.190 5                     -1874.911 5        30.158
R12        30.000    22497159.264 7 120175742.53607     -1777.624 7        45.145                                                                    22497157.873 5  93470043.89905     -1383.026 5        33.599
E34        32.000    24172079.407 7 127025130.05707     -2159.638 7        47.715                                                                    24172079.314 7  94856447.63707     -1612.688 7        42.235    24172077.561 6  97331022.92906     -1654.788 6        40.698
R11        33.000    23605184.515 5 126138965.68105     -4667.315 5        30.196                                                                    23605190.866 4                     -3630.048 4        29.355
R22        35.000    22830782.330 4                      2515.787 4        27.868                                                                    22830756.830 5                      1956.687 5        33.605
C08        36.000                                                                                                                                    40341333.153 3                     -2018.718 3        23.905
C33        37.000                                                                                                                                    23494064.047 7 122339775.46807      1886.853 7        44.376                                                                    23494077.519 6  99411094.23206      1533.129 6        40.062
C11        38.000                                                                                                                                                                                                    23431946.712 7  94350974.88307     -2424.562 7        45.091    23431946.820 7  99148284.97407     -2548.035 7        43.708
R21        39.000    19605483.428 8 104912893.39808       193.942 8        48.968                                                                    19605481.379 6  81598916.06006       150.964 6        40.810
R04        40.000    23777467.218 5 127327253.25215     -5009.645 5        30.377
C14        42.000                                                                                                                                    22347278.393 7 116368159.65607       491.503 7        46.275    22347275.169 8  89983192.97908       380.077 8        50.487    22347274.025 8  94558646.28408       399.279 8        48.067
C13        43.000                                                                                                                                    39642812.997 5                     -1864.240 5        32.377    39642805.920 6 159625136.96406     -1441.553 6        36.329
C05        44.000                                                                                                                                                                                                    39205179.900 5 157863009.36705      -625.154 5        32.868
C21        46.000                                                                                                                                    25569350.134 5 133146243.07805     -3728.921 5        34.367                                                                    25569331.864 4                     -3029.891 4        26.874
C43        48.000                                                                                                                                    22097339.972 7 115066653.89307     -2299.921 7        47.029                                                                    22097337.536 6  93501062.11106     -1869.041 6        38.760
C42        50.000                                                                                                                                    22488586.591 7 117103973.03607     -1286.140 7        46.108                                                                    22488591.167 7  95156680.96807     -1045.380 7        45.416
C34        52.000                                                                                                                                    25443833.204 4                     -3822.233 4        27.066
I01        53.000   414241021.355 6 322429974.22306     -2335.411 6        36.038
C37        54.000                                                                                                                                    26767541.561 5                     -3233.883 5        30.181                                                                    26767537.866 4                     -2626.893 4        25.594
C28        55.000                                                                                                                                    22622671.370 6 117802168.01006      1116.374 6        39.961                                                                    22622668.570 7  95723940.27907       906.835 7        42.567
I06        58.000    38532724.355 6 151210824.94706      -545.118 6        37.009
> 2025 01 02 21 47  5.0000000  0 42
G10         1.000    21293501.953 8 111898089.52808     -2558.217 8        49.624                                    21293500.142 6  87193324.05206     -1993.412 6        40.234    21293499.528 5  87193316.10405     -1993.499 5        35.505
G23         2.000    24019478.316 5                     -4246.567 5        32.281                                                                                                    24019448.703 3                     -3307.506 3        21.690
G32         3.000    22647024.746 6 119010914.52406      1263.515 6        36.113                                    22647029.181 3  92735899.68703       984.555 3        21.095    22647025.420 5  92735776.67515       984.210 5        33.653
G21         4.000    21164845.819 5 111222030.97315       470.589 5        34.057
G08         5.000    20317106.511 8 106767169.21208     -1226.935 8        50.438                                    20317104.956 8  83195156.20908      -956.056 8        48.450    20317106.088 7  83195138.21207      -956.106 7        44.379
G02         6.000    22787902.163 6 119751455.54106      1475.219 6        38.336                                    22787897.019 3  93312602.98903      1149.519 3        23.029
G14         7.000    24656060.622 5 129568350.60505      1266.376 5        34.076                                    24656034.483 1 100962198.78201       986.711 1         2.600    24656006.049 6 100962217.92906       986.680 6        39.339
E09         8.000    27509671.452 4 144564323.44104     -2430.060 4        28.123                                                                    27509664.815 4                     -1815.052 4        26.204
E03         9.000    26667268.920 6 140137455.42706      2094.476 6        36.019                                                                    26667268.526 6 104648121.80606      1563.934 6        41.285    26667268.087 7 107378095.60907      1604.919 7        42.110
E05        11.000    24006367.969 4 126154391.73004       176.459 4        28.739                                                                    24006366.729 6  94206174.64506       132.271 6        37.981    24006364.317 4  96663698.87504       135.507 4        29.725
E13        12.000                                                                                                                                    27528911.441 4                      1123.237 4        25.248    27528901.394 5                      1151.305 5        32.012
G27        13.000    21350682.455 7 112198563.07607     -3475.240 7        44.373                                    21350682.103 7  87427470.91907     -2707.979 7        44.749    21350680.653 7  87427463.87907     -2708.026 7        44.903
E27        14.000    25573767.740 6 134391136.88506     -2222.092 6        39.682                                                                    25573767.157 7 100356985.11007     -1659.455 7        44.176    25573764.171 6 102975003.28206     -1702.655 6        40.670
E21        15.000    27119062.491 3                       428.475 3        22.438                                                                    27119030.051 5 106420949.67605       320.019 5        35.700    27119029.349 5 109197163.69205       328.537 5        33.707
E15        16.000    23824870.593 7 125200672.42907       115.026 7        42.028                                                                    23824872.720 7  93493911.38707        85.882 7        45.586    23824871.540 6  95932906.77506        88.105 6        40.420
S23        17.000    38200981.669 6 200747476.29906      -861.585 6        41.597
E30        19.000    27265803.432 5 143282756.80605     -3913.285 5        30.377                                                                    27265787.308 4 106996853.92904     -2922.480 4        27.102    27265791.465 5 109788052.00505     -2998.475 5        33.168
R20        20.000    20917995.021 5                     -3176.055 5        33.024                                                                    20917997.310 5  87000617.79205     -2470.198 5        32.287
S36        22.000    38243777.713 6 200972408.78106      -862.223 6        36.733
R06        24.000    20770262.750 5 110834109.39605      2529.941 5        35.533
R05        28.000    20324270.313 7 108644856.63807     -2414.859 7        43.062                                                                    20324270.088 5                     -1878.123 5        33.371
R12        30.000    22498825.336 7 120184641.48607     -1781.799 7        45.502                                                                    22498824.590 5  93476965.23505     -1385.857 5        32.766
E34        32.000    24174134.194 7 127035930.44807     -2160.402 7        47.600                                                                    24174134.787 7  94864512.85907     -1613.272 7        42.345    24174133.382 6  97339298.55506     -1655.363 6        40.694
R11        33.000    23609555.523 4 126162304.33414     -4668.325 4        28.028                                                                    23609551.557 4                     -3630.999 4        29.507
R22        35.000    22828426.384 5                      2515.691 5        32.317                                                                    22828401.337 6  94779828.69616      1956.622 6        36.960
C08        36.000                                                                                                                                    40343274.495 3                     -2018.985 3        21.310    40343280.717 3                     -1558.129 3        18.418
C33        37.000                                                                                                                                    23492252.808 7 122330346.22007      1884.979 7        43.390                                                                    23492266.313 6  99403432.14906      1531.914 6        40.725
C11        38.000                                                                                                                                    23434951.009 6 122031971.21506     -3136.718 6        36.771    23434957.374 7  94363100.60707     -2425.564 7        43.486    23434957.902 7  99161027.25407     -2548.720 7        42.718
R21        39.000    19605302.518 8 104911929.67508       191.746 8        48.744                                                                    19605301.147 6  81598166.51106       149.058 6        40.601
R04        40.000    23782139.298 4 127352304.41104     -5011.479 4        26.323                                                                    23782142.372 4                     -3896.400 4        25.023
C27        41.000                                                                                                                                                                                                                                                                    26292210.656 3                      1778.460 3        20.381
C14        42.000                                                                                                                                    22346807.709 7 116365708.95807       488.883 7        46.230    22346805.041 8  89981297.94908       378.004 8        50.971    22346803.332 8  94556654.88608       397.437 8        48.541
C13        43.000                                                                                                                                    39644604.575 5                     -1864.199 5        33.222    39644594.858 5 159632345.07705     -1441.401 5        35.748
C05        44.000                                                                                                                                                                                                    39205953.723 5 157866135.66905      -624.961 5        33.611
C21        46.000                                                                                                                                    25572929.926 5 133164891.61805     -3730.381 5        30.483                                                                    25572912.118 4                     -3030.248 4        27.090
C43        48.000                                                                                                                                    22099548.368 7 115078158.20307     -2301.650 7        47.248                                                                    22099546.996 6  93510410.27506     -1870.198 6        39.703
C42        50.000                                                                                                                                    22489820.587 7 117110411.57907     -1288.998 7        46.287                                                                    22489827.513 7  95161912.81207     -1047.315 7        45.093
C34        52.000                                                                                                                                    25447498.870 4                     -3823.434 4        28.322
I01        53.000   414243996.362 6 322441652.73606     -2335.912 6        36.121
C37        54.000                                                                                                                                                                                                                                                                    26770645.702 4                     -2627.977 4        25.729
C28        55.000                                                                                                                                    22621599.668 6 117796590.25206      1115.066 6        40.667                                                                    22621597.350 7  95719407.89907       906.196 7        42.870
I06        58.000    38533419.152 6 151213550.97806      -544.978 6        37.958
> 2025 01 02 21 47 10.0000000  0 40
G10         1.000    21295936.935 8 111910886.07408     -2560.464 8        49.825                                    21295935.093 6  87203295.38006     -1995.164 6        39.219    21295935.431 5  87203287.40505     -1995.109 5        35.595
G23         2.000    24023515.458 5                     -4247.166 5        31.766                                                                                                    24023493.138 3                     -3310.574 3        20.714
G32         3.000    22645822.419 6 119004603.46806      1261.029 6        39.129                                    22645826.819 3  92730981.97003       982.627 3        21.119    22645821.427 5  92730859.05805       982.436 5        33.892
G21         4.000    21164401.665 5 111219682.87505       469.085 5        31.736                                    21164385.486 1                       365.603 1        10.074
G08         5.000    20318275.739 8 106773312.04608     -1230.133 8        50.220                                    20318273.825 8  83199942.83708      -958.548 8        48.356    20318274.805 7  83199924.83807      -958.521 7        44.092
G02         6.000    22786498.458 6 119744081.94406      1474.324 6        38.934                                    22786493.909 3  93306857.35503      1148.823 3        22.990
G14         7.000    24654856.226 5 129562024.95505      1263.866 5        33.880                                    24654830.750 1 100957269.76801       984.920 1         2.200    24654802.056 6 100957288.81806       984.736 6        38.541
E09         8.000    27511985.633 4 144576478.41004     -2431.849 4        29.062                                                                    27511977.287 3                     -1817.188 3        20.119
E03         9.000    26665275.925 5 140126985.04805      2093.512 5        33.395                                                                    26665276.397 6 104640303.02206      1563.405 6        41.476    26665275.844 7 107370072.85607      1604.173 7        42.345
E05        11.000    24006202.440 5 126153512.00605       174.531 5        33.108                                                                    24006199.498 6  94205517.72506       130.378 6        38.682    24006200.911 5  96663024.83005       133.869 5        32.293
E13        12.000    27527491.285 4 144657859.45104      1501.825 4        29.213                                                                    27527484.224 3                      1121.661 3        18.716    27527472.384 5                      1151.201 5        31.275
G27        13.000    21353989.587 7 112215944.97407     -3477.644 7        43.606                                    21353989.400 7  87441015.26407     -2709.864 7        44.355    21353988.743 7  87441008.23407     -2709.849 7        44.584
E27        14.000    25575883.623 6 134402253.41706     -2224.465 6        38.550                                                                    25575882.409 7 100365286.39407     -1661.112 7        43.966    25575880.008 6 102983521.10506     -1704.508 6        40.615
E21        15.000    27118642.784 3                       425.793 3        23.752                                                                    27118621.817 6 106419353.71206       318.237 6        37.202    27118623.385 5 109195526.08505       326.737 5        34.648
E15        16.000    23824761.948 6 125200100.01706       113.907 6        41.421                                                                    23824763.868 7  93493483.94507        84.958 7        45.499    23824762.361 6  95932468.16306        87.312 6        41.004
S23        17.000    38201803.987 6 200751784.25806      -861.666 6        41.309
E30        19.000    27269527.702 4 143302325.13204     -3914.413 4        28.066                                                                    27269509.988 4 107011466.57504     -2922.153 4        26.491    27269516.536 5 109803045.92305     -2998.886 5        32.605
R20        20.000    20920965.623 5 111873809.25815     -3177.626 5        32.527                                                                    20920967.496 5  87012972.53105     -2471.836 5        32.431
S36        22.000    38244601.341 5 200976721.38105      -862.397 5        35.990
R06        24.000    20767894.882 5 110821468.44805      2526.659 5        34.957
R05        28.000    20326533.324 6 108656941.50816     -2419.307 6        41.514                                                                    20326532.819 6  84510968.68116     -1881.587 6        36.979
R12        30.000    22500494.829 7 120193560.84707     -1786.040 7        44.321                                                                    22500492.989 5  93483902.49505     -1389.375 5        32.407
E34        32.000    24176190.118 7 127046734.67007     -2161.332 7        47.432                                                                    24176190.680 7  94872580.94607     -1613.996 7        42.385    24176190.226 6  97347577.11906     -1656.064 6        41.001
R11        33.000                                                                                                                                    23613923.440 4                     -3631.741 4        27.090
R22        35.000    22826061.861 5 121847103.15515      2515.265 5        34.262                                                                    22826042.816 6  94770046.29306      1956.235 6        37.028
C08        36.000                                                                                                                                    40345221.252 3                     -2018.036 3        20.833
C33        37.000                                                                                                                                    23490443.983 7 122320925.55207      1883.146 7        45.032                                                                    23490457.916 6  99395777.10206      1530.404 6        41.805
C11        38.000                                                                                                                                                                                                    23437970.482 7  94375230.91507     -2426.617 7        43.355    23437969.876 6  99173774.37206     -2549.976 6        41.831
R21        39.000    19605124.096 8 104910976.61308       189.375 8        48.607                                                                    19605123.239 6  81597425.23906       147.330 6        40.856
C14        42.000                                                                                                                                    22346340.030 7 116363271.27307       486.060 7        46.247    22346336.920 8  89979412.98408       375.877 8        51.384    22346335.555 8  94554674.06408       395.092 8        48.907
C13        43.000                                                                                                                                    39646396.980 5                     -1863.993 5        33.671    39646384.711 5 159639552.43405     -1441.593 5        35.500
C05        44.000                                                                                                                                                                                                    39206729.920 5 157869261.79705      -625.494 5        33.150
C21        46.000                                                                                                                                    25576514.594 4 133183546.52504     -3731.566 4        25.474                                                                    25576493.453 4                     -3031.908 4        26.180
C43        48.000                                                                                                                                    22101759.176 8 115089671.07208     -2303.557 8        48.514                                                                    22101757.231 6  93519765.44006     -1871.723 6        38.826
C42        50.000                                                                                                                                    22491058.891 7 117116863.84907     -1291.929 7        46.244                                                                    22491066.728 7  95167155.79607     -1049.733 7        45.561
C34        52.000                                                                                                                                    25451166.308 5                     -3823.892 5        30.438
I01        53.000   414246972.124 6 322453332.47106     -2336.142 6        37.146
C37        54.000                                                                                                                                    26773764.534 4 139417983.33814     -3235.204 4        25.203                                                                    26773752.599 3                     -2629.258 3        23.276
C28        55.000                                                                                                                                    22620529.676 6 117791018.29706      1113.652 6        41.268                                                                    22620527.268 7  95714880.23307       905.005 7        42.817
I06        58.000    38534113.761 6 151216276.68306      -545.269 6        37.837
> 2025 01 02 21 47 15.0000000  0 41
G10         1.000    21298374.222 8 111923692.97608     -2562.452 8        48.440                                    21298372.078 6  87213274.77706     -1996.707 6        38.309    21298372.432 5  87213266.81405     -1996.917 5        33.305
G23         2.000    24027558.582 5                     -4247.498 5        33.425
G32         3.000    22644625.139 6 118998303.83306      1258.667 6        40.548                                    22644626.462 3  92726073.22803       980.788 3        20.405    22644625.487 4  92725950.21104       981.213 4        29.346
G21         4.000    21163950.422 5 111217342.01805       467.441 5        33.293                                    21163940.099 1  86662795.91311       364.191 1        10.667
G08         5.000    20319447.133 8 106779469.75908     -1233.069 8        49.625                                    20319445.551 8  83204741.06108      -960.832 8        48.064    20319446.286 7  83204723.06407      -960.867 7        44.194
G02         6.000    22785097.879 7 119736712.15707      1473.589 7        42.100                                    22785091.380 3  93301114.66203      1148.252 3        23.429
G14         7.000                                                                                                                                                                    24653600.411 6 100952369.09306       982.947 6        38.492
E09         8.000    27514301.820 5 144588643.44305     -2434.131 5        30.121
E03         9.000    26663283.741 5 140116517.61505      2093.075 5        33.946                                                                    26663284.453 6 104632486.43706      1563.064 6        41.726    26663284.219 7 107362052.37207      1603.840 7        42.482
E05        11.000    24006039.207 5 126152643.46105       172.443 5        35.252                                                                    24006034.277 6  94204869.16506       128.908 6        39.477    24006036.318 5  96662359.33505       132.358 5        33.970
E13        12.000    27526062.088 4 144650347.07704      1502.888 4        26.826                                                                                                                                    27526044.036 5                      1151.208 5        31.336
G27        13.000    21357299.392 7 112233337.63307     -3479.636 7        43.945                                    21357298.731 7  87454567.98907     -2711.412 7        44.503    21357299.090 7  87454560.96207     -2711.443 7        44.516
E27        14.000    25578000.655 6 134413380.40606     -2226.379 6        39.105                                                                    25578000.185 7 100373595.56007     -1662.594 7        43.435    25577997.573 6 102992047.02006     -1706.123 6        41.652
E21        15.000                                                                                                                                    27118217.789 6 106417765.70606       316.569 6        36.480    27118217.634 5 109193896.67705       325.089 5        34.971
E15        16.000    23824653.593 6 125199531.87006       113.091 6        41.959                                                                    23824655.670 7  93493059.70507        84.556 7        45.315    23824654.027 6  95932032.86906        86.680 6        40.977
S23        17.000    38202618.623 6 200756091.83506      -861.517 6        40.064
E30        19.000                                                                                                                                    27273236.093 4 107026080.61104     -2923.198 4        26.216    27273240.245 5 109818041.11705     -2998.789 5        33.359
R20        20.000    20923936.891 5 111889702.66505     -3179.491 5        32.539                                                                    20923941.529 5  87025334.10805     -2473.107 5        35.305
S36        22.000    38245423.074 5 200981034.32305      -862.609 5        35.205
R06        24.000    20765530.016 5 110808841.95905      2523.756 5        35.395
R05        28.000    20328797.887 6 108669047.40506     -2423.301 6        40.365                                                                    20328798.901 6  84520384.45206     -1884.848 6        37.588
R12        30.000    22502166.485 7 120202500.66207     -1790.083 7        45.350                                                                    22502166.228 5  93490855.70005     -1392.392 5        33.946
E34        32.000    24178246.609 7 127057542.73307     -2161.986 7        47.680                                                                    24178247.407 7  94880651.89407     -1614.405 7        42.328    24178247.208 6  97355858.60806     -1656.563 6        41.275
R11        33.000                                                                                                                                    23618290.485 4                     -3631.190 4        24.120
R22        35.000                                                                                                                                    22823686.188 6  94760264.62906      1956.424 6        36.102
C33        37.000                                                                                                                                    23488637.499 7 122311513.51607      1881.486 7        45.111                                                                    23488650.821 7  99388129.06907      1528.875 7        42.715
C11        38.000                                                                                                                                    23440996.246 6 122063351.57606     -3139.274 6        40.791    23440984.019 7  94387365.87707     -2427.474 7        42.275    23440983.552 6  99186526.37906     -2550.777 6        40.989
R21        39.000    19604948.937 8 104910034.33508       187.417 8        49.570                                                                    19604947.132 6  81596692.35706       145.715 6        40.810
R04        40.000    23791496.339 4                     -5013.503 4        26.623                                                                    23791494.069 4                     -3898.389 4        24.526
C27        41.000                                                                                                                                    26288040.768 5                      2188.809 5        32.401
C14        42.000                                                                                                                                    22345874.548 7 116360846.68607       483.658 7        45.231    22345871.125 8  89977538.13008       373.910 8        50.757    22345870.055 8  94552703.88108       393.025 8        49.014
C13        43.000                                                                                                                                    39648184.892 5                     -1863.592 5        32.108    39648176.576 6 159646759.12206     -1441.370 6        36.348
C05        44.000                                                                                                                                                                                                    39207507.849 5 157872387.78905      -625.060 5        33.832
C21        46.000                                                                                                                                                                                                                                                                    25580079.395 4                     -3033.275 4        28.019
C43        48.000                                                                                                                                    22103971.546 7 115101192.58507     -2305.197 7        47.994                                                                    22103969.758 6  93529127.62506     -1873.209 6        38.868
C42        50.000                                                                                                                                    22492301.579 7 117123329.81807     -1294.539 7        46.814                                                                    22492308.353 7  95172409.94907     -1051.972 7        45.246
C34        52.000                                                                                                                                    25454843.117 5                     -3824.221 5        30.581
I01        53.000   414249950.466 6 322465013.52506     -2336.502 6        37.263
C37        54.000                                                                                                                                    26776867.190 4                     -3236.999 4        27.162                                                                    26776857.953 4                     -2630.192 4        26.814
C28        55.000                                                                                                                                    22619459.916 6 117785452.16406      1112.732 6        40.698                                                                    22619458.384 7  95710357.35407       904.212 7        42.464
I06        58.000    38534808.557 6 151219002.06006      -545.048 6        37.391
> 2025 01 02 21 47 20.0000000  0 42
G10         1.000    21300813.464 7 111936510.51307     -2564.438 7        47.696                                    21300810.901 6  87223262.46006     -1998.264 6        36.975    21300810.435 5  87223254.55105     -1998.258 5        32.216
G23         2.000    24031606.921 5                     -4248.457 5        32.311                                                                                                    24031584.369 3                     -3310.843 3        21.048
G32         3.000    22643429.932 6 118992016.01706      1256.487 6        40.491                                    22643426.533 2  92721173.57502       979.141 2        15.571
G21         4.000    21163500.359 5 111215008.94405       466.065 5        31.208                                    21163496.376 1  86660977.83101       363.207 1         9.333
G08         5.000    20320621.785 8 106785642.73308     -1236.083 8        50.395                                    20320620.220 7  83209551.15707      -963.174 7        47.925    20320620.955 7  83209533.15307      -963.246 7        43.790
G02         6.000    22783696.987 7 119729346.57507      1472.726 7        43.035                                    22783689.133 3  93295375.24303      1147.552 3        22.743
G14         7.000                                                                                                                                                                    24652401.457 6 100947459.03406       980.941 6        37.198
E09         8.000    27516620.253 5 144600818.86105     -2436.000 5        30.362
E03         9.000    26661291.995 5 140106053.52205      2092.580 5        31.728                                                                    26661293.330 6 104624672.34006      1562.462 6        41.790    26661292.801 7 107354034.42607      1603.339 7        42.918
E05        11.000    24005873.680 5 126151786.44805       170.183 5        35.795                                                                    24005871.024 6  94204229.22206       127.104 6        39.126    24005876.191 6  96661702.66806       130.404 6        36.896
E13        12.000                                                                                                                                    27524603.945 4                      1121.941 4        27.162    27524617.271 5                      1150.916 5        31.924
G27        13.000    21360611.924 7 112250741.40107     -3481.838 7        44.299                                    21360610.160 7  87468129.36407     -2713.121 7        43.471    21360610.235 7  87468122.32907     -2713.099 7        42.918
E27        14.000    25580120.428 6 134424518.39406     -2228.622 6        39.646                                                                    25580119.953 7 100381912.84707     -1664.322 7        43.784    25580117.580 6 103000581.29806     -1707.636 6        41.740
E21        15.000                                                                                                                                    27117816.083 6 106416185.94306       315.444 6        38.147    27117817.353 6 109192275.73506       323.594 6        36.155
E15        16.000    23824545.670 7 125198968.39207       112.227 7        42.263                                                                    23824548.582 7  93492638.89407        83.889 7        45.944    23824546.506 7  95931601.08407        85.871 7        42.087
S23        17.000    38203437.256 6 200760399.57106      -861.464 6        40.179
E30        19.000                                                                                                                                                                                                    27276964.894 5 109833037.98205     -2999.467 5        31.977
R20        20.000    20926912.211 5 111905605.16205     -3181.555 5        33.269                                                                    20926919.533 6  87037702.81506     -2474.620 6        36.253
S36        22.000    38246249.555 5 200985347.52205      -862.703 5        34.443
R06        24.000    20763167.764 5 110796230.44805      2521.060 5        31.260
R05        28.000    20331065.743 6 108681174.84406     -2427.571 6        40.999                                                                    20331069.662 6  84529816.90806     -1888.107 6        37.206
R12        30.000    22503844.571 7 120211461.27307     -1794.210 7        45.713                                                                    22503843.791 5  93497825.08105     -1395.423 5        35.129
E34        32.000    24180304.474 7 127068355.01407     -2162.829 7        47.825                                                                    24180304.314 6  94888725.99906     -1615.145 6        41.766    24180304.456 6  97364143.35306     -1657.380 6        41.147
R11        33.000                                                                                                                                    23622660.159 4                     -3633.639 4        26.958
R22        35.000                                                                                                                                    22821328.609 5  94750484.09905      1956.257 5        35.148
C08        36.000                                                                                                                                    40349086.643 3                     -2018.219 3        22.533    40349108.109 3                     -1561.730 3        18.925
C33        37.000                                                                                                                                    23486832.882 7 122302110.53107      1879.745 7        44.454                                                                    23486844.432 6  99380488.35006      1527.497 6        41.788
C11        38.000                                                                                                                                    23444009.463 7 122079051.08507     -3140.504 7        43.232    23443999.003 6  94399505.74406     -2428.417 6        40.582    23443997.759 6  99199283.53306     -2551.924 6        39.553
R21        39.000    19604775.661 8 104909103.16808       185.186 8        49.598                                                                    19604773.381 6  81595968.12406       143.942 6        38.532
R04        40.000    23796174.229 3                     -5013.795 3        22.133
C27        41.000                                                                                                                                                                                                                                                                    26285930.343 4                      1778.260 4        26.359
C14        42.000                                                                                                                                    22345410.769 7 116358435.53907       480.894 7        45.588    22345407.582 8  89975673.67508       371.887 8        50.823    22345407.001 8  94550744.61708       390.826 8        49.230
C13        43.000                                                                                                                                    39649976.715 4                     -1863.737 4        29.583    39649967.581 6 159653965.27706     -1441.030 6        36.087
C05        44.000                                                                                                                                                                                                    39208285.531 5 157875513.87605      -625.443 5        33.898
C21        46.000                                                                                                                                                                                                                                                                    25583666.312 4                     -3034.244 4        28.256
C43        48.000                                                                                                                                    22106185.186 8 115112723.11008     -2306.916 8        48.412                                                                    22106184.258 6  93538497.07206     -1874.528 6        38.943
C42        50.000                                                                                                                                    22493545.927 7 117129809.90507     -1297.400 7        46.974                                                                    22493552.936 7  95177675.53907     -1054.261 7        45.725
C34        52.000                                                                                                                                    25458516.327 5                     -3825.167 5        31.660
I01        53.000   414252925.528 5 322476696.19605     -2336.603 5        35.514
C37        54.000                                                                                                                                    26779974.708 4                     -3237.658 4        27.653                                                                    26779969.151 4                     -2630.607 4        25.654
C28        55.000                                                                                                                                    22618392.881 7 117779892.38107      1111.359 7        43.401                                                                    22618390.743 7  95705839.49907       903.106 7        42.023
I06        58.000    38535503.832 6 151221727.43106      -545.060 6        38.042
> 2025 01 02 21 47 25.0000000  0 42
G10         1.000    21303254.691 7 111949338.81707     -2566.510 7        47.519                                    21303251.512 6  87233258.55306     -1999.872 6        36.253    21303251.376 5  87233250.61405     -1999.931 5        34.014
G23         2.000    24035651.951 4                     -4248.846 4        28.550                                                                                                    24035628.290 3                     -3311.212 3        18.806
G32         3.000    22642236.532 6 118985739.98506      1254.150 6        40.892                                    22642231.121 1  92716282.87501       977.252 1        10.741
G21         4.000    21163057.613 5 111212683.22005       464.762 5        32.455                                    21163053.766 1  86659165.64501       362.126 1         9.810
G08         5.000    20321799.684 8 106791830.96308     -1238.930 8        50.304                                    20321797.714 7  83214373.14907      -965.401 7        47.753    20321798.315 7  83214355.16207      -965.357 7        44.033
G02         6.000    22782295.514 7 119721985.24407      1472.006 7        44.140                                    22782287.539 3  93289639.16603      1147.022 3        22.590
G14         7.000                                                                                                                                                                    24651205.429 6 100942558.69606       979.215 6        39.661
E09         8.000    27518939.001 5 144613004.81705     -2437.703 5        30.423                                                                                                                                    27518942.843 5 110807381.68815     -1868.255 5        33.515
E03         9.000    26659302.740 5 140095592.78105      2092.160 5        34.000                                                                    26659302.541 7 104616860.75807      1562.222 7        42.186    26659302.296 7 107346019.05307      1602.974 7        43.359
E05        11.000    24005709.486 5 126150941.04105       168.454 5        34.914                                                                    24005709.872 6  94203597.93506       125.536 6        38.925    24005717.944 6  96661054.93206       128.703 6        38.288
E13        12.000                                                                                                                                    27523181.638 5                      1121.400 5        30.340    27523188.208 5                      1150.992 5        33.204
G27        13.000    21363925.875 7 112268156.31007     -3483.890 7        43.589                                    21363923.561 7  87481699.43607     -2714.717 7        42.686    21363924.278 7  87481692.39107     -2714.749 7        42.260
E27        14.000    25582242.827 6 134435667.27706     -2230.727 6        41.056                                                                    25582241.625 7 100390238.29807     -1665.710 7        45.500    25582239.507 7 103009123.95607     -1709.150 7        43.388
E21        15.000                                                                                                                                    27117417.116 6 106414614.50906       313.544 6        37.826    27117418.056 6 109190663.31106       321.821 6        37.100
E15        16.000    23824440.086 6 125198409.57506       111.494 6        41.402                                                                    23824442.091 7  93492221.60307        83.219 7        45.840    23824440.114 7  95931172.89707        85.443 7        43.532
S23        17.000    38204258.188 6 200764707.33706      -861.319 6        40.563
E30        19.000    27280728.951 4                     -3914.906 4        28.303                                                                    27280684.441 4 107055313.22004     -2923.164 4        27.365    27280690.339 5 109848036.38905     -2999.773 5        34.671
R20        20.000    20929888.471 5 111921516.89505     -3183.050 5        32.796                                                                    20929895.648 5  87050078.66205     -2475.724 5        35.876
S36        22.000    38247072.964 5 200989660.16805      -862.283 5        30.091
R06        24.000    20760808.462 5 110783633.92505      2517.859 5        31.072
R05        28.000    20333340.435 6 108693323.50506     -2431.664 6        36.915                                                                    20333339.152 5  84539265.82605     -1891.460 5        32.503
R12        30.000    22505527.168 7 120220442.68107     -1798.185 7        46.789                                                                    22505525.605 6  93504810.62706     -1398.681 6        37.214
E34        32.000    24182363.139 8 127079171.53908     -2163.508 8        48.430                                                                    24182362.338 6  94896803.27206     -1615.538 6        40.832    24182362.940 7  97372431.33007     -1657.858 7        42.118
R11        33.000    23627029.079 3                     -4671.919 3        22.819
R22        35.000                                                                                                                                    22818974.654 6  94740704.64306      1955.951 6        36.631
C08        36.000                                                                                                                                    40351028.816 3                     -2017.728 3        23.619    40351037.972 3                     -1560.328 3        21.881
C33        37.000                                                                                                                                    23485029.903 7 122292716.56807      1878.158 7        43.374                                                                    23485040.825 7  99372855.00307      1525.994 7        42.483
C11        38.000                                                                                                                                    23447023.484 7 122094757.02607     -3141.515 7        42.847    23447015.402 6  94411650.57006     -2429.118 6        39.889    23447013.067 6  99212045.88706     -2552.692 6        39.264
R21        39.000    19604603.706 8 104908183.11808       183.039 8        48.823                                                                    19604602.986 6  81595252.50906       142.317 6        38.988
R04        40.000                                                                                                                                    23800874.531 4                     -3901.776 4        24.361
C27        41.000                                                                                                                                    26283828.634 3                      2188.523 3        19.373                                                                    26283825.796 4                      1778.384 4        26.635
C14        42.000                                                                                                                                    22344950.092 7 116356037.85607       478.494 7        45.130    22344947.458 8  89973819.65308       369.919 8        51.111    22344946.720 8  94548796.32708       388.747 8        49.439
C13        43.000                                                                                                                                    39651766.411 5                     -1863.693 5        31.487    39651758.100 6 159661171.00506     -1440.817 6        36.170
C05        44.000                                                                                                                                                                                                    39209062.681 5 157878640.04705      -625.134 5        34.400
C21        46.000                                                                                                                                                                                                                                                                    25587252.106 4                     -3035.402 4        29.820
C43        48.000                                                                                                                                    22108401.158 7 115124262.61207     -2308.634 7        47.744                                                                    22108399.150 6  93547873.89106     -1875.923 6        38.547
C42        50.000                                                                                                                                    22494792.931 7 117136304.10207     -1300.017 7        47.715                                                                    22494800.860 7  95182952.63807     -1056.403 7        46.819
C34        52.000                                                                                                                                    25462186.662 5                     -3825.778 5        31.494
I01        53.000   414255902.705 5 322488380.53705     -2336.984 5        34.771
C37        54.000                                                                                                                                    26783084.865 5                     -3238.826 5        30.377                                                                    26783078.534 4                     -2632.170 4        26.994
C28        55.000                                                                                                                                    22617326.931 7 117774338.75307      1110.260 7        44.789                                                                    22617323.932 7  95701326.76907       902.076 7        42.491
I06        58.000    38536197.940 6 151224452.77806      -544.965 6        36.851
