     3.04           OBSERVATION DATA    M                   RINEX VERSION / TYPE
ssrcrin-15.6.1x                         20250102 074500 UTC PGM / RUN BY / DATE 
(00000000023479385599111004) Septentrio proprietary         COMMENT             
ract                                                        MARKER NAME         
01                                                          MARKER NUMBER       
geodetic                                                    MARKER TYPE         
NFB                 CLIMERS@TUW                             OBSERVER / AGENCY   
3296359             SEPT ASTERX SB3 PROB4.14.4              REC # / TYPE / VERS 
Unknown             Unknown                                 ANT # / TYPE        
  4127446.9613  1206915.4646  4695544.4553                  APPROX POSITION XYZ 
        0.0000        0.0000        0.0000                  ANTENNA: DELTA H/E/N
G   23 X1  C1C L1C D1C S1C C1W S1W C2W L2W D2W S2W C2L L2L  SYS / # / OBS TYPES 
       D2L S2L C5Q L5Q D5Q S5Q C1L L1L D1L S1L              SYS / # / OBS TYPES 
E   21 X1  C1C L1C D1C S1C C6C L6C D6C S6C C5Q L5Q D5Q S5Q  SYS / # / OBS TYPES 
       C7Q L7Q D7Q S7Q C8Q L8Q D8Q S8Q                      SYS / # / OBS TYPES 
S    9 X1  C1C L1C D1C S1C C5I L5I D5I S5I                  SYS / # / OBS TYPES 
R   17 X1  C1C L1C D1C S1C C2P L2P D2P S2P C2C L2C D2C S2C  SYS / # / OBS TYPES 
       C3Q L3Q D3Q S3Q                                      SYS / # / OBS TYPES 
C   25 X1  C1P L1P D1P S1P C5P L5P D5P S5P C2I L2I D2I S2I  SYS / # / OBS TYPES 
       C7I L7I D7I S7I C6I L6I D6I S6I C7D L7D D7D S7D      SYS / # / OBS TYPES 
J   17 X1  C1C L1C D1C S1C C2L L2L D2L S2L C5Q L5Q D5Q S5Q  SYS / # / OBS TYPES 
       C1L L1L D1L S1L                                      SYS / # / OBS TYPES 
I    5 X1  C5A L5A D5A S5A                                  SYS / # / OBS TYPES 
SEPTENTRIO RECEIVERS OUTPUT ALIGNED CARRIER PHASES.         COMMENT             
NO FURTHER PHASE SHIFT APPLIED IN THE RINEX ENCODER.        COMMENT             
G L1C                                                       SYS / PHASE SHIFT   
G L2W                                                       SYS / PHASE SHIFT   
G L2L  0.00000                                              SYS / PHASE SHIFT   
G L5Q  0.00000                                              SYS / PHASE SHIFT   
G L1L  0.00000                                              SYS / PHASE SHIFT   
E L1C  0.00000                                              SYS / PHASE SHIFT   
E L6C  0.00000                                              SYS / PHASE SHIFT   
E L5Q  0.00000                                              SYS / PHASE SHIFT   
E L7Q  0.00000                                              SYS / PHASE SHIFT   
E L8Q  0.00000                                              SYS / PHASE SHIFT   
S L1C                                                       SYS / PHASE SHIFT   
S L5I                                                       SYS / PHASE SHIFT   
R L1C                                                       SYS / PHASE SHIFT   
R L2P  0.00000                                              SYS / PHASE SHIFT   
R L2C                                                       SYS / PHASE SHIFT   
R L3Q  0.00000                                              SYS / PHASE SHIFT   
C L1P  0.00000                                              SYS / PHASE SHIFT   
C L5P  0.00000                                              SYS / PHASE SHIFT   
C L2I                                                       SYS / PHASE SHIFT   
C L7I                                                       SYS / PHASE SHIFT   
C L6I                                                       SYS / PHASE SHIFT   
C L7D                                                       SYS / PHASE SHIFT   
J L1C                                                       SYS / PHASE SHIFT   
J L2L  0.00000                                              SYS / PHASE SHIFT   
J L5Q  0.00000                                              SYS / PHASE SHIFT   
J L1L  0.00000                                              SYS / PHASE SHIFT   
I L5A                                                       SYS / PHASE SHIFT   
  2025     1     2     7    45    0.0000000     GPS         TIME OF FIRST OBS   
 C1C    0.000 C2C    0.000 C2P    0.000                     GLONASS COD/PHS/BIS 
DBHZ                                                        SIGNAL STRENGTH UNIT
    18                                                      LEAP SECONDS        
 24 R01  1 R02 -4 R03  5 R04  6 R05  1 R06 -4 R07  5 R08  6 GLONASS SLOT / FRQ #
    R09 -2 R10 -7 R11  0 R12 -1 R13 -2 R14 -7 R15  0 R16 -1 GLONASS SLOT / FRQ #
    R17  4 R18 -3 R19  3 R20  2 R21  4 R22 -3 R23  3 R24  2 GLONASS SLOT / FRQ #
                                                            END OF HEADER       
> 2025 01 02 07 45  0.0000000  0 33
G13         1.000    20744538.490 7 109013458.39207      1000.060 7        42.483                                    20744534.074 3  84945424.45603       779.269 3        20.857
G18         2.000    25119179.781 5 132002264.91805     -1021.846 5        30.370                                    25119167.876 1 102858809.00401      -796.314 1         5.857
G20         4.000    22269199.974 6 117025431.73206     -3717.957 6        37.569
G07         5.000    23264079.882 5 122253575.50205     -3393.771 5        32.683                                    23264080.059 3  95262544.66403     -2644.503 3        18.567    23264078.549 5  95262525.63905     -2644.925 5        31.034
G30         7.000    20969332.191 7 110194546.48107     -2152.811 7        45.821                                    20969333.020 6  85865853.65306     -1677.509 6        38.787    20969332.358 6  85865922.66606     -1677.423 6        39.664
G14         8.000    21193204.959 7 111370937.40607       951.690 7        45.922                                    21193204.126 5  86782618.54705       741.579 5        30.958    21193203.597 7  86782652.54207       741.640 7        44.293
G15         9.000    23147846.316 6 121642733.63606      2606.437 6        40.949                                    23147855.269 2  94786607.29802      2031.029 2        14.238
E21        10.000    27562427.526 3                     -3348.587 3        20.643                                                                    27562431.428 4 108161028.50704     -2500.736 4        26.443    27562454.954 4                     -2566.174 4        29.517
E06        11.000    23376505.192 8 122844357.92908      -750.232 8        49.303                                                                    23376507.201 8  91734464.43308      -560.230 8        51.627    23376506.540 8  94127474.33408      -574.839 8        49.852
E31        13.000    25095860.218 6 131879626.11506      1640.402 6        37.308                                                                    25095866.912 5  98481609.90405      1225.214 5        34.962    25095861.434 6 101050631.78706      1257.010 6        37.595
G05        14.000    21292143.574 7 111891026.34507     -1661.167 7        42.754                                    21292140.183 5  87187777.88405     -1294.412 5        35.019    21292140.628 6  87187735.87906     -1294.302 6        40.319
E04        17.000    23971322.710 7 125970156.17307     -2004.286 7        45.442                                                                    23971322.126 7  94068642.59407     -1496.681 7        45.088    23971321.926 7  96522538.22507     -1535.810 7        47.717
E05        18.000                                                                                                                                    26495810.947 5 103975203.29505      1306.516 5        30.015    26495801.347 6 106687604.97906      1340.902 6        36.140
E09        21.000    24159947.369 6 126961410.47306       407.452 6        39.991                                                                    24159948.416 7  94808800.22507       304.379 7        45.502    24159948.599 7  97282133.61007       312.283 7        45.276
E36        22.000                                                                                                                                    27691605.150 4 108667831.61604     -2436.290 4        25.368    27691613.362 5                     -2499.273 5        31.977
S23        24.000    38304789.801 6 201292990.37006      -850.048 6        38.781
E34        26.000    27617966.790 4                     -1199.314 4        26.156                                                                    27617986.923 5 108378840.06905      -895.556 5        34.348    27617983.690 5 111206126.19605      -919.215 5        33.222
R18        28.000    24432801.475 4                     -3769.282 4        24.617                                                                    24432806.778 4 101440877.94604     -2931.256 4        29.507
R19        29.000    23813825.208 5                     -1518.148 5        32.132                                                                    23813821.674 4  99079540.31804     -1180.910 4        29.024
R11        30.000    20793530.467 7 111114312.48007     -3857.510 7        44.245                                                                    20793529.730 7  86422480.16207     -3000.261 7        45.065
C10        33.000                                                                                                                                                                                                    39721217.356 6 159940878.69206       312.079 6        36.215
C36        34.000                                                                                                                                    21882321.775 7 113947005.38807       303.520 7        45.020                                                                    21882329.140 6  92591381.83706       246.769 6        38.174
R02        35.000    19571395.432 8 104436644.67008       582.346 8        49.957                                                                    19571394.668 7  81228698.42807       453.035 7        44.910
R03        36.000    23059021.637 5                      3105.897 5        30.664                                                                    23058951.239 5                      2412.343 5        33.994
C45        37.000                                                                                                                                    25181301.484 6 131125626.36006      2287.077 6        36.544                                                                    25181308.580 5 106550304.31505      1858.322 5        33.772
R12        38.000    19544433.508 7 104402760.17907       672.422 7        46.568                                                                    19544435.285 6  81202555.76006       523.046 6        41.354
C40        40.000                                                                                                                                    39585360.105 4 206131364.67604       276.175 4        28.398
R01        44.000    20261396.334 7 108308721.89407     -3358.250 7        43.577                                                                    20261399.233 5  84240165.62205     -2611.952 5        35.305
I02        46.000    38140388.580 5 149671081.89305         5.650 5        35.452
C09        47.000                                                                                                                                    40721036.974 4                     -1525.967 4        24.737
C19        48.000                                                                                                                                    23218242.394 5 120903569.08705     -3177.150 5        32.569                                                                    23218247.716 7  98243942.61007     -2581.843 7        44.382
C22        51.000                                                                                                                                    21954541.696 8 114323062.14008       -47.707 8        48.073                                                                    21954534.840 7  92896812.72107       -38.893 7        46.888
C21        55.000                                                                                                                                    25667052.467 7 133655170.83107      2208.802 7        43.852                                                                    25667046.605 6 108605667.43706      1794.704 6        39.922
> 2025 01 02 07 45  5.0000000  0 33
G13         1.000    20743587.141 7 109008461.36507       998.497 7        42.654                                    20743582.356 3  84941530.65003       778.059 3        19.642
G18         2.000    25120152.408 4 132007379.75704     -1024.608 4        28.986                                    25120141.097 1 102862794.59901      -798.338 1         5.429
G20         4.000    22272743.001 5 117044025.82505     -3719.682 5        35.486
G07         5.000    23267309.203 5 122270546.00705     -3394.520 5        30.913                                    23267308.579 2  95275768.40302     -2645.084 2        17.208    23267306.892 4  95275749.34404     -2644.832 4        29.251
G30         7.000    20971380.939 7 110205313.69107     -2154.350 7        45.639                                    20971381.993 6  85874243.69006     -1678.711 6        39.489    20971381.338 6  85874312.68906     -1678.577 6        39.111
G14         8.000    21192300.541 7 111366184.34007       949.163 7        45.040                                    21192299.628 5  86778914.85505       739.611 5        30.604    21192298.890 7  86778948.86007       739.638 7        44.009
G15         9.000    23145367.621 6 121629702.36306      2605.828 6        40.577                                    23145376.694 2  94776452.97902      2030.517 2        13.576
E21        10.000    27565618.374 3                     -3352.527 3        19.642                                                                    27565618.024 4 108173535.21404     -2501.844 4        25.579    27565642.461 4                     -2566.873 4        28.995
E06        11.000    23377219.467 8 122848111.05908      -751.345 8        49.272                                                                    23377221.418 8  91737267.08108      -561.016 8        51.671    23377220.749 8  94130350.09608      -575.656 8        50.034
E31        13.000    25094299.296 6 131871425.94606      1639.299 6        38.009                                                                    25094309.710 5  98475486.37505      1223.955 5        34.667    25094300.880 6 101044348.55906      1256.086 6        37.112
G05        14.000    21293724.022 6 111899339.44406     -1664.460 6        41.983                                    21293722.337 5  87194255.62305     -1296.986 5        35.676    21293722.698 6  87194213.63706     -1296.885 6        40.260
E04        17.000    23973230.090 7 125980179.26607     -2005.274 7        45.490                                                                    23973229.383 7  94076127.35907     -1497.447 7        44.700    23973229.403 7  96530218.24707     -1536.511 7        47.920
E05        18.000                                                                                                                                    26494146.299 4 103968668.45804      1307.198 4        29.194    26494136.093 6 106680899.74506      1341.183 6        36.174
E09        21.000    24159560.418 6 126959373.99806       406.666 6        40.493                                                                    24159560.930 7  94807279.46907       303.776 7        45.809    24159560.831 7  97280573.18907       311.695 7        45.552
E36        22.000                                                                                                                                                                                                    27694718.448 5                     -2499.973 5        31.970
S23        24.000    38305597.278 6 201297239.26306      -849.880 6        38.670
E34        26.000    27619111.114 4                     -1201.359 4        29.441                                                                    27619125.647 5 108383321.66005      -897.294 5        35.590    27619124.631 5 111210724.70405      -920.874 5        32.168
R18        28.000                                                                                                                                    24436331.661 4 101455537.54504     -2932.700 4        27.569
R19        29.000    23815245.310 5                     -1522.403 5        31.441                                                                    23815244.161 4  99085452.21204     -1184.213 4        28.313
R11        30.000    20797141.713 6 111133604.85606     -3859.707 6        41.523                                                                    20797140.650 7  86437485.35507     -3001.991 7        45.362
C10        33.000                                                                                                                                                                                                    39720831.247 6 159939317.94906       311.991 6        36.465
C36        34.000                                                                                                                                    21882031.345 7 113945491.97707       301.498 7        45.734                                                                    21882038.707 6  92590152.05006       245.389 6        38.901
R02        35.000    19570851.088 8 104433739.07908       579.437 8        50.088                                                                    19570850.132 7  81226438.52407       450.655 7        45.100
R03        36.000                                                                                                                                    23056054.147 5  95993988.36215      2415.235 5        34.567
C45        37.000                                                                                                                                    25179104.744 5 131114192.25105      2286.511 5        35.948                                                                    25179111.510 5 106541013.09705      1858.199 5        33.946
R12        38.000    19543805.261 7 104399405.97607       668.954 7        46.495                                                                    19543807.951 7  81199946.96607       520.371 7        43.120
C40        40.000                                                                                                                                    39585093.790 4 206129983.26604       275.531 4        28.455
R01        44.000    20264538.119 7 108325519.24607     -3360.964 7        42.811                                                                    20264543.330 6  84253230.22406     -2614.178 6        37.410
I02        46.000    38140380.844 5 149671053.03105         5.514 5        35.410
C09        47.000                                                                                                                                    40722504.082 4                     -1525.128 4        25.729
C19        48.000                                                                                                                                    23221292.950 4 120919458.56604     -3178.737 4        29.147                                                                    23221299.159 7  98256854.07807     -2582.970 7        43.991
C22        51.000                                                                                                                                    21954589.067 8 114323305.53708       -49.935 8        48.268                                                                    21954581.438 7  92897010.47107       -40.386 7        46.940
C21        55.000                                                                                                                                    25664931.505 7 133644127.47207      2208.261 7        44.017                                                                    25664925.771 6 108596693.75606      1794.595 6        40.038
> 2025 01 02 07 45 10.0000000  0 33
G13         1.000    20742637.576 7 109003473.55107       996.804 7        42.997                                    20742633.223 3  84937644.05003       776.736 3        19.254
G18         2.000    25121130.670 5 132012509.99005     -1027.429 5        32.593                                    25121117.472 1 102866792.22601      -800.745 1         4.571    25121119.488 5 102866811.10015      -800.747 5        32.910
G20         4.000    22276287.191 5 117062630.16905     -3721.764 5        32.701
G07         5.000    23270537.276 5 122287519.97605     -3395.144 5        30.558                                    23270537.887 2  95288994.80702     -2645.581 2        16.868
G30         7.000    20973431.041 7 110216089.91607     -2156.019 7        45.359                                    20973432.630 6  85882640.74206     -1680.015 6        39.865    20973432.165 6  85882709.75106     -1679.997 6        39.766
G14         8.000    21191397.929 7 111361445.15207       946.567 7        43.884                                    21191397.769 4  86775221.97504       737.589 4        29.886    21191396.957 7  86775255.97707       737.564 7        43.875
G15         9.000    23142890.958 6 121616675.87906      2604.897 6        40.307                                    23142899.084 2  94766302.45402      2029.769 2        14.762    23142963.521 4  94766365.54514      2030.003 4        28.332
E21        10.000                                                                                                                                    27568806.958 4 108186046.61204     -2502.685 4        25.925    27568832.177 4                     -2567.948 4        28.436
E06        11.000    23377934.899 8 122851871.13908      -752.648 8        49.115                                                                    23377936.978 8  91740074.92008      -562.035 8        51.749    23377936.328 8  94133231.18508      -576.639 8        50.087
E31        13.000    25092739.997 6 131863233.35406      1637.724 6        37.977                                                                    25092754.776 5  98469368.51405      1223.258 5        33.784    25092741.881 6 101038071.14306      1254.825 6        36.352
G05        14.000    21295308.897 6 111907670.09906     -1667.708 6        40.436                                    21295307.737 5  87200747.04305     -1299.513 5        35.767    21295306.873 6  87200705.05706     -1299.524 6        39.393
E04        17.000    23975138.535 7 125990208.88907     -2006.422 7        44.963                                                                    23975137.903 7  94083617.00607     -1498.341 7        44.321    23975138.096 8  96537903.27708     -1537.428 8        48.086
E05        18.000                                                                                                                                    26492481.708 4 103962133.66404      1306.749 4        28.844    26492471.672 6 106674194.50806      1341.258 6        36.363
E09        21.000    24159174.157 6 126957342.93706       405.790 6        40.646                                                                    24159174.477 7  94805762.75607       303.065 7        45.956    24159174.120 7  97279016.91907       310.919 7        45.673
E36        22.000                                                                                                                                    27697816.312 4 108692196.12804     -2437.035 4        25.353    27697823.601 5                     -2500.851 5        31.479
S23        24.000    38306404.768 6 201301488.16606      -849.731 6        38.384
E34        26.000    27620256.886 5                     -1204.030 5        30.257                                                                    27620269.023 6 108387812.60106      -899.054 6        36.594    27620267.771 5 111215332.80905      -922.668 5        32.012
R18        28.000                                                                                                                                    24439868.133 4                     -2934.812 4        28.559
R19        29.000    23816668.627 5                     -1526.515 5        30.747                                                                    23816664.118 4  99091380.60504     -1187.274 4        27.162
R11        30.000    20800754.450 6 111152909.64106     -3862.262 6        36.185                                                                    20800753.480 7  86452500.21707     -3003.805 7        46.178
C10        33.000                                                                                                                                                                                                    39720445.083 6 159937759.69106       311.345 6        36.836
C36        34.000                                                                                                                                    21881743.735 7 113943989.87607       299.418 7        46.337                                                                    21881750.421 6  92588931.50706       243.333 6        39.610
R02        35.000    19570309.034 8 104430849.59408       576.525 8        49.305                                                                    19570308.959 7  81224191.13607       448.457 7        45.592
R03        36.000    23053164.996 5 123405381.67315      3105.263 5        35.390                                                                    23053153.014 5  95981912.44215      2415.229 5        35.562
C45        37.000                                                                                                                                    25176909.634 5 131102762.51505      2285.730 5        35.362                                                                    25176914.179 5 106531725.54705      1857.519 5        34.148
R12        38.000    19543181.431 7 104396070.89107       665.295 7        47.488                                                                    19543184.094 7  81197353.01907       517.393 7        44.712
C40        40.000                                                                                                                                    39584828.827 4 206128606.70704       274.787 4        27.437
R01        44.000    20267683.181 7 108342331.61107     -3363.775 7        42.690                                                                    20267689.042 6  84266306.52606     -2616.315 6        37.569
I02        46.000    38140373.346 5 149671025.24605         5.632 5        34.752
C09        47.000                                                                                                                                    40723976.301 4                     -1525.444 4        25.308
C19        48.000                                                                                                                                    23224346.268 4 120935357.58804     -3180.356 4        25.624                                                                    23224352.255 7  98269773.35607     -2584.496 7        43.257
C22        51.000                                                                                                                                    21954638.381 8 114323561.14608       -52.245 8        48.464                                                                    21954630.539 7  92897218.21307       -42.435 7        46.932
C21        55.000                                                                                                                                    25662811.423 7 133633087.84907      2207.635 7        43.659                                                                    25662805.887 6 108587723.18806      1793.989 6        40.181
> 2025 01 02 07 45 15.0000000  0 34
G13         1.000    20741689.842 7 108998495.36707       994.768 7        43.120                                    20741685.995 3  84933764.94403       775.140 3        18.657
G18         2.000    25122112.828 5 132017656.11605     -1030.853 5        35.781                                    25122097.329 1 102870802.11701      -803.270 1         5.286    25122104.658 5 102870821.11305      -803.283 5        34.662
G20         4.000    22279825.801 5 117081244.93005     -3723.871 5        34.329
G07         5.000    23273769.776 5 122304497.79105     -3395.781 5        33.042                                    23273767.708 2  95302224.25302     -2646.072 2        16.000    23273768.085 4  95302205.28404     -2645.973 4        24.361
G30         7.000    20975483.899 7 110226875.55807     -2158.000 7        45.073                                    20975485.056 6  85891045.14006     -1681.556 6        39.976    20975485.278 6  85891114.13706     -1681.472 6        40.274
G14         8.000    21190498.204 7 111356720.23207       943.612 7        43.175                                    21190498.535 4  86771540.21004       735.279 4        28.844    21190498.234 7  86771574.20707       735.341 7        43.964
G15         9.000    23140412.419 6 121603654.47206      2603.929 6        37.981                                    23140422.046 2  94756155.82802      2029.071 2        13.151
E21        10.000                                                                                                                                    27571995.422 4 108198562.96704     -2503.207 4        25.744    27572022.782 4                     -2569.221 4        26.719
E06        11.000    23378651.880 8 122855638.53408      -754.130 8        49.471                                                                    23378653.934 8  91742888.22108      -563.109 8        51.600    23378653.257 8  94136117.88108      -577.861 8        50.067
E31        13.000    25091182.056 6 131855048.74806      1636.125 6        38.781                                                                    25091202.706 5  98463256.62105      1221.946 5        32.862    25091184.922 5 101031799.83305      1253.705 5        35.814
G05        14.000    21296897.707 6 111916018.74706     -1671.440 6        40.241                                    21296896.407 5  87207252.48105     -1302.423 5        35.386    21296895.172 6  87207210.48806     -1302.411 6        38.967
E04        17.000    23977048.475 7 126000245.46507     -2007.931 7        45.025                                                                    23977047.682 7  94091111.82807     -1499.404 7        44.212    23977048.342 8  96545593.62608     -1538.565 8        48.071
E05        18.000                                                                                                                                    26490815.570 4 103955599.08804      1306.818 4        29.223    26490808.780 5 106667489.54605      1341.139 5        35.933
E09        21.000    24158788.344 6 126955317.68406       404.546 6        41.769                                                                    24158789.206 7  94804250.39107       302.060 7        46.086    24158788.473 7  97277465.10107       310.052 7        45.699
E36        22.000                                                                                                                                    27700926.655 4 108704385.58504     -2438.015 4        26.898    27700929.474 5                     -2502.064 5        30.536
S23        24.000    38307215.223 6 201305737.54206      -849.889 6        38.859
E34        26.000    27621404.729 5                     -1206.536 5        32.581                                                                    27621418.363 6 108392313.20306      -901.072 6        37.350    27621413.471 5 111219950.76805      -924.645 5        31.540
R13        27.000    22538824.517 3                      3179.660 3        20.595
R18        28.000                                                                                                                                    24443402.081 4 101484884.89614     -2937.044 4        28.142
R19        29.000    23818093.850 4                     -1530.995 4        28.550                                                                    23818092.798 5  99097325.76415     -1190.598 5        30.883
R11        30.000    20804367.837 5 111172227.20805     -3865.193 5        30.709                                                                    20804368.633 7  86467525.05107     -3005.896 7        46.433
C10        33.000                                                                                                                                                                                                    39720059.241 6 159936204.23606       311.007 6        36.760
C36        34.000                                                                                                                                    21881457.250 7 113942499.47807       297.025 7        46.659                                                                    21881464.455 6  92587720.44706       241.214 6        40.348
R02        35.000    19569770.133 8 104427976.35708       573.104 8        48.567                                                                    19569770.709 7  81221956.39307       445.787 7        46.534
R03        36.000    23050268.138 5 123389858.33305      3104.460 5        35.724                                                                    23050253.273 5  95969838.77105      2414.380 5        35.957
C45        37.000                                                                                                                                    25174715.862 5 131091337.58405      2284.785 5        35.086                                                                    25174718.010 5 106522441.85305      1856.223 5        33.886
R12        38.000    19542562.487 7 104392755.41607       661.212 7        47.952                                                                    19542564.274 7  81194774.31107       514.335 7        44.700
C40        40.000                                                                                                                                    39584565.450 4 206127235.31104       273.873 4        26.683
R01        44.000    20270830.903 6 108359159.55706     -3367.091 6        41.881                                                                    20270835.996 6  84279394.91106     -2618.832 6        37.316
I02        46.000    38140365.869 5 149670998.95105         5.450 5        34.481
C09        47.000                                                                                                                                    40725439.286 4                     -1525.036 4        25.669
C19        48.000                                                                                                                                    23227409.620 4 120951266.59904     -3183.296 4        28.303                                                                    23227406.952 7  98282700.67307     -2586.228 7        42.273
C22        51.000                                                                                                                                    21954689.666 8 114323829.35308       -54.826 8        48.619                                                                    21954682.031 7  92897436.15507       -44.620 7        46.965
C21        55.000                                                                                                                                    25660692.035 7 133622052.35807      2206.722 7        43.327                                                                    25660686.715 6 108578755.94606      1793.070 6        40.474
> 2025 01 02 07 45 20.0000000  0 34
G13         1.000    20740743.470 7 108993526.48907       992.746 7        42.368                                    20740740.542 2  84929893.08102       773.567 2        17.962
G18         2.000    25123093.643 6 132022817.79506     -1033.925 6        36.045                                    25123080.277 1 102874824.17401      -805.609 1         8.000    25123088.661 6 102874843.19606      -805.718 6        36.389
G20         4.000    22283368.949 5 117099869.91605     -3725.980 5        33.737
G07         5.000    23277004.002 6 122321479.09606     -3396.669 6        36.045                                    23276998.362 2  95315456.37702     -2646.763 2        16.641    23276995.035 3                     -2646.012 3        21.000
G30         7.000    20977538.688 7 110237670.27207     -2159.849 7        45.067                                    20977539.154 6  85899456.60306     -1682.998 6        40.219    20977538.689 6  85899525.61206     -1683.099 6        40.107
G14         8.000    21189602.605 7 111352009.25107       940.736 7        42.286                                    21189601.979 4  86767869.31104       733.046 4        28.284    21189601.566 7  86767903.31007       733.069 7        43.973
G15         9.000    23137929.863 5 121590637.85705      2602.845 5        35.010                                    23137945.935 1  94746012.97901      2028.202 1        11.259    23137993.158 4  94746076.19204      2027.862 4        26.395
E21        10.000                                                                                                                                    27575185.029 4 108211084.12304     -2504.649 4        24.617    27575215.346 4                     -2569.859 4        25.789
E06        11.000    23379370.212 8 122859412.94908      -755.679 8        49.349                                                                    23379372.195 8  91745706.76308      -564.278 8        51.684    23379371.496 8  94139009.95208      -579.016 8        50.170
E31        13.000    25089626.290 6 131846871.80206      1634.652 6        39.123                                                                    25089653.487 5  98457150.49105      1220.326 5        32.910    25089629.608 5 101025534.41405      1252.444 5        35.433
G05        14.000    21298490.042 7 111924384.98507     -1675.097 7        43.046                                    21298488.345 5  87213771.63405     -1305.269 5        35.362    21298488.179 6  87213729.64906     -1305.408 6        38.664
E04        17.000    23978959.454 7 126010288.64907     -2009.357 7        44.748                                                                    23978958.948 7  94098611.59107     -1500.545 7        44.209    23978959.748 8  96553289.03308     -1539.595 8        48.236
E05        18.000                                                                                                                                    26489148.527 4 103949064.57804      1306.863 4        29.915    26489145.889 5 106660784.64405      1340.926 5        35.629
E09        21.000    24158403.744 7 126953297.91607       403.356 7        42.313                                                                    24158404.903 7  94802742.12007       301.228 7        46.307    24158403.965 7  97275917.48907       309.120 7        45.755
E36        22.000                                                                                                                                    27704038.958 4 108716579.75504     -2439.726 4        28.417    27704035.695 4                     -2503.068 4        29.848
S23        24.000    38308021.385 6 201309987.02306      -850.072 6        38.568
E34        26.000    27622554.290 5                     -1209.190 5        32.461                                                                    27622571.011 6 108396823.17106      -902.985 6        37.947    27622561.610 5 111224578.38905      -926.083 5        31.789
R13        27.000    22535849.090 3                      3177.317 3        21.214
R18        28.000                                                                                                                                    24446939.327 4 101499572.70404     -2939.172 4        28.938
R19        29.000    23819525.587 4                     -1535.473 4        26.958                                                                    23819533.814 5  99103287.31215     -1193.973 5        34.195
R11        30.000    20807980.009 5 111191557.24105     -3867.472 5        31.238                                                                    20807985.626 7  86482559.60107     -3007.931 7        46.116
C10        33.000                                                                                                                                                                                                    39719674.046 6 159934651.29106       310.214 6        36.907
C36        34.000                                                                                                                                    21881173.427 7 113941020.44407       294.578 7        47.565                                                                    21881180.250 6  92586518.60706       239.499 6        41.013
R02        35.000    19569234.091 8 104425118.98708       569.782 8        48.311                                                                    19569235.141 7  81219733.99607       443.196 7        46.893
R03        36.000    23047373.031 5 123374337.32005      3104.215 5        34.067                                                                    23047354.449 6  95957766.89206      2413.995 6        37.009
C45        37.000                                                                                                                                    25172523.856 6 131079917.15406      2283.715 6        36.197                                                                    25172522.637 5 106513161.81605      1855.571 5        33.485
R12        38.000    19541945.834 7 104389459.13407       657.212 7        47.760                                                                    19541946.838 7  81192210.52707       511.157 7        44.378
C40        40.000                                                                                                                                    39584303.496 4 206125868.75904       272.630 4        26.599
R01        44.000    20273981.984 7 108376002.63307     -3370.208 7        43.653                                                                    20273984.376 6  84292495.05006     -2621.061 6        36.299
I02        46.000    38140359.671 5 149670973.80005         5.150 5        34.210
C09        47.000                                                                                                                                    40726900.094 4                     -1524.339 4        24.857
C19        48.000                                                                                                                                    23230468.120 5 120967184.98605     -3184.718 5        32.497                                                                    23230463.097 6  98295635.79606     -2587.913 6        40.999
C22        51.000                                                                                                                                    21954743.476 8 114324109.85308       -57.375 8        48.712                                                                    21954736.052 7  92897664.09107       -46.579 7        47.212
C21        55.000                                                                                                                                    25658573.408 7 133611020.68307      2205.855 7        43.160                                                                    25658568.210 6 108569791.80606      1792.568 6        40.665
> 2025 01 02 07 45 25.0000000  0 32
G13         1.000    20739799.359 6 108988567.14906       991.238 6        41.395                                    20739796.734 2  84926028.68002       772.389 2        17.132
G18         2.000    25124076.078 6 132027995.23906     -1036.866 6        36.227                                    25124066.167 1 102878858.50501      -807.959 1         9.143    25124073.917 6 102878877.53206      -807.858 6        37.603
G20         4.000    22286919.932 5 117118505.48505     -3727.857 5        30.158
G07         5.000    23280237.384 6 122338464.11106     -3397.079 6        37.236                                    23280229.695 2  95328691.42102     -2647.044 2        17.132
G30         7.000    20979594.911 7 110248474.28007     -2161.387 7        45.797                                    20979594.964 6  85907875.30106     -1684.200 6        40.319    20979594.416 6  85907944.29106     -1684.231 6        39.465
G14         8.000    21188708.675 6 111347312.45306       938.118 6        41.378                                    21188708.227 4  86764209.45404       731.002 4        27.473    21188708.039 7  86764243.45507       731.113 7        43.856
G15         9.000    23135452.831 5 121577626.33505      2602.235 5        31.630                                    23135470.136 1  94735874.04601      2027.776 1        10.370    23135506.323 4  94735937.14804      2027.558 4        24.541
E21        10.000                                                                                                                                    27578376.478 4 108223610.00904     -2505.285 4        24.857    27578408.993 4                     -2570.902 4        24.195
E06        11.000    23380089.904 8 122863194.57608      -756.766 8        49.303                                                                    23380091.825 8  91748530.69708      -565.140 8        51.495    23380091.091 8  94141907.55808      -579.908 8        50.253
E31        13.000    25088071.856 6 131838702.75706      1633.269 6        39.420                                                                    25088102.861 5  98451050.22505      1219.577 5        32.904    25088075.333 5 101019275.02505      1251.551 5        34.762
G05        14.000    21300086.133 7 111932769.00307     -1678.350 7        44.677                                    21300083.654 5  87220304.63905     -1307.806 5        35.267    21300084.197 6  87220262.64406     -1307.755 6        38.237
E04        17.000    23980872.117 7 126020338.64407     -2010.373 7        44.194                                                                    23980871.379 7  94106116.43607     -1501.299 7        44.146    23980872.339 8  96560989.67108     -1540.460 8        48.424
E05        18.000                                                                                                                                    26487481.960 5 103942530.30105      1306.878 5        31.291    26487483.820 5 106654079.97005      1341.036 5        35.076
E09        21.000    24158020.491 7 126951283.85307       402.509 7        42.804                                                                    24158021.613 7  94801238.11607       300.564 7        46.390    24158020.563 7  97274374.25407       308.379 7        45.716
E36        22.000                                                                                                                                    27707150.025 4 108728778.62004     -2439.699 4        29.052    27707144.537 4                     -2503.873 4        29.450
S23        24.000    38308832.439 6 201314237.05406      -849.659 6        39.018
E34        26.000    27623706.537 5                     -1211.772 5        30.423                                                                    27623722.761 6 108401342.68906      -904.729 6        37.735    27623711.458 5 111229215.85705      -928.387 5        31.570
R18        28.000    24450502.880 4                     -3780.299 4        28.332                                                                    24450480.971 4 101514269.88604     -2939.965 4        29.611
R19        29.000    23820967.252 4                     -1539.783 4        27.006                                                                    23820975.570 5  99109265.52805     -1197.214 5        34.671
R11        30.000    20811602.694 6 111210900.16706     -3869.553 6        37.361                                                                    20811604.758 7  86497604.01707     -3009.710 7        45.383
C10        33.000                                                                                                                                                                                                    39719291.281 6 159933101.03706       309.967 6        36.465
C36        34.000                                                                                                                                    21880892.129 8 113939552.99608       292.572 8        48.089                                                                    21880898.224 6  92585326.21606       237.632 6        41.535
R02        35.000    19568701.422 7 104422277.73607       566.896 7        47.817                                                                    19568702.328 7  81217524.12707       440.930 7        46.819
R03        36.000    23044476.532 5 123358819.15005      3103.940 5        32.952                                                                    23044455.904 6  95945697.22906      2413.707 6        38.408
C45        37.000                                                                                                                                    25170332.713 6 131068501.46106      2282.936 6        36.873                                                                    25170329.130 5 106503885.63305      1854.835 5        33.144
R12        38.000    19541332.381 7 104386182.30007       653.670 7        47.364                                                                    19541333.228 7  81189661.85907       508.417 7        44.048
C40        40.000                                                                                                                                    39584042.050 4 206124507.30804       271.633 4        25.398
R01        44.000    20277139.074 7 108392861.12807     -3372.954 7        44.856                                                                    20277139.682 5  84305607.20905     -2623.412 5        35.862
I02        46.000    38140352.906 5 149670950.01305         4.747 5        33.982
C19        48.000                                                                                                                                    23233526.931 6 120983113.22706     -3186.448 6        36.098                                                                    23233521.369 6  98308578.87806     -2589.016 6        39.300
C22        51.000                                                                                                                                    21954799.854 8 114324402.86108       -59.635 8        48.527                                                                    21954792.557 7  92897902.19507       -48.495 7        47.290
C21        55.000                                                                                                                                    25656455.923 7 133599993.05807      2205.488 7        43.291                                                                    25656450.814 6 108560830.96006      1792.002 6        40.749
> 2025 01 02 07 45 30.0000000  0 32
G13         1.000    20738856.492 6 108983616.22506       989.080 6        38.222                                    20738854.680 2  84922170.82302       770.717 2        15.810
G18         2.000    25125063.091 6 132033187.27106     -1040.007 6        36.556                                    25125054.588 1 102882904.24001      -810.354 1        10.296    25125061.880 6 102882923.27506      -810.626 6        37.924
G20         4.000    22290465.763 5 117137150.28005     -3729.906 5        33.347
G07         5.000    23283468.632 6 122355451.72706     -3398.025 6        38.997                                    23283461.752 2  95341928.47302     -2647.789 2        17.170
G30         7.000    20981652.762 7 110259286.42907     -2163.460 7        47.731                                    20981652.201 6  85916300.35006     -1685.812 6        40.374    20981651.415 6  85916369.34106     -1685.972 6        38.721
G14         8.000    21187818.036 6 111342628.67606       935.303 6        41.836                                    21187816.880 4  86760559.75404       728.812 4        27.293    21187816.689 7  86760593.76407       728.603 7        44.029
G15         9.000    23132977.472 4 121564618.68104      2601.076 4        27.114                                    23132995.276 1  94725738.14001      2026.885 1        10.148
E21        10.000                                                                                                                                                                                                    27581604.852 3                     -2570.710 3        23.371
E06        11.000    23380810.894 8 122866982.28408      -758.432 8        49.344                                                                    23380812.599 8  91751359.16708      -566.368 8        51.308    23380811.850 8  94144809.81408      -581.138 8        50.468
E31        13.000    25086518.454 6 131830540.47506      1631.405 6        39.210                                                                    25086550.361 5  98444954.94605      1218.382 5        32.719    25086522.101 5 101013020.78405      1249.963 5        33.647
G05        14.000    21301684.836 7 111941169.63907     -1682.048 7        44.658                                    21301682.018 5  87226850.58705     -1310.686 5        35.657    21301682.530 6  87226808.59606     -1310.725 6        37.592
E04        17.000    23982785.862 7 126030394.30807     -2011.935 7        44.066                                                                    23982784.873 7  94113625.50607     -1502.354 7        44.227    23982786.005 8  96568694.64608     -1541.659 8        48.762
E05        18.000                                                                                                                                    26485815.518 5 103935995.37905      1306.570 5        33.012    26485823.324 5 106647374.57905      1340.964 5        34.414
E09        21.000    24157638.485 7 126949274.37807       401.171 7        43.300                                                                    24157639.175 7  94799737.51507       299.616 7        46.458    24157638.151 7  97272834.50507       307.460 7        45.944
E36        22.000                                                                                                                                    27710258.850 5 108740981.55605     -2441.510 5        30.000    27710254.891 4                     -2504.664 4        29.611
S23        24.000    38309640.143 6 201318486.35506      -849.888 6        38.952
E34        26.000    27624857.743 5                     -1213.919 5        30.121                                                                    27624870.307 6 108405870.86406      -906.751 6        37.274    27624864.536 5 111233862.17205      -929.897 5        32.042
R18        28.000    24454045.429 4                     -3782.418 4        26.838                                                                    24454024.435 5 101528975.58605     -2942.186 5        31.841
R19        29.000    23822414.050 4                     -1542.708 4        28.322                                                                    23822416.575 5  99115259.43415     -1200.579 5        35.190
R11        30.000    20815225.967 6 111230254.60306     -3872.186 6        39.667                                                                    20815226.300 7  86512657.38507     -3011.837 7        44.334
C10        33.000                                                                                                                                                                                                    39718906.780 6 159931552.59006       309.338 6        36.174
C36        34.000                                                                                                                                    21880612.167 8 113938095.98908       290.094 8        48.353                                                                    21880618.239 7  92584142.27007       235.733 7        42.178
R02        35.000    19568171.399 7 104419451.66007       563.433 7        47.022                                                                    19568172.622 7  81215326.05607       438.224 7        46.689
R03        36.000    23041583.844 5 123343302.57505      3102.758 5        33.072                                                                    23041557.674 6  95933628.79306      2413.340 6        40.574
C45        37.000                                                                                                                                    25168141.031 6 131057089.34206      2281.687 6        36.975                                                                    25168136.707 5 106494612.30705      1854.185 5        32.084
R12        38.000    19540721.862 7 104382923.81707       649.646 7        46.762                                                                    19540722.935 7  81187127.48407       505.241 7        43.511
C40        40.000                                                                                                                                    39583782.278 4 206123149.76604       271.160 4        24.812
R01        44.000    20280297.050 7 108409733.82207     -3376.246 7        44.609                                                                    20280296.745 5  84318730.36705     -2625.804 5        35.681
I02        46.000    38140347.115 5 149670926.66605         4.352 5        33.575
C19        48.000                                                                                                                                    23236586.470 6 120999050.16406     -3188.504 6        39.153                                                                    23236581.510 6  98321528.99506     -2590.879 6        38.198
C22        51.000                                                                                                                                    21954857.958 7 114324707.25907       -62.241 7        47.937                                                                    21954851.181 7  92898149.52207       -50.642 7        47.623
C21        55.000                                                                                                                                    25654339.078 7 133588968.35407      2204.452 7        43.469                                                                    25654333.953 6 108551872.46206      1791.291 6        40.963
> 2025 01 02 07 45 35.0000000  0 33
G13         1.000    20737915.788 5 108978675.05405       987.456 5        33.108                                    20737914.315 2  84918320.55202       769.444 2        14.571
G18         2.000    25126054.547 6 132038395.26206     -1042.954 6        37.093                                    25126046.215 1 102886962.38401      -812.691 1        11.481    25126051.808 6 102886981.43106      -812.523 6        37.879
G20         4.000    22294009.740 6 117155805.45106     -3731.783 6        39.880
G07         5.000    23286700.327 6 122372443.22606     -3398.307 6        39.643                                    23286694.615 3  95355168.56403     -2648.031 3        18.567
G30         7.000    20983712.471 8 110270108.02808     -2165.031 8        48.523                                    20983711.093 6  85924732.76306     -1687.037 6        40.226    20983711.400 6  85924801.75206     -1687.046 6        37.769
G14         8.000    21186930.280 7 111337959.28807       932.770 7        42.419                                    21186928.284 4  86756921.26104       726.839 4        27.353    21186928.528 7  86756955.26107       726.776 7        43.941
G15         9.000    23130502.965 4 121551616.41204      2599.421 4        24.496                                    23130521.078 1  94715606.43101      2025.477 1         8.476    23130519.885 4  94715669.42504      2025.994 4        27.605
E21        10.000                                                                                                                                    27584763.594 4 108248674.93704     -2507.427 4        25.805    27584798.114 3                     -2571.722 3        23.181
E06        11.000    23381533.098 8 122870777.40508      -759.500 8        49.780                                                                    23381534.680 8  91754193.16908      -567.136 8        51.150    23381534.003 8  94147717.75308      -581.979 8        50.517
E31        13.000    25084967.054 6 131822386.22606      1630.442 6        39.072                                                                    25084999.332 5  98438865.71505      1217.423 5        32.102    25084970.439 5 101006772.72405      1249.313 5        33.162
G05        14.000    21303285.581 7 111949588.22707     -1685.240 7        44.900                                    21303283.735 6  87233410.51806     -1313.174 6        36.079    21303284.302 6  87233368.51306     -1313.116 6        36.862
E04        17.000    23984700.793 7 126040456.99107     -2012.966 7        44.546                                                                    23984699.822 7  94121139.83807     -1503.296 7        44.614    23984700.756 8  96576405.00408     -1542.426 8        48.995
E05        18.000                                                                                                                                    26484149.870 5 103929460.78805      1307.161 5        34.219    26484165.248 5 106640669.53905      1341.350 5        33.347
E09        21.000    24157257.503 7 126947270.78707       400.339 7        44.066                                                                    24157257.925 7  94798241.32407       299.003 7        46.579    24157256.912 7  97271299.28907       306.844 7        46.121
E36        22.000                                                                                                                                    27713367.972 5 108753189.34305     -2441.641 5        30.068    27713367.310 4                     -2505.688 4        29.469
S23        24.000    38310445.214 6 201322736.17606      -849.615 6        38.595
E34        26.000    27626013.609 5                     -1216.689 5        30.634                                                                    27626018.957 6 108410408.73606      -908.189 6        37.372    27626019.977 5 111238518.48205      -931.832 5        32.275
R13        27.000    22526894.939 3                      3174.516 3        21.762
R18        28.000    24457581.316 4                     -3784.934 4        25.714                                                                    24457575.594 5 101543690.87915     -2943.751 5        33.521
R19        29.000    23823863.142 4                     -1547.541 4        28.550                                                                    23823862.235 5  99121270.01505     -1203.602 5        35.157
R11        30.000    20818857.908 7 111249621.83907     -3874.471 7        42.717                                                                    20818850.820 7  86527720.72407     -3013.398 7        43.437
C10        33.000                                                                                                                                                                                                    39718522.112 5 159930007.00105       309.200 5        35.619
C36        34.000                                                                                                                                    21880334.715 8 113936650.76808       288.132 8        48.371                                                                    21880340.602 7  92582967.90507       234.088 7        42.836
R02        35.000    19567643.981 7 104416641.88707       560.581 7        46.269                                                                    19567646.231 7  81213140.67907       435.968 7        46.250
R03        36.000    23038698.259 4 123327788.69704      3102.789 4        29.678                                                                    23038659.667 6  95921562.51206      2413.227 6        41.790
C45        37.000                                                                                                                                    25165949.825 6 131045682.10706      2281.222 6        36.892                                                                    25165945.815 5 106485342.96605      1853.954 5        31.042
R12        38.000    19540116.840 7 104379684.97907       646.109 7        45.087                                                                    19540116.561 7  81184608.35707       502.447 7        42.601
C40        40.000                                                                                                                                    39583519.417 4 206121797.66904       270.349 4        24.090
R01        44.000    20283454.766 7 108426621.96607     -3378.908 7        42.978                                                                    20283457.298 5  84331865.61505     -2628.159 5        35.567
I02        46.000    38140340.479 5 149670904.79205         4.600 5        33.234
C19        48.000                                                                                                                                    23239650.189 6 121014997.10006     -3190.238 6        40.956                                                                    23239644.251 6  98334487.22106     -2592.300 6        37.822
C22        51.000                                                                                                                                    21954918.096 7 114325024.35307       -64.336 7        46.916                                                                    21954912.247 8  92898407.16808       -52.387 8        48.124
C21        55.000                                                                                                                                    25652222.027 7 133577947.88507      2203.920 7        43.863                                                                    25652217.792 6 108542917.40906      1790.995 6        41.373
> 2025 01 02 07 45 40.0000000  0 32
G13         1.000    20736977.431 5 108973742.81305       985.646 5        31.192                                    20736975.614 2  84914477.25602       768.056 2        14.190
G18         2.000    25127050.142 6 132043618.43406     -1045.932 6        39.402                                    25127040.565 2 102891032.40402      -814.996 2        12.545    25127045.811 6 102891051.45006      -814.936 6        36.934
G20         4.000    22297560.533 7 117174470.44707     -3733.554 7        43.107
G07         5.000    23289934.636 6 122389437.90206     -3398.831 6        39.961                                    23289928.649 3  95368411.14103     -2648.423 3        18.985
G30         7.000    20985772.610 8 110280938.37208     -2166.558 8        48.361                                    20985771.514 6  85933171.98406     -1688.222 6        39.919    20985772.267 6  85933240.96906     -1688.205 6        36.949
G14         8.000    21186044.289 7 111333303.55107       930.267 7        42.453                                    21186042.370 4  86753293.39504       724.886 4        27.748    21186042.703 7  86753327.40907       724.860 7        43.913
G15         9.000                                                                                                                                                                    23128048.570 4  94705541.18304      2026.207 4        27.198
E21        10.000                                                                                                                                    27587958.926 4 108261214.27704     -2507.249 4        26.132    27587994.260 3                     -2574.157 3        21.976
E06        11.000    23382256.469 8 122874579.22508      -760.683 8        49.584                                                                    23382258.078 8  91757032.18308      -567.982 8        50.911    23382257.349 8  94150630.82208      -582.798 8        50.588
E31        13.000    25083416.885 6 131814239.36906      1629.106 6        38.396                                                                    25083450.100 5  98432782.01105      1216.308 5        31.608    25083419.336 5 101000530.33705      1248.314 5        31.525
G05        14.000    21304891.596 7 111958024.11407     -1688.518 7        46.241                                    21304888.654 6  87239983.93806     -1315.732 6        36.450    21304890.039 5  87239941.92505     -1315.522 5        35.167
E04        17.000    23986616.910 7 126050525.94107     -2014.035 7        44.743                                                                    23986615.906 7  94128658.83407     -1503.877 7        45.001    23986616.724 8  96584120.16408     -1543.192 8        49.170
E05        18.000                                                                                                                                    26482484.063 5 103922926.04605      1307.371 5        35.252
E09        21.000    24156876.873 7 126945272.38007       399.539 7        43.941                                                                    24156877.487 7  94796749.00307       298.407 7        46.569    24156876.656 7  97269768.04107       306.208 7        46.324
E36        22.000                                                                                                                                    27716478.773 4 108765401.52704     -2442.190 4        29.204    27716480.753 4                     -2506.292 4        29.848
S23        24.000    38311254.583 6 201326985.84406      -849.684 6        38.586
E34        26.000    27627174.486 4                     -1218.709 4        29.782                                                                    27627177.549 6 108414955.79606      -910.014 6        37.146    27627178.779 5 111243184.15505      -933.506 5        32.216
R18        28.000    24461130.179 5                     -3787.313 5        30.830                                                                    24461129.454 5 101558415.20405     -2945.312 5        31.140
R19        29.000    23825308.151 4                     -1551.827 4        29.867                                                                    23825310.929 5  99127296.73305     -1206.331 5        35.200
R11        30.000    20822490.184 7 111269001.07407     -3876.518 7        43.869                                                                    20822477.812 7  86542793.44207     -3015.112 7        43.500
C10        33.000                                                                                                                                                                                                    39718139.300 5 159928463.72305       308.497 5        35.162
C36        34.000                                                                                                                                    21880059.570 8 113935216.59208       286.166 8        48.662                                                                    21880065.140 7  92581802.54907       232.600 7        43.422
R02        35.000    19567120.047 7 104413847.83307       557.722 7        46.268                                                                    19567122.459 7  81210967.50407       433.841 7        46.192
R03        36.000                                                                                                                                    23035760.795 6                      2413.192 6        41.204
C45        37.000                                                                                                                                    25163759.836 6 131034279.07406      2280.446 6        36.238                                                                    25163756.227 5 106476077.08105      1853.192 5        30.958
R12        38.000    19539512.662 7 104376465.04207       642.508 7        42.597                                                                    19539513.123 7  81182103.91607       499.758 7        42.902
C40        40.000                                                                                                                                    39583259.602 4 206120450.02404       268.761 4        25.068
R01        44.000    20286614.680 6 108443525.07406     -3381.557 6        41.654                                                                    20286617.886 5  84345012.43705     -2629.927 5        34.038
I02        46.000    38140336.092 5 149670883.82305         4.658 5        32.629
C19        48.000                                                                                                                                    23242717.822 7 121030953.31007     -3191.702 7        42.597                                                                    23242708.783 6  98347452.99806     -2593.366 6        37.739
C22        51.000                                                                                                                                    21954981.429 7 114325353.43107       -66.593 7        46.793                                                                    21954975.587 8  92898674.58808       -54.118 8        48.400
C21        55.000                                                                                                                                    25650105.852 7 133566930.96707      2203.462 7        44.197                                                                    25650102.356 6 108533965.27406      1790.503 6        41.626
> 2025 01 02 07 45 45.0000000  0 32
G13         1.000    20736041.861 5 108968819.30605       983.814 5        33.228                                    20736038.760 2  84910640.75902       766.600 2        15.190
G18         2.000    25128048.144 6 132048856.47806     -1048.972 6        41.409                                    25128037.621 2 102895113.97802      -817.399 2        13.576    25128042.501 6 102895133.02906      -817.351 6        36.026
G20         4.000    22301115.008 7 117193144.96307     -3735.712 7        45.020
G07         5.000    23293169.486 6 122406435.46506     -3399.690 6        39.895                                    23293163.367 3  95381655.95003     -2649.103 3        18.806    23293168.831 4                     -2649.370 4        25.248
G30         7.000    20987834.355 7 110291777.13307     -2168.409 7        47.939                                    20987833.567 6  85941617.75806     -1689.664 6        39.634    20987835.058 6  85941686.73906     -1689.631 6        36.435
G14         8.000    21185161.027 7 111328661.18707       927.125 7        42.622                                    21185159.006 4  86749675.95404       722.433 4        28.209    21185159.046 7  86749709.94207       722.577 7        43.617
E21        10.000                                                                                                                                    27591155.495 4 108273757.88504     -2508.768 4        26.695    27591190.289 3                     -2573.730 3        22.324
E06        11.000    23382980.955 8 122878387.43208      -762.158 8        49.696                                                                    23382982.604 8  91759875.96608      -569.158 8        50.619    23382981.972 8  94153548.78808      -583.989 8        50.619
E31        13.000    25081868.541 6 131806099.57606      1627.222 6        38.417                                                                    25081902.256 5  98426703.57105      1215.093 5        30.649    25081869.717 5 100994293.30305      1247.019 5        30.641
G05        14.000    21306500.927 7 111966476.99007     -1692.155 7        47.106                                    21306496.663 6  87246570.58706     -1318.563 6        36.662    21306497.244 5  87246528.62205     -1318.665 5        33.299
E04        17.000    23988534.104 7 126060600.86807     -2015.437 7        45.266                                                                    23988533.281 7  94136182.30507     -1505.077 7        45.360    23988533.952 8  96591839.90708     -1544.292 8        49.421
E05        18.000                                                                                                                                    26480818.003 5 103916390.88005      1307.059 5        35.690    26480851.945 5 106627258.63505      1341.160 5        32.778
E09        21.000    24156496.878 7 126943278.85307       398.362 7        44.056                                                                    24156498.092 7  94795260.32307       297.486 7        46.472    24156497.189 7  97268240.52407       305.278 7        46.568
E36        22.000                                                                                                                                    27719592.370 4 108777617.86704     -2443.438 4        29.545    27719596.092 5                     -2507.287 5        30.189
S23        24.000    38312065.967 6 201331235.21306      -849.680 6        38.601
E34        26.000    27628336.616 4                     -1220.991 4        27.365                                                                    27628340.432 6 108419511.75706      -912.062 6        36.968    27628340.410 5 111247858.98405      -935.596 5        32.485
R13        27.000    22520977.806 4                      3169.482 4        25.985
R18        28.000    24464682.351 5                     -3789.972 5        30.128                                                                    24464682.796 5 101573148.25815     -2947.698 5        30.423
R19        29.000    23826756.917 4                     -1556.081 4        27.928                                                                    23826764.425 5  99133339.44605     -1209.957 5        35.019
R11        30.000    20826111.424 7 111288392.12807     -3879.354 7        44.731                                                                    20826106.306 7  86557875.33007     -3017.230 7        43.977
C10        33.000                                                                                                                                                                                                    39717757.336 5 159926922.46905       308.201 5        34.619
C36        34.000                                                                                                                                    21879786.479 8 113933793.17708       283.692 8        48.744                                                                    21879791.952 7  92580645.92807       230.395 7        43.949
R02        35.000    19566600.069 7 104411069.13307       554.392 7        46.386                                                                    19566601.805 7  81208806.29207       431.178 7        45.871
R03        36.000                                                                                                                                    23032861.612 6  95897434.88416      2412.587 6        40.577
C45        37.000                                                                                                                                    25161570.806 5 131022879.90305      2279.759 5        35.895                                                                    25161569.054 5 106466814.34205      1852.229 5        30.589
R12        38.000    19538907.237 6 104373263.66506       638.606 6        40.048                                                                    19538913.631 7  81179613.97207       496.602 7        42.345
C40        40.000                                                                                                                                    39583002.377 4 206119106.61804       268.161 4        24.481
R01        44.000    20289779.853 7 108460442.61307     -3384.819 7        42.324                                                                    20289781.120 5  84358170.50905     -2632.647 5        32.108
I02        46.000    38140329.197 5 149670863.59605         4.067 5        32.102
C19        48.000                                                                                                                                    23245785.764 7 121046918.50307     -3193.822 7        42.673                                                                    23245774.709 6  98360426.02906     -2595.421 6        38.054
C22        51.000                                                                                                                                    21955046.979 7 114325694.20607       -69.234 7        46.944                                                                    21955041.069 8  92898951.49008       -56.311 8        48.853
C21        55.000                                                                                                                                    25647990.096 7 133555917.28607      2202.551 7        44.501                                                                    25647987.395 6 108525015.75706      1789.553 6        41.919
> 2025 01 02 07 45 50.0000000  0 31
G13         1.000    20735107.502 5 108963905.69505       982.013 5        34.676                                    20735103.789 2  84906811.97602       765.196 2        16.189
G18         2.000    25129049.286 7 132054110.66107     -1052.339 7        42.305                                    25129037.918 2 102899208.17602      -820.002 2        16.038    25129042.285 5 102899227.16405      -819.852 5        35.186
G20         4.000    22304671.294 7 117211830.17707     -3737.996 7        45.633
G07         5.000    23296405.235 6 122423437.09006     -3400.673 6        40.067                                    23296398.903 3  95394903.94103     -2649.851 3        19.284    23296404.265 4                     -2649.942 4        26.263
G30         7.000    20989899.044 8 110302625.51908     -2170.496 8        48.096                                    20989897.547 6  85950071.03606     -1691.294 6        39.559    20989900.440 5  85950140.01405     -1691.526 5        35.738
G14         8.000    21184280.813 7 111324033.37307       924.269 7        43.335                                    21184278.302 4  86746069.85404       720.210 4        28.777    21184278.112 7  86746103.84907       720.187 7        43.145
E21        10.000                                                                                                                                    27594353.699 4 108286306.56404     -2510.160 4        26.407    27594387.057 3                     -2576.185 3        20.833
E06        11.000    23383707.130 8 122882203.25808      -763.848 8        49.492                                                                    23383708.543 8  91762725.43408      -570.416 8        50.265    23383708.089 8  94156472.58408      -585.269 8        50.398
E31        13.000    25080322.124 6 131797968.06606      1625.788 6        39.132                                                                    25080353.321 4  98420631.23104      1214.191 4        29.204    25080322.420 5 100988062.70305      1245.543 5        30.045
G05        14.000    21308112.242 7 111974947.99907     -1695.964 7        47.213                                    21308108.160 6  87253171.37106     -1321.523 6        36.699    21308110.047 5  87253129.38505     -1321.450 5        33.485
E04        17.000    23990452.577 7 126070682.99307     -2017.003 7        45.663                                                                    23990452.069 7  94143711.14707     -1506.217 7        45.849    23990452.522 8  96599565.15908     -1545.510 8        49.531
E05        18.000                                                                                                                                    26479152.136 6 103909856.19006      1306.957 6        36.045    26479185.090 5 106620553.44505      1340.878 5        31.955
E09        21.000    24156118.690 7 126941291.43207       396.951 7        43.989                                                                    24156119.831 7  94793776.19207       296.470 7        46.412    24156118.960 7  97266717.68607       304.163 7        46.544
E36        22.000                                                                                                                                    27722706.936 5 108789839.25105     -2444.469 5        30.091    27722711.141 5                     -2508.511 5        30.483
S23        24.000    38312875.269 6 201335485.45206      -850.090 6        38.622
E34        26.000    27629499.377 4                     -1224.296 4        27.557                                                                    27629504.546 6 108424077.53106      -913.959 6        36.760    27629503.640 5 111252543.90105      -937.650 5        31.977
R13        27.000    22518007.710 4                      3167.831 4        26.814
R18        28.000                                                                                                                                    24468237.495 4                     -2949.603 4        28.910
R19        29.000    23828212.738 4                     -1560.014 4        28.825                                                                    23828221.751 5  99139399.03805     -1213.461 5        34.376
R11        30.000    20829734.945 7 111307796.07707     -3882.000 7        46.471                                                                    20829737.737 7  86572967.31007     -3019.394 7        45.029
C10        33.000                                                                                                                                                                                                    39717375.581 5 159925384.19305       307.564 5        33.994
C36        34.000                                                                                                                                    21879515.641 8 113932381.71008       281.230 8        48.148                                                                    21879521.068 7  92579498.98407       228.439 7        44.223
R02        35.000    19566082.305 7 104408306.94107       550.843 7        46.379                                                                    19566084.181 7  81206657.91607       428.353 7        45.539
R03        36.000    23029998.959 4                      3100.837 4        24.180                                                                    23029965.049 6  95885374.25706      2412.028 6        39.922
C45        37.000                                                                                                                                    25159383.232 5 131011485.85005      2278.530 5        35.014                                                                    25159383.481 5 106457555.67205      1851.521 5        30.883
R12        38.000    19538311.772 6 104370082.19206       634.371 6        38.538                                                                    19538317.720 6  81177139.49406       493.380 6        41.566
R01        44.000    20292947.943 7 108477375.94807     -3388.199 7        43.037                                                                    20292948.486 5  84371340.88805     -2635.303 5        30.868
I02        46.000    38140325.884 5 149670844.85605         3.855 5        32.401
C19        48.000                                                                                                                                    23248851.200 6 121062893.83006     -3195.970 6        41.547                                                                    23248842.879 6  98373407.26506     -2596.987 6        37.917
C22        51.000                                                                                                                                    21955114.211 7 114326047.88307       -71.960 7        46.842                                                                    21955109.051 8  92899238.86108       -58.519 8        48.915
C21        55.000                                                                                                                                    25645875.732 7 133544908.06107      2201.541 7        44.734                                                                    25645873.222 6 108516069.83206      1788.788 6        41.886
> 2025 01 02 07 45 55.0000000  0 33
G13         1.000    20734174.994 5 108959001.49005       979.627 5        35.814                                    20734170.615 2  84902990.49802       763.352 2        16.792
G18         2.000    25130051.532 7 132059380.30307     -1055.589 7        42.500                                    25130041.373 2 102903314.38002      -822.555 2        16.906    25130045.616 6 102903333.37206      -822.503 6        36.125
G20         4.000    22308229.195 7 117230525.43607     -3740.214 7        45.232
G07         5.000    23299641.686 6 122440442.16906     -3401.419 6        39.952                                    23299635.464 3  95408154.61703     -2650.454 3        19.313    23299643.329 4                     -2650.375 4        28.692
G30         7.000    20991965.590 7 110313482.89407     -2172.314 7        47.570                                    20991963.387 6  85958531.31806     -1692.706 6        39.628    20991966.676 6  85958600.30806     -1692.937 6        36.295
G14         8.000    21183403.137 7 111319419.51507       921.319 7        43.393                                    21183400.241 4  86742474.62504       717.915 4        29.526    21183400.129 7  86742508.62407       717.862 7        42.857
G15         9.000                                                                                                                                                                    23120617.843 3                      2023.482 3        20.024
E21        10.000                                                                                                                                    27597552.743 4 108298859.93704     -2510.942 4        26.778
E06        11.000    23384434.788 8 122886026.03908      -765.317 8        49.531                                                                    23384435.830 8  91765580.09708      -571.437 8        49.679    23384435.516 8  94159401.71708      -586.394 8        50.501
E31        13.000    25078776.318 6 131789844.20906      1623.885 6        40.288                                                                                                                                    25078777.586 5 100981837.90105      1244.114 5        30.023
G05        14.000    21309727.091 7 111983436.54507     -1699.545 7        47.304                                    21309723.229 6  87259785.80806     -1324.313 6        36.703    21309726.605 5  87259743.78505     -1324.363 5        34.519
E04        17.000    23992372.532 7 126080771.66707     -2018.511 7        45.765                                                                    23992371.949 7  94151244.87507     -1507.224 7        46.077    23992372.430 8  96607295.43108     -1546.624 8        49.816
E05        18.000                                                                                                                                    26477486.446 6 103903321.52506      1306.725 6        36.397    26477519.411 5 106613848.25105      1341.051 5        31.343
E09        21.000    24155741.640 7 126939309.45607       395.841 7        43.655                                                                    24155742.596 7  94792296.13907       295.589 7        46.176    24155741.862 7  97265199.01907       303.294 7        46.836
E36        22.000                                                                                                                                    27725822.136 4 108802065.10504     -2445.435 4        28.957    27725827.669 5                     -2509.536 5        30.068
S23        24.000    38313683.662 6 201339735.83906      -850.232 6        38.682
E34        26.000    27630667.253 4                     -1226.703 4        25.504                                                                    27630670.866 6 108428652.62806      -915.927 6        36.461    27630669.175 5 111257238.35705      -939.657 5        32.359
R13        27.000    22515044.602 4                      3167.085 4        24.316
R18        28.000    24471772.591 5                     -3794.376 5        31.570                                                                    24471788.588 4 101602642.85214     -2951.520 4        29.469
R19        29.000    23829675.920 4                     -1564.020 4        27.042                                                                    23829684.067 5  99145475.02215     -1216.818 5        35.038
R11        30.000    20833370.695 7 111327212.38407     -3884.503 7        47.235                                                                    20833371.128 7  86588068.86707     -3021.249 7        45.710
C10        33.000                                                                                                                                                                                                    39716994.111 5 159923848.47305       307.193 5        34.052
C36        34.000                                                                                                                                    21879246.697 7 113930981.57907       278.906 7        47.327                                                                    21879252.421 7  92578361.25207       226.648 7        44.507
R02        35.000    19565568.362 7 104405560.86507       547.518 7        47.388                                                                    19565569.095 7  81204522.05207       425.916 7        45.010
R03        36.000    23027111.669 5                      3100.841 5        30.000                                                                    23027070.113 6  95873315.47006      2411.487 6        40.107
C45        37.000                                                                                                                                    25157196.105 5 131000096.25005      2277.588 5        34.438                                                                    25157198.760 5 106448300.65305      1851.150 5        30.174
R12        38.000    19537723.195 6 104366919.87906       630.499 6        37.308                                                                    19537725.671 6  81174679.86806       490.459 6        40.026
C40        40.000                                                                                                                                    39582474.378 3                       265.962 3        23.962
R01        44.000    20296119.016 7 108494324.33307     -3391.175 7        42.815                                                                    20296119.499 5  84384522.89305     -2637.323 5        30.332
I02        46.000    38140320.419 5 149670827.17205         3.778 5        32.503
C19        48.000                                                                                                                                    23251913.887 6 121078878.65706     -3197.977 6        40.844                                                                    23251912.828 6  98386396.23006     -2598.433 6        37.611
C22        51.000                                                                                                                                    21955183.824 7 114326413.80107       -74.470 7        46.944                                                                    21955179.315 8  92899536.20708       -60.496 8        48.871
C21        55.000                                                                                                                                    25643762.200 7 133533902.63307      2200.733 7        44.728                                                                    25643759.662 6 108507127.02906      1788.275 6        41.702
> 2025 01 02 07 46  0.0000000  0 33
G13         1.000    20733244.162 6 108954105.65806       978.468 6        39.378                                    20733239.033 3  84899175.54003       762.447 3        18.806
G18         2.000    25131055.759 7 132064664.52507     -1058.183 7        42.574                                    25131047.649 2 102907431.94602      -824.552 2        17.132    25131052.421 6 102907450.93206      -824.653 6        37.043
G20         4.000    22311788.180 7 117249229.85907     -3741.577 7        44.631
G07         5.000    23302878.560 6 122457449.82306     -3401.707 6        39.649                                    23302872.762 3  95421407.29903     -2650.668 3        18.776    23302878.955 5                     -2650.478 5        30.302
G30         7.000    20994033.315 7 110324348.37707     -2173.824 7        47.256                                    20994031.025 6  85966997.91106     -1693.884 6        39.565    20994034.626 6  85967066.86806     -1693.867 6        36.662
G14         8.000    21182527.785 7 111314818.71307       918.980 7        44.059                                    21182524.670 4  86738889.57704       716.090 4        29.924    21182524.675 7  86738923.58107       716.064 7        42.379
G15         9.000    23118264.979 5                      2595.340 5        32.754
E21        10.000                                                                                                                                    27600752.991 4 108311417.24304     -2512.420 4        26.695
E06        11.000    23385163.529 8 122889854.91008      -766.244 8        49.302                                                                    23385164.354 8  91768439.31608      -572.223 8        49.172    23385164.151 8  94162335.51908      -587.141 8        50.547
E31        13.000    25077231.944 6 131781727.11206      1622.811 6        41.414                                                                    25077238.275 5  98408503.00505      1211.564 5        34.171    25077233.379 5 100975618.33005      1243.113 5        31.079
G05        14.000    21311345.807 7 111991941.74607     -1702.638 7        47.833                                    21311341.702 6  87266413.22106     -1326.724 6        36.590    21311344.594 5  87266371.21405     -1326.817 5        35.567
E04        17.000    23994293.356 7 126090866.01807     -2019.379 7        45.496                                                                    23994292.889 7  94158782.84607     -1507.843 7        46.232    23994293.382 8  96615030.05308     -1547.300 8        50.070
E05        18.000                                                                                                                                    26475820.664 6 103896786.20606      1307.179 6        36.499    26475854.965 5 106607142.41205      1341.109 5        30.725
E09        21.000    24155364.833 7 126937332.08007       395.040 7        42.916                                                                    24155366.342 7  94790819.50707       295.097 7        45.985    24155365.585 7  97263683.87507       302.748 7        47.207
E36        22.000                                                                                                                                    27728938.583 4 108814294.98204     -2446.090 4        28.379    27728943.393 5                     -2510.170 5        30.234
S23        24.000    38314493.987 6 201343985.33506      -849.802 6        39.231
E34        26.000    27631836.855 3                     -1228.584 3        22.648                                                                    27631839.367 6 108433236.43506      -917.359 6        36.026    27631838.049 5 111261941.77005      -941.554 5        32.581
R13        27.000    22512077.216 4                      3165.924 4        24.180
R18        28.000    24475328.962 5                     -3796.608 5        33.222                                                                    24475336.188 5                     -2952.651 5        30.143
R19        29.000    23831132.878 4                     -1568.033 4        25.489                                                                    23831151.226 5  99151566.69815     -1219.862 5        33.557
R11        30.000    20837008.923 7 111346640.09607     -3886.579 7        46.915                                                                    20837006.684 7  86603179.29507     -3022.909 7        45.725
C10        33.000                                                                                                                                                                                                    39716613.507 5 159922314.55005       306.855 5        33.180
C36        34.000                                                                                                                                    21878979.826 7 113929591.91207       277.008 7        46.236                                                                    21878985.771 7  92577232.04807       225.003 7        44.761
R02        35.000    19565057.323 8 104402829.87208       544.834 8        48.281                                                                    19565057.926 7  81202397.95307       423.715 7        44.417
R03        36.000    23024222.352 5                      3100.343 5        32.042                                                                    23024173.828 6  95861257.98616      2411.463 6        40.327
C45        37.000                                                                                                                                    25155010.248 5 130988710.29205      2276.961 5        33.569                                                                    25155012.725 5 106439048.62505      1850.298 5        30.543
R12        38.000    19537138.897 6 104363775.85606       627.066 6        40.377                                                                    19537136.095 6  81172234.49406       487.761 6        38.468
C40        40.000                                                                                                                                    39582222.594 3                       264.511 3        22.533
R01        44.000    20299291.886 7 108511286.97407     -3393.802 7        42.578                                                                    20299291.497 5  84397716.06305     -2639.815 5        30.551
I02        46.000    38140316.104 5 149670810.18505         3.301 5        32.814
C19        48.000                                                                                                                                    23254982.937 6 121094872.11906     -3199.481 6        41.216                                                                    23254983.869 6  98399392.26006     -2599.896 6        37.459
C22        51.000                                                                                                                                    21955256.365 7 114326791.14007       -76.528 7        47.458                                                                    21955251.853 8  92899842.83508       -62.160 8        49.058
C21        55.000                                                                                                                                    25641648.969 7 133522900.19107      2200.265 7        44.713                                                                    25641646.597 6 108498186.64806      1787.821 6        41.619
> 2025 01 02 07 46  5.0000000  0 33
G13         1.000    20732315.651 6 108949218.80606       976.780 6        41.716                                    20732309.378 3  84895367.57403       761.141 3        21.357
G18         2.000    25132062.986 6 132069963.88606     -1061.037 6        41.974                                    25132057.024 2 102911561.27402      -826.772 2        17.434    25132060.910 6 102911580.28706      -826.760 6        37.153
G20         4.000    22315349.133 7 117267944.01007     -3743.617 7        43.915
G07         5.000    23306115.999 6 122474460.57306     -3402.140 6        38.300                                    23306110.677 3  95434662.39903     -2651.006 3        18.448    23306118.131 4                     -2651.503 4        29.867
G30         7.000    20996102.743 7 110335222.50607     -2175.475 7        47.221                                    20996100.501 6  85975471.24206     -1695.173 6        39.661    20996102.984 6  85975540.20006     -1695.219 6        37.217
G14         8.000    21181655.121 7 111310231.56707       916.282 7        44.403                                    21181651.689 5  86735315.16505       713.983 5        30.332    21181651.867 6  86735349.17706       713.965 6        41.986
G15         9.000                                                                                                                                                                    23115682.169 3                      2021.059 3        23.600
E21        10.000                                                                                                                                    27603954.134 4 108323978.93004     -2512.570 4        26.850
E06        11.000    23385893.212 8 122893690.45208      -767.522 8        49.179                                                                    23385894.065 8  91771303.51408      -573.209 8        48.844    23385894.023 8  94165274.42908      -588.150 8        50.449
E31        13.000    25075689.165 6 131773617.37106      1621.397 6        41.783                                                                    25075699.551 6  98402447.09106      1210.658 6        36.079    25075692.489 5 100969404.35005      1242.332 5        31.638
G05        14.000    21312967.268 7 112000464.11607     -1705.924 7        47.332                                    21312963.640 6  87273054.00406     -1329.288 6        36.537    21312966.108 6  87273012.00906     -1329.292 6        36.745
E04        17.000    23996215.134 7 126100966.60707     -2020.517 7        44.978                                                                    23996215.165 7  94166325.48807     -1508.902 7        46.630    23996215.379 8  96622769.45908     -1548.237 8        50.129
E05        18.000                                                                                                                                    26474154.426 6 103890250.67006      1307.350 6        36.703    26474190.310 5 106600436.38105      1341.327 5        31.879
E09        21.000    24154988.943 7 126935359.83507       394.124 7        42.051                                                                    24154991.187 7  94789346.72807       294.307 7        45.795    24154990.317 7  97262172.67807       301.977 7        47.346
E36        22.000                                                                                                                                    27732055.859 4 108826529.15604     -2447.314 4        26.826    27732060.360 5                     -2511.266 5        30.543
S23        24.000    38315304.232 6 201348234.63606      -849.693 6        39.306
E34        26.000                                                                                                                                    27633009.830 5 108437829.31205      -919.489 5        35.719    27633008.166 5 111266654.49305      -943.423 5        32.401
R13        27.000    22509108.094 4                      3163.840 4        25.233
R18        28.000    24478888.937 5 130669958.85115     -3798.783 5        34.210                                                                    24478896.590 4 101632172.31414     -2954.130 4        29.877
R19        29.000    23832605.575 4                     -1572.427 4        25.654                                                                    23832624.704 5  99157674.52105     -1223.050 5        33.168
R11        30.000    20840646.941 7 111366079.75407     -3888.832 7        47.254                                                                    20840644.452 7  86618299.02507     -3024.666 7        45.743
C10        33.000                                                                                                                                                                                                    39716234.622 5 159920782.88905       306.443 5        32.916
C36        34.000                                                                                                                                    21878714.623 7 113928213.26607       274.766 7        45.105                                                                    21878721.238 7  92576111.77107       223.177 7        45.211
R02        35.000    19564548.365 8 104400114.49408       541.651 8        48.047                                                                    19564549.009 7  81200285.99007       421.233 7        44.560
R03        36.000                                                                                                                                    23021278.480 6  95849202.12106      2411.128 6        40.215
C45        37.000                                                                                                                                    25152826.896 5 130977328.50305      2276.184 5        32.832                                                                    25152826.405 5 106429799.89805      1849.884 5        30.453
R12        38.000    19536555.470 7 104360650.75707       623.383 7        42.936                                                                    19536550.569 6  81169803.85106       484.773 6        38.949
C40        40.000                                                                                                                                    39581967.028 4                       264.549 4        24.376
R01        44.000    20302468.514 6 108528264.22606     -3396.613 6        41.669                                                                    20302469.171 4  84410920.50704     -2641.606 4        29.706
I02        46.000    38140312.871 5 149670793.94805         3.427 5        33.114
C19        48.000                                                                                                                                    23258057.361 6 121110874.74106     -3201.150 6        40.648                                                                    23258056.729 6  98412395.71106     -2601.206 6        36.609
C22        51.000                                                                                                                                    21955331.275 7 114327180.45307       -78.829 7        47.445                                                                    21955326.632 8  92900159.18508       -64.157 8        49.007
C21        55.000                                                                                                                                    25639536.821 7 133511901.27507      2199.617 7        44.623                                                                    25639534.027 6 108489249.13206      1787.225 6        41.580
> 2025 01 02 07 46 10.0000000  0 33
G13         1.000    20731387.469 7 108944341.18007       974.433 7        43.424                                    20731381.458 3  84891566.81003       759.300 3        23.486
G18         2.000    25133073.857 6 132075278.63406     -1064.565 6        40.770                                    25133068.894 3 102915702.61603      -829.527 3        18.537    25133071.851 6 102915721.63006      -829.646 6        37.599
G20         4.000    22318912.767 7 117286668.08407     -3745.935 7        43.464
G07         5.000    23309353.959 6 122491474.65906     -3403.160 6        37.251                                    23309349.286 2  95447920.10502     -2651.854 2        17.057    23309359.105 5                     -2651.791 5        30.574
G30         7.000    20998174.152 7 110346105.55007     -2177.568 7        47.574                                    20998171.806 6  85983951.51706     -1696.801 6        39.802    20998173.879 6  85984020.48006     -1696.793 6        37.807
G14         8.000    21180784.940 7 111305658.29607       913.155 7        44.801                                    21180781.305 5  86731751.57405       711.546 5        30.717    21180781.925 7  86731785.59207       711.570 7        42.354
G15         9.000                                                                                                                                                                    23113211.642 4                      2021.667 4        25.669
E21        10.000                                                                                                                                    27607157.259 4 108336545.19604     -2513.558 4        27.186
E06        11.000    23386624.157 8 122897532.88908      -769.347 8        49.389                                                                    23386625.129 8  91774172.85308      -574.490 8        48.612    23386625.265 8  94168218.61608      -589.457 8        50.356
E31        13.000    25074147.499 7 131765515.23707      1619.589 7        42.328                                                                    25074159.170 6  98396396.83106      1209.386 6        37.142    25074154.069 5 100963196.20305      1240.858 5        32.419
G05        14.000    21314591.854 7 112009003.91807     -1709.835 7        46.454                                    21314588.990 6  87279708.37806     -1332.338 6        36.333    21314591.083 6  87279666.41206     -1332.448 6        36.949
E04        17.000    23998138.470 7 126111073.66907     -2022.250 7        44.578                                                                    23998138.701 7  94173872.95107     -1510.019 7        47.161    23998138.541 8  96630513.82408     -1549.497 8        50.077
E05        18.000    26472485.391 5 139113845.07015      1749.922 5        31.057                                                                    26472488.321 6 103883715.08906      1307.159 6        36.741    26472526.105 5 106593730.30105      1340.856 5        31.147
E09        21.000    24154613.916 6 126933392.99706       392.757 6        41.066                                                                    24154617.004 7  94787877.97407       293.288 7        45.711    24154616.117 7  97260665.60807       300.996 7        47.426
E36        22.000                                                                                                                                    27735173.633 4 108838767.68404     -2448.315 4        26.850    27735178.288 5                     -2512.090 5        30.121
S23        24.000    38316116.739 6 201352484.07906      -850.052 6        39.754
E34        26.000                                                                                                                                    27634182.933 5 108442431.46805      -921.405 5        35.414    27634180.152 5 111271376.75705      -945.853 5        32.359
R13        27.000    22506154.279 4                      3162.093 4        26.790
R18        28.000    24482446.504 5 130688959.39505     -3801.317 5        30.521                                                                    24482458.844 5 101646950.64305     -2956.873 5        30.913
R19        29.000    23834081.645 4                     -1577.240 4        24.647                                                                    23834106.163 5  99163798.51805     -1226.713 5        30.921
R11        30.000    20844287.510 7 111385531.61607     -3891.769 7        47.273                                                                    20844284.714 7  86633428.23207     -3026.887 7        45.810
C10        33.000                                                                                                                                                                                                    39715857.733 5 159919253.67505       305.504 5        33.030
C36        34.000                                                                                                                                    21878452.140 7 113926845.84307       272.253 7        44.820                                                                    21878458.762 7  92575000.60707       221.210 7        45.571
R02        35.000    19564042.327 8 104397415.06708       538.144 8        48.126                                                                    19564043.274 7  81198186.42707       418.558 7        44.942
R03        36.000                                                                                                                                    23018383.897 6                      2410.303 6        39.700
C45        37.000                                                                                                                                                                                                                                                                    25150640.975 5 106420554.76305      1849.009 5        30.777
R12        38.000    19535972.062 7 104357544.78007       619.207 7        44.894                                                                    19535969.601 6  81167388.09406       481.633 6        40.300
C40        40.000                                                                                                                                    39581715.092 4                       262.790 4        25.158
R01        44.000    20305646.545 6 108545256.53206     -3399.986 6        41.299                                                                    20305646.643 4  84424136.78804     -2644.443 4        27.856
I02        46.000    38140308.534 5 149670778.92805         3.006 5        33.713
C19        48.000                                                                                                                                    23261132.325 6 121126886.77706     -3203.566 6        39.628                                                                    23261130.910 5  98425406.80305     -2603.006 5        35.714
C22        51.000                                                                                                                                    21955408.086 7 114327581.98407       -81.667 7        47.585                                                                    21955403.617 8  92900485.42808       -66.263 8        49.061
C21        55.000                                                                                                                                    25637425.639 7 133500906.13507      2198.505 7        44.954                                                                    25637422.199 6 108480314.64806      1786.514 6        41.518
> 2025 01 02 07 46 15.0000000  0 33
G13         1.000    20730460.741 7 108939472.85407       972.707 7        44.804                                    20730455.161 4  84887773.29604       757.954 4        24.602
G18         2.000    25134088.253 6 132080608.84306     -1067.537 6        38.408                                    25134083.778 2 102919855.98602      -831.827 2        17.962    25134086.420 6 102919875.00406      -831.838 6        38.108
G20         4.000    22322478.993 7 117305402.19707     -3747.796 7        43.354
G07         5.000    23312593.811 5 122508492.14205     -3403.554 5        35.576                                    23312588.265 2  95461180.48702     -2652.123 2        15.762    23312598.063 5                     -2652.608 5        30.362
G30         7.000    21000246.988 7 110356997.53807     -2179.296 7        47.737                                    21000244.859 6  85992438.76506     -1698.151 6        40.043    21000245.754 6  85992507.73606     -1698.140 6        38.102
G14         8.000    21179917.264 7 111301099.00907       910.440 7        45.145                                    21179913.650 5  86728198.89105       709.432 5        30.725    21179914.346 7  86728232.89807       709.411 7        42.910
G15         9.000                                                                                                                                                                    23110748.909 4                      2019.726 4        28.872
E21        10.000                                                                                                                                    27610360.985 4 108349116.06504     -2515.201 4        27.186
E06        11.000    23387356.824 8 122901382.29808      -770.609 8        49.050                                                                    23387357.635 8  91777047.40608      -575.424 8        48.387    23387357.761 8  94171168.15808      -590.447 8        50.435
E31        13.000    25072606.806 7 131757420.78607      1618.084 7        43.048                                                                    25072618.349 6  98390352.29906      1208.109 6        37.871    25072613.223 5 100956993.92205      1239.993 5        33.072
G05        14.000    21316220.573 7 112017561.22607     -1713.161 7        46.418                                    21316217.644 5  87286376.39905     -1334.931 5        35.838    21316217.966 6  87286334.42606     -1335.002 6        37.017
E04        17.000    24000063.068 7 126121187.27607     -2023.302 7        43.750                                                                    24000063.398 7  94181425.32307     -1510.924 7        47.556    24000062.875 8  96638263.21708     -1550.315 8        50.124
E05        18.000    26470820.441 5 139105093.11705      1750.224 5        31.064                                                                    26470822.662 6 103877179.54806      1307.063 6        36.854    26470862.322 5 106587024.23305      1341.092 5        30.989
E09        21.000    24154240.709 6 126931431.64606       391.741 6        39.610                                                                    24154243.954 7  94786413.31007       292.513 7        45.606    24154242.967 7  97259162.74107       300.143 7        47.683
E36        22.000                                                                                                                                    27738294.359 4 108851010.83204     -2449.567 4        25.684    27738298.238 5                     -2513.024 5        30.317
S23        24.000    38316927.972 6 201356733.60506      -850.105 6        40.496
E34        26.000                                                                                                                                    27635358.525 5 108447042.94805      -923.203 5        35.200    27635354.516 5 111276108.55305      -947.464 5        31.653
R13        27.000    22503195.751 4                      3159.883 4        25.038
R18        28.000    24486002.658 3                     -3802.981 3        20.762                                                                    24486019.675 4                     -2958.406 4        29.536
R19        29.000    23835565.875 4                     -1581.323 4        27.365                                                                    23835582.050 4  99169938.86314     -1229.639 4        28.047
R11        30.000    20847929.865 7 111404995.71207     -3894.003 7        45.487                                                                    20847927.063 7  86648566.97307     -3028.667 7        45.752
C10        33.000                                                                                                                                                                                                    39715479.612 5 159917726.96205       305.060 5        32.641
C36        34.000                                                                                                                                    21878191.936 7 113925489.73607       270.064 7        44.789                                                                    21878198.479 7  92573898.66907       219.507 7        46.102
R02        35.000    19563540.291 8 104394731.70208       535.103 8        49.228                                                                    19563539.885 7  81196099.36407       416.140 7        44.281
R03        36.000                                                                                                                                    23015488.637 6  95825096.15016      2410.153 6        39.658
C45        37.000                                                                                                                                    25148478.145 5 130954577.98905      2274.047 5        32.054                                                                    25148455.512 5 106411313.39105      1847.565 5        31.328
R12        38.000    19535391.444 7 104354457.95907       615.451 7        45.743                                                                    19535392.070 6  81164987.27306       478.708 6        40.293
C40        40.000                                                                                                                                    39581463.393 4                       262.521 4        24.902
R01        44.000    20308827.987 6 108562263.82106     -3402.831 6        41.151                                                                    20308833.929 4  84437364.60804     -2646.604 4        25.925
I02        46.000    38140305.234 5 149670765.01505         2.912 5        33.784
C19        48.000                                                                                                                                    23264209.498 6 121142908.33306     -3205.117 6        38.198                                                                    23264207.110 5  98438425.63205     -2604.393 5        35.552
C22        51.000                                                                                                                                    21955487.596 7 114327995.79707       -84.028 7        47.929                                                                    21955483.017 8  92900821.69008       -68.191 8        48.911
C21        55.000                                                                                                                                    25635314.723 7 133489914.86607      2197.769 7        45.025                                                                    25635311.122 6 108471383.33906      1786.021 6        41.080
> 2025 01 02 07 46 20.0000000  0 32
G13         1.000    20729535.561 7 108934613.98007       970.771 7        44.933                                    20729530.738 4  84883987.14304       756.439 4        25.805
G18         2.000    25135104.043 5 132085954.60505     -1070.741 5        35.243                                    25135101.734 2 102924021.48602      -834.328 2        17.321    25135105.349 6 102924040.51706      -834.426 6        38.171
G20         4.000    22326046.425 7 117324146.40807     -3750.007 7        42.351
G07         5.000    23315834.943 5 122525513.17205     -3404.707 5        34.538                                    23315827.826 2  95474443.61302     -2652.997 2        13.697    23315842.193 4                     -2652.788 4        28.882
G30         7.000    21002320.977 7 110367898.62307     -2181.226 7        47.589                                    21002319.661 6  86000933.09606     -1699.658 6        40.396    21002320.518 6  86001002.09206     -1699.671 6        38.670
G14         8.000    21179052.502 7 111296553.81707       907.489 7        44.886                                    21179048.695 5  86724657.18705       707.136 5        31.283    21179049.585 7  86724691.18807       707.178 7        43.592
G15         9.000                                                                                                                                                                    23108283.082 5                      2019.367 5        30.279
E21        10.000                                                                                                                                    27613567.058 4 108361691.58104     -2515.314 4        25.579
E06        11.000    23388090.738 8 122905238.80108      -772.164 8        48.493                                                                    23388091.452 8  91779927.25808      -576.572 8        48.299    23388091.720 8  94174123.12908      -591.611 8        50.391
E31        13.000    25071067.578 7 131749334.12907      1616.402 7        43.128                                                                    25071079.623 6  98384313.58006      1206.972 6        38.108    25071071.509 5 100950797.61105      1238.521 5        33.964
G05        14.000    21317852.887 7 112026136.16907     -1716.878 7        46.106                                    21317849.424 5  87293058.17205     -1337.828 5        35.148    21317849.037 6  87293016.19506     -1337.670 6        37.074
E04        17.000    24001988.512 7 126131307.55307     -2024.812 7        42.233                                                                    24001989.324 8  94188982.66508     -1511.952 8        48.092    24001988.491 8  96646017.71308     -1551.396 8        49.928
E05        18.000    26469157.589 5 139096341.36305      1750.269 5        31.042                                                                    26469157.095 6 103870644.10806      1307.043 6        37.316    26469197.235 4 106580318.23304      1340.908 4        29.772
E09        21.000    24153867.096 6 126929475.89506       390.509 6        36.741                                                                    24153871.940 7  94784952.82407       291.504 7        45.397    24153870.884 7  97257664.15807       299.236 7        47.693
E36        22.000                                                                                                                                    27741414.679 4 108863258.57004     -2449.737 4        26.683    27741418.120 5                     -2513.766 5        30.408
S23        24.000    38317734.035 6 201360983.35606      -849.984 6        40.029
E34        26.000                                                                                                                                    27636537.837 5 108451663.84705      -925.349 5        34.995    27636531.977 5 111280850.02005      -949.513 5        31.577
R18        28.000    24489578.015 3                     -3805.644 3        22.171                                                                    24489581.617 4                     -2961.107 4        24.842
R19        29.000                                                                                                                                    23837056.077 4  99176095.72514     -1233.167 4        28.597
R11        30.000    20851572.974 7 111424472.08207     -3896.592 7        44.281                                                                    20851572.138 7  86663715.25907     -3030.634 7        45.448
C10        33.000                                                                                                                                                                                                    39715100.050 5 159916202.84805       304.322 5        32.790
C36        34.000                                                                                                                                    21877933.321 7 113924145.08407       267.675 7        44.351                                                                    21877940.383 7  92572806.04207       217.594 7        46.550
R02        35.000    19563040.772 8 104392064.46008       531.688 8        49.046                                                                    19563039.816 7  81194024.84407       413.566 7        44.044
R03        36.000    23012711.926 3                      3100.271 3        21.143                                                                    23012594.281 6  95813046.19406      2409.730 6        39.751
C45        37.000                                                                                                                                    25146299.699 5 130943209.59705      2272.966 5        33.844                                                                    25146271.840 5 106402075.65705      1847.529 5        32.521
R12        38.000    19534816.349 7 104351390.49107       611.496 7        46.680                                                                    19534818.378 6  81162601.46606       475.553 6        40.050
C40        40.000                                                                                                                                    39581210.720 4                       261.194 4        24.722
R01        44.000    20312013.330 7 108579286.44607     -3406.177 7        42.133                                                                    20312017.186 4  84450604.42804     -2649.478 4        25.669
I02        46.000    38140302.573 5 149670752.35705         2.086 5        33.766
C19        48.000                                                                                                                                    23267291.308 6 121158939.48506     -3207.266 6        36.405                                                                    23267285.983 5  98451452.25605     -2606.057 5        35.757
C22        51.000                                                                                                                                    21955570.124 8 114328422.00608       -86.567 8        49.170                                                                    21955564.933 8  92901168.04308       -70.317 8        48.965
C21        55.000                                                                                                                                    25633204.864 7 133478927.56407      2196.966 7        45.123                                                                    25633200.943 6 108462455.27206      1785.244 6        40.958
> 2025 01 02 07 46 25.0000000  0 32
G13         1.000    20728611.846 7 108929764.66107       969.053 7        43.592                                    20728608.171 4  84880208.45304       755.103 4        26.084
G18         2.000    25136125.021 5 132091315.95805     -1073.494 5        34.843                                    25136122.301 2 102928199.15702      -836.485 2        16.792    25136126.842 6 102928218.21806      -836.755 6        38.267
G20         4.000    22329615.141 6 117342900.76106     -3751.591 6        40.644
G07         5.000    23319074.236 5 122542537.73805     -3405.121 5        30.174                                    23319067.973 1  95487709.50601     -2653.299 1        11.556    23319083.990 4                     -2653.803 4        27.162
G30         7.000    21004397.318 7 110378808.84407     -2182.772 7        47.620                                    21004396.206 6  86009434.54506     -1700.861 6        40.579    21004396.717 6  86009503.53406     -1700.802 6        39.526
G14         8.000    21178190.228 7 111292022.79407       905.025 7        43.600                                    21178186.517 5  86721126.52005       705.219 5        31.117    21178187.538 7  86721160.51907       705.226 7        43.712
G15         9.000                                                                                                                                                                    23105818.212 5                      2018.312 5        30.332
E21        10.000                                                                                                                                    27616773.626 4 108374271.86804     -2516.456 4        25.278
E06        11.000    23388825.791 8 122909102.48508      -773.249 8        48.183                                                                    23388826.616 8  91782812.46608      -577.392 8        48.193    23388826.971 8  94177083.60508      -592.543 8        50.250
E31        13.000    25069529.959 7 131741255.34807      1615.110 7        43.416                                                                    25069542.386 6  98378280.72806      1206.049 6        37.860    25069533.767 5 100944607.35405      1237.647 5        35.395
G05        14.000    21319488.646 7 112034728.72807     -1720.039 7        45.919                                    21319484.339 5  87299753.67805     -1340.291 5        34.467    21319484.209 6  87299711.69606     -1340.264 6        37.335
E04        17.000    24003915.481 6 126141434.57506     -2025.873 6        41.230                                                                    24003916.559 8  94196545.04908     -1512.866 8        48.474    24003915.470 8  96653777.37908     -1552.322 8        49.629
E05        18.000    26467491.992 5 139087589.79105      1750.209 5        31.072                                                                    26467491.605 6 103864108.81606      1307.143 6        37.331    26467532.039 4 106573612.36504      1341.329 4        28.531
E09        21.000    24153494.691 5 126927525.82705       389.616 5        33.293                                                                    24153501.007 7  94783496.56907       290.926 7        45.172    24153499.838 7  97256169.91907       298.548 7        47.655
E36        22.000                                                                                                                                    27744537.103 4 108875510.94204     -2451.020 4        26.719    27744539.143 4                     -2514.853 4        29.896
S23        24.000    38318539.598 6 201365233.32206      -849.915 6        39.991
E34        26.000                                                                                                                                    27637722.057 5 108456294.22105      -926.819 5        35.205    27637712.565 5 111285601.18805      -951.033 5        31.525
R18        28.000    24493144.287 4                     -3808.000 4        28.142                                                                    24493148.471 4 101691340.03214     -2961.528 4        25.835
R19        29.000    23838541.650 4                     -1589.311 4        24.015                                                                    23838535.960 5  99182269.09315     -1235.893 5        31.358
R11        30.000    20855219.430 7 111443960.91507     -3898.872 7        45.211                                                                    20855219.764 7  86678873.22307     -3032.407 7        44.473
C10        33.000                                                                                                                                                                                                    39714723.235 5 159914681.34105       304.137 5        31.985
C36        34.000                                                                                                                                    21877676.899 7 113922811.95407       265.666 7        43.769                                                                    21877684.524 7  92571722.73307       215.898 7        47.066
R02        35.000    19562543.468 8 104389413.47608       528.815 8        48.487                                                                    19562543.930 7  81191962.97707       411.266 7        44.402
R03        36.000    23009808.501 4                      3097.649 4        28.445                                                                    23009700.993 6  95800998.59706      2409.466 6        39.709
C45        37.000                                                                                                                                    25144115.289 5 130931845.96105      2272.542 5        35.167                                                                    25144088.507 5 106392841.81305      1846.479 5        33.359
R12        38.000    19534246.015 7 104348342.42207       607.967 7        45.887                                                                    19534247.595 6  81160230.76506       472.801 6        39.946
C40        40.000                                                                                                                                    39580959.102 3                       262.059 3        22.990
R01        44.000    20315200.981 7 108596324.23307     -3408.908 7        42.152                                                                    20315209.562 4  84463855.96404     -2651.609 4        25.158
I02        46.000    38140300.583 5 149670740.72305         2.265 5        34.019
C19        48.000                                                                                                                                    23270373.417 5 121174980.27405     -3208.897 5        35.090                                                                    23270367.039 6  98464486.70006     -2607.753 6        36.571
C22        51.000                                                                                                                                    21955654.867 8 114328860.71308       -88.789 8        50.249                                                                    21955649.109 8  92901524.52108       -72.149 8        48.751
C21        55.000                                                                                                                                    25631095.802 7 133467944.33507      2196.378 7        45.171                                                                    25631091.682 6 108453530.48206      1784.806 6        40.861
> 2025 01 02 07 46 30.0000000  0 33
G13         1.000    20727690.246 6 108924924.52706       967.316 6        40.989                                    20727687.352 4  84876436.91004       753.762 4        25.820
G18         2.000    25137149.770 6 132096692.77206     -1076.595 6        37.002                                    25137145.873 2 102932388.85302      -838.895 2        16.302    25137151.509 6 102932407.91506      -839.154 6        37.909
G20         4.000    22333186.467 6 117361665.11206     -3753.831 6        38.228
G07         5.000    23322315.428 3                     -3406.211 3        23.676                                                                                                    23322317.608 4                     -2654.145 4        26.180
G30         7.000    21006475.401 7 110389727.98107     -2184.545 7        46.704                                    21006474.433 6  86017942.94706     -1702.237 6        40.582    21006474.943 6  86018011.94906     -1702.193 6        39.880
G14         8.000    21177329.986 7 111287505.74407       902.275 7        42.457                                    21177327.066 5  86717606.74305       703.075 5        30.875    21177327.600 7  86717640.74007       702.968 7        43.926
G15         9.000    23103320.008 6 121409517.97216      2589.671 6        37.327                                    23103359.709 1  94604400.71711      2017.830 1         8.952    23103351.759 4                      2017.720 4        28.957
E21        10.000                                                                                                                                    27619984.439 4 108386856.74004     -2517.323 4        25.398
E06        11.000    23389562.223 7 122912973.13507      -774.694 7        47.472                                                                    23389563.195 8  91785702.87708      -578.497 8        48.387    23389563.538 8  94180049.40508      -593.546 8        50.221
E31        13.000    25067993.897 7 131733184.24407      1613.779 7        43.134                                                                    25068006.765 6  98372253.62906      1205.077 6        37.214    25067998.005 6 100938423.00906      1236.409 6        36.696
G05        14.000    21321127.421 7 112043338.74107     -1723.586 7        45.422                                    21321122.486 5  87306462.78905     -1343.055 5        34.114    21321122.544 6  87306420.79906     -1343.166 6        36.888
E04        17.000    24005843.598 6 126151568.12406     -2027.170 6        40.663                                                                    24005844.892 8  94204112.30608     -1513.778 8        49.026    24005843.872 8  96661542.05108     -1553.322 8        49.571
E05        18.000    26465825.725 5 139078838.21605      1750.525 5        31.743                                                                    26465826.363 6 103857573.54306      1307.216 6        37.645    26465862.627 4 106566906.46504      1341.489 4        27.772
E09        21.000    24153125.693 5 126925581.22605       388.455 5        32.180                                                                    24153130.976 7  94782044.39307       290.178 7        45.046    24153129.790 7  97254679.86607       297.716 7        47.558
E36        22.000                                                                                                                                    27747659.858 4 108887767.79004     -2451.314 4        28.341    27747661.011 5                     -2515.875 5        30.928
S23        24.000    38319348.698 6 201369483.42806      -849.860 6        40.040
E34        26.000                                                                                                                                    27638908.247 5 108460933.92405      -928.859 5        35.443    27638896.124 5 111290361.95005      -952.987 5        31.577
R18        28.000    24496716.818 4                     -3810.548 4        27.389                                                                    24496720.452 4 101706154.77304     -2963.470 4        26.623
R19        29.000    23840027.485 3                     -1594.823 3        21.976                                                                    23840015.920 5  99188458.82205     -1239.298 5        33.443
R11        30.000    20858870.936 7 111463461.93307     -3901.251 7        46.154                                                                    20858868.526 7  86694040.63807     -3034.241 7        42.368
C10        33.000                                                                                                                                                                                                    39714346.459 5 159913162.31705       303.610 5        31.841
C36        34.000                                                                                                                                    21877423.029 7 113921490.12407       263.408 7        43.564                                                                    21877430.755 7  92570648.63707       213.875 7        47.784
R02        35.000    19562049.805 8 104386778.57808       525.626 8        48.839                                                                    19562049.651 7  81189913.59807       408.867 7        44.156
R03        36.000                                                                                                                                    23006807.682 6  95788952.77016      2409.161 6        39.390
C45        37.000                                                                                                                                    25141928.328 6 130920486.84206      2271.383 6        36.008                                                                    25141906.282 5 106383611.59505      1845.902 5        33.976
R12        38.000    19533678.057 7 104345313.52207       603.994 7        45.198                                                                    19533680.595 6  81157874.93906       469.749 6        39.814
C40        40.000                                                                                                                                    39580708.906 3                       260.839 3        22.190
R01        44.000    20318390.603 7 108613376.95807     -3411.867 7        42.916                                                                    20318393.201 3                     -2652.728 3        22.819
I02        46.000    38140297.806 5 149670730.54805         2.102 5        33.683
C09        47.000                                                                                                                                    40747358.004 3                     -1518.932 3        18.985
C19        48.000                                                                                                                                    23273456.654 5 121191030.55005     -3210.795 5        34.343                                                                    23273449.891 6  98477528.82306     -2609.164 6        37.853
C22        51.000                                                                                                                                    21955741.438 8 114329311.71108       -91.207 8        51.027                                                                    21955735.770 8  92901890.99408       -74.293 8        48.731
C21        55.000                                                                                                                                    25628987.476 7 133456964.96607      2195.707 7        45.612                                                                    25628983.128 6 108444608.84206      1784.023 6        40.911
> 2025 01 02 07 46 35.0000000  0 34
G13         1.000    20726771.617 6 108920093.60306       965.137 6        39.688                                    20726768.412 4  84872672.55204       752.049 4        25.173
G18         2.000    25138177.223 6 132102084.85506     -1079.805 6        38.592                                    25138172.392 2 102936590.44702      -841.385 2        17.019    25138178.158 6 102936609.51206      -841.499 6        36.771
G20         4.000    22336758.879 5 117380439.18205     -3755.805 5        34.505
G07         5.000                                                                                                                                                                    23325546.410 4                     -2655.737 4        25.519
G30         7.000    21008555.074 7 110400655.91907     -2186.523 7        46.392                                    21008554.314 6  86026458.20806     -1703.782 6        40.319    21008553.497 6  86026527.20106     -1703.889 6        39.489
G14         8.000    21176473.332 7 111283002.54407       899.171 7        42.880                                    21176470.299 5  86714097.74905       700.653 5        30.558    21176470.703 7  86714131.74807       700.642 7        44.181
G15         9.000                                                                                                                                                                    23100886.567 4                      2016.997 4        29.024
E21        10.000                                                                                                                                    27623193.615 4 108399446.06304     -2517.869 4        25.549
E06        11.000    23390300.264 7 122916850.60307      -776.202 7        47.176                                                                    23390301.119 8  91788598.37508      -579.639 8        48.433    23390301.408 8  94183020.44508      -594.809 8        50.338
E31        13.000    25066459.238 7 131725120.68207      1611.951 7        42.955                                                                    25066472.703 5  98366232.16305      1203.609 5        35.614    25066463.659 6 100932244.42206      1235.239 6        37.860
G05        14.000    21322769.263 7 112051966.03207     -1727.245 7        45.898                                    21322764.247 5  87313185.36005     -1345.905 5        34.595    21322764.502 6  87313143.34206     -1345.839 6        36.234
E04        17.000    24007773.786 6 126161708.07506     -2028.756 6        41.159                                                                    24007774.415 8  94211684.34608     -1514.953 8        49.352    24007773.504 8  96669311.62808     -1554.486 8        49.587
E05        18.000    26464161.110 5 139070086.56605      1750.346 5        33.120                                                                    26464161.188 6 103851038.17406      1307.252 6        37.338    26464189.937 4 106560200.49704      1341.024 4        27.449
E09        21.000    24152757.792 5 126923641.89005       387.433 5        32.467                                                                    24152762.016 7  94780596.19207       289.167 7        44.725    24152760.641 7  97253193.89307       296.718 7        47.584
E36        22.000                                                                                                                                    27750785.218 4 108900029.09104     -2452.512 4        29.507    27750784.247 5                     -2516.694 5        31.857
S23        24.000    38320152.454 6 201373733.56906      -850.033 6        39.204
E34        26.000    27640081.056 5 145249597.41915     -1245.823 5        31.253                                                                    27640094.019 5 108465582.80005      -930.944 5        34.724    27640081.607 5 111295132.13805      -955.412 5        31.932
R13        27.000    22491389.536 4                      3154.246 4        27.521
R18        28.000    24500284.328 4                     -3812.734 4        25.098
R19        29.000                                                                                                                                    23841502.064 5  99194664.61205     -1242.862 5        34.609
R11        30.000    20862523.184 7 111482974.93207     -3903.822 7        45.276                                                                    20862520.410 6  86709217.36806     -3036.359 6        39.931
C10        33.000                                                                                                                                                                                                    39713971.076 5 159911645.66105       303.498 5        30.634
C36        34.000                                                                                                                                    21877171.760 7 113920179.46007       260.938 7        43.515                                                                    21877178.985 8  92569583.61008       212.080 8        48.118
R02        35.000    19561559.200 8 104384159.52208       522.274 8        49.260                                                                    19561558.451 7  81187876.57007       406.170 7        43.621
R03        36.000                                                                                                                                    23003914.616 6  95776908.88006      2408.429 6        38.799
C45        37.000                                                                                                                                    25139742.369 6 130909132.05806      2270.287 6        36.412                                                                    25139724.849 5 106374384.94805      1844.877 5        34.238
R12        38.000    19533113.453 7 104342303.68807       600.066 7        44.099                                                                    19533116.746 6  81155533.99006       466.814 6        39.808
C40        40.000                                                                                                                                    39580463.816 3                       258.535 3        22.381
R01        44.000    20321583.256 7 108630444.53607     -3415.114 7        43.060
I02        46.000    38140294.332 5 149670721.06205         1.459 5        33.299
C09        47.000                                                                                                                                    40748825.725 3                     -1523.961 3        19.642
C19        48.000                                                                                                                                    23276542.632 5 121207090.03605     -3212.705 5        35.738                                                                    23276534.382 6  98490578.51306     -2610.767 6        38.766
C22        51.000                                                                                                                                    21955830.113 8 114329774.86108       -93.915 8        51.727                                                                    21955824.702 8  92902267.34108       -76.260 8        48.572
C21        55.000                                                                                                                                    25626880.328 7 133445989.32907      2194.684 7        45.938                                                                    25626875.393 6 108435690.22506      1783.377 6        40.753
> 2025 01 02 07 46 40.0000000  0 33
G13         1.000    20725854.418 6 108915271.35906       963.504 6        39.946                                    20725851.058 4  84868914.95104       750.784 4        24.797
G18         2.000    25139205.706 6 132107491.66506     -1082.849 6        38.625                                    25139201.630 2 102940803.52902      -843.771 2        16.981    25139206.963 5 102940822.64505      -843.995 5        34.505
G20         4.000    22340330.432 5 117399222.44405     -3757.870 5        31.328
G07         5.000    23328793.476 4                     -3407.173 4        29.460                                                                                                    23328791.512 3                     -2654.577 3        23.943
G30         7.000    21010635.897 7 110411592.08207     -2188.135 7        46.787                                    21010635.730 6  86034979.87906     -1705.038 6        40.305    21010634.842 6  86035048.88406     -1704.963 6        39.117
G14         8.000    21175619.294 7 111278512.62307       896.597 7        43.026                                    21175616.036 5  86710599.11005       698.647 5        30.226    21175616.259 7  86710633.10207       698.622 7        43.943
G15         9.000    23098427.422 6 121383632.25106      2587.563 6        41.180                                    23098430.658 3  94584229.95003      2016.283 3        18.567    23098424.460 4                      2016.252 4        28.313
E21        10.000                                                                                                                                    27626402.947 4 108412039.35804     -2518.578 4        25.323
E06        11.000    23391039.364 7 122920734.35107      -777.446 7        46.898                                                                    23391040.348 8  91791498.57008      -580.568 8        48.855    23391040.429 8  94185996.29008      -595.740 8        50.327
E31        13.000    25064926.108 7 131717064.11707      1610.606 7        42.999                                                                    25064939.926 5  98360215.88705      1202.756 5        34.800    25064930.851 6 100926071.21506      1233.902 6        38.694
G05        14.000    21324414.215 7 112060610.14707     -1730.583 7        47.240                                    21324409.692 5  87319921.03805     -1348.506 5        35.824    21324410.703 6  87319879.01806     -1348.606 6        37.036
E04        17.000    24009704.696 6 126171853.86906     -2029.726 6        41.797                                                                    24009705.065 8  94219260.75608     -1515.733 8        49.548    24009704.364 8  96677085.68108     -1555.319 8        49.551
E05        18.000    26462495.688 5 139061334.19205      1750.653 5        33.186                                                                    26462495.403 6 103844502.32006      1307.012 6        37.278    26462515.586 4 106553494.08504      1341.492 4        28.246
E09        21.000    24152390.435 5 126921707.36105       386.402 5        34.105                                                                    24152394.058 7  94779151.56707       288.537 7        44.688    24152392.498 7  97251711.58907       296.034 7        47.517
E36        22.000                                                                                                                                    27753909.912 5 108912294.31805     -2453.738 5        30.649    27753908.704 5                     -2517.461 5        31.525
S23        24.000    38320960.932 6 201377983.29506      -849.925 6        38.399
E34        26.000    27641267.576 5 145255834.61705     -1248.857 5        33.431                                                                    27641281.622 5 108470240.47405      -932.350 5        35.152    27641269.319 5 111299911.34905      -956.938 5        32.880
R13        27.000    22488432.318 4                      3153.144 4        25.925
R19        29.000                                                                                                                                    23842999.680 6  99200886.15506     -1246.026 6        36.170
R11        30.000    20866175.612 7 111502499.32707     -3906.166 7        43.448                                                                    20866173.922 6  86724402.99906     -3037.988 6        38.778
C10        33.000                                                                                                                                                                                                    39713599.355 4 159910130.97404       302.440 4        29.962
C36        34.000                                                                                                                                    21876921.416 7 113918879.43807       258.855 7        42.690                                                                    21876929.238 8  92568527.21108       210.274 8        48.273
R02        35.000    19561070.995 8 104381555.96108       519.040 8        49.028                                                                    19561070.881 7  81185851.55807       403.770 7        43.888
R03        36.000                                                                                                                                    23001021.997 6  95764866.27406      2408.250 6        38.039
C45        37.000                                                                                                                                    25137558.861 6 130897781.08306      2269.740 6        37.093                                                                    25137543.878 5 106365161.35805      1844.191 5        33.635
R12        38.000    19532553.418 7 104339312.32507       596.365 7        43.659                                                                    19532557.150 6  81153207.39806       463.704 6        40.079
C40        40.000                                                                                                                                    39580214.496 3                       257.849 3        21.976
R01        44.000    20324778.537 7 108647526.43407     -3417.948 7        43.016                                                                    20324771.666 4                     -2658.191 4        24.662
I02        46.000    38140291.931 5 149670712.31805         1.498 5        33.581
C09        47.000                                                                                                                                    40750290.771 3                     -1525.877 3        19.582
C19        48.000                                                                                                                                    23279630.708 6 121223158.31406     -3214.789 6        37.611                                                                    23279620.151 6  98503635.32306     -2612.353 6        39.114
C22        51.000                                                                                                                                    21955921.449 8 114330249.62508       -96.197 8        52.087                                                                    21955915.844 8  92902653.12708       -78.312 8        48.292
C21        55.000                                                                                                                                    25624773.538 7 133435016.90107      2194.133 7        46.091                                                                    25624768.255 6 108426774.22406      1782.764 6        40.648
> 2025 01 02 07 46 45.0000000  0 33
G13         1.000    20724939.663 6 108910458.09606       961.505 6        40.763                                    20724935.368 4  84865164.35604       749.221 4        25.068
G18         2.000    25140237.303 6 132112913.50606     -1085.918 6        39.586                                    25140233.618 2 102945028.34502      -846.182 2        16.717    25140234.960 5 102945047.46505      -846.612 5        30.838
G20         4.000    22343901.135 5 117418015.28605     -3759.625 5        33.263
G07         5.000    23332040.804 5                     -3407.745 5        33.389                                                                                                    23332038.656 4                     -2655.779 4        24.105
G30         7.000    21012718.400 7 110422536.77407     -2190.014 7        47.432                                    21012718.692 6  86043508.19306     -1706.506 6        40.429    21012717.404 6  86043577.19806     -1706.422 6        38.426
G14         8.000    21174767.355 7 111274036.33607       893.680 7        42.641                                    21174764.321 4  86707111.09504       696.372 4        29.697    21174764.446 7  86707145.09507       696.338 7        43.683
G15         9.000    23095965.820 7 121370696.10707      2586.490 7        42.036                                    23095968.144 3  94574149.77803      2015.440 3        19.284    23095957.546 4                      2014.882 4        25.173
E21        10.000                                                                                                                                    27629612.444 4 108424637.07404     -2519.829 4        26.479
E06        11.000    23391779.889 7 122924624.70107      -778.944 7        46.570                                                                    23391780.773 8  91794403.69508      -581.725 8        48.997    23391780.810 8  94188977.19908      -596.890 8        50.218
E31        13.000    25063394.472 7 131709014.89207      1608.856 7        42.675                                                                    25063408.777 5  98354205.11005      1201.203 5        33.281    25063399.867 6 100919903.61306      1232.798 6        39.069
G05        14.000    21326062.674 7 112069271.34007     -1734.192 7        47.712                                    21326058.643 6  87326670.01506     -1351.318 6        37.138    21326060.762 6  87326627.98106     -1351.241 6        38.081
E04        17.000    24011636.845 7 126182005.82807     -2031.275 7        42.246                                                                    24011636.747 8  94226841.75708     -1516.786 8        49.692    24011636.364 8  96684864.44408     -1556.356 8        49.488
E05        18.000    26460827.061 5 139052581.47605      1750.173 5        30.808                                                                    26460829.656 6 103837966.20606      1306.942 6        36.783    26460848.748 4 106546787.41804      1341.071 4        26.491
E09        21.000    24152023.335 5 126919777.92205       385.210 5        35.200                                                                    24152026.997 7  94777710.75207       287.607 7        44.412    24152025.268 7  97250233.19007       295.053 7        47.181
E36        22.000                                                                                                                                    27757036.388 5 108924563.71205     -2454.369 5        31.728    27757034.640 5                     -2518.337 5        31.479
S23        24.000    38321765.722 6 201382232.54806      -850.131 6        38.132
E34        26.000    27642456.223 5 145262084.02405     -1251.350 5        35.057                                                                    27642472.682 5 108474907.20705      -934.663 5        35.157    27642458.587 5 111304699.79005      -959.017 5        32.707
R18        28.000    24507412.335 4                     -3817.334 4        29.081
R19        29.000                                                                                                                                    23844504.794 6  99207123.82206     -1249.276 6        37.077
R11        30.000    20869831.357 6 111522035.50806     -3908.631 6        40.625                                                                    20869829.867 6  86739597.84706     -3040.031 6        40.155
C10        33.000                                                                                                                                                                                                    39713227.617 4 159908618.54604       301.575 4        29.858
C36        34.000                                                                                                                                    21876673.801 6 113917590.36906       256.394 6        41.695                                                                    21876681.504 8  92567479.69608       208.645 8        48.033
R02        35.000    19560585.725 8 104378967.95208       515.777 8        48.925                                                                    19560586.188 7  81183838.66907       401.193 7        44.283
R03        36.000                                                                                                                                    22998129.351 5  95752825.57105      2407.751 5        35.471
C45        37.000                                                                                                                                    25135380.668 6 130886434.26706      2268.900 6        38.360                                                                    25135363.665 5 106355941.12005      1843.867 5        33.581
R12        38.000    19531997.535 7 104336339.81407       592.399 7        43.799                                                                    19532002.345 6  81150895.42906       460.812 6        41.037
C40        40.000                                                                                                                                    39579965.847 3                       254.634 3        21.286
R01        44.000    20327976.833 7 108664623.01717     -3421.073 7        42.461                                                                    20327981.303 4                     -2660.545 4        28.322
I02        46.000    38140289.628 5 149670704.38905         1.209 5        34.271
C09        47.000                                                                                                                                    40751763.210 3                     -1524.987 3        20.762
C19        48.000                                                                                                                                    23282717.352 6 121239235.62306     -3216.602 6        38.694                                                                    23282707.475 6  98516699.45806     -2613.484 6        39.219
C22        51.000                                                                                                                                    21956015.006 8 114330736.32408       -98.782 8        52.252                                                                    21956009.294 7  92903048.59107       -80.059 7        47.965
C21        55.000                                                                                                                                    25622667.417 7 133424047.99907      2193.152 7        46.108                                                                    25622661.946 6 108417861.05906      1782.383 6        40.551
> 2025 01 02 07 46 50.0000000  0 34
G13         1.000    20724024.813 6 108905654.05206       960.006 6        41.051                                    20724021.387 4  84861420.94204       748.058 4        25.308
G18         2.000    25141272.097 6 132118350.62106     -1088.877 6        40.386                                    25141268.307 2 102949265.05202      -848.466 2        16.000    25141263.160 4 102949284.13104      -849.385 4        25.714
G20         4.000    22347479.014 6 117436817.94206     -3761.430 6        37.043
G07         5.000    23335288.749 5 122627757.40015     -3408.255 5        35.286                                                                                                    23335283.167 3                     -2655.504 3        22.914
G30         7.000    21014802.709 7 110433490.25107     -2191.517 7        47.683                                    21014803.273 6  86052043.36006     -1707.676 6        40.625    21014802.117 6  86052112.37706     -1707.790 6        38.694
G14         8.000    21173917.679 7 111269573.91807       891.084 7        42.694                                    21173915.219 4  86703633.88704       694.352 4        29.109    21173915.404 7  86703667.87707       694.495 7        43.907
G15         9.000    23093500.137 6 121357764.74006      2585.867 6        41.125                                    23093506.377 3  94564073.31903      2014.988 3        18.806    23093494.595 3                      2014.797 3        22.552
E21        10.000                                                                                                                                    27632824.676 4 108437239.18004     -2520.326 4        26.228
E06        11.000    23392521.622 7 122928521.89007      -780.077 7        46.533                                                                    23392522.487 8  91797313.92408      -582.548 8        49.197    23392522.431 8  94191963.34708      -597.721 8        50.224
E31        13.000    25061864.050 7 131700973.23507      1607.669 7        42.148                                                                    25061878.588 5  98348199.95305      1200.780 5        30.566    25061869.699 6 100913741.83506      1231.800 6        39.357
G05        14.000    21327713.681 7 112077949.86407     -1737.276 7        47.427                                    21327710.935 6  87333432.49206     -1353.718 6        38.267    21327712.640 6  87333390.45806     -1353.676 6        38.447
E04        17.000    24013569.917 7 126192164.18407     -2032.271 7        42.296                                                                    24013569.839 8  94234427.54708     -1517.577 8        49.807    24013569.556 8  96692648.11908     -1557.141 8        49.504
E05        18.000    26459158.414 4 139043828.62904      1751.439 4        28.531                                                                    26459163.829 6 103831429.99706      1307.290 6        36.775    26459185.223 4 106540080.63304      1341.574 4        26.048
E09        21.000    24151656.406 6 126917853.88406       384.383 6        36.091                                                                    24151660.860 7  94776273.92807       287.072 7        44.360    24151659.017 7  97248758.89107       294.528 7        46.965
E36        22.000                                                                                                                                    27760164.137 5 108936837.52305     -2454.967 5        32.425    27760161.901 5                     -2519.369 5        30.574
S23        24.000    38322577.880 6 201386481.65106      -849.775 6        38.342
E34        26.000    27643649.028 5 145268345.69205     -1253.095 5        35.733                                                                    27643665.054 5 108479583.13005      -936.029 5        34.700    27643649.210 5 111309497.62105      -960.192 5        32.593
R13        27.000    22482502.432 4                      3149.677 4        28.009
R18        28.000    24510989.589 4                     -3819.400 4        28.512                                                                    24511023.099 3                     -2970.289 3        23.505
R19        29.000    23846030.084 3                     -1609.193 3        23.410                                                                    23846012.890 6  99213377.67406     -1252.491 6        37.274
R11        30.000    20873490.800 6 111541583.51506     -3910.560 6        36.045                                                                    20873488.039 6  86754801.93106     -3041.695 6        41.242
C10        33.000                                                                                                                                                                                                    39712853.330 4 159907108.45804       302.235 4        29.100
C36        34.000                                                                                                                                    21876429.238 6 113916312.45706       254.558 6        40.911                                                                    21876435.823 7  92566441.27907       206.842 7        47.663
R02        35.000    19560103.507 8 104376395.98408       512.911 8        48.560                                                                    19560104.362 7  81181838.24107       398.967 7        45.195
R03        36.000    22995241.139 6 123095801.37816      3095.688 6        39.733                                                                    22995238.842 5  95740786.60205      2407.538 5        32.533
C45        37.000                                                                                                                                    25133205.109 6 130875091.84506      2268.237 6        39.411                                                                    25133184.615 5 106346724.45805      1843.144 5        33.754
R12        38.000    19531446.295 7 104333386.41607       588.920 7        44.289                                                                    19531449.361 7  81148598.34407       458.089 7        42.559
C40        40.000                                                                                                                                    39579723.060 3                       254.210 3        19.373
R01        44.000    20331176.669 6 108681734.40616     -3423.714 6        41.845                                                                    20331181.710 4                     -2662.958 4        29.156
I02        46.000    38140287.839 5 149670697.43905         1.387 5        33.976
C09        47.000                                                                                                                                    40753231.342 3                     -1515.485 3        20.476
C19        48.000                                                                                                                                    23285806.237 6 121255322.31206     -3218.292 6        37.225                                                                    23285796.535 6  98529771.16306     -2615.074 6        38.598
C22        51.000                                                                                                                                    21956110.621 8 114331235.21408      -100.915 8        52.047                                                                    21956105.055 7  92903453.96707       -81.916 7        47.692
C21        55.000                                                                                                                                    25620561.597 7 133413082.85707      2192.809 7        45.571                                                                    25620556.271 6 108408950.97906      1781.769 6        40.343
> 2025 01 02 07 46 55.0000000  0 33
G13         1.000    20723112.607 6 108900859.50306       957.854 6        41.895                                    20723109.247 4  84857684.93204       746.393 4        25.699
G18         2.000    25142309.594 6 132123803.27906     -1092.259 6        39.814                                    25142305.947 2 102953513.89402      -851.125 2        14.143
G20         4.000    22351061.674 6 117455630.56406     -3763.571 6        40.033                                    22351044.268 2                     -2932.584 2        12.970
G07         5.000    23338529.920 6 122644800.96106     -3409.360 6        36.389                                    23338526.238 1  95567360.32511     -2656.615 1         6.875    23338523.681 3                     -2657.281 3        21.357
G30         7.000    21016888.371 8 110444452.75608     -2193.593 8        48.470                                    21016889.526 6  86060585.56906     -1709.291 6        40.892    21016889.255 6  86060654.57706     -1709.285 6        39.622
G14         8.000    21173071.392 7 111265125.64107       888.080 7        43.388                                    21173068.798 4  86700167.69604       692.014 4        28.464    21173068.822 7  86700201.69207       692.091 7        44.072
G15         9.000    23091037.311 6 121344838.46306      2584.552 6        38.384                                    23091045.375 3  94554000.84203      2013.948 3        18.478    23091036.123 4                      2013.314 4        25.158
E21        10.000                                                                                                                                    27636038.086 4 108449845.96104     -2522.104 4        26.491
E06        11.000    23393264.796 7 122932426.18507      -781.731 7        46.551                                                                    23393265.540 8  91800229.46108      -583.757 8        49.267    23393265.373 8  94194954.94408      -599.009 8        50.367
E31        13.000    25060334.913 6 131692939.41706      1605.910 6        41.645                                                                    25060351.748 4  98342200.62104      1199.182 4        28.085    25060340.846 6 100907586.03606      1230.572 6        39.435
G05        14.000    21329368.279 7 112086645.91607     -1741.159 7        47.926                                    21329366.522 6  87340208.62606     -1356.743 6        38.883    21329366.666 6  87340166.59506     -1356.685 6        39.093
E04        17.000    24015504.124 7 126202329.21307     -2033.872 7        42.622                                                                    24015504.168 8  94242018.31708     -1518.754 8        50.026    24015504.029 8  96700436.91108     -1558.365 8        49.783
E05        18.000    26457488.185 4 139035076.03204      1750.427 4        26.168                                                                    26457498.329 6 103824893.88906      1307.052 6        36.423    26457524.715 4 106533373.94504      1341.617 4        28.730
E09        21.000    24151290.895 6 126915935.41406       383.053 6        36.405                                                                    24151295.783 7  94774841.29807       285.978 7        44.084    24151293.810 7  97247288.88907       293.457 7        46.778
E36        22.000                                                                                                                                    27763293.473 5 108949115.89405     -2456.200 5        33.066    27763289.618 5                     -2520.135 5        30.694
S23        24.000    38323388.299 6 201390730.93506      -850.010 6        38.628
E34        26.000    27644841.973 5 145274619.96105     -1256.185 5        34.419                                                                    27644859.658 5 108484268.48905      -938.418 5        34.800    27644842.737 5 111314305.17305      -963.070 5        32.611
R13        27.000    22479564.039 4                      3147.524 4        28.749
R18        28.000    24514567.048 4                     -3822.604 4        27.808
R19        29.000    23847538.134 4                     -1614.077 4        24.226                                                                    23847524.714 6  99219647.90906     -1255.860 6        38.066
R11        30.000    20877146.919 6 111561143.90306     -3913.668 6        36.344                                                                    20877148.215 7  86770015.52707     -3043.760 7        42.624
C10        33.000                                                                                                                                                                                                    39712478.030 4 159905600.98104       301.344 4        28.417
C36        34.000                                                                                                                                    21876186.228 6 113915045.99906       251.834 6        41.814                                                                    21876192.431 7  92565412.12107       204.896 7        47.377
R02        35.000    19559623.963 8 104373840.11008       509.342 8        48.148                                                                    19559625.548 7  81179850.35307       396.148 7        45.335
R03        36.000    22992359.423 5 123080325.83105      3094.665 5        35.971                                                                    22992347.830 5  95728750.04105      2406.693 5        30.400
C45        37.000                                                                                                                                    25131028.414 6 130863754.05906      2266.970 6        40.076                                                                    25131007.146 5 106337511.58005      1841.804 5        33.808
R12        38.000    19530897.387 7 104330452.35607       584.711 7        43.890                                                                    19530900.622 7  81146316.29407       454.808 7        42.944
R01        44.000    20334380.941 7                     -3426.919 7        42.116                                                                    20334383.804 4                     -2665.255 4        28.540
I02        46.000    38140286.766 5 149670691.63605         1.053 5        34.514
C09        47.000                                                                                                                                    40754701.003 3                     -1522.061 3        19.940
C19        48.000                                                                                                                                    23288895.785 5 121271418.56205     -3220.179 5        34.876                                                                    23288887.418 6  98542850.62106     -2616.797 6        37.970
C22        51.000                                                                                                                                    21956208.593 8 114331746.54408      -103.673 8        51.983                                                                    21956203.072 7  92903869.42907       -84.107 7        47.560
C21        55.000                                                                                                                                    25618456.769 7 133402121.76407      2191.644 7        45.123                                                                    25618451.494 6 108400044.14306      1780.851 6        40.539
> 2025 01 02 07 47  0.0000000  0 33
G13         1.000    20722203.582 7 108896074.66707       955.965 7        43.166                                    20722198.959 4  84853956.47804       744.907 4        25.865
G18         2.000    25143349.570 6 132129271.62606     -1095.121 6        39.399                                    25143346.283 2 102957774.95302      -853.330 2        13.818    25143336.392 3                      -853.553 3        22.514
G20         4.000    22354643.621 6 117474453.39506     -3765.620 6        40.622                                    22354628.519 2  91538457.19412     -2934.204 2        13.273
G07         5.000    23341770.876 6 122661848.20006     -3409.775 6        36.828                                    23341771.787 1  95580643.75501     -2656.993 1         5.143    23341772.529 3                     -2656.162 3        21.238
G30         7.000    21018976.452 8 110455424.47308     -2195.246 8        48.986                                    21018977.510 6  86069134.95506     -1710.581 6        41.485    21018977.430 6  86069203.94806     -1710.650 6        40.126
G14         8.000    21172226.827 7 111260691.70807       885.350 7        43.253                                    21172225.137 4  86696712.67404       689.888 4        28.028    21172224.761 7  86696746.66107       689.915 7        43.884
G15         9.000    23088579.854 5 121331917.45205      2583.679 5        35.767                                    23088585.741 3  94543932.48603      2013.271 3        18.358    23088580.979 4                      2013.422 4        27.473
E21        10.000                                                                                                                                    27639251.536 4 108462457.42104     -2523.161 4        25.579
E06        11.000    23394009.128 7 122936337.76607      -783.011 7        46.936                                                                    23394009.998 8  91803150.44508      -584.716 8        49.405    23394009.715 8  94197952.12108      -599.981 8        50.198
E31        13.000    25058807.163 6 131684913.61806      1604.564 6        41.828                                                                    25058830.118 4  98336207.13304      1198.388 4        27.629    25058812.938 6 100901436.39806      1229.350 6        38.982
G05        14.000    21331026.389 7 112095359.73707     -1744.545 7        47.951                                    21331025.310 6  87346998.60006     -1359.379 6        39.405    21331025.778 6  87346956.56606     -1359.253 6        39.826
E04        17.000    24017439.785 7 126212501.06907     -2035.020 7        43.014                                                                    24017439.786 8  94249614.18808     -1519.680 8        50.130    24017439.789 8  96708230.93608     -1559.347 8        49.797
E05        18.000    26455820.027 4 139026323.68004      1750.917 4        26.216                                                                    26455832.649 6 103818358.06006      1307.170 6        36.219    26455861.315 5 106526667.54605      1341.322 5        31.147
E09        21.000    24150928.438 6 126914022.71506       381.954 6        37.637                                                                    24150931.738 7  94773412.99907       285.233 7        43.922    24150929.834 7  97245823.33407       292.746 7        46.532
E36        22.000    27766445.762 5 145913666.11915     -3290.260 5        31.743                                                                    27766424.287 5 108961398.91505     -2457.121 5        33.234    27766419.628 4                     -2521.262 4        29.649
S23        24.000    38324198.450 6 201394980.72606      -850.019 6        39.210
E34        26.000    27646037.278 5 145280906.99805     -1258.601 5        34.324                                                                    27646056.484 5 108488963.36305      -940.068 5        34.795    27646038.674 5 111319122.47905      -964.483 5        32.665
R13        27.000    22476615.679 4                      3145.709 4        29.137
R18        28.000    24518145.370 4                     -3825.320 4        25.068
R19        29.000                                                                                                                                    23849038.956 5  99225934.68005     -1258.875 5        35.243
R11        30.000    20880811.003 6 111580716.66606     -3915.936 6        39.072                                                                    20880810.638 7  86785238.80507     -3045.612 7        44.190
C10        33.000                                                                                                                                                                                                    39712099.637 4 159904096.23904       300.812 4        28.607
C36        34.000                                                                                                                                    21875944.610 7 113913791.10207       249.823 7        43.365                                                                    21875951.392 7  92564392.46307       202.953 7        46.937
R02        35.000    19559148.202 8 104371300.78908       506.268 8        48.389                                                                    19559149.488 7  81177875.32207       393.735 7        45.806
R03        36.000    22989471.602 4 123064853.03504      3094.652 4        29.896                                                                    22989459.002 5  95716715.52405      2406.652 5        31.502
C45        37.000                                                                                                                                    25128850.567 6 130852421.11206      2266.023 6        40.477                                                                    25128831.253 5 106328302.63705      1841.397 5        34.686
R12        38.000    19530352.246 7 104327537.86907       581.025 7        44.537                                                                    19530354.184 7  81144049.45407       451.874 7        43.206
R01        44.000    20337587.975 7 108716002.47617     -3429.937 7        42.267                                                                    20337589.416 4                     -2667.790 4        27.605
I02        46.000    38140286.082 5 149670687.27505         0.770 5        34.762
C09        47.000                                                                                                                                    40756170.691 3                     -1519.993 3        18.687
C19        48.000                                                                                                                                    23291988.200 5 121287524.54005     -3222.154 5        35.586                                                                    23291980.325 6  98555938.02006     -2618.170 6        36.480
C22        51.000                                                                                                                                    21956309.078 8 114332270.50108      -106.011 8        52.081                                                                    21956303.602 7  92904295.21207       -86.151 7        47.486
C21        55.000                                                                                                                                    25616352.536 7 133391164.89507      2190.980 7        44.770                                                                    25616347.586 6 108391140.80506      1780.209 6        40.789
> 2025 01 02 07 47  5.0000000  0 33
G13         1.000    20721294.564 7 108891299.06007       954.342 7        44.382                                    20721290.312 4  84850235.22204       743.642 4        25.504
G18         2.000    25144392.986 6 132134755.28206     -1098.015 6        39.105                                    25144389.634 2 102962047.91102      -855.598 2        12.970
G20         4.000    22358226.190 6 117493285.94906     -3767.326 6        40.265                                    22358215.659 2  91553131.89502     -2935.607 2        13.939
G07         5.000    23345008.628 6 122678898.72606     -3410.335 6        36.510                                    23345017.232 1  95593930.05001     -2657.350 1         6.500    23345014.894 3                     -2659.677 3        19.045
G30         7.000    21021065.644 8 110466404.98308     -2196.795 8        49.596                                    21021067.153 6  86077691.19306     -1711.790 6        41.840    21021067.369 6  86077760.18206     -1711.733 6        39.916
G14         8.000    21171384.652 7 111256271.68107       882.792 7        42.707                                    21171384.052 4  86693268.49504       687.891 4        27.425    21171383.307 7  86693302.47007       687.991 7        43.589
G15         9.000    23086121.445 5 121319001.32905      2582.905 5        35.400                                    23086127.105 3  94533867.91303      2012.671 3        18.597    23086126.684 4                      2012.505 4        29.071
E21        10.000                                                                                                                                    27642467.180 4 108475073.41604     -2523.426 4        25.564
E06        11.000    23394754.918 7 122940256.22107      -784.266 7        47.102                                                                    23394755.671 8  91806076.55808      -585.608 8        49.104    23394755.279 8  94200954.57308      -600.891 8        50.069
E31        13.000    25057281.073 7 131676895.43107      1602.971 7        42.334                                                                    25057304.871 5  98330219.46405      1197.167 5        30.045    25057286.172 6 100895292.58206      1228.281 6        38.120
G05        14.000    21332687.944 8 112104090.88408     -1747.770 8        48.269                                    21332687.283 6  87353802.07906     -1361.895 6        39.541    21332687.406 6  87353760.03806     -1361.943 6        39.489
E04        17.000    24019376.321 7 126222679.38807     -2036.165 7        43.780                                                                    24019376.816 8  94257214.86908     -1520.458 8        50.172    24019376.613 8  96716029.89308     -1560.158 8        49.768
E05        18.000    26454160.574 4 139017571.29304      1750.337 4        25.865                                                                    26454166.754 5 103811822.14105      1307.701 5        35.481    26454195.772 5 106519961.13305      1341.357 5        32.683
E09        21.000    24150565.955 6 126912115.44406       381.130 6        38.222                                                                    24150568.773 7  94771988.73407       284.598 7        43.659    24150566.938 7  97244361.91307       291.988 7        46.126
E36        22.000    27769578.388 5 145930120.58705     -3291.212 5        30.030                                                                    27769555.737 5 108973686.30905     -2457.848 5        32.970    27769550.954 4                     -2521.893 4        28.919
S23        24.000    38325010.510 6 201399230.57806      -849.703 6        39.474
E34        26.000    27647236.255 5 145287206.37605     -1261.121 5        32.587                                                                    27647255.544 5 108493667.43005      -941.574 5        34.971    27647237.504 5 111323949.23805      -966.331 5        32.234
R13        27.000    22473671.353 4                      3144.388 4        28.882
R18        28.000    24521732.479 5                     -3826.670 5        30.747                                                                    24521730.305 4                     -2976.864 4        27.257
R19        29.000                                                                                                                                    23850550.001 5  99232237.66505     -1262.138 5        34.957
R11        30.000    20884475.669 6 111600301.44406     -3917.890 6        40.553                                                                    20884476.007 7  86800471.39407     -3047.297 7        45.673
C10        33.000                                                                                                                                                                                                    39711721.119 4 159902594.02604       300.403 4        28.957
C36        34.000                                                                                                                                    21875705.464 7 113912547.42607       247.780 7        44.892                                                                    21875712.403 7  92563381.86607       201.310 7        46.381
R02        35.000    19558675.010 7 104368777.43507       503.235 7        47.414                                                                    19558677.031 7  81175912.69807       391.406 7        46.190
R03        36.000    22986564.270 5 123049382.76305      3094.014 5        30.740                                                                    22986568.961 5  95704683.06605      2406.327 5        33.617
C45        37.000                                                                                                                                    25126672.059 6 130841092.57006      2265.418 6        40.691                                                                    25126656.942 5 106319097.26705      1841.046 5        35.176
R12        38.000    19529811.677 7 104324642.43207       577.336 7        45.690                                                                    19529811.058 7  81141797.43407       449.066 7        43.079
R01        44.000    20340797.212 7 108733159.13707     -3432.610 7        42.527                                                                    20340797.103 4                     -2669.547 4        27.353
I02        46.000    38140286.301 5 149670683.98305         0.533 5        34.767
C09        47.000                                                                                                                                    40757598.731 3                     -1521.204 3        18.627
C19        48.000                                                                                                                                    23295081.532 6 121303639.76006     -3223.870 6        36.703                                                                    23295075.192 5  98569032.94805     -2619.504 5        35.057
C22        51.000                                                                                                                                    21956411.948 8 114332806.67408      -108.285 8        52.209                                                                    21956406.465 7  92904730.87807       -88.038 7        47.016
C21        55.000                                                                                                                                    25614248.852 7 133380211.83707      2190.369 7        44.536                                                                    25614244.273 6 108382240.51006      1779.895 6        41.058
> 2025 01 02 07 47 10.0000000  0 32
G13         1.000    20720387.251 7 108886532.87207       952.334 7        44.486                                    20720383.507 4  84846521.31204       742.072 4        25.098
G18         2.000    25145439.621 6 132140254.41806     -1101.448 6        38.330                                    25145435.935 2 102966333.00302      -858.278 2        13.151
G20         4.000    22361810.261 6 117512128.46206     -3769.339 6        38.787                                    22361803.873 2  91567814.34702     -2937.128 2        14.857
G07         5.000    23348250.995 6 122695952.64606     -3411.088 6        36.904                                    23348263.013 1  95607218.83501     -2657.985 1         8.190
G30         7.000    21023156.825 8 110477394.46608     -2198.777 8        50.281                                    21023158.535 7  86086254.41707     -1713.333 7        42.555    21023158.127 6  86086323.39806     -1713.312 6        38.937
G14         8.000    21170545.735 6 111251865.76606       879.854 6        41.838                                    21170545.560 4  86689835.31204       685.604 4        27.281    21170545.058 7  86689869.29307       685.591 7        43.325
G15         9.000    23083666.354 6 121306090.27206      2581.686 6        37.637                                    23083669.787 3  94523807.28803      2011.714 3        19.940    23083674.348 5                      2011.788 5        31.177
E21        10.000                                                                                                                                    27645684.073 4 108487694.00804     -2524.052 4        26.012
E06        11.000    23395501.640 7 122944181.75807      -785.797 7        47.433                                                                    23395502.648 8  91809007.95708      -586.775 8        48.939    23395502.162 8  94203962.44608      -602.127 8        50.018
E31        13.000    25055756.915 7 131668885.06707      1601.352 7        42.777                                                                    25055778.963 5  98324237.73205      1195.379 5        31.328    25055760.685 6 100889154.76706      1227.037 6        37.474
G05        14.000    21334352.966 8 112112839.52308     -1751.454 8        48.972                                    21334352.479 6  87360619.18706     -1364.765 6        40.024    21334351.938 6  87360577.15606     -1364.684 6        39.862
E04        17.000    24021314.494 7 126232864.32107     -2037.617 7        44.263                                                                    24021314.995 8  94264820.49808     -1521.541 8        50.319    24021314.754 8  96723833.92408     -1561.263 8        49.937
E05        18.000    26452494.870 4 139008818.99004      1750.270 4        26.862                                                                    26452500.749 5 103805286.35005      1307.076 5        35.162    26452529.765 5 106513254.81705      1341.206 5        33.713
E09        21.000    24150203.713 6 126910213.76806       379.680 6        38.477                                                                    24150207.043 7  94770568.63107       283.643 7        43.060    24150205.070 7  97242904.76707       291.014 7        45.725
E36        22.000                                                                                                                                    27772688.469 5 108985978.19805     -2458.877 5        32.802    27772683.200 4                     -2522.841 4        28.360
S23        24.000    38325820.267 6 201403480.47306      -849.873 6        39.718
E34        26.000    27648437.958 5 145293518.19705     -1263.144 5        30.098                                                                    27648456.878 5 108498380.88305      -943.631 5        35.000    27648438.570 5 111328785.59805      -967.812 5        32.958
R13        27.000    22470726.275 4                      3142.944 4        29.668
R18        28.000    24525318.563 5                     -3828.886 5        31.223
R19        29.000                                                                                                                                    23852067.021 5  99238557.03305     -1265.460 5        34.029
R11        30.000    20888142.158 6 111619898.24606     -3920.482 6        41.583                                                                    20888143.484 7  86815713.32807     -3049.317 7        46.216
C10        33.000                                                                                                                                                                                                    39711350.207 4 159901094.26304       299.401 4        29.829
C36        34.000                                                                                                                                    21875469.715 7 113911315.15807       245.332 7        45.901                                                                    21875475.800 7  92562380.56907       199.439 7        46.055
R02        35.000    19558204.145 7 104366270.38507       499.817 7        46.236                                                                    19558207.396 7  81173962.75207       388.755 7        46.727
R03        36.000    22983684.161 6 123033915.23306      3093.205 6        38.192                                                                    22983679.524 5  95692652.78205      2406.131 5        34.052
C45        37.000                                                                                                                                    25124495.586 6 130829768.64506      2264.462 6        40.772                                                                    25124482.547 5 106309895.71205      1840.035 5        35.214
R12        38.000    19529273.133 7 104321766.40907       573.332 7        47.112                                                                    19529271.591 6  81139560.49106       445.994 6        41.464
R01        44.000    20344010.272 6 108750330.77116     -3435.804 6        41.859                                                                    20344011.234 4                     -2672.316 4        26.120
I02        46.000    38140285.639 5 149670681.95705         0.380 5        35.919
C19        48.000                                                                                                                                    23298178.108 6 121319764.45006     -3225.785 6        38.462                                                                    23298172.188 5  98582135.62805     -2621.379 5        33.497
C22        51.000                                                                                                                                    21956517.116 8 114333355.26508      -110.928 8        52.288                                                                    21956511.592 7  92905176.66707       -90.082 7        46.785
C21        55.000                                                                                                                                    25612146.390 7 133369262.79207      2189.444 7        44.766                                                                    25612141.907 6 108373343.52706      1779.245 6        41.364
> 2025 01 02 07 47 15.0000000  0 33
G13         1.000    20719481.628 7 108881775.83407       950.516 7        44.590                                    20719478.316 3  84842814.51803       740.660 3        23.867
G18         2.000    25146489.217 6 132145768.72906     -1104.281 6        37.679                                    25146485.067 2 102970629.88502      -860.548 2        13.151    25146557.060 4                      -860.374 4        28.550
G20         4.000    22365397.317 6 117530980.59006     -3771.421 6        36.457                                    22365392.493 2  91582504.29102     -2938.793 2        13.879
G07         5.000    23351497.722 6 122713009.67006     -3411.502 6        37.161                                    23351507.994 1  95620510.00801     -2658.328 1         8.286
G30         7.000    21025250.091 8 110488392.61308     -2200.522 8        50.530                                    21025251.630 7  86094824.38907     -1714.691 7        43.056    21025250.844 6  86094893.36906     -1714.794 6        38.405
G14         8.000    21169710.323 6 111247473.68006       876.960 6        39.931                                    21169709.465 4  86686412.91004       683.347 4        26.707    21169708.761 7  86686446.88007       683.490 7        43.014
G15         9.000    23081212.417 6 121293183.94006      2580.866 6        39.228                                    23081213.346 3  94513750.35403      2011.074 3        20.095    23081225.875 5                      2011.116 5        32.587
E21        10.000                                                                                                                                    27648901.044 4 108500318.91104     -2525.716 4        25.970
E06        11.000    23396249.871 7 122948114.05607      -787.125 7        47.224                                                                    23396250.847 8  91811944.40808      -587.742 8        48.759    23396250.353 8  94206975.49708      -603.116 8        49.903
E31        13.000    25054234.458 7 131660882.21907      1599.842 7        42.906                                                                    25054254.780 5  98318261.55705      1194.410 5        32.018    25054237.193 6 100883022.70406      1225.927 6        36.560
G05        14.000    21336021.089 8 112121605.36908     -1754.880 8        49.233                                    21336020.842 6  87367449.69606     -1367.439 6        40.286    21336020.987 6  87367407.68306     -1367.493 6        40.334
E04        17.000    24023253.371 7 126243055.58507     -2038.892 7        44.146                                                                    24023254.342 8  94272430.84408     -1522.479 8        50.513    24023254.082 8  96731642.79808     -1562.196 8        49.925
E05        18.000    26450831.640 4 139000066.48704      1750.049 4        27.629                                                                    26450834.980 5 103798750.38605      1307.359 5        34.648    26450864.587 5 106506548.32405      1341.510 5        33.802
E09        21.000    24149843.511 6 126908317.35406       378.859 6        38.508                                                                    24149846.136 7  94769152.46907       282.902 7        42.491    24149844.424 7  97241451.66907       290.203 7        45.132
E36        22.000    27775864.956 4 145963047.46004     -3293.987 4        28.464                                                                    27775821.611 5 108998274.34705     -2459.544 5        32.006    27775816.251 4                     -2523.731 4        28.209
S23        24.000    38326632.582 6 201407730.11606      -849.938 6        40.036
E34        26.000    27649637.073 4 145299842.36804     -1266.084 4        29.896                                                                    27649660.415 5 108503103.44005      -945.304 5        35.000    27649642.656 5 111333631.36905      -969.900 5        32.401
R13        27.000    22467790.271 5                      3141.106 5        31.547
R18        28.000    24528909.115 5                     -3831.394 5        30.385                                                                    24528916.646 5                     -2979.594 5        30.581
R19        29.000                                                                                                                                    23853583.998 5  99244892.47405     -1268.761 5        30.717
R11        30.000    20891810.423 7 111639506.86807     -3922.951 7        43.280                                                                    20891812.984 7  86830964.46607     -3051.158 7        46.133
C10        33.000                                                                                                                                                                                                    39710979.771 4 159899596.77504       299.222 4        29.100
C36        34.000                                                                                                                                    21875236.015 7 113910093.98707       243.196 7        46.268                                                                    21875241.114 7  92561388.25207       197.558 7        45.222
R02        35.000    19557737.811 7 104363779.02607       496.754 7        46.111                                                                    19557740.776 7  81172025.02107       386.298 7        47.535
R03        36.000    22980795.567 6 123018450.07006      3092.908 6        39.763                                                                    22980790.598 5  95680624.31505      2405.514 5        34.414
C45        37.000                                                                                                                                    25122320.883 6 130818449.08906      2263.364 6        40.474                                                                    25122309.702 5 106300697.63305      1839.215 5        34.586
R12        38.000    19528738.249 7 104318909.29607       569.531 7        47.547                                                                    19528735.175 6  81137338.26006       443.104 6        38.763
C40        40.000                                                                                                                                    39578543.572 3                       251.159 3        22.229
R01        44.000    20347225.589 7                     -3438.719 7        42.159                                                                    20347225.906 4                     -2675.222 4        24.406
I02        46.000    38140286.212 6 149670680.80306         0.393 6        36.023
C19        48.000                                                                                                                                    23301278.186 6 121335898.36506     -3227.626 6        40.310                                                                    23301270.910 5  98595245.76005     -2623.042 5        32.557
C22        51.000                                                                                                                                    21956624.772 8 114333915.97708      -113.354 8        52.475                                                                    21956619.095 7  92905632.28407       -92.099 7        46.088
C21        55.000                                                                                                                                    25610044.365 7 133358317.47007      2188.671 7        44.948                                                                    25610039.955 6 108364449.53406      1778.531 6        41.602
> 2025 01 02 07 47 20.0000000  0 33
G13         1.000    20718577.720 7 108877027.92607       948.498 7        44.996                                    20718574.807 3  84839114.85903       739.080 3        22.152
G18         2.000    25147541.646 6 132151298.13206     -1107.417 6        38.174                                    25147537.178 2 102974938.54402      -862.888 2        12.000    25147606.345 5                      -862.965 5        30.385
G20         4.000    22368987.487 5 117549842.23005     -3773.757 5        35.529                                    22368983.067 1  91597201.66901     -2940.611 1        10.444
G07         5.000    23354745.823 6 122730069.78406     -3412.233 6        37.399                                    23354753.560 1  95633803.55501     -2658.841 1        10.963
G30         7.000    21027344.650 8 110499399.38408     -2202.352 8        50.711                                    21027346.375 7  86103401.08407     -1716.118 7        43.221    21027345.218 6  86103470.06006     -1716.045 6        38.348
G14         8.000    21168878.089 6 111243095.36206       874.182 6        38.444                                    21168876.017 4  86683001.22704       681.172 4        26.012    21168875.602 7  86683035.22707       681.117 7        42.997
G15         9.000    23078757.705 6 121280282.37606      2579.765 6        40.827                                    23078758.125 3  94503697.14103      2010.211 3        21.000    23078777.836 5                      2010.355 5        33.904
E21        10.000                                                                                                                                    27652118.257 4 108512948.15004     -2525.935 4        24.331
E06        11.000    23396999.675 7 122952053.08907      -788.595 7        46.937                                                                    23397000.429 8  91814885.90208      -588.921 8        48.727    23396999.684 8  94209993.72608      -604.281 8        49.523
E31        13.000    25052713.170 7 131652886.87007      1598.101 7        43.572                                                                    25052732.892 5  98312290.98305      1193.235 5        32.533    25052716.264 6 100876896.39106      1224.569 6        36.586
G05        14.000    21337692.009 8 112130388.34908     -1758.398 8        48.997                                    21337692.419 6  87374293.56306     -1370.178 6        40.136    21337691.921 6  87374251.53906     -1370.158 6        40.298
E04        17.000    24025193.931 7 126253253.13407     -2040.316 7        44.403                                                                    24025194.939 8  94280045.89008     -1523.578 8        50.815    24025194.538 8  96739456.49408     -1563.337 8        49.777
E05        18.000    26449170.242 4 138991313.80604      1750.632 4        28.815                                                                    26449169.045 5 103792214.26905      1307.296 5        34.386    26449198.054 5 106499841.66705      1341.268 5        33.431
E09        21.000    24149484.289 6 126906426.18406       377.651 6        38.877                                                                    24149486.268 6  94767740.22706       282.061 6        41.959    24149484.558 7  97240002.56907       289.414 7        44.403
E36        22.000    27778993.224 5 145979519.37805     -3295.235 5        30.762                                                                    27778955.739 5 109010574.73605     -2460.641 5        31.562    27778950.407 4                     -2523.921 4        26.850
S23        24.000    38327437.595 6 201411979.79606      -850.088 6        40.241
E34        26.000    27650838.150 4 145306178.72004     -1268.787 4        29.687                                                                    27650864.189 5 108507835.10605      -947.420 5        34.771    27650848.182 5 111338486.44605      -971.799 5        32.623
R13        27.000    22464849.101 5                      3139.840 5        31.260
R18        28.000    24532502.623 4                     -3833.294 4        28.777                                                                    24532508.244 5                     -2981.551 5        30.800
R19        29.000                                                                                                                                    23855113.717 4  99251243.96204     -1271.703 4        25.579
R11        30.000    20895483.369 7 111659127.24407     -3925.320 7        44.694                                                                    20895484.668 7  86846224.73007     -3053.038 7        45.505
C10        33.000                                                                                                                                                                                                    39710603.335 4 159898101.71604       298.406 4        28.882
C36        34.000                                                                                                                                    21875004.806 7 113908883.89607       240.754 7        46.637                                                                    21875008.495 7  92560404.94507       195.732 7        44.543
R02        35.000    19557275.485 7 104361303.76407       493.394 7        47.272                                                                    19557276.925 7  81170099.80007       383.763 7        47.390
R03        36.000    22977902.945 6 123002987.43606      3092.153 6        40.751                                                                    22977900.795 5  95668597.84705      2405.046 5        34.095
C45        37.000                                                                                                                                    25120148.252 6 130807133.82406      2262.424 6        39.904                                                                    25120137.069 5 106291503.06105      1838.475 5        33.964
R12        38.000    19528206.789 7 104316071.17007       565.576 7        47.259                                                                    19528205.628 6  81135130.85306       439.986 6        37.686
C40        40.000                                                                                                                                    39578306.043 4                       250.076 4        24.827
R01        44.000    20350443.407 6 108784718.02916     -3441.676 6        41.254                                                                    20350444.803 3                     -2676.440 3        23.733
I02        46.000    38140285.907 6 149670680.68906        -0.233 6        36.170
C19        48.000                                                                                                                                    23304379.596 7 121352041.41707     -3229.651 7        42.123                                                                    23304371.947 5  98608363.31705     -2624.413 5        31.472
C22        51.000                                                                                                                                    21956734.745 8 114334488.77308      -115.893 8        52.463                                                                    21956728.989 7  92906097.72307       -94.043 7        45.640
C21        55.000                                                                                                                                    25607942.427 7 133347375.85507      2187.883 7        44.570                                                                    25607938.706 6 108355558.57206      1777.930 6        41.936
> 2025 01 02 07 47 25.0000000  0 31
G13         1.000    20717675.667 7 108872288.75707       946.988 7        45.616                                    20717672.948 3  84835422.01403       737.907 3        20.095
G18         2.000    25148596.252 6 132156842.30606     -1110.181 6        38.739                                    25148592.208 2 102979258.66802      -865.107 2        12.848
G20         4.000    22372580.595 6 117568713.06206     -3775.117 6        36.276                                    22372575.032 1  91611906.14001     -2941.679 1        10.741
G07         5.000    23357993.747 6 122747132.60506     -3412.788 6        37.493                                    23357999.734 1  95647099.23901     -2659.323 1        10.963
G30         7.000    21029440.835 8 110510414.40008     -2203.865 8        50.680                                    21029442.565 7  86111984.19907     -1717.294 7        43.249    21029441.349 6  86112053.16206     -1717.491 6        37.970
G14         8.000    21168046.815 6 111238730.48606       871.349 6        36.711                                    21168045.230 4  86679600.02804       678.967 4        25.504    21168044.982 7  86679634.00807       679.208 7        43.435
G15         9.000    23076302.733 6 121267385.19106      2578.975 6        40.951                                    23076304.130 3  94493647.34903      2009.597 3        22.705    23076321.445 5  94493687.35015      2009.681 5        35.062
E06        11.000    23397750.364 7 122955998.46507      -789.741 7        46.776                                                                    23397751.134 8  91817832.12108      -589.734 8        48.785    23397750.199 8  94213016.80808      -605.110 8        49.159
E31        13.000    25051193.006 7 131644898.59907      1597.027 7        43.791                                                                    25051212.807 5  98306325.73605      1192.297 5        32.641    25051197.886 6 100870775.49806      1223.587 6        36.578
G05        14.000    21339366.457 8 112139188.09608     -1761.580 8        48.487                                    21339367.087 6  87381150.49506     -1372.658 6        40.024    21339364.875 6  87381108.47606     -1372.673 6        40.057
E04        17.000    24027135.904 7 126263456.57607     -2041.298 7        44.783                                                                    24027136.685 8  94287665.33708     -1524.401 8        51.219    24027136.141 8  96747274.70608     -1564.144 8        49.548
E05        18.000    26447510.969 4 138982560.54304      1750.407 4        28.464                                                                    26447503.612 5 103785677.70305      1307.398 5        34.443    26447531.722 5 106493134.57705      1341.214 5        33.275
E09        21.000    24149125.484 6 126904539.87806       376.837 6        39.538                                                                    24149127.183 6  94766331.61206       281.409 6        41.249    24149125.748 7  97238557.22607       288.654 7        43.983
E36        22.000    27782119.124 5 145995996.46805     -3295.656 5        31.570                                                                    27782091.222 5 109022879.04905     -2461.134 5        30.513    27782085.685 4                     -2525.781 4        26.060
S23        24.000    38328245.899 6 201416229.00606      -849.858 6        40.131
E34        26.000    27652048.806 4 145312526.84804     -1270.732 4        29.896                                                                    27652070.024 5 108512575.55805      -948.854 5        34.490    27652056.088 5 111343350.56805      -973.702 5        32.329
R13        27.000    22461907.619 5                      3138.328 5        30.860
R18        28.000                                                                                                                                    24536097.061 5                     -2983.332 5        30.974
R11        30.000    20899157.243 7 111678758.92007     -3927.524 7        44.743                                                                    20899158.714 7  86861493.77207     -3054.682 7        44.947
C10        33.000                                                                                                                                                                                                    39710231.317 4 159896608.55504       298.936 4        29.450
C36        34.000                                                                                                                                    21874775.436 7 113907684.47007       238.833 7        47.414                                                                    21874777.772 7  92559430.33207       193.964 7        43.746
R02        35.000    19556814.853 8 104358843.90208       490.418 8        48.104                                                                    19556815.346 7  81168186.56807       381.377 7        46.466
R03        36.000    22975013.452 6 122987526.64306      3092.017 6        41.180                                                                    22975011.728 5  95656572.78105      2404.899 5        34.914
C45        37.000                                                                                                                                    25117976.747 6 130795822.47306      2261.750 6        38.814                                                                    25117965.598 5 106282311.68405      1837.722 5        32.425
R12        38.000    19527678.414 7 104313251.60107       562.048 7        47.655                                                                    19527680.004 6  81132937.88206       437.141 6        39.793
C40        40.000                                                                                                                                    39578070.604 4                       249.819 4        25.113
R01        44.000    20353664.721 6 108801933.30116     -3444.464 6        40.706                                                                    20353662.502 4                     -2679.118 4        27.832
I02        46.000    38140286.118 6 149670681.07606        -0.067 6        36.363
C19        48.000                                                                                                                                    23307482.950 7 121368193.20707     -3231.227 7        42.679                                                                    23307476.451 5  98621488.03605     -2625.708 5        30.921
C22        51.000                                                                                                                                    21956846.826 8 114335073.28008      -118.098 8        52.455                                                                    21956841.240 7  92906572.69907       -95.990 7        45.284
C21        55.000                                                                                                                                    25605841.241 7 133336437.56007      2187.236 7        45.323                                                                    25605838.238 7 108346670.31707      1777.432 7        42.233
> 2025 01 02 07 47 30.0000000  0 33
G13         1.000    20716775.532 7 108867558.87707       945.339 7        45.562                                    20716772.225 3  84831736.42003       736.617 3        18.179
G18         2.000    25149653.477 6 132162401.70406     -1113.009 6        38.174                                    25149650.185 2 102983590.64902      -867.313 2        12.242
G20         4.000    22376174.888 5 117587593.46005     -3776.908 5        34.881                                    22376168.401 1  91626618.15101     -2943.131 1         7.625
G07         5.000    23361241.881 6 122764198.59306     -3413.260 6        37.955                                    23361246.432 1  95660397.38201     -2659.698 1        10.963
G30         7.000    21031538.938 8 110521438.10508     -2205.309 8        50.495                                    21031540.194 7  86120574.08207     -1718.418 7        42.827    21031538.618 6  86120643.04906     -1718.435 6        37.724
G14         8.000    21167217.919 5 111234379.46105       869.323 5        35.419                                    21167217.059 4  86676209.62104       677.396 4        24.722    21167217.397 7  86676243.60807       677.260 7        44.009
G15         9.000    23073848.290 6 121254492.84706      2578.253 6        41.762                                    23073851.092 3  94483601.34503      2009.047 3        23.810    23073866.959 5  94483641.31705      2009.274 5        35.176
E21        10.000                                                                                                                                    27658557.274 4 108538219.08804     -2527.366 4        26.132
E06        11.000    23398502.245 7 122959950.67107      -790.825 7        46.607                                                                    23398503.220 8  91820783.43808      -590.527 8        48.672    23398502.064 8  94216045.11708      -605.924 8        49.085
E31        13.000    25049674.500 7 131636917.93107      1595.760 7        43.469                                                                    25049694.055 5  98300366.15505      1191.078 5        33.054    25049681.452 6 100864660.45406      1222.746 6        37.127
G05        14.000    21341044.390 8 112148005.14708     -1764.839 8        48.138                                    21341044.871 6  87388020.91106     -1375.198 6        39.513    21341042.566 6  87387978.89106     -1375.214 6        39.111
E04        17.000    24029079.106 7 126273666.38307     -2042.322 7        44.871                                                                    24029079.634 8  94295289.52308     -1525.053 8        51.436    24029078.824 8  96755097.79008     -1564.895 8        49.445
E05        18.000    26445854.172 4 138973807.14404      1750.849 4        28.626                                                                    26445838.339 5 103779141.05205      1307.532 5        34.786    26445865.068 5 106486427.35905      1341.480 5        33.419
E09        21.000    24148767.377 6 126902658.93906       376.138 6        40.055                                                                    24148769.150 6  94764927.00406       280.718 6        40.508    24148767.973 7  97237115.96207       288.119 7        43.604
E36        22.000    27785255.579 4 146012479.34904     -3296.796 4        29.915                                                                    27785226.895 4 109035187.65104     -2461.769 4        29.479    27785221.066 4                     -2526.566 4        24.376
S23        24.000    38329051.953 6 201420478.21706      -849.554 6        40.105
E34        26.000    27653262.085 5 145318887.14605     -1272.840 5        32.335                                                                    27653280.397 5 108517325.19105      -950.385 5        33.491    27653266.826 5 111348224.12505      -975.643 5        32.671
R13        27.000    22458972.490 5                      3136.712 5        31.011
R18        28.000    24539731.363 5                     -3837.792 5        34.571                                                                    24539688.950 4                     -2984.966 4        29.924
R19        29.000    23858164.266 4                     -1644.015 4        27.138
R11        30.000    20902833.155 7 111698402.40807     -3929.535 7        45.008                                                                    20902834.712 7  86876772.02907     -3056.332 7        44.936
C10        33.000                                                                                                                                                                                                    39709864.874 4 159895117.79204       298.036 4        29.128
C36        34.000                                                                                                                                    21874547.734 7 113906496.19207       236.883 7        47.908                                                                    21874549.261 7  92558464.75807       192.370 7        43.100
R02        35.000    19556356.258 8 104356399.98408       487.462 8        48.135                                                                    19556357.136 7  81166285.72407       379.274 7        45.737
R03        36.000    22972126.620 6 122972068.54906      3091.625 6        40.820                                                                    22972131.500 5  95644549.77805      2404.551 5        35.248
C45        37.000                                                                                                                                    25115804.852 6 130784515.49406      2261.437 6        36.571                                                                    25115795.990 4 106273123.86504      1837.328 4        29.829
R12        38.000    19527153.891 7 104310451.10607       558.543 7        47.029                                                                    19527155.658 6  81130759.70006       434.373 6        39.715
C40        40.000                                                                                                                                    39577830.460 3                       248.186 3        23.752
R01        44.000    20356888.266 6 108819163.34416     -3447.123 6        39.997                                                                    20356887.159 5                     -2681.268 5        30.762
I02        46.000    38140285.702 6 149670682.58406         0.086 6        36.450
C19        48.000                                                                                                                                    23310587.361 6 121384354.22106     -3232.776 6        41.843                                                                    23310582.339 5  98634620.21005     -2627.024 5        30.589
C22        51.000                                                                                                                                    21956961.208 8 114335669.97008      -120.204 8        52.611                                                                    21956956.016 7  92907057.56507       -97.809 7        45.103
C21        55.000                                                                                                                                    25603741.060 7 133325503.05207      2186.872 7        46.104                                                                    25603738.348 7 108337785.14407      1776.946 7        42.521
> 2025 01 02 07 47 35.0000000  0 33
G13         1.000    20715876.870 7 108862837.79407       943.044 7        44.372                                    20715873.236 2  84828057.71802       734.823 2        15.524
G18         2.000    25150713.694 6 132167975.82906     -1116.712 6        38.027                                    25150710.997 2 102987934.15702      -870.176 2        12.303
G20         4.000    22379768.917 5 117606483.04505     -3778.853 5        34.733                                    22379763.121 1  91641337.29801     -2944.729 1         7.000
G07         5.000    23364490.028 6 122781267.28806     -3414.373 6        38.045                                    23364493.912 1  95673697.64501     -2660.531 1        11.481    23364501.447 3                     -2661.796 3        23.429
G30         7.000    21033638.642 8 110532470.07108     -2207.532 8        50.278                                    21033639.062 7  86129170.39907     -1720.150 7        42.463    21033637.865 6  86129239.36706     -1720.271 6        37.456
G14         8.000    21166394.170 6 111230041.91406       865.743 6        36.620                                    21166391.839 4  86672829.71604       674.599 4        25.023    21166392.069 7  86672863.69007       674.731 7        44.591
G15         9.000    23071396.576 7 121241604.90707      2576.866 7        42.250                                    23071399.154 4  94473558.75904      2007.953 4        24.541    23071414.260 5  94473598.76605      2007.730 5        35.386
E21        10.000                                                                                                                                    27661778.979 4 108550860.74304     -2528.774 4        26.575
E06        11.000    23399255.454 7 122963909.26107      -792.616 7        46.579                                                                    23399256.542 8  91823739.52308      -591.891 8        48.597    23399255.213 8  94219078.32808      -607.361 8        48.825
E31        13.000    25048157.540 7 131628944.43507      1593.628 7        43.225                                                                    25048174.596 5  98294411.95105      1190.009 5        32.862    25048165.613 6 100858550.87806      1221.175 6        37.297
G05        14.000    21342725.929 7 112156839.00407     -1768.786 7        47.696                                    21342725.691 6  87394904.42806     -1378.274 6        39.063    21342723.528 6  87394862.39706     -1378.320 6        38.210
E04        17.000    24031022.984 7 126283882.11007     -2043.952 7        44.798                                                                    24031023.695 8  94302918.15208     -1526.432 8        51.522    24031022.593 8  96762925.42208     -1566.263 8        49.067
E05        18.000    26444185.773 4 138965053.17704      1750.946 4        26.647                                                                    26444172.633 5 103772603.93905      1307.353 5        34.486    26444199.025 5 106479719.69505      1341.358 5        32.647
E09        21.000    24148410.648 6 126900782.88706       374.368 6        41.206                                                                    24148412.163 6  94763526.05106       279.653 6        39.940    24148411.184 7  97235678.45907       286.876 7        43.367
E36        22.000    27788397.533 5 146028967.59205     -3298.622 5        30.211                                                                    27788363.837 4 109047500.20904     -2463.222 4        27.629    27788358.580 3                     -2527.476 3        22.267
S23        24.000    38329856.403 6 201424726.78706      -850.127 6        39.336
E34        26.000    27654474.954 5 145325259.37205     -1275.968 5        34.271                                                                    27654494.605 5 108522083.68105      -952.663 5        33.120    27654479.512 5 111353106.70305      -977.539 5        32.078
R13        27.000    22456038.820 5                      3135.315 5        31.819
R18        28.000    24543325.148 5 131013950.18415     -3840.057 5        33.323
R19        29.000    23859709.516 4                     -1647.851 4        27.006
R11        30.000    20906510.645 7 111718057.21007     -3932.440 7        45.378                                                                    20906513.095 7  86892059.06607     -3058.463 7        44.883
C10        33.000                                                                                                                                                                                                    39709497.281 5 159893629.05705       297.260 5        30.023
C36        34.000                                                                                                                                    21874321.012 7 113905318.63307       234.141 7        47.651                                                                    21874322.892 7  92557507.87207       190.403 7        42.665
R02        35.000    19555900.596 8 104353971.90308       483.844 8        48.024                                                                    19555902.693 7  81164397.21207       376.214 7        45.532
R03        36.000    22969239.935 6 122956612.48706      3090.781 6        41.878                                                                    22969250.457 5  95632528.34305      2403.871 5        34.652
C45        37.000                                                                                                                                    25113633.150 5 130773212.47405      2260.104 5        34.448                                                                    25113627.253 4 106263939.21404      1835.958 4        26.263
R12        38.000    19526632.596 7 104307669.26007       554.165 7        46.805                                                                    19526633.612 6  81128595.98806       431.087 6        37.577
C40        40.000                                                                                                                                    39577590.526 4                       247.515 4        24.060
R01        44.000    20360115.008 6 108836407.64306     -3450.635 6        38.042                                                                    20360117.786 5                     -2683.550 5        32.120
I02        46.000    38140286.981 6 149670684.61206        -0.591 6        36.469
C19        48.000                                                                                                                                    23313692.141 6 121400524.02006     -3235.089 6        39.321                                                                    23313689.676 5  98647759.55905     -2628.797 5        30.611
C22        51.000                                                                                                                                    21957078.332 8 114336278.42008      -123.172 8        52.761                                                                    21957073.250 7  92907551.96807       -99.895 7        44.918
C21        55.000                                                                                                                                    25601641.692 7 133314571.91907      2185.605 7        46.827                                                                    25601638.993 7 108328902.68507      1776.165 7        42.821
> 2025 01 02 07 47 40.0000000  0 33
G13         1.000    20714979.111 7 108858126.93507       941.344 7        42.701                                    20714976.171 2  84824386.96002       733.441 2        13.818
G18         2.000    25151778.004 6 132173566.12806     -1119.361 6        38.003                                    25151774.925 2 102992290.20602      -872.244 2        12.788    25151775.068 5 102992268.20515      -872.439 5        35.233
G20         4.000    22383366.855 6 117625383.19606     -3781.026 6        37.459                                    22383359.745 1  91656064.62301     -2946.354 1         5.429
G07         5.000    23367738.594 6 122798340.06606     -3414.921 6        38.736                                    23367742.693 1  95687001.09701     -2660.963 1        11.852
G30         7.000    21035739.886 8 110543511.65508     -2209.164 8        50.736                                    21035739.401 6  86137774.21206     -1721.425 6        41.716    21035737.627 5  86137843.18405     -1721.255 5        35.571
G14         8.000    21165573.001 6 111225719.16806       863.204 6        38.991                                    21165569.347 4  86669461.34504       672.620 4        25.383    21165570.028 7  86669495.34207       672.658 7        45.004
G15         9.000    23068946.200 7 121228722.78007      2575.996 7        42.986                                    23068948.969 4  94463520.70104      2007.281 4        24.902    23068963.615 5  94463560.71005      2007.223 5        35.910
E21        10.000                                                                                                                                    27665001.161 4 108563507.50904     -2530.302 4        26.000
E06        11.000    23400010.427 7 122967875.62107      -793.951 7        46.675                                                                    23400011.385 8  91826701.41708      -592.872 8        48.479    23400009.937 8  94222117.48708      -608.365 8        48.435
E31        13.000    25046641.625 7 131620979.44707      1592.265 7        42.811                                                                    25046655.803 5  98288464.11705      1189.206 5        32.305    25046649.803 6 100852447.85506      1220.037 6        37.062
G05        14.000    21344410.706 8 112165690.97108     -1772.061 8        48.355                                    21344409.812 6  87401802.06106     -1380.825 6        38.372    21344407.735 6  87401760.02606     -1381.014 6        37.009
E04        17.000    24032967.648 7 126294105.15907     -2045.235 7        44.217                                                                    24032969.068 8  94310552.22908     -1527.296 8        51.454    24032967.753 8  96770758.64508     -1567.087 8        48.613
E05        18.000                                                                                                                                    26442507.177 5 103766067.48505      1307.373 5        34.481    26442531.902 5 106473012.64105      1341.455 5        31.638
E09        21.000    24148055.904 7 126898913.11007       373.475 7        42.248                                                                    24148056.452 6  94762129.79706       278.872 6        38.462    24148055.599 7  97234245.76707       286.136 7        42.982
E36        22.000    27791536.748 4 146045462.34404     -3299.416 4        29.384                                                                    27791501.718 4 109059817.71204     -2463.318 4        25.940    27791496.653 3                     -2528.021 3        20.476
S23        24.000    38330660.208 6 201428976.17906      -849.754 6        38.508
E34        26.000    27655691.135 6 145331644.80406     -1278.413 6        36.609                                                                    27655711.921 5 108526852.06905      -954.576 5        32.892    27655694.502 5 111357999.43805      -979.699 5        32.114
R13        27.000    22453107.662 5                      3133.383 5        33.144
R18        28.000    24546922.788 5 131033156.12315     -3842.466 5        30.234
R19        29.000                                                                                                                                    23861360.535 4  99276809.25414     -1285.075 4        28.066
R11        30.000    20910192.126 7 111737724.72007     -3934.673 7        46.368                                                                    20910193.621 7  86907355.99707     -3060.240 7        44.319
C10        33.000                                                                                                                                                                                                    39709127.826 4 159892143.40004       297.082 4        29.905
C36        34.000                                                                                                                                    21874096.315 7 113904153.15407       231.990 7        46.942                                                                    21874099.043 7  92556560.83707       188.412 7        42.034
R02        35.000    19555449.456 8 104351560.51608       480.596 8        49.599                                                                    19555450.755 7  81162521.68507       373.852 7        45.461
R03        36.000    22966353.860 7 122941159.67307      3090.094 7        42.836                                                                    22966362.683 5  95620509.47905      2403.598 5        33.216
C45        37.000                                                                                                                                    25111466.227 5 130761914.73005      2259.438 5        32.479                                                                    25111459.518 3                      1835.327 3        22.343
R12        38.000    19526116.476 7 104304907.38907       550.511 7        47.253                                                                    19526116.263 6  81126447.86106       428.257 6        38.084
C40        40.000                                                                                                                                    39577356.088 3                       245.301 3        20.476
R01        44.000    20363342.009 6 108853667.64506     -3453.425 6        36.537                                                                    20363348.341 5                     -2686.159 5        33.988
I02        46.000    38140287.848 6 149670688.49206        -0.823 6        36.238
C19        48.000                                                                                                                                    23316799.312 5 121416703.94705     -3236.892 5        35.395                                                                    23316799.266 4  98660907.12004     -2630.027 4        29.526
C22        51.000                                                                                                                                    21957198.010 8 114336899.98208      -125.524 8        52.547                                                                    21957192.922 7  92908057.05307      -102.044 7        45.151
C21        55.000                                                                                                                                    25599543.270 7 133303645.52507      2184.950 7        47.284                                                                    25599540.529 7 108320024.10707      1775.308 7        42.859
> 2025 01 02 07 47 45.0000000  0 32
G13         1.000    20714084.033 6 108853425.94806       939.291 6        40.882                                    20714081.448 2  84820723.89202       731.900 2        13.151
G18         2.000    25152844.342 6 132179172.20506     -1122.712 6        38.538                                    25152841.810 2 102996658.54302      -874.834 2        12.061    25152842.662 5 102996636.55805      -874.960 5        34.414
G20         4.000    22386966.022 6 117644293.48306     -3783.109 6        39.667                                    22386958.395 1  91670799.86601     -2947.862 1         5.286
G07         5.000    23370988.659 6 122815416.58606     -3415.587 6        39.309                                    23370992.119 1  95700307.42201     -2661.455 1        11.037
G30         7.000    21037842.693 8 110554562.50608     -2211.115 8        51.265                                    21037841.166 6  86146385.24306     -1722.944 6        41.144    21037840.375 5  86146454.20005     -1722.677 5        32.880
G14         8.000    21164752.840 6 111221410.95806       860.053 6        40.274                                    21164749.604 4  86666104.29804       670.171 4        26.132    21164750.488 7  86666138.27907       670.261 7        45.282
G15         9.000    23066495.559 7 121215846.00307      2574.794 7        43.424                                    23066501.073 4  94453486.80104      2006.343 4        24.887    23066514.827 5  94453526.82005      2006.215 5        35.195
E21        10.000                                                                                                                                    27668225.391 4 108576158.99104     -2530.689 4        26.719
E06        11.000    23400766.420 7 122971849.39107      -795.516 7        46.745                                                                    23400767.644 8  91829668.83708      -594.026 8        48.313    23400766.291 8  94225162.31808      -609.533 8        48.446
E31        13.000    25045127.079 7 131613022.67407      1590.470 7        42.205                                                                                                                                    25045132.801 6 100846351.06506      1218.748 6        36.465
G05        14.000    21346098.915 8 112174560.80808     -1775.784 8        49.093                                    21346097.290 6  87408713.62006     -1383.728 6        37.974    21346097.357 6  87408671.59106     -1383.776 6        36.684
E04        17.000    24034914.295 7 126304335.16107     -2046.764 7        43.973                                                                    24034915.728 8  94318191.49908     -1528.367 8        51.388    24034914.457 8  96778597.20108     -1568.228 8        48.364
E05        18.000                                                                                                                                    26440842.146 5 103759531.37605      1306.903 5        34.529    26440866.284 5 106466306.00705      1341.188 5        31.057
E09        21.000    24147702.440 7 126897049.26707       372.155 7        42.847                                                                    24147701.663 6  94760737.96306       277.950 6        37.130    24147701.173 7  97232817.62607       285.133 7        42.783
E36        22.000    27794675.863 4 146061963.41704     -3300.625 4        27.629                                                                    27794640.493 4 109072139.96304     -2464.963 4        25.459
S23        24.000    38331470.261 6 201433226.17906      -850.056 6        38.306
E34        26.000    27656912.778 6 145338043.07106     -1280.948 6        38.222                                                                    27656932.002 5 108531629.99005      -956.393 5        33.659    27656911.901 5 111362901.95405      -981.487 5        31.728
R13        27.000    22450178.968 5                      3131.822 5        33.293
R18        28.000    24550525.548 4 131052373.68604     -3844.217 4        29.071
R19        29.000    23862813.653 5                     -1656.226 5        30.777
R11        30.000    20913876.668 7 111757404.59607     -3937.299 7        46.564                                                                    20913875.574 7  86922662.52007     -3062.218 7        43.922
C10        33.000                                                                                                                                                                                                    39708759.046 5 159890660.55805       296.484 5        30.921
C36        34.000                                                                                                                                    21873874.604 7 113902999.40107       229.568 7        46.209                                                                    21873877.238 6  92555623.30406       186.639 6        41.540
R02        35.000    19555001.340 8 104349165.95908       477.223 8        50.720                                                                    19555001.786 7  81160659.23207       371.239 7        45.288
R03        36.000    22963468.126 7 122925710.35407      3089.452 7        42.739                                                                    22963476.676 4  95608493.41204      2402.874 4        28.957
C45        37.000                                                                                                                                    25109303.060 5 130750621.96505      2258.076 5        32.425                                                                    25109294.564 3                      1836.580 3        21.048
R12        38.000    19525603.405 7 104302165.21707       546.442 7        46.600                                                                    19525603.932 6  81124315.07406       425.060 6        39.084
R01        44.000    20366571.222 6 108870942.93806     -3456.552 6        38.009                                                                    20366579.466 5  84677478.04815     -2688.727 5        34.262
I02        46.000    38140288.707 5 149670693.69205        -1.199 5        35.952
C19        48.000                                                                                                                                    23319913.614 5 121432893.69105     -3239.106 5        33.090                                                                    23319910.336 5  98674062.64805     -2631.592 5        31.125
C22        51.000                                                                                                                                    21957320.190 8 114337534.32908      -128.209 8        52.323                                                                    21957314.976 7  92908572.51507      -104.097 7        45.391
C21        55.000                                                                                                                                    25597446.200 7 133292723.54707      2183.932 7        47.445                                                                    25597442.995 7 108311149.10607      1774.616 7        42.893
> 2025 01 02 07 47 50.0000000  0 32
G13         1.000    20713190.927 6 108848734.79406       937.255 6        38.360                                    20713188.590 2  84817068.46802       730.338 2        12.788
G18         2.000    25153914.765 6 132184794.08506     -1125.873 6        38.880                                    25153911.704 2 103001039.24802      -877.350 2        12.121    25153910.951 5 103001017.22905      -877.004 5        32.491
G20         4.000    22390566.322 6 117663213.95306     -3785.080 6        40.605                                    22390558.516 1  91685543.13301     -2949.448 1         5.571
G07         5.000    23374239.717 6 122832496.85306     -3416.381 6        39.649                                    23374242.429 1  95713616.71701     -2662.091 1         9.048    23374299.210 3                     -2660.664 3        19.940
G30         7.000    21039947.582 8 110565622.64008     -2212.919 8        51.746                                    21039944.537 6  86155003.50506     -1724.345 6        40.670    21039946.612 5  86155072.52905     -1724.411 5        32.186
G14         8.000    21163935.237 6 111217117.24606       857.346 6        41.423                                    21163932.912 4  86662758.55404       668.062 4        27.090    21163933.365 7  86662792.52207       668.102 7        45.276
G15         9.000    23064045.494 7 121202974.74207      2573.728 7        44.026                                    23064055.766 4  94443457.19004      2005.516 4        25.173    23064066.392 5  94443497.23205      2005.490 5        34.890
E21        10.000                                                                                                                                    27671451.013 4 108588815.30504     -2531.596 4        26.874
E06        11.000    23401523.782 7 122975830.59507      -796.917 7        46.654                                                                    23401525.227 8  91832641.81408      -595.058 8        48.210    23401524.104 8  94228212.85408      -610.615 8        48.606
E31        13.000    25043614.242 6 131605074.10406      1588.854 6        41.757                                                                    25043617.197 5  98276586.78305      1186.347 5        31.826    25043617.493 5 100840260.58805      1217.582 5        35.400
G05        14.000    21347790.104 8 112183448.48608     -1779.264 8        48.771                                    21347788.538 6  87415639.07906     -1386.440 6        37.868    21347790.465 6  87415597.04006     -1386.269 6        37.490
E04        17.000    24036862.838 7 126314572.13307     -2048.010 7        44.122                                                                    24036863.773 8  94325835.97608     -1529.348 8        51.266    24036862.311 8  96786441.09708     -1569.206 8        48.199
E05        18.000                                                                                                                                    26439176.537 5 103752995.59205      1307.223 5        34.333    26439200.948 5 106459599.67305      1341.490 5        31.608
E09        21.000    24147349.336 7 126895191.38507       370.981 7        43.196                                                                    24147347.967 5  94759350.59905       277.011 5        35.886    24147347.729 7  97231394.04107       284.400 7        42.952
E36        22.000    27797812.991 3 146078470.61403     -3301.665 3        23.619                                                                                                                                    27797797.916 4                     -2530.100 4        26.419
S23        24.000    38332280.425 6 201437476.75606      -850.040 6        38.045
E34        26.000    27658141.515 6 145344454.16606     -1283.378 6        38.976                                                                    27658152.778 5 108536417.54405      -958.389 5        34.519    27658131.606 5 111367814.37105      -983.571 5        31.087
R13        27.000    22447250.109 5                      3130.057 5        33.222
R18        28.000    24554135.547 4                     -3846.469 4        28.370                                                                    24554085.316 4                     -2992.266 4        25.308
R19        29.000    23864362.668 4                     -1660.496 4        29.668
R11        30.000    20917561.498 7 111777096.77407     -3939.645 7        46.661                                                                    20917561.074 7  86937978.64607     -3064.146 7        44.060
C10        33.000                                                                                                                                                                                                    39708391.183 5 159889180.59405       296.019 5        30.996
C36        34.000                                                                                                                                    21873655.244 7 113901857.39907       227.271 7        45.761                                                                    21873658.193 6  92554695.32106       184.762 6        41.449
R02        35.000    19554555.329 8 104346788.08708       473.909 8        50.292                                                                    19554556.041 7  81158809.76707       368.629 7        45.258
R03        36.000    22960581.498 6 122910263.99416      3089.095 6        41.988
C45        37.000                                                                                                                                    25107137.755 5 130739334.15705      2257.304 5        34.100                                                                    25107120.304 4                      1834.415 4        24.195
R12        38.000    19525093.140 7 104299442.72907       542.647 7        45.618                                                                    19525094.151 6  81122197.57706       422.048 6        39.994
R01        44.000    20369809.956 6 108888233.50506     -3459.465 6        37.463                                                                    20369813.118 5  84690926.28305     -2690.871 5        33.168
I02        46.000    38140290.062 5 149670700.32905        -1.415 5        35.786
C19        48.000                                                                                                                                    23323028.452 5 121449093.13005     -3240.883 5        30.098                                                                    23323021.149 5  98687226.13805     -2633.335 5        32.114
C22        51.000                                                                                                                                    21957444.726 8 114338181.46608      -130.644 8        52.293                                                                    21957439.389 7  92909098.37707      -106.229 7        45.789
C21        55.000                                                                                                                                    25595350.187 7 133281805.99907      2183.166 7        47.713                                                                    25595346.317 7 108302277.69107      1774.001 7        42.904
> 2025 01 02 07 47 55.0000000  0 31
G13         1.000    20712299.628 5 108844052.66005       935.354 5        34.695                                    20712297.472 1  84813420.02801       728.882 1        11.185
G18         2.000    25154987.129 6 132190430.90806     -1128.871 6        37.716                                    25154984.495 1 103005431.54201      -879.681 1        11.556    25154981.062 5 103005409.55505      -879.654 5        32.006
G20         4.000    22394167.814 6 117682143.74106     -3786.825 6        40.021                                    22394160.355 1  91700293.60801     -2950.885 1         7.000
G07         5.000    23377489.739 6 122849579.95406     -3416.846 6        39.778                                    23377492.923 1  95726928.25301     -2662.532 1         7.500
G30         7.000    21042053.609 8 110576691.21108     -2214.586 8        52.086                                    21042049.442 6  86163628.34006     -1725.648 6        40.441    21042052.804 5  86163697.32705     -1725.604 5        32.539
G14         8.000    21163120.508 6 111212837.19506       854.654 6        41.855                                    21163118.714 4  86659423.44904       665.969 4        28.493    21163119.292 7  86659457.42307       665.902 7        45.877
G15         9.000    23061597.307 7 121190108.15607      2572.883 7        44.069                                    23061611.912 4  94433431.22804      2004.860 4        26.599    23061620.802 5  94433471.25805      2004.789 5        33.934
E21        10.000                                                                                                                                    27674677.135 4 108601475.82804     -2532.826 4        27.114    27674688.486 5 111434502.73615     -2598.794 5        31.562
E06        11.000    23402282.551 7 122979818.39407      -798.191 7        46.372                                                                    23402284.116 8  91835619.70408      -596.009 8        48.198    23402283.235 8  94231268.43708      -611.650 8        48.632
E31        13.000    25042103.012 6 131597132.88606      1587.556 6        40.963                                                                    25042107.631 5  98270656.61305      1185.645 5        32.180    25042105.288 5 100834175.74705      1216.455 5        34.352
G05        14.000    21349484.128 7 112192353.13707     -1782.617 7        47.794                                    21349483.489 6  87422577.76506     -1389.052 6        38.084    21349485.855 6  87422535.73606     -1389.019 6        37.924
E04        17.000    24038812.062 7 126324815.23507     -2049.246 7        44.084                                                                    24038812.926 8  94333485.03108     -1530.248 8        51.154    24038811.387 7  96794289.69907     -1570.200 7        47.914
E05        18.000    26437538.689 4                      1750.318 4        27.772                                                                    26437511.129 5 103746459.55305      1307.337 5        34.090    26437535.460 5 106452893.13405      1341.215 5        31.245
E09        21.000    24146996.571 7 126893338.60407       370.081 7        43.261                                                                    24146995.334 5  94757967.04005       276.012 5        33.425    24146995.068 7  97229974.37407       283.628 7        42.855
E36        22.000                                                                                                                                                                                                    27800937.921 4                     -2530.904 4        27.868
S23        24.000    38333090.428 6 201441726.92006      -849.852 6        38.018
E34        26.000    27659367.940 6 145350877.26006     -1285.801 6        39.432                                                                    27659374.290 5 108541214.01305      -960.044 5        34.843    27659352.882 5 111372735.94705      -985.043 5        30.166
R13        27.000    22444324.613 5                      3128.333 5        32.114
R18        28.000    24557739.289 4 131090843.64614     -3849.251 4        28.152
R11        30.000    20921248.552 7 111796800.42507     -3941.932 7        46.506                                                                    20921248.059 7  86953303.70307     -3065.879 7        44.492
C10        33.000                                                                                                                                                                                                    39708025.348 5 159887702.76805       295.343 5        31.758
C36        34.000                                                                                                                                    21873437.786 7 113900726.28207       225.064 7        45.487                                                                    21873441.130 6  92553776.20506       183.079 6        41.428
R02        35.000    19554112.378 8 104344425.94408       470.839 8        49.944                                                                    19554112.967 7  81156972.54407       366.203 7        44.626
R03        36.000    22957695.442 7 122894820.07107      3088.481 7        42.176                                                                    22957688.373 4                      2401.957 4        26.431
C45        37.000                                                                                                                                    25104971.761 5 130728050.56705      2256.436 5        35.052                                                                    25104941.784 4                      1833.283 4        29.744
R12        38.000    19524586.283 7 104296739.01607       538.867 7        44.397                                                                    19524587.685 6  81120094.69406       419.125 6        40.844
R01        44.000    20373049.415 5 108905538.58205     -3462.268 5        35.429                                                                    20373050.763 5  84704385.85205     -2692.942 5        31.396
I02        46.000    38140291.296 5 149670707.97005        -1.609 5        35.895
C19        48.000                                                                                                                                                                                                                                                                    23326132.026 5  98700396.84305     -2635.100 5        31.374
C22        51.000                                                                                                                                    21957571.517 8 114338840.56708      -132.995 8        52.396                                                                    21957566.045 7  92909633.96307      -108.192 7        45.917
C21        55.000                                                                                                                                    25593254.638 7 133270892.04307      2182.452 7        47.941                                                                    25593250.500 7 108293409.20807      1773.304 7        43.043
> 2025 01 02 07 48  0.0000000  0 31
G13         1.000    20411616.902 5 107263959.24605       933.246 5        32.192                                    20411615.586 1  83582178.43301       727.144 1         9.905
G18         2.000    24856270.431 5 130620664.40705     -1132.012 5        35.533                                    24856267.999 1 101782236.85601      -882.070 1        10.222    24856266.613 5 101782214.90905      -882.105 5        33.024
G20         4.000    22097979.848 6 116125667.23906     -3788.839 6        39.039                                    22097972.597 1  90487454.73201     -2952.276 1         7.125
G07         5.000    23080948.128 6 121291249.96706     -3417.774 6        38.925                                    23080952.238 1  94512645.11801     -2663.186 1         7.000
G30         7.000    20744369.364 8 109012351.00008     -2216.468 8        52.025                                    20744364.164 6  84944661.91606     -1727.113 6        40.155    20744369.391 5  84944730.91905     -1727.199 5        32.653
G14         8.000    20862515.305 6 109633150.60206       851.556 6        41.611                                    20862514.464 4  85428498.82404       663.551 4        29.517    20862514.991 7  85428532.79107       663.609 7        46.160
G15         9.000    22759357.590 7 119601824.27307      2571.686 7        43.592                                    22759375.592 4  93195807.37504      2003.917 4        27.617    22759383.507 5  93195847.39305      2003.745 5        33.275
E21        10.000                                                                                                                                    27378113.383 4 107437693.42804     -2533.723 4        27.904    27378124.835 5 110240360.82605     -2599.758 5        31.517
E06        11.000    23103250.497 7 121408394.19207      -799.813 7        46.319                                                                    23103251.932 8  90662153.57608      -597.261 8        48.187    23103251.474 8  93027190.14508      -612.837 8        48.474
E31        13.000    24740800.317 6 130013778.08106      1585.889 6        39.886                                                                    24740805.255 5  97088281.26505      1184.152 5        32.725    24740802.738 5  99620955.80605      1214.926 5        33.958
G05        14.000    21051390.230 7 110625857.14707     -1786.349 7        47.319                                    21051390.109 6  86201931.52506     -1391.955 6        38.024    21051391.239 6  86201889.47406     -1391.886 6        37.085
E04        17.000    23740970.558 7 124759647.10207     -2050.693 7        44.444                                                                    23740971.374 8  93164690.63808     -1531.407 8        51.077    23740969.609 7  95595005.01007     -1571.378 7        47.254
E05        18.000    26136077.368 4                      1750.528 4        29.839                                                                    26136052.698 5 102563472.39705      1307.310 5        34.305    26136076.403 5 105239045.37405      1341.143 5        31.117
E09        21.000    23846853.122 7 125316071.18507       368.776 7        43.045                                                                    23846851.179 5  93580137.49905       275.599 5        31.208    23846851.195 7  96021418.82307       282.572 7        42.480
E36        22.000                                                                                                                                                                                                    27504289.608 4                     -2531.859 4        26.862
S23        24.000    38034107.655 6 199870558.16706      -850.235 6        38.066
E34        26.000    27360798.251 6 143781894.26706     -1288.477 6        39.610                                                                    27360804.888 5 107369570.86705      -962.165 5        34.519    27360785.173 5 110170528.23405      -987.774 5        30.287
R13        27.000    22141607.736 5                      3126.893 5        30.196
R18        28.000                                                                                                                                    24261505.492 3                     -2993.329 3        23.905
R11        30.000    20625146.479 7 110214520.09507     -3944.327 7        46.929                                                                    20625145.777 7  85722641.22707     -3067.904 7        44.498
C10        33.000                                                                                                                                                                                                    39407867.529 5 158679087.37405       294.478 5        31.668
C36        34.000                                                                                                                                    21573429.867 7 112338508.44507       222.610 7        45.240                                                                    21573433.702 6  91284346.20806       180.973 6        41.661
R02        35.000    19253881.007 8 102742329.80608       467.359 8        49.798                                                                    19253880.185 7  79910897.76907       363.475 7        43.628
R03        36.000    22655020.486 7 121274563.43307      3087.874 7        42.136                                                                    22655014.151 4                      2401.591 4        29.725
C45        37.000                                                                                                                                    24803014.167 5 129155671.54205      2255.064 5        34.476                                                                    24802986.326 5                      1832.739 5        33.060
R12        38.000    19224290.368 7 102692616.64807       534.831 7        42.787                                                                    19224292.963 6  79872444.00606       415.954 6        41.349
R01        44.000    20076487.755 5 107320299.74105     -3465.791 5        35.919                                                                    20076499.102 4  83471422.29604     -2695.513 4        29.422
I02        46.000    37840501.691 5 148494266.79205        -2.136 5        35.886
C19        48.000                                                                                                                                    23029438.926 6 119920424.76406     -3244.711 6        37.611                                                                    23029451.244 5  97445057.93605     -2636.817 5        30.332
C22        51.000                                                                                                                                    21657908.486 8 112778414.36708      -135.682 8        52.424                                                                    21657902.568 7  91641659.82907      -110.274 7        46.200
C21        55.000                                                                                                                                    25291367.318 7 131698882.12407      2181.384 7        47.767                                                                    25291362.649 7 107016022.33507      1772.555 7        43.086
> 2025 01 02 07 48  5.0000000  0 32
G13         1.000    20410728.892 5 107259296.48405       931.331 5        30.785                                    20410728.166 1  83578545.09501       725.746 1         8.762
G18         2.000    24857348.376 5 130626332.43105     -1135.463 5        34.243                                    24857346.760 1 101786653.50901      -884.756 1        10.518    24857347.796 5 101786631.53905      -884.772 5        35.476
G20         4.000    22101585.929 6 116144616.91506     -3790.915 6        38.568                                    22101578.625 1  90502220.67401     -2953.940 1         7.625
G07         5.000    23084200.250 6 121308340.13706     -3418.668 6        38.952                                    23084204.024 1  94525962.21101     -2663.796 1         7.000
G30         7.000    20746478.786 8 109023437.72308     -2218.534 8        51.590                                    20746472.968 6  84953300.90106     -1728.724 6        40.064    20746478.168 5  84953369.92705     -1728.836 5        32.228
G14         8.000    20861706.616 7 109628899.24407       848.590 7        43.236                                    20861705.633 5  85425186.07305       661.239 5        30.136    20861705.894 7  85425220.04307       661.324 7        46.067
G15         9.000    22756910.810 7 119588968.38307      2570.468 7        43.100                                    22756932.391 4  93185789.75004      2002.974 4        28.133    22756940.271 5  93185829.72905      2003.099 5        33.162
E21        10.000                                                                                                                                    27381342.965 4 107450363.22804     -2535.008 4        27.269    27381353.788 5 110253361.08205     -2600.539 5        31.343
E06        11.000    23104012.073 7 121412396.50007      -801.448 7        46.218                                                                    23104013.446 8  90665142.30908      -598.494 8        48.223    23104013.212 8  93030256.85008      -614.149 8        48.703
E31        13.000    24739292.556 6 130005852.98306      1583.949 6        39.249                                                                    24739298.723 5  97082363.11105      1183.038 5        34.671    24739295.892 5  99614883.31605      1213.769 5        34.167
G05        14.000    21053091.831 7 110634797.00507     -1790.005 7        47.885                                    21053092.344 6  86208897.64106     -1394.806 6        37.543    21053093.380 6  86208855.61106     -1394.816 6        36.541
E04        17.000    23742922.134 7 124769903.76807     -2052.240 7        45.106                                                                    23742923.135 8  93172349.82408     -1532.527 8        50.823    23742921.112 7  95602863.99907     -1572.495 7        46.808
E05        18.000    26134409.171 5                      1750.246 5        30.566                                                                    26134386.717 5 102556936.81005      1307.153 5        34.124    26134409.427 5 105232339.21705      1341.078 5        30.981
E09        21.000    23846502.851 7 125314229.97607       367.424 7        42.859                                                                                                                                    23846501.044 7  96020008.02507       281.474 7        42.591
E36        22.000                                                                                                                                    27507417.459 4 107945025.65504     -2468.245 4        24.195    27507436.030 4                     -2533.075 4        27.557
S23        24.000    38034915.704 6 199874808.88306      -850.522 6        38.312
E34        26.000    27362023.198 6 143788342.73406     -1291.068 6        39.432                                                                    27362029.786 5 107374386.23305      -964.397 5        33.701    27362012.108 5 110175469.20705      -989.400 5        30.166
R13        27.000    22138683.559 4                      3125.624 4        25.880
R18        28.000    24265175.531 5                     -3853.967 5        31.275                                                                    24265115.974 3                     -2996.757 3        22.990
R11        30.000    20628839.140 7 110234247.99807     -3947.042 7        46.533                                                                    20628837.073 7  85737985.12707     -3069.923 7        43.094
C10        33.000                                                                                                                                                                                                    39407501.166 5 158677614.99905       294.079 5        31.162
C36        34.000                                                                                                                                    21573216.804 7 112337400.45407       220.194 7        45.053                                                                    21573221.246 7  91283445.91707       178.878 7        42.080
R02        35.000    19253444.200 8 102740000.55108       463.976 8        50.975                                                                    19253443.462 7  79909086.12807       360.876 7        43.308
R03        36.000    22652142.961 7 121259125.69207      3087.039 7        42.057                                                                    22652129.288 5                      2401.127 5        32.240
C45        37.000                                                                                                                                    24800847.839 5 129144397.64705      2254.406 5        32.533                                                                    24800823.147 5                      1831.664 5        34.695
R12        38.000    19223791.137 7 102689951.92207       530.810 7        42.514                                                                    19223794.659 6  79870371.43306       412.892 6        41.504
C40        40.000                                                                                                                                    39276347.348 4                       241.301 4        28.654
R01        44.000    20079730.736 6 107337635.12106     -3468.558 6        36.650
I02        46.000    37840503.345 6 148494276.86206        -2.387 6        36.000
C19        48.000                                                                                                                                    23032560.820 6 119936652.34406     -3246.655 6        40.880                                                                    23032566.521 5  97458244.30305     -2638.274 5        30.732
C22        51.000                                                                                                                                    21658040.379 8 112779098.72908      -138.340 8        52.530                                                                    21658033.979 7  91642215.98607      -112.467 7        45.980
C21        55.000                                                                                                                                    25289273.057 7 131687976.72107      2180.376 7        47.366                                                                    25289268.585 7 107007160.82307      1771.845 7        42.878
