     3.04           OBSERVATION DATA    M                   RINEX VERSION / TYPE
ssrcrin-15.6.1x                         20250102 154500 UTC PGM / RUN BY / DATE 
(00000000023479385599111004) Septentrio proprietary         COMMENT             
ract                                                        MARKER NAME         
01                                                          MARKER NUMBER       
geodetic                                                    MARKER TYPE         
NFB                 CLIMERS@TUW                             OBSERVER / AGENCY   
3296359             SEPT ASTERX SB3 PROB4.14.4              REC # / TYPE / VERS 
Unknown             Unknown                                 ANT # / TYPE        
  4127446.6687  1206915.1237  4695542.3122                  APPROX POSITION XYZ 
        0.0000        0.0000        0.0000                  ANTENNA: DELTA H/E/N
G   23 X1  C1C L1C D1C S1C C1W S1W C2W L2W D2W S2W C2L L2L  SYS / # / OBS TYPES 
       D2L S2L C5Q L5Q D5Q S5Q C1L L1L D1L S1L              SYS / # / OBS TYPES 
E   21 X1  C1C L1C D1C S1C C6C L6C D6C S6C C5Q L5Q D5Q S5Q  SYS / # / OBS TYPES 
       C7Q L7Q D7Q S7Q C8Q L8Q D8Q S8Q                      SYS / # / OBS TYPES 
S    9 X1  C1C L1C D1C S1C C5I L5I D5I S5I                  SYS / # / OBS TYPES 
R   17 X1  C1C L1C D1C S1C C2P L2P D2P S2P C2C L2C D2C S2C  SYS / # / OBS TYPES 
       C3Q L3Q D3Q S3Q                                      SYS / # / OBS TYPES 
C   25 X1  C1P L1P D1P S1P C5P L5P D5P S5P C2I L2I D2I S2I  SYS / # / OBS TYPES 
       C7I L7I D7I S7I C6I L6I D6I S6I C7D L7D D7D S7D      SYS / # / OBS TYPES 
J   17 X1  C1C L1C D1C S1C C2L L2L D2L S2L C5Q L5Q D5Q S5Q  SYS / # / OBS TYPES 
       C1L L1L D1L S1L                                      SYS / # / OBS TYPES 
I    5 X1  C5A L5A D5A S5A                                  SYS / # / OBS TYPES 
SEPTENTRIO RECEIVERS OUTPUT ALIGNED CARRIER PHASES.         COMMENT             
NO FURTHER PHASE SHIFT APPLIED IN THE RINEX ENCODER.        COMMENT             
G L1C                                                       SYS / PHASE SHIFT   
G L2W                                                       SYS / PHASE SHIFT   
G L2L  0.00000                                              SYS / PHASE SHIFT   
G L5Q  0.00000                                              SYS / PHASE SHIFT   
G L1L  0.00000                                              SYS / PHASE SHIFT   
E L1C  0.00000                                              SYS / PHASE SHIFT   
E L6C  0.00000                                              SYS / PHASE SHIFT   
E L5Q  0.00000                                              SYS / PHASE SHIFT   
E L7Q  0.00000                                              SYS / PHASE SHIFT   
E L8Q  0.00000                                              SYS / PHASE SHIFT   
S L1C                                                       SYS / PHASE SHIFT   
S L5I                                                       SYS / PHASE SHIFT   
R L1C                                                       SYS / PHASE SHIFT   
R L2P  0.00000                                              SYS / PHASE SHIFT   
R L2C                                                       SYS / PHASE SHIFT   
R L3Q  0.00000                                              SYS / PHASE SHIFT   
C L1P  0.00000                                              SYS / PHASE SHIFT   
C L5P  0.00000                                              SYS / PHASE SHIFT   
C L2I                                                       SYS / PHASE SHIFT   
C L7I                                                       SYS / PHASE SHIFT   
C L6I                                                       SYS / PHASE SHIFT   
C L7D                                                       SYS / PHASE SHIFT   
J L1C                                                       SYS / PHASE SHIFT   
J L2L  0.00000                                              SYS / PHASE SHIFT   
J L5Q  0.00000                                              SYS / PHASE SHIFT   
J L1L  0.00000                                              SYS / PHASE SHIFT   
I L5A                                                       SYS / PHASE SHIFT   
  2025     1     2    15    45    0.0000000     GPS         TIME OF FIRST OBS   
 C1C    0.000 C2C    0.000 C2P    0.000                     GLONASS COD/PHS/BIS 
DBHZ                                                        SIGNAL STRENGTH UNIT
    18                                                      LEAP SECONDS        
 24 R01  1 R02 -4 R03  5 R04  6 R05  1 R06 -4 R07  5 R08  6 GLONASS SLOT / FRQ #
    R09 -2 R10 -7 R11  0 R12 -1 R13 -2 R14 -7 R15  0 R16 -1 GLONASS SLOT / FRQ #
    R17  4 R18 -3 R19  3 R20  2 R21  4 R22 -3 R23  3 R24  2 GLONASS SLOT / FRQ #
                                                            END OF HEADER       
> 2025 01 02 15 45  0.0000000  0 42
G20         1.000    23703025.851 4                      -331.048 4        26.575
G11         2.000    24009609.496 4                     -3795.408 4        27.473                                                                                                    24009596.826 4                     -2957.211 4        28.531
G25         3.000    20656867.115 7 108552734.00007     -2829.886 7        43.886                                    20656866.171 5  84586532.18605     -2205.108 5        32.497    20656866.475 6  84586451.25306     -2205.321 6        36.284
E25         6.000    23641086.401 7 124234797.50707     -1787.676 7        46.981                                                                    23641089.345 8  92772869.48708     -1335.019 8        48.311    23641087.383 7  95192926.80407     -1369.853 7        45.794
G31         7.000    21941930.432 6 115305849.05606       420.001 6        39.715                                    21941926.908 5  89848545.50305       327.277 5        30.332    21941928.642 5  89848546.50305       327.512 5        34.862
G28         8.000    21398709.477 7 112450959.08607     -1356.085 7        44.150                                    21398710.247 5  87624184.23405     -1056.695 5        31.117    21398709.676 7  87624257.24707     -1056.645 7        46.282
G29         9.000    20399239.719 8 107198798.12908      -817.712 8        50.490                                    20399236.440 7  83531533.93307      -637.180 7        45.311    20399236.908 6  83531485.93406      -637.191 6        41.061
E11        10.000    24056069.749 6 126415622.61606      -592.046 6        38.994                                                                    24056068.232 7  94401216.99407      -442.227 7        42.847    24056066.650 6  96863864.08606      -453.603 6        40.973
E10        11.000    25214737.498 7 132504492.45207     -2187.650 7        42.047                                                                    25214738.782 6  98948077.44506     -1633.661 6        38.739    25214735.416 5 101529387.55605     -1676.111 5        35.138
G18        12.000    23324784.540 6 122572633.57206      2652.051 6        37.444                                    23324783.874 3  95511183.20903      2066.532 3        19.343    23324787.670 5  95511216.17305      2066.634 5        35.176
E12        13.000    27062620.840 5                     -3219.329 5        30.981                                                                                                                                    27062619.548 5 108969939.14105     -2466.899 5        31.736
G04        14.000    25371322.175 4                       194.244 4        28.038
G12        15.000    23871227.205 4 125444111.92504     -4189.284 4        29.299                                    23871208.204 1  97748624.88401     -3264.466 1         7.375
E24        16.000                                                                                                                                                                                                    27608587.844 4                     -2584.843 4        25.519
G26        17.000    23173156.340 6 121775765.72206      2285.857 6        37.686                                    23173159.526 3  94890227.75203      1781.163 3        21.476    23173162.343 5  94890241.76805      1781.219 5        31.389
E07        18.000    27876925.024 4                      -927.626 4        24.030                                                                    27876939.001 4 109395115.71604      -692.624 4        27.341    27876957.200 5 112248953.48705      -710.254 5        34.295
E30        19.000    28806537.068 4                      1778.516 4        27.269                                                                    28806561.006 4                      1328.248 4        29.403    28806545.925 4 115992067.10504      1363.107 4        26.287
E08        20.000                                                                                                                                    27638460.497 3                     -2247.379 3        21.619    27638477.222 4                     -2307.172 4        27.401
E02        21.000    24138502.275 5                       684.727 5        30.415                                                                    24138500.347 5  94724691.37305       510.805 5        31.947    24138488.349 6  97195739.30506       524.682 6        39.270
S23        22.000    38224195.383 6 200869548.98006      -866.769 6        36.359
R08        23.000    23848164.195 4                      -964.627 4        29.735
E36        24.000    25394108.541 6 133447001.47706      1886.535 6        36.042                                                                    25394112.908 6  99652061.96806      1408.923 6        37.577    25394113.673 6 102251665.67106      1445.641 6        38.510
R18        25.000    19333267.349 8 103202326.14708       464.703 8        49.900                                                                    19333268.351 6  80268462.25806       361.395 6        41.871
S21        27.000    38504030.238 5 202340127.13105      -862.217 5        35.414
R07        28.000                                                                                                                                    24329782.165 4                     -2755.247 4        29.573
R19        29.000    22018530.019 3                      3066.533 3        23.657                                                                    22018512.742 4                      2385.458 4        29.014
R15        30.000    20651861.528 6 110357557.83706     -3769.543 6        38.811                                                                    20651865.087 5  85833522.63005     -2931.972 5        31.057
S36        31.000    38275337.893 5 201138242.64505      -862.076 5        35.533
R16        34.000    19301758.587 8 103107127.59908       177.150 8        51.083                                                                    19301760.631 7  80194120.90807       137.727 7        44.572
C44        35.000                                                                                                                                    21396070.348 7 111415273.98107      -537.358 7        47.160                                                                    21396071.659 6  90533929.10706      -436.335 6        38.318
R17        36.000    20147679.658 8 107814701.08708     -3371.642 8        52.555                                                                    20147680.463 7  83855614.58007     -2622.382 7        47.571
R09        37.000                                                                                                                                    22691664.514 6  94244953.22706      2387.494 6        39.517
C12        41.000                                                                                                                                    22404868.155 7 116668090.68107       943.591 7        43.264    22404869.242 7  90215167.99507       729.642 7        46.439    22404866.023 6  94802363.94606       767.056 6        41.483
C35        42.000                                                                                                                                    23229974.169 7 120964549.84907     -3161.585 7        44.555                                                                    23229974.208 6  98293645.39506     -2568.657 6        40.391
C05        43.000                                                                                                                                                                                                    39484540.924 5 158987888.49305      -625.764 5        33.940
C38        44.000                                                                                                                                    39042850.445 6 203306358.82806        69.019 6        40.079                                                                    39042869.167 4                        56.243 4        29.280
C25        45.000                                                                                                                                    23589443.220 8 122836398.57708      1571.612 8        50.411                                                                    23589441.694 7  99814819.88807      1277.321 7        44.265
C08        46.000                                                                                                                                    38827138.200 3                       686.607 3        23.543    38827157.428 4 156340840.10904       529.595 4        27.078    38827152.565 4                       556.962 4        28.464
C26        48.000                                                                                                                                    24292919.782 5                     -3875.915 5        31.615                                                                    24292910.567 5 102791231.98505     -3149.372 5        35.629
C24        51.000                                                                                                                                    21533509.359 7 112130642.21007     -1435.566 7        46.801                                                                    21533507.395 8  91115395.04808     -1166.200 8        49.909
C34        52.000                                                                                                                                    24049984.754 5 125234655.56505      2041.673 5        35.371                                                                    24049983.138 6 101763398.22506      1659.400 6        38.369
I06        58.000    38750646.383 5 152065922.59405      -693.309 5        34.043
> 2025 01 02 15 45  5.0000000  0 42
G20         1.000    23703345.348 4                      -333.332 4        28.483
G11         2.000    24013217.984 4                     -3798.268 4        28.038                                                                                                    24013214.119 4                     -2958.792 4        28.057
G25         3.000    20659560.998 7 108566887.25307     -2831.479 7        44.548                                    20659560.471 5  84597560.70205     -2206.348 5        33.018    20659559.811 6  84597479.74406     -2206.240 6        36.507
E25         6.000    23642787.771 7 124243737.95507     -1788.711 7        47.221                                                                    23642790.677 8  92779545.79208     -1335.691 8        48.233    23642788.546 7  95199777.27207     -1370.513 7        45.922
G31         7.000    21941532.207 6 115303755.67206       417.158 6        37.996                                    21941527.919 4  89846914.29304       325.058 4        29.024    21941530.165 5  89846915.29705       324.990 5        33.802
G28         8.000    21400001.464 7 112457746.45207     -1359.040 7        43.837                                    21400002.287 5  87629473.09405     -1058.994 5        31.298    21400001.072 7  87629546.11107     -1059.030 7        46.142
G29         9.000    20400018.358 8 107202890.72608      -819.599 8        50.454                                    20400015.173 7  83534722.96907      -638.651 7        45.175    20400015.048 6  83534674.97706      -638.523 6        40.279
E11        10.000    24056634.235 6 126418588.17906      -594.344 6        39.601                                                                    24056632.683 7  94403431.54707      -443.738 7        43.035    24056631.052 6  96866136.40606      -455.306 6        40.877
E10        11.000    25216820.083 7 132515434.58807     -2189.452 7        42.423                                                                    25216820.718 6  98956248.50906     -1634.851 6        37.943    25216818.220 5 101537771.80505     -1677.787 5        35.876
G18        12.000    23322263.671 6 122559374.80706      2651.327 6        38.270                                    23322260.345 3  95500851.71903      2065.961 3        19.522    23322265.349 5  95500884.71105      2065.738 5        35.771
E12        13.000    27065684.151 5                     -3220.618 5        31.140                                                                                                                                    27065683.047 5 108982274.77705     -2467.499 5        32.078
G04        14.000    25371143.301 4                       195.767 4        29.810
G12        15.000    23875208.854 4 125465058.34304     -4190.267 4        26.503                                    23875193.931 1  97764946.61601     -3265.001 1         3.600
E24        16.000                                                                                                                                                                                                    27611798.348 4                     -2584.607 4        26.754
G26        17.000    23170982.761 6 121764337.06106      2285.439 6        38.625                                    23170983.786 3  94881322.31603      1780.835 3        20.214    23170985.263 5  94881336.33705      1781.088 5        30.792
E07        18.000    27877806.850 3                      -929.916 3        23.771                                                                    27877821.194 4 109398580.09604      -693.896 4        27.030    27877836.183 5 112252508.19105      -711.610 5        35.605
E30        19.000    28804844.702 4                      1778.838 4        27.976                                                                    28804868.712 4                      1328.400 4        29.611    28804854.408 4 115985252.12904      1362.435 4        26.778
E08        20.000                                                                                                                                    27641329.374 3                     -2250.083 3        21.667    27641344.176 4                     -2308.576 4        28.493
E02        21.000    24137860.486 5                       683.838 5        32.533                                                                    24137849.528 5  94722135.52505       510.975 5        32.497    24137837.890 6  97193116.87806       524.348 6        39.240
S23        22.000    38225016.279 6 200873879.98106      -866.109 6        36.250
R08        23.000                                                                                                                                    23849011.765 3                      -753.051 3        23.200
E36        24.000    25392313.470 6 133437569.66706      1885.766 6        36.405                                                                    25392318.202 6  99645018.75906      1408.381 6        37.414    25392318.945 6 102244438.71906      1444.958 6        38.111
R18        25.000    19332834.106 8 103200010.91108       461.171 8        50.402                                                                    19332834.965 6  80266661.52406       358.575 6        41.287
S21        27.000    38504849.278 5 202344437.32405      -861.776 5        35.210
R07        28.000    24333092.754 5                     -3544.903 5        31.645                                                                    24333096.147 5                     -2757.112 5        31.072
R19        29.000    22015664.451 3                      3064.208 3        22.743                                                                    22015649.414 5                      2384.144 5        32.030
R15        30.000    20655388.348 6 110376410.35906     -3771.745 6        37.826                                                                    20655392.781 5  85848185.73205     -2933.827 5        33.096
S36        31.000    38276153.602 5 201142551.69305      -861.588 5        35.576
R16        34.000    19301594.471 8 103106248.65108       174.248 8        51.212                                                                    19301596.397 7  80193437.28007       135.484 7        44.418
C44        35.000                                                                                                                                    21396587.291 7 111417965.37107      -539.357 7        46.999                                                                    21396589.087 6  90536116.12506      -438.358 6        39.033
R17        36.000    20150831.486 8 107831565.01308     -3374.166 8        52.388                                                                    20150831.506 7  83868730.96107     -2624.308 7        47.365
R09        37.000    22688783.157 4                      3069.114 4        26.683                                                                    22688791.278 6  94233016.16606      2387.204 6        39.219
C12        41.000                                                                                                                                    22403963.301 7 116663375.91507       942.008 7        43.771    22403964.157 7  90211522.26207       728.387 7        46.825    22403960.313 6  94798532.86606       765.468 6        41.616
C35        42.000                                                                                                                                    23233010.600 7 120980359.73007     -3162.569 7        45.418                                                                    23233010.238 6  98306492.25506     -2569.733 6        40.651
C05        43.000                                                                                                                                                                                                    39485317.367 5 158991015.02505      -625.167 5        34.248
C38        44.000                                                                                                                                    39042784.052 6 203306014.99806        68.304 6        40.010                                                                    39042804.092 4                        55.038 4        28.559
C25        45.000                                                                                                                                    23587934.341 8 122828542.68808      1570.527 8        50.293                                                                    23587932.897 7  99808436.39107      1276.230 7        43.873
C08        46.000                                                                                                                                    38826483.742 4                       685.629 4        24.662    38826500.424 4 156338190.50604       529.382 4        26.084    38826494.328 4                       556.449 4        28.379
C26        48.000                                                                                                                                    24296642.577 5                     -3876.981 5        33.695                                                                    24296632.676 6 102806981.78706     -3150.294 6        36.310
C24        51.000                                                                                                                                    21534888.306 7 112137824.61007     -1437.687 7        47.426                                                                    21534886.868 8  91121231.38008     -1168.190 8        50.190
C34        52.000                                                                                                                                    24048027.420 5 125224448.71805      2040.873 5        35.143                                                                    24048022.760 6 101755104.37106      1658.342 6        37.781
I06        58.000    38751530.963 5 152069387.93705      -693.126 5        33.778
> 2025 01 02 15 45 10.0000000  0 41
G20         1.000    23703663.719 4                      -336.181 4        28.095
G11         2.000                                                                                                                                                                    24016823.192 4                     -2960.223 4        26.383
G25         3.000    20662256.038 7 108581050.95907     -2833.863 7        45.153                                    20662256.659 5  84608597.36105     -2208.204 5        33.527    20662255.419 6  84608516.42706     -2208.405 6        36.563
E25         6.000    23644490.159 7 124252684.65407     -1790.096 7        46.801                                                                    23644493.125 8  92786226.77708     -1336.724 8        48.337    23644491.174 7  95206632.55007     -1371.626 7        46.135
G31         7.000    21941138.992 6 115301677.93006       413.956 6        37.217                                    21941132.064 4  89845295.27604       322.567 4        27.904    21941135.415 5  89845296.28105       322.698 5        34.219
G28         8.000    21401296.764 7 112464550.43307     -1362.592 7        44.448                                    21401297.416 5  87634774.90905     -1061.760 5        31.955    21401295.974 7  87634847.93507     -1061.739 7        46.132
G29         9.000    20400799.435 8 107206994.51008      -822.075 8        50.865                                    20400795.887 7  83537920.72407      -640.580 7        44.944    20400796.122 6  83537872.72306      -640.474 6        40.298
E11        10.000    24057200.645 6 126421565.83906      -596.915 6        39.919                                                                    24057199.383 7  94405655.13307      -445.795 7        43.471    24057197.603 6  96868418.00206      -457.377 6        40.913
E10        11.000    25218904.306 7 132526387.17407     -2191.711 7        42.646                                                                    25218904.771 6  98964427.39506     -1636.701 6        37.149    25218902.503 6 101546164.03506     -1679.349 6        36.291
G18        12.000    23319741.856 6 122546121.56906      2650.051 6        39.628                                    23319738.202 3  95490524.55003      2064.982 3        19.970    23319743.541 6  95490557.53206      2065.093 6        36.609
E12        13.000    27068748.291 5                     -3222.046 5        31.177                                                                                                                                    27068748.182 5 108994615.73705     -2468.447 5        32.126
G04        14.000    25370967.079 5                       192.941 5        31.517
E24        16.000                                                                                                                                    27614985.670 5 108367130.31515     -2519.137 5        30.143    27615010.024 4                     -2585.448 4        27.090
G26        17.000    23168809.241 6 121752912.46706      2284.304 6        38.982                                    23168809.178 3  94872420.04203      1779.995 3        18.418    23168811.156 5  94872434.05005      1779.888 5        30.181
E07        18.000    27878696.202 4                      -931.800 4        27.138                                                                    27878707.102 4 109402052.98904      -695.129 4        25.880    27878719.538 6 112256071.75906      -713.652 6        36.794
E30        19.000    28803149.434 4                      1779.184 4        27.880                                                                    28803176.243 5                      1328.660 5        30.536    28803160.573 4 115978436.30104      1363.235 4        26.623
E08        20.000                                                                                                                                                                                                    27644212.257 4                     -2309.361 4        29.507
E02        21.000    24137214.435 5                       683.001 5        33.862                                                                    24137198.423 5  94719582.97005       509.991 5        31.970    24137189.177 6  97190497.77306       523.424 6        38.958
S23        22.000    38225844.700 6 200878210.65506      -866.243 6        36.265
R08        23.000                                                                                                                                    23849912.242 4                      -756.171 4        24.707
E36        24.000    25390519.634 5 133428144.31505      1884.255 5        35.829                                                                    25390524.866 6  99637980.37506      1407.163 6        37.561    25390525.654 6 102237216.69106      1443.746 6        38.105
R18        25.000    19332403.932 8 103197715.11908       456.997 8        50.398                                                                    19332404.511 7  80264875.90207       355.552 7        42.290
S21        27.000    38505668.842 5 202348746.95705      -862.096 5        35.276
R07        28.000    24336412.446 5                     -3547.617 5        34.338                                                                    24336414.757 5                     -2759.365 5        32.000
R19        29.000    22012803.776 3                      3062.670 3        20.190                                                                    22012784.441 5                      2382.451 5        33.000
R15        30.000    20658921.274 6 110395275.66106     -3774.601 6        39.240                                                                    20658923.145 5  85862858.71105     -2935.852 5        33.820
S36        31.000    38276973.818 5 201146859.61105      -861.724 5        35.548
R16        34.000    19301433.017 8 103105386.43208       170.620 8        51.581                                                                    19301434.526 7  80192766.67407       132.660 7        44.980
C44        35.000                                                                                                                                    21397106.519 7 111420668.02507      -541.777 7        47.003                                                                    21397108.438 6  90538312.23706      -440.272 6        40.207
R17        36.000    20153985.788 8 107848443.36908     -3377.268 8        52.368                                                                    20153985.681 7  83881858.58707     -2626.759 7        47.291
R09        37.000                                                                                                                                    22685916.943 6                      2386.701 6        39.261
C12        41.000                                                                                                                                    22403059.306 7 116658671.13207       939.852 7        43.644    22403060.963 7  90207884.23707       726.777 7        46.666    22403056.829 7  94794709.82907       763.622 7        42.061
C35        42.000                                                                                                                                    23236048.326 7 120996176.10907     -3164.023 7        46.195                                                                    23236047.862 6  98319344.35406     -2571.064 6        40.868
C05        43.000                                                                                                                                                                                                    39486093.954 5 158994141.23505      -625.482 5        33.671
C38        44.000                                                                                                                                    39042718.249 6 203305675.96506        67.179 6        39.787                                                                    39042740.219 4                        54.417 4        28.758
C25        45.000                                                                                                                                    23586426.832 8 122820693.91908      1568.899 8        49.870                                                                    23586425.377 7  99802058.61407      1274.911 7        43.501
C08        46.000                                                                                                                                    38825833.019 4                       684.611 4        24.767                                                                    38825837.751 4                       555.729 4        28.095
C26        48.000                                                                                                                                    24300366.451 5                     -3878.205 5        33.198                                                                    24300355.945 6 102822736.00406     -3151.359 6        37.180
C24        51.000                                                                                                                                    21536269.694 7 112145019.16707     -1440.297 7        47.383                                                                    21536268.643 8  91127077.53408     -1170.354 8        50.712
C34        52.000                                                                                                                                    24046071.725 5 125214247.25405      2039.499 5        35.743                                                                    24046063.646 6 101746814.87906      1657.233 6        37.183
I06        58.000    38752413.221 5 152072852.79405      -693.095 5        33.910
> 2025 01 02 15 45 15.0000000  0 40
G20         1.000    23703992.044 4                      -339.191 4        29.090
G11         2.000                                                                                                                                                                    24020435.655 4                     -2961.459 4        25.850
G25         3.000    20664953.070 7 108595226.57407     -2836.362 7        44.333                                    20664954.956 5  84619643.29205     -2210.148 5        33.892    20664953.264 6  84619562.33306     -2210.054 6        36.355
E25         6.000    23646194.119 7 124261639.08607     -1791.676 7        46.518                                                                    23646197.156 8  92792913.53108     -1337.939 8        48.405    23646195.210 7  95213493.74407     -1372.934 7        46.314
G31         7.000    21940747.750 5 115299617.37205       410.356 5        35.929                                    21940739.804 4  89843689.63604       319.767 4        26.479    21940742.947 5  89843690.65005       319.523 5        33.976
G28         8.000    21402595.239 7 112471372.46907     -1366.172 7        44.960                                    21402595.895 5  87640090.79605     -1064.555 5        32.066    21402593.846 7  87640163.82407     -1064.585 7        46.029
G29         9.000    20401582.870 8 107211110.91308      -824.516 8        50.723                                    20401578.761 7  83541128.31507      -642.479 7        44.280    20401579.867 6  83541080.32606      -642.436 6        39.652
E11        10.000    24057769.978 6 126424556.99106      -599.704 6        40.269                                                                    24057768.764 7  94407888.79807      -447.824 7        43.702    24057766.800 6  96870709.93706      -459.447 6        41.025
E10        11.000    25220990.732 7 132537351.64707     -2194.199 7        43.264                                                                    25220991.243 6  98972615.17506     -1638.603 6        37.028    25220989.419 6 101554565.39206     -1681.345 6        36.904
G18        12.000    23317220.925 6 122532875.38206      2648.338 6        40.250                                    23317217.746 3  95480202.86803      2063.638 3        20.952    23317223.396 6  95480235.84006      2063.779 6        37.826
E12        13.000    27071815.175 5                     -3224.053 5        30.528                                                                                                                                    27071814.493 5 109006963.11705     -2469.983 5        32.096
G04        14.000    25370791.845 5                       189.407 5        30.755
E24        16.000                                                                                                                                    27618194.262 5 108379728.15905     -2520.121 5        30.430    27618221.159 4                     -2585.206 4        27.078
G26        17.000    23166635.220 6 121741493.37506      2283.331 6        38.156                                    23166635.929 2  94863522.06802      1779.208 2        15.762    23166637.715 4  94863536.06104      1778.808 4        28.540
E07        18.000    27879585.577 4                      -934.173 4        29.621                                                                                                                                    27879604.345 6 112259645.25206      -715.773 6        37.467
E30        19.000    28801456.871 4                      1778.237 4        26.934                                                                    28801483.783 5                      1328.381 5        31.917    28801467.734 4 115971620.78304      1363.135 4        25.759
E08        20.000    27647064.559 5 145286297.39215     -3015.192 5        34.048                                                                    27647099.319 5                     -2252.057 5        32.647    27647081.867 5                     -2310.750 5        31.004
E02        21.000    24136559.579 5 126838485.16315       681.925 5        34.681                                                                    24136545.649 5  94717034.68205       508.979 5        32.647    24136541.412 6  97187883.06306       522.502 6        38.682
S23        22.000    38226668.901 6 200882542.27506      -866.392 6        36.280
E36        24.000    25388726.971 5 133418726.85305      1882.673 5        34.114                                                                    25388732.867 6  99630947.88206      1405.799 6        37.784    25388734.763 6 102230000.71306      1442.446 6        38.120
R18        25.000    19331977.536 8 103195440.23408       452.851 8        50.008                                                                    19331978.763 7  80263106.56607       352.164 7        43.069
S21        27.000    38506487.591 5 202353057.73605      -862.375 5        35.143
R07        28.000    24339733.529 5 130292453.84305     -3550.292 5        34.157                                                                    24339731.221 5                     -2761.616 5        32.042
R19        29.000                                                                                                                                    22009921.785 5                      2380.893 5        33.180
R15        30.000    20662454.678 6 110414155.21806     -3777.271 6        40.012                                                                    20662457.525 5  85877542.81905     -2937.878 5        35.638
S36        31.000    38277795.984 5 201151169.16005      -862.060 5        35.457
R16        34.000    19301274.972 8 103104542.24708       167.016 8        51.359                                                                    19301276.113 7  80192110.07207       129.891 7        44.700
C44        35.000                                                                                                                                    21397628.037 7 111423383.38707      -544.296 7        47.316                                                                    21397630.136 6  90540518.69806      -442.313 6        41.228
R17        36.000    20157142.926 8 107865337.67108     -3380.507 8        52.440                                                                    20157142.810 7  83894998.59907     -2629.248 7        46.677
R09        37.000                                                                                                                                    22683043.074 6  94209150.41816      2385.955 6        38.658
C12        41.000                                                                                                                                    22402157.361 7 116653977.71807       937.504 7        43.928    22402159.189 7  90204254.99407       724.965 7        45.722    22402155.554 7  94790896.04107       761.991 7        42.445
C35        42.000                                                                                                                                    23239087.748 7 121012000.38907     -3165.650 7        46.802                                                                    23239086.903 6  98332202.87206     -2572.322 6        41.011
C05        43.000                                                                                                                                                                                                    39486870.121 5 158997268.17405      -625.677 5        33.138
C38        44.000                                                                                                                                    39042654.158 6 203305343.18506        66.036 6        39.703                                                                    39042678.341 4                        53.696 4        28.047
C25        45.000                                                                                                                                    23584920.747 8 122812853.72708      1567.215 8        49.675                                                                    23584919.513 7  99795687.83407      1273.558 7        43.280
C08        46.000                                                                                                                                    38825177.617 4                       682.552 4        25.444    38825186.173 4 156332902.84804       528.322 4        25.925    38825184.027 4                       554.749 4        28.360
C26        48.000                                                                                                                                    24304093.249 5                     -3879.599 5        32.323                                                                    24304080.190 6 102838495.85406     -3152.504 6        37.720
C24        51.000                                                                                                                                    21537653.811 7 112152227.31207     -1442.984 7        47.577                                                                    21537652.999 8  91132934.74408     -1172.511 8        51.197
C34        52.000                                                                                                                                    24044114.987 5 125204052.72105      2038.055 5        35.710                                                                    24044105.938 6 101738531.00206      1656.263 6        36.711
I06        58.000    38753295.766 5 152076318.25305      -693.076 5        33.916
> 2025 01 02 15 45 20.0000000  0 40
G11         2.000    24024032.160 5                     -3802.331 5        30.098                                                                                                    24024055.308 4                     -2962.885 4        25.714
G25         3.000    20667652.062 7 108609413.09507     -2838.560 7        44.160                                    20667655.114 5  84630697.73005     -2211.865 5        34.048    20667652.983 6  84630616.79706     -2211.995 6        36.435
E25         6.000    23647899.277 7 124270600.28607     -1793.103 7        46.365                                                                    23647902.428 8  92799605.33808     -1338.972 8        48.413    23647900.510 7  95220360.11907     -1373.898 7        46.545
G31         7.000    21940358.427 6 115297572.95706       407.202 6        36.166                                    21940350.429 4  89842096.58204       317.304 4        25.293    21940353.147 5  89842097.58405       317.169 5        33.006
G28         8.000    21403896.889 7 112478211.60107     -1369.602 7        45.083                                    21403897.463 5  87645419.99805     -1067.231 5        32.335    21403895.301 7  87645493.03307     -1067.275 7        46.094
G29         9.000    20402368.148 8 107215238.97408      -826.851 8        50.913                                    20402363.665 7  83544344.99107      -644.297 7        43.873    20402365.288 6  83544297.03106      -644.313 6        38.444
E11        10.000    24058341.654 6 126427560.70906      -602.087 6        40.710                                                                    24058340.274 7  94410131.84007      -449.578 7        43.644    24058338.467 6  96873011.49106      -461.338 6        41.054
E10        11.000    25223079.031 7 132548327.04307     -2196.208 7        43.534                                                                    25223079.774 6  98980811.07806     -1640.035 6        36.571    25223078.237 6 101562975.11806     -1682.876 6        37.176
G18        12.000    23314701.350 6 122519635.23206      2647.335 6        41.042                                    23314698.478 3  95469885.88203      2062.851 3        21.786    23314703.416 6  95469918.85906      2062.875 6        38.730
E12        13.000    27074885.570 4                     -3225.024 4        29.735                                                                                                                                    27074882.273 5 109019316.18405     -2471.204 5        32.251
G04        14.000    25370612.895 4                       186.100 4        29.517
G12        15.000    23887169.497 3                     -4194.570 3        21.119                                                                                                    23887156.313 3                     -3263.646 3        20.405
E24        16.000                                                                                                                                    27621404.178 5 108392328.03105     -2520.639 5        30.106    27621433.259 4                     -2585.849 4        26.311
G26        17.000    23164461.677 6 121730078.84806      2282.318 6        36.945                                    23164463.575 2  94854627.62702      1778.454 2        13.455
E07        18.000    27880478.676 5                      -936.389 5        32.443                                                                    27880484.884 4 109409027.35404      -699.516 4        24.737    27880492.507 6 112263227.94906      -717.632 6        37.939
E30        19.000    28799762.694 4                      1778.986 4        24.586                                                                    28799790.742 5                      1328.549 5        33.018    28799775.673 4 115964804.83504      1362.882 4        26.958
E08        20.000    27649935.327 5 145301378.09805     -3016.919 5        35.738                                                                    27649961.940 5                     -2252.775 5        33.808    27649952.224 5                     -2311.622 5        31.804
E02        21.000    24135903.270 5 126835077.48705       680.965 5        35.719                                                                    24135891.821 5  94714490.00405       508.490 5        34.233    24135893.854 6  97185272.05306       521.686 6        38.000
S23        22.000    38227495.766 6 200886874.26006      -866.553 6        36.223
E36        24.000    25386936.383 5 133409316.31905      1881.391 5        31.879                                                                    25386942.299 6  99623920.54906      1404.717 6        38.015    25386945.756 6 102222790.02506      1441.583 6        38.009
R18        25.000    19331555.024 8 103193185.32408       448.890 8        50.019                                                                    19331556.661 7  80261352.77007       349.146 7        43.297
S21        27.000    38507311.447 5 202357368.58305      -862.077 5        35.181
R07        28.000                                                                                                                                    24343049.134 5                     -2763.235 5        30.853
R19        29.000                                                                                                                                    22007063.828 5                      2379.411 5        32.359
R15        30.000    20665989.403 6 110433048.24206     -3779.993 6        41.266                                                                    20665993.237 6  85892237.39406     -2940.050 6        37.701
S36        31.000    38278612.565 5 201155480.24305      -862.373 5        35.195
R16        34.000    19301119.651 8 103103715.33008       163.559 8        51.132                                                                    19301121.331 7  80191466.93007       127.216 7        44.214
C44        35.000                                                                                                                                    21398151.685 7 111426110.50207      -546.756 7        47.666                                                                    21398153.983 7  90542734.71007      -444.166 7        42.112
R17        36.000    20160302.871 8 107882246.85008     -3383.444 8        52.443                                                                    20160302.573 7  83908150.19607     -2631.582 7        46.022
R09        37.000                                                                                                                                    22680170.321 6                      2385.176 6        37.962
C12        41.000                                                                                                                                    22401258.701 7 116649294.73307       935.476 7        44.494    22401259.155 7  90200633.81807       723.379 7        44.426    22401256.411 7  94787090.75707       760.136 7        42.938
C35        42.000                                                                                                                                    23242127.964 7 121027831.62407     -3167.043 7        47.334                                                                    23242127.338 6  98345067.07606     -2573.418 6        41.371
C05        43.000                                                                                                                                                                                                    39487647.038 5 159000395.12705      -625.321 5        33.180
C38        44.000                                                                                                                                    39042590.942 6 203305015.68806        64.923 6        39.390                                                                    39042615.653 4                        52.631 4        28.569
C25        45.000                                                                                                                                    23583416.191 8 122805021.15108      1565.626 8        49.921                                                                    23583415.210 7  99789323.26107      1272.281 7        42.944
C08        46.000                                                                                                                                    38824518.974 4                       681.730 4        26.359    38824528.827 4 156330265.27804       526.837 4        28.019    38824531.926 4                       554.008 4        29.308
C26        48.000                                                                                                                                    24307822.828 5                     -3880.758 5        30.913                                                                    24307805.597 6 102854260.54806     -3153.523 6        37.917
C24        51.000                                                                                                                                    21539040.577 7 112159448.09207     -1445.530 7        47.633                                                                    21539039.821 8  91138802.23808     -1174.538 8        51.748
C34        52.000                                                                                                                                    24042159.685 5 125193864.10805      2037.051 5        35.386                                                                    24042149.232 6 101730251.96106      1655.283 6        36.321
I06        58.000    38754180.021 5 152079783.61805      -693.189 5        34.405
> 2025 01 02 15 45 25.0000000  0 39
G11         2.000    24027659.393 5                     -3804.667 5        31.525                                                                                                    24027681.821 4                     -2964.926 4        25.248
G25         3.000    20670354.048 7 108623610.29107     -2840.811 7        43.009                                    20670357.057 5  84641760.48605     -2213.621 5        34.195    20670354.156 5  84641679.52705     -2213.706 5        35.981
E25         6.000    23649605.939 7 124279567.98407     -1794.495 7        46.697                                                                    23649608.744 8  92806301.99608     -1340.032 8        48.193    23649607.116 7  95227231.47807     -1375.025 7        46.530
G31         7.000    21939973.138 6 115295544.51406       403.684 6        36.688                                    21939964.139 3  89840515.98303       314.583 3        22.838    21939968.097 5  89840516.96605       314.637 5        31.426
G28         8.000    21405201.600 7 112485067.58607     -1373.201 7        44.769                                    21405202.176 5  87650762.34105     -1070.029 5        32.605    21405200.202 7  87650835.36707     -1070.064 7        46.234
G29         9.000    20403155.714 8 107219378.45308      -829.352 8        50.748                                    20403150.706 7  83547570.56707      -646.251 7        43.456    20403153.007 6  83547522.59906      -646.262 6        36.302
E11        10.000    24058915.693 6 126430576.74706      -604.771 6        41.344                                                                    24058914.253 7  94412384.08007      -451.610 7        43.780    24058912.612 6  96875322.47806      -463.463 6        41.268
E10        11.000    25225169.779 7 132559313.12407     -2198.580 7        43.776                                                                    25225170.915 6  98989014.98406     -1641.923 6        36.004    25225169.415 6 101571393.01506     -1684.691 6        37.425
G18        12.000    23312182.404 6 122506400.90306      2646.011 6        41.323                                    23312180.704 3  95459573.45103      2061.816 3        22.990    23312184.586 6  95459606.43206      2061.798 6        40.021
E12        13.000    27077958.210 4                     -3226.330 4        29.450                                                                                                                                    27077951.874 5 109031674.69205     -2472.712 5        32.024
G12        15.000    23891156.606 3                     -4194.177 3        21.500                                                                                                    23891147.710 3                     -3268.514 3        22.076
E24        16.000                                                                                                                                    27624615.739 4 108404929.76404     -2520.426 4        29.848    27624645.677 4                     -2585.282 4        24.526
G26        17.000    23162291.148 5 121718668.63505      2281.147 5        35.000                                    23162291.752 1  94845736.55001      1777.529 1        11.852
E07        18.000    27881373.126 5 146517603.02415      -938.946 5        34.238                                                                    27881379.657 4 109412527.69304      -701.166 4        25.263    27881384.207 6 112266819.66506      -719.555 6        37.943
E30        19.000    28798066.827 3                      1779.215 3        22.229                                                                    28798097.508 5                      1328.768 5        32.982    28798083.705 4 115957988.28204      1363.510 4        27.389
E08        20.000    27652807.734 6 145316465.41506     -3018.485 6        36.888                                                                    27652833.544 5 108515655.24915     -2254.196 5        33.293    27652821.991 5                     -2312.740 5        32.952
E02        21.000    24135249.555 5 126831674.37705       679.802 5        35.305                                                                    24135241.692 5  94711948.73605       507.684 5        35.857    24135246.646 6  97182664.52006       520.934 6        36.851
S23        22.000    38228320.660 6 200891206.05806      -866.712 6        36.442
E36        24.000    25385147.664 5 133399912.45905      1879.865 5        30.664                                                                    25385152.903 6  99616898.19806      1403.691 6        38.276    25385157.749 6 102215584.47306      1440.418 6        37.584
R18        25.000    19331136.621 8 103190950.04708       444.723 8        49.255                                                                    19331137.351 7  80259614.22907       345.818 7        43.498
S21        27.000    38508131.753 5 202361679.06105      -862.504 5        34.700
R07        28.000                                                                                                                                    24346368.137 5                     -2765.465 5        30.226
R19        29.000                                                                                                                                    22004205.455 5                      2377.776 5        30.823
R15        30.000    20669527.606 7 110451954.21007     -3782.833 7        43.228                                                                    20669531.741 6  85906942.01806     -2942.023 6        39.649
S36        31.000    38279433.443 5 201159791.43205      -862.198 5        34.762
R16        34.000    19300967.478 8 103102905.33108       159.927 8        50.435                                                                    19300970.284 7  80190836.93607       124.339 7        44.387
C44        35.000                                                                                                                                    21398677.498 8 111428849.11708      -549.246 8        48.004                                                                    21398679.994 7  90544960.06107      -446.170 7        42.749
R17        36.000    20163465.494 8 107899170.59808     -3386.487 8        52.626                                                                    20163465.463 7  83921313.11707     -2633.940 7        45.475
R09        37.000                                                                                                                                    22677299.429 6  94185296.10116      2384.719 6        37.686
C12        41.000                                                                                                                                    22400362.404 7 116644621.98007       933.159 7        45.356    22400361.655 7  90197020.56207       721.489 7        43.407    22400359.279 7  94783293.77107       758.426 7        43.465
C35        42.000                                                                                                                                    23245169.077 7 121043669.57207     -3168.541 7        47.525                                                                    23245168.827 6  98357936.71706     -2574.677 6        41.387
C05        43.000                                                                                                                                                                                                    39488422.695 5 159003521.91805      -625.508 5        33.060
C38        44.000                                                                                                                                    39042529.140 6 203304693.24506        63.635 6        39.231                                                                    39042553.618 4                        52.289 4        28.493
C25        45.000                                                                                                                                    23581913.175 8 122797195.95908      1564.001 8        50.123                                                                    23581912.416 7  99782964.69107      1270.990 7        42.758
C08        46.000                                                                                                                                    38823867.329 4                       681.065 4        26.072    38823875.299 4 156327631.40104       526.211 4        28.720    38823879.954 5                       553.055 5        30.113
C26        48.000                                                                                                                                    24311552.899 4                     -3881.676 4        29.374                                                                    24311532.416 6 102870029.88106     -3154.396 6        38.330
C24        51.000                                                                                                                                    21540429.990 7 112166681.27907     -1448.217 7        47.797                                                                    21540428.956 8  91144679.79108     -1176.626 8        52.036
C34        52.000                                                                                                                                    24040205.797 5 125183681.17905      2035.663 5        34.214                                                                    24040193.654 6 101721977.55106      1654.326 6        36.015
I06        58.000    38755062.273 5 152083248.69205      -693.123 5        34.452
> 2025 01 02 15 45 30.0000000  0 42
G20         1.000    23705014.069 5                      -348.271 5        31.268
G11         2.000    24031287.739 5                     -3806.050 5        32.012
G25         3.000    20673057.483 7 108637818.15807     -2842.971 7        42.372                                    20673060.685 5  84652831.55905     -2215.307 5        34.043    20673057.518 5  84652750.58905     -2215.112 5        35.410
E25         6.000    23651313.956 7 124288542.17807     -1795.650 7        47.087                                                                    23651316.346 7  92813003.51007     -1340.876 7        47.962    23651314.879 7  95234107.81407     -1375.945 7        46.658
G31         7.000                                                                                                                                                                    21939584.825 4  89838948.72504       312.257 4        29.024
G28         8.000    21406509.571 7 112491940.40307     -1376.487 7        45.088                                    21406509.991 5  87656117.79805     -1072.588 5        32.653    21406508.012 7  87656190.80507     -1072.505 7        46.375
G29         9.000    20403945.522 8 107223529.30908      -831.494 8        50.607                                    20403939.925 7  83550805.01307      -647.920 7        43.191    20403942.738 5  83550757.05405      -648.061 5        35.229
E11        10.000    24059491.438 6 126433605.06506      -607.168 6        41.242                                                                    24059490.649 7  94414645.49607      -453.378 7        43.625    24059489.038 6  96877642.86706      -465.038 6        41.425
E10        11.000    25227262.606 7 132570309.83807     -2200.579 7        43.680                                                                    25227263.827 5  98997226.81905     -1643.321 5        35.786    25227262.971 6 101579819.08206     -1686.162 6        37.868
G18        12.000    23309664.864 6 122493172.38906      2645.038 6        41.850                                    23309664.147 3  95449265.54103      2061.062 3        23.790    23309667.463 6  95449298.53306      2060.990 6        41.437
E12        13.000    27081032.982 4                     -3227.980 4        28.133                                                                                                                                    27081022.485 5 109044038.65105     -2473.392 5        31.404
G04        14.000    25370241.125 5                       181.288 5        31.706
G12        15.000    23895142.525 3                     -4192.948 3        23.390                                                                                                    23895139.590 3                     -3267.921 3        23.448
E24        16.000                                                                                                                                    27627826.823 4 108417533.47304     -2521.063 4        29.754    27627859.629 3                     -2586.714 3        22.895
G26        17.000    23160120.231 5 121707262.77005      2280.398 5        34.757                                    23160120.860 1  94836848.83801      1776.923 1        10.370
E07        18.000    27882265.291 5 146522302.25505      -941.183 5        34.724                                                                    27882278.179 4 109416036.91804      -702.474 4        25.038    27882278.149 6 112270420.40006      -721.164 6        37.202
E30        19.000    28796374.496 3                      1779.692 3        22.419                                                                    28796403.617 5                      1328.858 5        32.886    28796390.740 4 115951171.11104      1363.161 4        28.000
E08        20.000    27655679.630 6 145331559.32106     -3019.541 6        36.594                                                                    27655704.368 5 108526926.67005     -2255.270 5        32.898    27655692.419 5                     -2313.576 5        33.569
E02        21.000    24134598.364 6 126828275.86706       679.088 6        36.318                                                                    24134595.928 6  94709410.91306       506.997 6        37.274    24134600.878 5  97180060.48505       520.317 5        34.762
S23        22.000    38229141.319 6 200895537.67106      -866.403 6        36.242
R08        23.000    23853638.087 3                      -988.261 3        23.295                                                                    23853621.561 3                      -771.455 3        22.457
E36        24.000    25383359.605 4 133390515.30904      1878.724 4        29.640                                                                    25383364.916 6  99609880.84506      1402.825 6        38.483    25383370.344 6 102208384.06106      1439.279 6        36.760
R18        25.000    19330720.781 8 103188734.44708       440.959 8        48.300                                                                    19330722.840 7  80257891.01207       342.973 7        44.533
S21        27.000    38508952.913 5 202365989.09905      -862.201 5        34.609
R07        28.000                                                                                                                                    24349683.917 5                     -2767.414 5        30.000
R19        29.000    22001336.644 3                      3054.869 3        23.200                                                                    22001350.556 4                      2376.341 4        29.081
R15        30.000    20673069.922 7 110470873.32007     -3785.416 7        45.369                                                                    20673072.344 6  85921656.87506     -2944.235 6        40.832
S36        31.000    38280252.108 5 201164102.23005      -862.295 5        34.924
R16        34.000    19300819.171 8 103102112.39208       156.690 8        50.779                                                                    19300822.067 7  80190220.19907       121.936 7        45.025
C44        35.000                                                                                                                                    21399205.588 7 111431599.22607      -551.304 7        47.363                                                                    21399208.344 7  90547194.73807      -447.988 7        43.575
R17        36.000    20166630.885 8 107916109.06108     -3389.325 8        52.774                                                                    20166631.282 7  83934487.48007     -2636.175 7        45.326
R09        37.000                                                                                                                                    22674428.111 6  94173372.78906      2384.242 6        37.123
C12        41.000                                                                                                                                    22399467.466 7 116639959.37207       931.336 7        46.026    22399464.977 7  90193415.14207       720.207 7        42.705    22399463.964 7  94779505.03007       756.694 7        44.233
C35        42.000                                                                                                                                    23248211.629 7 121059514.21607     -3169.819 7        47.536                                                                    23248211.561 6  98370811.77606     -2575.742 6        41.392
C05        43.000                                                                                                                                                                                                    39489199.903 5 159006648.51205      -625.568 5        33.641
C38        44.000                                                                                                                                    39042467.482 6 203304375.83506        62.836 6        38.991                                                                    39042493.367 4                        51.370 4        28.303
C25        45.000                                                                                                                                    23580411.733 8 122789378.14108      1562.672 8        50.567                                                                    23580410.870 7  99776612.10507      1269.687 7        42.645
C08        46.000                                                                                                                                    38823213.274 4                       678.504 4        26.072    38823220.937 4 156325001.11304       525.297 4        29.564    38823227.696 5                       552.498 5        30.347
C26        48.000                                                                                                                                    24315283.909 4                     -3882.786 4        28.701                                                                    24315260.416 6 102885803.83406     -3155.427 6        38.550
C24        51.000                                                                                                                                    21541821.390 8 112173926.83408     -1450.460 8        48.113                                                                    21541820.450 8  91150567.40108     -1178.686 8        52.321
C34        52.000                                                                                                                                    24038253.450 5 125173503.91505      2035.207 5        31.283                                                                    24038239.433 5 101713707.74605      1653.261 5        35.848
I06        58.000    38755945.455 5 152086713.45905      -693.052 5        34.505
> 2025 01 02 15 45 35.0000000  0 41
G20         1.000    23705344.302 5                      -351.409 5        31.691
G11         2.000    24034916.711 5                     -3808.010 5        31.751                                                                                                    24034942.685 3                     -2966.261 3        22.876
G25         3.000    20675763.777 6 108652036.96306     -2845.036 6        41.876                                    20675766.177 5  84663911.15605     -2216.916 5        33.683    20675764.440 5  84663830.19505     -2216.899 5        35.914
E25         6.000    23653023.054 7 124297523.17707     -1797.002 7        47.443                                                                    23653025.118 7  92819710.10607     -1341.938 7        47.739    23653023.952 7  95240989.36507     -1376.918 7        46.757
G31         7.000    21939239.854 5 115291535.57405       397.066 5        31.570                                    21939200.837 2  89837392.18802       309.400 2        17.283    21939204.527 4  89837393.19504       309.484 4        28.057
G28         8.000    21407820.559 7 112498830.33407     -1379.853 7        45.267                                    21407821.013 5  87661486.59505     -1075.209 5        32.443    21407818.613 7  87661559.59607     -1075.182 7        46.042
G29         9.000    20404737.263 8 107227691.86508      -833.835 8        50.238                                    20404731.554 7  83554048.57107      -649.743 7        42.734    20404735.212 6  83554000.59806      -649.791 6        36.284
E11        10.000    24060069.250 6 126436645.99706      -609.453 6        40.741                                                                    24060069.187 7  94416916.31707      -455.143 7        43.600    24060067.838 6  96879972.92806      -466.982 6        41.650
E10        11.000    25229357.164 7 132581317.49307     -2202.699 7        43.744                                                                    25229359.216 5  99005446.82905     -1645.035 5        35.505    25229358.339 6 101588253.52506     -1687.924 6        38.123
G18        12.000    23307148.728 6 122479950.02806      2643.801 6        41.878                                    23307148.787 4  95438962.42704      2060.102 4        24.346    23307151.375 7  95438995.42007      2060.023 7        42.445
E12        13.000    27084114.257 4                     -3229.374 4        26.168                                                                                                                                    27084093.880 5 109056408.31205     -2474.600 5        30.634
G04        14.000    25370069.871 5                       178.896 5        31.283
G12        15.000    23899133.055 4                     -4195.746 4        24.481                                                                                                    23899135.199 4                     -3268.951 4        26.407
E24        16.000                                                                                                                                    27631039.122 4 108430139.27504     -2521.517 4        28.844    27631074.529 3                     -2587.729 3        21.429
G26        17.000    23157951.213 6 121695861.51006      2279.659 6        36.208                                    23157951.198 1  94827964.71201      1776.351 1         8.571    23158000.551 4  94827978.46804      1776.581 4        28.028
E07        18.000    27883161.249 5 146527013.46905      -943.398 5        34.476                                                                                                                                    27883173.535 6 112274030.31306      -723.064 6        36.847
E30        19.000    28794682.390 3                      1780.306 3        20.690                                                                    28794710.138 5                      1328.996 5        32.784    28794697.654 4 115944353.50004      1363.203 4        28.237
E08        20.000    27658553.572 5 145346660.14205     -3021.297 5        35.324                                                                    27658580.354 5 108538203.24305     -2255.900 5        32.922    27658564.493 5                     -2314.709 5        33.880
E02        21.000    24133952.688 6 126824882.20406       678.113 6        37.701                                                                    24133951.572 6  94706876.69806       506.380 6        38.619    24133956.316 5  97177460.14005       519.817 5        32.060
S23        22.000    38229962.658 6 200899869.56106      -866.507 6        36.110
E36        24.000    25381572.853 4 133381125.17004      1877.377 4        29.422                                                                    25381578.342 6  99602868.71806      1401.955 6        38.877    25381584.607 5 102201188.99105      1438.340 5        35.690
R18        25.000    19330309.078 8 103186538.87108       437.015 8        48.190                                                                    19330311.701 7  80256183.34907       339.909 7        44.340
S21        27.000    38509775.709 5 202370299.34905      -862.168 5        34.538
R07        28.000    24353089.698 5                     -3560.877 5        31.540                                                                    24353010.192 5                     -2769.429 5        30.566
R19        29.000    21998479.666 4                      3053.095 4        25.429                                                                    21998499.110 4                      2375.012 4        29.460
R15        30.000    20676615.571 7 110489805.77007     -3787.952 7        46.110                                                                    20676614.930 6  85936382.08506     -2946.336 6        41.170
S36        31.000    38281074.913 5 201168412.71205      -861.895 5        34.562
R16        34.000    19300674.585 8 103101336.65208       153.313 8        50.746                                                                    19300676.658 7  80189616.84007       119.285 7        45.451
C44        35.000                                                                                                                                    21399735.643 7 111434361.13607      -553.660 7        47.002                                                                    21399738.779 7  90549439.01107      -449.876 7        43.915
R17        36.000    20169799.025 8 107933062.31708     -3392.224 8        53.213                                                                    20169799.835 7  83947673.35207     -2638.330 7        45.731
R09        37.000                                                                                                                                    22671558.046 5  94161452.44105      2383.682 5        35.843
C12        41.000                                                                                                                                    22398573.437 7 116635307.27507       929.295 7        46.062    22398571.233 7  90189817.85907       718.589 7        42.959    22398570.715 7  94775724.83407       755.148 7        44.515
C35        42.000                                                                                                                                    23251255.740 7 121075365.82407     -3170.993 7        47.334                                                                    23251255.737 6  98383692.52206     -2576.804 6        41.244
C05        43.000                                                                                                                                                                                                    39489977.272 5 159009775.10305      -625.313 5        33.551
C38        44.000                                                                                                                                    39042407.017 6 203304063.77306        61.758 6        38.369                                                                    39042434.168 4                        50.470 4        27.844
C25        45.000                                                                                                                                    23578911.945 8 122781568.00608      1561.127 8        50.890                                                                    23578911.069 7  99770265.77407      1268.507 7        42.444
C08        46.000                                                                                                                                    38822561.360 4                       678.807 4        24.722    38822568.830 5 156322374.76905       524.867 5        30.528    38822575.864 5                       551.545 5        30.672
C26        48.000                                                                                                                                    24319014.051 4                     -3884.597 4        26.311                                                                    24318989.378 6 102901582.64106     -3156.390 6        38.544
C24        51.000                                                                                                                                    21543215.211 8 112181185.04608     -1453.011 8        48.722                                                                    21543214.329 8  91156465.31808     -1180.647 8        52.395
C34        52.000                                                                                                                                                                                                                                                                    24036285.992 6 101705442.82306      1652.526 6        36.102
I06        58.000    38756827.846 5 152090178.13105      -692.909 5        34.586
> 2025 01 02 15 45 40.0000000  0 41
G11         2.000    24038544.275 4                     -3810.987 4        27.784
G25         3.000    20678471.852 7 108666266.97607     -2847.229 7        42.639                                    20678473.745 5  84674999.48605     -2218.622 5        33.653    20678472.439 6  84674918.51906     -2218.416 6        36.643
E25         6.000    23654733.285 7 124306511.21007     -1798.344 7        47.688                                                                    23654735.177 7  92826421.96107     -1342.938 7        47.320    23654734.288 7  95247876.30907     -1377.953 7        46.863
G31         7.000                                                                                                                                                                    21938828.490 4  89835850.48204       307.398 4        29.772
G28         8.000    21409134.884 7 112505737.62807     -1383.181 7        45.427                                    21409135.173 5  87666868.91105     -1077.804 5        32.329    21409133.002 7  87666941.92307     -1077.929 7        45.500
G29         9.000    20405531.749 8 107231866.32908      -836.089 8        50.081                                    20405525.679 7  83557301.41207      -651.501 7        42.631    20405530.983 6  83557253.44006      -651.545 6        38.249
E11        10.000    24060650.422 6 126439699.76706      -611.988 6        39.580                                                                    24060650.288 7  94419196.74107      -457.089 7        43.209    24060649.004 6  96882312.82106      -468.743 6        41.707
E10        11.000    25231454.029 7 132592336.33307     -2204.958 7        43.852                                                                    25231456.656 5  99013675.16005     -1646.353 5        35.933    25231455.343 6 101596696.52906     -1689.349 6        38.024
G18        12.000    23304634.103 6 122466734.04906      2642.514 6        41.666                                    23304634.609 4  95428664.28404      2059.093 4        24.571    23304636.349 7  95428697.28307      2059.144 7        42.929
E12        13.000    27087195.267 3                     -3231.014 3        21.857                                                                                                                                    27087168.049 5 109068783.82705     -2475.496 5        30.574
G04        14.000    25369906.974 5                       175.758 5        31.298
G12        15.000    23903119.314 4                     -4195.837 4        25.489                                                                                                    23903132.316 4                     -3269.163 4        28.227
E24        16.000                                                                                                                                    27634251.598 4 108442747.31204     -2522.114 4        27.832    27634291.374 3                     -2585.492 3        21.286
G26        17.000    23155781.943 6 121684465.12206      2278.633 6        36.575                                    23155782.563 1  94819084.43301      1775.555 1         9.714
E07        18.000    27884059.515 5 146531736.96605      -946.055 5        32.754                                                                                                                                    27884070.921 5 112277649.62105      -724.813 5        35.967
E30        19.000    28792988.803 3                      1780.244 3        21.762                                                                    28793017.114 5                      1328.887 5        32.850    28793004.515 4 115937535.70504      1362.970 4        28.133
E08        20.000    27661426.995 5 145361768.03905     -3022.428 5        33.521                                                                    27661457.546 5 108549485.17105     -2256.625 5        33.503    27661439.523 5                     -2315.718 5        33.204
E02        21.000    24133307.148 6 126821493.64806       677.195 6        37.754                                                                    24133307.340 6  94704346.29206       505.742 6        39.438    24133314.877 4  97174863.75204       518.577 4        28.578
S23        22.000    38230786.934 6 200904201.84306      -866.548 6        36.079
R08        23.000                                                                                                                                    23855451.340 3                      -775.492 3        23.010
E36        24.000    25379787.520 4 133371742.25404      1875.622 4        28.654                                                                    25379793.171 6  99595862.00106      1400.606 6        39.105    25379801.096 5 102193999.45705      1437.177 5        33.874
R18        25.000    19329902.079 8 103184363.53408       432.985 8        48.957                                                                    19329903.268 7  80254491.42107       336.742 7        44.236
S21        27.000    38510593.278 5 202374609.96305      -862.214 5        34.857
R07        28.000                                                                                                                                    24356338.031 4                     -2771.501 4        26.647
R19        29.000    21995632.638 4                      3051.292 4        26.922                                                                    21995646.760 5                      2373.387 5        30.294
R15        30.000    20680162.045 7 110508751.80307     -3790.637 7        44.786                                                                    20680159.600 6  85951117.88206     -2948.207 6        40.677
S36        31.000    38281889.460 5 201172723.50305      -862.517 5        34.662
R16        34.000    19300532.285 8 103100578.46308       149.768 8        50.242                                                                    19300534.329 7  80189027.15107       116.436 7        46.127
C44        35.000                                                                                                                                    21400268.717 7 111437135.05107      -556.020 7        46.803                                                                    21400271.509 7  90551693.03007      -451.760 7        44.206
R17        36.000    20172970.078 8 107950030.64108     -3395.204 8        53.693                                                                    20172970.400 7  83960870.94607     -2640.800 7        46.148
R09        37.000                                                                                                                                    22668689.210 5  94149535.05405      2383.162 5        34.252
C12        41.000                                                                                                                                    22397681.207 7 116630665.87407       927.169 7        46.347    22397680.383 7  90186228.84707       716.951 7        43.882    22397679.631 7  94771953.32807       753.476 7        45.127
C35        42.000                                                                                                                                    23254301.219 7 121091224.62107     -3172.509 7        47.427                                                                    23254300.932 6  98396579.09906     -2577.923 6        41.046
C05        43.000                                                                                                                                                                                                    39490753.582 5 159012901.95905      -625.221 5        33.731
C38        44.000                                                                                                                                    39042347.792 6 203303757.28306        60.743 6        38.006                                                                    39042375.312 4                        49.778 4        26.647
C25        45.000                                                                                                                                    23577413.347 8 122773765.82608      1559.602 8        50.969                                                                    23577412.870 7  99763925.87407      1267.466 7        42.497
C08        46.000                                                                                                                                    38821910.341 3                       677.206 3        23.962    38821918.290 5 156319752.56705       524.050 5        31.781    38821924.831 5                       550.772 5        30.377
C26        48.000                                                                                                                                    24322743.519 4                     -3885.405 4        26.766                                                                    24322719.313 6 102917366.46506     -3157.130 6        38.835
C24        51.000                                                                                                                                    21544611.593 8 112188456.18708     -1455.561 8        49.313                                                                    21544610.651 8  91162373.72208     -1182.692 8        52.409
C34        52.000                                                                                                                                                                                                                                                                    24034334.093 6 101697182.97106      1651.430 6        36.382
I06        58.000    38757710.989 5 152093642.91605      -692.629 5        34.595
> 2025 01 02 15 45 45.0000000  0 40
G25         3.000    20681181.574 7 108680507.73807     -2849.272 7        43.987                                    20681183.338 5  84686096.20105     -2220.212 5        34.076    20681182.743 6  84686015.23806     -2220.126 6        37.342
E25         6.000    23656445.096 7 124315505.85907     -1799.669 7        47.992                                                                    23656446.438 7  92833138.75107     -1343.849 7        46.984    23656445.997 7  95254768.32607     -1378.929 7        46.843
G31         7.000                                                                                                                                                                    21938456.306 5  89834320.34105       304.732 5        31.109
G28         8.000    21410452.425 7 112512661.86307     -1386.592 7        45.862                                    21410452.357 5  87672264.43205     -1080.461 5        32.144    21410450.248 7  87672337.44307     -1080.544 7        44.942
G29         9.000    20406328.492 8 107236052.29008      -838.370 8        49.849                                    20406322.227 7  83560563.20807      -653.277 7        42.635    20406326.647 6  83560515.22606      -653.177 6        39.694
E11        10.000    24061233.818 6 126442765.93506      -614.445 6        38.817                                                                    24061233.685 7  94421486.42607      -458.818 7        42.899    24061232.161 6  96884662.24506      -470.815 6        41.821
E10        11.000    25233553.254 7 132603365.91307     -2207.054 7        44.339                                                                    25233557.796 6  99021911.55006     -1648.140 6        36.329    25233554.100 6 101605147.78006     -1691.155 6        37.985
G18        12.000    23302120.554 6 122453524.04606      2641.401 6        41.285                                    23302121.521 4  95418370.79304      2058.236 4        24.797    23302122.141 7  95418403.80507      2058.293 7        43.230
E12        13.000                                                                                                                                                                                                    27090243.172 5 109081164.87805     -2476.777 5        30.521
G04        14.000    25369741.984 5                       172.937 5        30.000
G12        15.000    23907114.718 4                     -4197.274 4        27.042                                                                                                    23907127.335 4                     -3270.523 4        29.801
E24        16.000                                                                                                                                    27637463.691 4 108455357.28904     -2522.208 4        26.647
G26        17.000    23153614.897 6 121673073.22106      2277.855 6        37.369                                    23153614.868 1  94810207.61801      1774.958 1        11.556    23153649.984 3                      1776.244 3        20.619
E07        18.000    27884960.534 5 146536472.23205      -948.009 5        32.240                                                                    27884996.867 4 109426618.25804      -708.462 4        27.341    27884970.316 5 112281277.96805      -726.529 5        35.252
E30        19.000    28791296.741 3                      1778.863 3        22.571                                                                    28791323.179 5                      1328.923 5        33.401    28791310.906 4 115930717.30204      1364.300 4        28.275
E08        20.000    27664301.339 5 145376882.64705     -3023.837 5        31.623                                                                    27664333.024 5 108560772.11405     -2257.973 5        33.874    27664315.595 5                     -2316.812 5        32.904
E02        21.000    24132663.608 6 126818109.76706       676.346 6        37.524                                                                    24132663.563 6  94701819.40306       504.984 6        40.043
S23        22.000    38231613.523 6 200908533.91106      -866.308 6        36.132
R08        23.000    23856409.867 3                      -997.661 3        19.761
E36        24.000    25378002.780 4 133362366.21404      1874.088 4        27.377                                                                    25378009.199 6  99588860.35706      1399.860 6        39.547    25378018.654 5 102186815.09005      1436.514 5        32.281
R18        25.000    19329498.906 8 103182208.00408       429.068 8        48.792                                                                    19329499.768 7  80252814.91107       333.765 7        44.473
S21        27.000    38511412.592 5 202378920.89905      -862.513 5        35.010
R07        28.000                                                                                                                                    24359669.261 4                     -2773.797 4        27.401
R19        29.000    21992779.005 4                      3049.402 4        27.569                                                                    21992795.068 4                      2371.777 4        29.583
R15        30.000    20683705.764 6 110527710.86106     -3793.196 6        40.372                                                                    20683707.733 6  85965863.84306     -2950.300 6        40.403
S36        31.000    38282714.850 5 201177033.83705      -861.837 5        35.257
R16        34.000    19300393.196 8 103099837.38908       146.459 8        50.061                                                                    19300395.866 7  80188450.75307       113.962 7        46.377
C44        35.000                                                                                                                                    21400803.681 7 111439920.57107      -558.291 7        46.161                                                                    21400806.315 7  90553956.49907      -453.752 7        44.376
R17        36.000    20176144.117 8 107967013.62208     -3398.105 8        53.996                                                                    20176144.137 7  83974079.93207     -2642.872 7        46.496
R09        37.000                                                                                                                                    22665821.863 5  94137620.36505      2382.591 5        35.095
C12        41.000                                                                                                                                    22396792.539 7 116626034.81907       925.064 7        46.644    22396792.448 7  90182647.84307       715.460 7        44.874    22396790.547 7  94768190.23707       751.608 7        45.684
C35        42.000                                                                                                                                    23257348.141 7 121107090.18807     -3173.878 7        47.249                                                                    23257347.430 6  98409471.19506     -2579.094 6        40.720
C05        43.000                                                                                                                                                                                                    39491529.878 5 159016028.72005      -625.178 5        33.796
C38        44.000                                                                                                                                    39042290.884 6 203303455.92606        59.752 6        37.826                                                                    39042317.105 4                        49.116 4        26.144
C25        45.000                                                                                                                                    23575916.252 8 122765971.17608      1558.141 8        50.750                                                                    23575916.263 7  99757592.12407      1265.942 7        42.444
C08        46.000                                                                                                                                    38821258.057 3                       676.836 3        23.219    38821265.502 5 156317134.07805       523.291 5        31.660    38821274.930 5                       550.028 5        31.841
C26        48.000                                                                                                                                    24326474.068 4                     -3886.710 4        28.066                                                                    24326450.332 6 102933155.03506     -3158.483 6        38.784
C24        51.000                                                                                                                                    21546010.355 8 112195739.82008     -1458.060 8        49.504                                                                    21546009.363 8  91168292.28308     -1184.895 8        52.335
C34        52.000                                                                                                                                    24032433.973 6 125143007.99006      2031.251 6        36.019                                                                    24032383.198 6 101688927.83606      1650.651 6        36.813
I06        58.000    38758593.951 5 152097107.48205      -692.704 5        34.548
> 2025 01 02 15 45 50.0000000  0 40
G20         1.000    23706301.060 5                      -360.405 5        33.263
G25         3.000    20683893.760 7 108694759.66607     -2851.514 7        44.760                                    20683895.270 5  84697201.60705     -2221.960 5        34.538    20683894.191 6  84697120.63306     -2221.989 6        37.225
E25         6.000    23658158.067 7 124324507.53907     -1801.038 7        47.931                                                                    23658159.177 7  92839860.79507     -1344.945 7        46.738    23658159.012 7  95261665.72407     -1379.962 7        46.770
G31         7.000                                                                                                                                                                    21938085.542 5  89832803.01405       302.145 5        33.311
G28         8.000    21411772.995 7 112519603.43907     -1390.011 7        45.673                                    21411772.657 5  87677673.46405     -1083.137 5        32.048    21411771.294 7  87677746.47607     -1083.081 7        44.302
G29         9.000    20407127.359 8 107240250.15908      -840.745 8        49.476                                    20407121.239 7  83563834.28307      -655.125 7        42.802    20407124.745 6  83563786.31106      -655.210 6        39.685
E11        10.000    24061820.244 6 126445844.91406      -616.886 6        37.112                                                                    24061819.209 7  94423785.67207      -460.722 7        42.487    24061817.837 6  96887021.45606      -472.709 6        41.626
E10        11.000    25235654.392 7 132614406.65007     -2209.200 7        44.614                                                                    25235660.419 6  99030156.25806     -1649.781 6        36.571    25235654.761 6 101613607.55106     -1692.869 6        37.233
G18        12.000    23299608.030 6 122440320.45106      2639.996 6        40.629                                    23299609.448 4  95408082.29804      2057.133 4        24.977    23299609.507 7  95408115.30507      2057.236 7        42.902
E12        13.000    27093312.733 4                     -3233.888 4        25.083                                                                                                                                    27093320.085 5 109093551.75705     -2477.968 5        30.362
G04        14.000    25369573.257 4                       169.684 4        27.090
G12        15.000    23911109.102 4                     -4197.522 4        28.398                                                                                                    23911123.740 5                     -3270.638 5        31.321
E24        16.000                                                                                                                                    27640677.594 4 108467969.52404     -2522.354 4        26.024
G26        17.000    23151449.066 6 121661686.19106      2277.013 6        38.619                                    23151448.162 1  94801334.69901      1774.260 1        10.444    23151489.233 3                      1774.352 3        19.701
E07        18.000    27885863.718 5 146541219.78505      -950.787 5        31.479                                                                    27885892.909 4 109430163.61204      -710.013 4        27.210    27885872.305 5 112284915.73705      -728.630 5        34.481
E30        19.000    28789604.361 3                      1780.194 3        23.619                                                                    28789630.133 5                      1329.098 5        33.479    28789618.107 4 115923898.75604      1363.765 4        27.940
E08        20.000    27667176.762 4 145392004.34704     -3025.277 4        28.379                                                                    27667207.656 5 108572064.30805     -2259.036 5        34.609    27667192.373 5                     -2317.941 5        32.395
E02        21.000    24132021.729 6 126814730.95806       675.406 6        37.138                                                                    24132020.760 6  94699296.28206       504.233 6        40.615    24132038.738 4  97169681.69404       517.584 4        24.962
S23        22.000    38232439.297 6 200912866.44306      -866.471 6        36.454
E36        24.000    25376219.375 4 133352997.36704      1872.979 4        28.370                                                                    25376226.304 6  99581864.12606      1398.678 6        39.832    25376237.257 5 102179636.28905      1435.224 5        32.000
R18        25.000    19329098.350 8 103180072.69008       425.077 8        48.711                                                                    19329099.331 7  80251154.12007       330.630 7        44.272
S21        27.000    38512231.305 5 202383232.18105      -862.331 5        35.181
R07        28.000    24362981.419 5                     -3570.371 5        34.062                                                                    24363008.543 4                     -2775.468 4        29.156
R19        29.000    21989925.671 4                      3047.730 4        25.925                                                                    21989947.646 4                      2370.198 4        28.645
R15        30.000    20687251.218 5 110546683.47205     -3795.883 5        35.857                                                                    20687258.183 6  85980620.33406     -2952.211 6        40.095
S36        31.000    38283536.922 5 201181344.36605      -861.847 5        35.424
R16        34.000    19300258.091 8 103099113.81908       143.044 8        49.716                                                                    19300260.339 7  80187887.98507       111.213 7        46.698
C44        35.000                                                                                                                                    21401340.926 7 111442718.09907      -560.705 7        45.443                                                                    21401343.052 7  90556229.69707      -455.522 7        44.105
R17        36.000    20179320.537 8 107984011.72508     -3401.062 8        53.266                                                                    20179320.324 7  83987300.70007     -2645.255 7        46.960
R09        37.000    22662941.525 5 121019143.87815      3062.858 5        33.731                                                                    22662954.458 6  94125708.60306      2382.101 6        37.115
C12        41.000                                                                                                                                    22395906.172 7 116621414.49607       923.026 7        46.753    22395907.645 7  90179075.13207       713.768 7        45.342    22395903.660 7  94764435.84507       750.154 7        46.080
C35        42.000                                                                                                                                    23260395.962 7 121122962.93907     -3175.259 7        47.020                                                                    23260395.382 6  98422369.13606     -2580.277 6        40.439
C05        43.000                                                                                                                                                                                                    39492306.142 5 159019155.71105      -625.504 5        33.605
C38        44.000                                                                                                                                    39042234.368 6 203303160.15606        58.462 6        37.437                                                                    39042259.582 4                        47.640 4        24.556
C25        45.000                                                                                                                                    23574420.905 8 122758184.46208      1556.599 8        50.550                                                                    23574421.137 7  99751264.78407      1265.017 7        42.408
C08        46.000                                                                                                                                    38820610.628 3                       674.247 3        21.095    38820614.404 5 156314519.65905       522.651 5        32.491    38820626.697 5                       549.260 5        31.411
C26        48.000                                                                                                                                                                                                                                                                    24330182.710 6 102948948.57806     -3159.080 6        38.354
C24        51.000                                                                                                                                    21547411.436 8 112203036.36808     -1460.586 8        49.353                                                                    21547410.549 8  91174221.31208     -1186.724 8        52.087
C34        52.000                                                                                                                                                                                                                                                                    24030433.527 6 101680677.75306      1649.653 6        37.267
I06        58.000    38759477.263 5 152100572.12805      -692.877 5        34.410
> 2025 01 02 15 45 55.0000000  0 40
G20         1.000    23706649.712 5                      -363.008 5        33.323
G25         3.000    20686607.360 7 108709021.66407     -2853.350 7        44.942                                    20686609.200 5  84708314.86005     -2223.392 5        34.786    20686607.074 6  84708233.91706     -2223.380 6        36.575
E25         6.000    23659871.721 7 124333515.13707     -1802.008 7        47.830                                                                    23659873.038 7  92846587.25007     -1345.654 7        46.493    23659873.054 7  95268567.65207     -1380.747 7        46.691
G31         7.000                                                                                                                                                                    21937716.461 5  89831297.62505       299.896 5        35.071
G28         8.000    21413096.838 7 112526561.24407     -1393.047 7        45.454                                    21413096.047 5  87683095.14505     -1085.496 5        31.608    21413095.290 7  87683168.15807     -1085.498 7        44.062
G29         9.000    20407928.202 8 107244458.84908      -842.658 8        48.751                                    20407922.464 7  83567113.78707      -656.617 7        42.940    20407925.478 6  83567065.79606      -656.606 6        40.217
E11        10.000    24062409.338 5 126448935.60605      -619.323 5        35.833                                                                    24062407.077 7  94426093.64907      -462.399 7        42.125    24062405.596 6  96889389.64606      -474.505 6        41.554
E10        11.000    25237757.256 7 132625457.43207     -2211.121 7        44.786                                                                    25237764.438 6  99038408.43806     -1651.313 6        36.510    25237756.971 6 101622075.01406     -1694.161 6        36.575
G18        12.000    23297096.770 6 122427122.14006      2639.212 6        39.544                                    23297098.346 4  95397797.91904      2056.518 4        24.677    23297097.632 7  95397830.93407      2056.475 7        42.550
E12        13.000    27096394.643 4                     -3235.387 4        27.976                                                                                                                                    27096398.740 5 109105943.62705     -2479.072 5        30.204
G04        14.000    25369403.840 4                       166.952 4        28.483
G12        15.000    23915098.898 4                     -4198.223 4        27.473                                                                                                    23915115.790 5                     -3271.196 5        31.728
E24        16.000                                                                                                                                    27643890.813 4 108480583.25504     -2522.302 4        24.707
G26        17.000    23149282.557 6 121650302.90706      2276.478 6        39.072                                    23149281.906 1  94792464.64301      1773.819 1        10.000    23149328.590 3                      1773.382 3        21.667
E07        18.000    27886769.975 5 146545978.42405      -952.454 5        31.434                                                                    27886787.255 4 109433717.27604      -711.620 4        28.076    27886777.580 5 112288561.99605      -729.918 5        34.119
E30        19.000    28787912.013 4                      1779.925 4        24.932                                                                    28787936.434 5                      1329.463 5        33.263    28787923.969 4 115917079.08704      1363.495 4        27.533
E08        20.000    27670053.715 3 145407131.98003     -3025.941 3        23.562                                                                    27670082.487 5 108583360.97905     -2259.716 5        34.790    27670070.568 5                     -2318.801 5        31.457
E02        21.000    24131378.421 6 126811356.16706       674.812 6        36.779                                                                    24131378.270 6  94696776.16306       503.782 6        40.615    24131393.209 4  97167095.73704       516.543 4        25.714
S23        22.000    38233266.592 6 200917198.35806      -866.084 6        36.609
E36        24.000    25374436.842 4 133343634.64204      1872.156 4        29.137                                                                    25374444.617 6  99574872.47206      1397.969 6        39.934    25374455.681 5 102172462.19605      1434.581 5        33.401
R18        25.000    19328702.131 8 103177956.46108       421.423 8        50.114                                                                    19328703.365 7  80249508.16607       327.746 7        44.382
S21        27.000    38513048.561 5 202387542.64105      -862.076 5        35.224
R07        28.000                                                                                                                                    24366337.027 4                     -2777.719 4        29.251
R19        29.000    21987078.844 4                      3045.177 4        24.707                                                                    21987103.931 4                      2369.280 4        26.850
R15        30.000    20690801.745 4 110565668.39904     -3797.712 4        29.782                                                                    20690810.512 6  85995386.47806     -2954.143 6        40.272
S36        31.000    38284352.747 5 201185654.23205      -861.700 5        35.586
R16        34.000    19300126.227 8 103098406.61708       139.862 8        49.575                                                                    19300127.808 7  80187337.92807       108.798 7        46.679
C44        35.000                                                                                                                                    21401880.511 7 111445526.51607      -562.669 7        45.222                                                                    21401881.760 7  90558511.75107      -457.226 7        43.890
R17        36.000    20182498.995 8 108001023.73308     -3403.637 8        53.038                                                                    20182499.411 7  84000532.28007     -2647.306 7        47.211
R09        37.000    22660082.385 6 121003831.55506      3062.358 6        36.612                                                                    22660087.616 6  94113799.06406      2381.769 6        40.060
C12        41.000                                                                                                                                    22395020.987 7 116616803.74607       921.285 7        46.930    22395023.114 7  90175509.82507       712.317 7        45.008    22395018.449 7  94760689.23907       748.648 7        46.781
C35        42.000                                                                                                                                    23263444.452 7 121138841.74807     -3176.279 7        46.074                                                                    23263444.524 6  98435271.94806     -2581.081 6        40.496
C05        43.000                                                                                                                                                                                                    39493083.006 5 159022282.01605      -625.198 5        33.263
C38        44.000                                                                                                                                    39042178.391 6 203302868.82106        58.033 6        36.756                                                                    39042202.739 4                        47.341 4        24.015
C25        45.000                                                                                                                                    23572927.046 8 122750404.60008      1555.373 8        50.275                                                                    23572927.307 7  99744943.03807      1263.775 7        42.739
C08        46.000                                                                                                                                    38819969.483 3                       673.397 3        22.000    38819966.226 5 156311908.51505       522.058 5        32.431    38819978.468 5                       548.489 5        30.921
C26        48.000                                                                                                                                    24333908.704 5                     -3888.839 5        32.587                                                                    24333916.095 6 102964746.25906     -3159.793 6        38.309
C24        51.000                                                                                                                                    21548814.812 8 112210344.70608     -1462.717 8        49.555                                                                    21548813.961 8  91180159.93708     -1188.596 8        52.174
C34        52.000                                                                                                                                                                                                                                                                    24028484.964 6 101672431.85106      1648.969 6        38.213
I06        58.000    38760359.709 5 152104036.02005      -692.404 5        34.462
> 2025 01 02 15 46  0.0000000  0 41
G20         1.000    23706998.195 5                      -366.384 5        31.245
G25         3.000    20689322.744 7 108723294.39107     -2856.024 7        44.995                                    20689325.165 5  84719436.48105     -2225.480 5        34.971    20689322.562 6  84719355.55306     -2225.664 6        36.208
E25         6.000    23661586.749 7 124342529.35807     -1803.967 7        47.787                                                                    23661588.301 7  92853318.65607     -1347.090 7        46.269    23661588.332 7  95275474.66007     -1382.212 7        46.577
G31         7.000                                                                                                                                                                    21937350.650 5  89829804.79805       296.913 5        34.557
G28         8.000    21414424.597 7 112533535.99907     -1397.124 7        45.178                                    21414422.804 5  87688530.03405     -1088.668 5        31.381    21414423.005 7  87688603.02907     -1088.594 7        44.176
G29         9.000    20408731.373 8 107248679.01108      -845.595 8        48.697                                    20408726.055 7  83570402.23507      -658.908 7        43.517    20408728.592 6  83570354.24006      -658.828 6        41.240
E11        10.000    24062998.948 5 126452038.72105      -622.491 5        35.443                                                                    24062997.372 6  94428410.93006      -464.836 6        41.268    24062995.837 6  96891767.37606      -476.840 6        40.973
E10        11.000    25239861.677 7 132636518.92707     -2213.813 7        44.796                                                                    25239869.067 6  99046668.66006     -1653.192 6        36.491    25239861.037 5 101630550.70805     -1696.267 5        35.971
G18        12.000    23294587.526 6 122413929.85106      2637.410 6        38.342                                    23294588.232 4  95387518.22504      2055.123 4        24.571    23294587.229 7  95387551.23907      2055.204 7        42.161
E12        13.000    27099479.991 5                     -3236.919 5        30.053                                                                                                                                    27099478.720 4 109118340.99804     -2480.616 4        29.583
G04        14.000    25369245.402 4                       163.729 4        28.379
G12        15.000    23919096.046 5                     -4199.264 5        30.030                                                                                                    23919110.514 5                     -3272.079 5        32.497
E24        16.000                                                                                                                                    27647106.039 4 108493198.90904     -2523.666 4        24.917
G26        17.000    23147116.489 6 121638924.12106      2275.098 6        38.811                                    23147116.367 1  94783598.14001      1772.720 1        10.667    23147168.537 4                      1773.227 4        24.361
E07        18.000    27887680.107 5 146550748.96305      -955.642 5        32.060                                                                    27887696.518 4 109437279.69004      -713.796 4        29.355    27887685.409 5 112292217.38405      -732.415 5        34.462
E30        19.000    28786215.641 4                      1780.161 4        27.138                                                                    28786242.968 5                      1329.385 5        33.611    28786230.820 4 115910258.88904      1363.395 4        26.886
E08        20.000                                                                                                                                    27672957.448 5 108594662.59905     -2261.081 5        35.357    27672949.761 5                     -2319.857 5        30.853
E02        21.000    24130735.756 6 126807986.05506       673.135 6        36.132                                                                    24130736.359 6  94694259.55206       502.636 6        40.632    24130745.428 4  97164513.32104       515.813 4        28.190
S23        22.000    38234084.376 6 200921530.18806      -866.861 6        36.514
R08        23.000    23859224.132 5                     -1014.164 5        31.132
E36        24.000    25372660.592 5 133334278.76205      1870.191 5        31.298                                                                    25372664.491 6  99567885.95506      1396.472 6        40.222    25372675.278 5 102165293.38605      1433.013 5        32.737
R18        25.000    19328310.514 8 103175860.04208       416.822 8        50.232                                                                    19328310.549 7  80247877.62407       324.175 7        44.710
S21        27.000    38513875.132 5 202391852.99205      -862.268 5        35.329
R07        28.000    24369670.461 5                     -3574.197 5        34.710                                                                    24369668.622 4                     -2779.755 4        28.844
R19        29.000    21984228.404 4                      3043.037 4        25.308
R15        30.000    20694353.445 4 110584666.68804     -3801.162 4        28.332                                                                    20694366.504 6  86010162.89006     -2956.593 6        40.763
S36        31.000    38285176.907 5 201189964.35605      -862.183 5        35.786
R16        34.000    19299997.437 8 103097716.58208       135.840 8        50.029                                                                    19299998.274 7  80186801.24507       105.668 7        46.416
C44        35.000                                                                                                                                    21402422.607 7 111448346.52207      -565.614 7        45.901                                                                    21402422.479 7  90560803.21107      -459.366 7        43.733
R17        36.000    20185681.040 8 108018050.36008     -3407.303 8        53.286                                                                    20185680.844 7  84013775.21607     -2650.115 7        46.707
R09        37.000    22657219.473 6 120988522.65906      3061.057 6        39.979                                                                    22657220.911 6  94101892.22306      2380.818 6        41.886
C12        41.000                                                                                                                                    22394137.462 7 116612203.33607       918.634 7        47.388    22394137.009 7  90171952.51807       710.371 7        44.068    22394135.426 7  94756951.02507       746.654 7        47.509
C35        42.000                                                                                                                                    23266494.154 7 121154727.31907     -3178.131 7        44.846                                                                    23266494.951 6  98448180.23206     -2582.232 6        40.717
C05        43.000                                                                                                                                                                                                    39493859.007 5 159025408.23105      -625.581 5        33.641
C38        44.000                                                                                                                                    39042123.432 5 203302582.65105        56.232 5        35.986
C25        45.000                                                                                                                                    23571434.400 8 122742632.28408      1553.343 8        50.413                                                                    23571434.910 7  99738627.39307      1262.374 7        43.318
C08        46.000                                                                                                                                                                                                    38819317.962 5 156309301.14305       520.827 5        32.778    38819330.673 5                       547.581 5        31.645
C26        48.000                                                                                                                                    24337649.270 5                     -3890.330 5        33.868                                                                    24337650.534 6 102980548.63306     -3161.037 6        38.408
C24        51.000                                                                                                                                    21550221.007 8 112217665.54208     -1465.835 8        50.399                                                                    21550219.835 8  91186108.70108     -1190.886 8        52.201
C34        52.000                                                                                                                                                                                                                                                                    24026537.791 6 101664190.67906      1647.594 6        39.417
I06        58.000    38761242.484 5 152107499.72805      -692.745 5        34.633
> 2025 01 02 15 46  5.0000000  0 41
G20         1.000    23707343.798 4                      -369.397 4        29.943
G25         3.000    20692041.016 7 108737578.45907     -2858.166 7        45.032                                    20692043.161 5  84730566.93905     -2227.144 5        34.524    20692041.137 6  84730485.98706     -2227.186 6        36.276
E25         6.000    23663303.311 7 124351550.78007     -1805.182 7        47.433                                                                    23663305.186 7  92860055.44207     -1348.027 7        46.422    23663305.091 7  95282387.18707     -1383.184 7        46.381
G31         7.000    21936971.422 6 115279898.34606       377.882 6        41.187                                    21937042.363 1  89828323.77701       294.340 1         5.857    21936988.737 5  89828324.93005       294.317 5        34.129
G28         8.000    21415755.317 7 112540528.26307     -1400.489 7        44.111                                    21415753.036 5  87693978.56105     -1091.290 5        30.936    21415753.583 7  87694051.53207     -1091.213 7        44.188
G29         9.000    20409536.964 8 107252911.21708      -847.778 8        48.698                                    20409532.051 7  83573700.06007      -660.610 7        43.687    20409534.078 7  83573652.07907      -660.665 7        42.004
E11        10.000    24063593.086 6 126455154.81606      -624.668 6        36.178                                                                    24063590.093 6  94430737.89306      -466.593 6        40.484    24063588.863 6  96894155.02506      -478.699 6        41.027
E10        11.000    25241968.464 7 132647591.73407     -2215.851 7        44.868                                                                    25241973.179 6  99054937.30206     -1654.635 6        36.011    25241967.828 5 101639035.05205     -1697.715 5        35.024
G18        12.000    23292078.330 6 122400744.15006      2636.391 6        38.051                                    23292079.299 4  95377243.67904      2054.342 4        24.150    23292077.830 6  95377276.69306      2054.218 6        41.845
E12        13.000    27102561.717 5                     -3238.170 5        31.064                                                                                                                                    27102561.118 4 109130744.31604     -2481.259 4        28.957
G04        14.000    25369090.728 4                       160.825 4        28.654
G12        15.000    23923092.643 5                     -4200.034 5        32.479                                                                                                    23923105.122 5                     -3272.895 5        32.413
E24        16.000    27650327.790 5 145303446.54215     -3379.753 5        30.513
G26        17.000    23144952.400 6 121627550.42706      2274.058 6        38.003                                    23144951.936 1  94774735.56201      1771.924 1        10.074
E07        18.000    27888590.801 5 146555531.92305      -957.955 5        31.472                                                                    27888609.841 5 109440851.35305      -715.265 5        30.272    27888595.818 5 112295882.27005      -733.835 5        34.367
E30        19.000    28784520.283 4                      1780.331 4        28.758                                                                    28784548.358 5                      1329.298 5        33.587    28784536.654 4 115903438.58004      1363.818 4        26.407
E08        20.000                                                                                                                                    27675835.613 5 108605969.60805     -2261.940 5        35.667    27675831.950 4                     -2320.931 4        29.517
E02        21.000    24130094.152 5 126804621.21405       672.344 5        34.238                                                                    24130095.406 6  94691746.85306       501.999 6        40.241
S23        22.000    38234911.385 6 200925862.73806      -866.816 6        36.268
R08        23.000    23860179.467 5 127770162.15015     -1018.539 5        34.395
E36        24.000    25370883.423 5 133324930.31205      1868.699 5        32.737                                                                    25370885.507 6  99560904.97906      1395.320 6        40.276    25370896.464 5 102158130.24905      1431.987 5        32.671
R18        25.000    19327920.779 8 103173784.02708       412.949 8        49.632                                                                    19327921.517 7  80246262.97107       321.168 7        44.980
S21        27.000    38514694.727 5 202396163.80105      -862.468 5        35.286
R07        28.000    24373012.752 5 130470532.09215     -3576.670 5        34.990                                                                    24373013.544 4                     -2781.433 4        29.839
R19        29.000    21981389.089 4                      3041.544 4        26.156
R15        30.000    20697912.514 4 110603678.57604     -3803.961 4        29.033                                                                    20697924.261 6  86024949.89506     -2958.605 6        40.296
S36        31.000    38285997.969 6 201194274.31806      -861.743 6        36.163
R16        34.000    19299872.123 8 103097044.35308       132.507 8        50.190                                                                    19299872.904 7  80186278.40307       103.061 7        46.421
C44        35.000                                                                                                                                    21402966.691 7 111451178.69607      -567.836 7        46.534                                                                    21402966.100 7  90563104.60707      -461.307 7        43.477
R17        36.000    20188865.607 8 108035092.15208     -3410.100 8        52.999                                                                    20188865.330 7  84027029.93807     -2652.304 7        46.204
R09        37.000    22654353.409 7 120973217.90307      3060.449 7        42.641                                                                    22654354.464 7  94089988.56707      2380.329 7        42.544
C12        41.000                                                                                                                                    22393256.615 7 116607613.80607       916.649 7        47.696    22393252.424 7  90168403.61107       708.791 7        43.113    22393254.280 8  94753221.67408       744.981 8        48.180
C35        42.000                                                                                                                                    23269545.181 7 121170620.21307     -3179.477 7        43.651                                                                    23269546.863 6  98461094.53106     -2583.461 6        41.085
C05        43.000                                                                                                                                                                                                    39494633.725 5 159028534.78905      -625.244 5        33.287
C38        44.000                                                                                                                                    39042069.402 5 203302302.20705        55.411 5        35.305
C25        45.000                                                                                                                                    23569943.376 8 122734868.11608      1551.833 8        50.350                                                                    23569944.187 7  99732318.42207      1260.986 7        43.663
C08        46.000                                                                                                                                                                                                    38818669.712 5 156306697.96705       519.885 5        32.569    38818684.698 5                       546.788 5        31.170
C26        48.000                                                                                                                                    24341387.491 5 126751973.49315     -3891.609 5        34.895                                                                    24341386.328 6 102996356.15306     -3162.028 6        38.234
C24        51.000                                                                                                                                    21551629.649 8 112224999.43208     -1468.249 8        50.693                                                                    21551628.235 8  91192068.12708     -1193.003 8        52.025
C34        52.000                                                                                                                                    24024580.508 6 125102429.74506      2026.138 6        38.880                                                                    24024592.115 6 101655954.77606      1646.580 6        40.420
I06        58.000    38762125.220 5 152110963.64105      -693.160 5        34.814
> 2025 01 02 15 46 10.0000000  0 42
G20         1.000    23707695.620 4                      -372.424 4        28.445
G11         2.000    24060348.014 5                     -3820.562 5        34.881                                                                                                    24060316.702 3                     -2977.491 3        21.929
G25         3.000    20694761.565 7 108751873.31607     -2860.050 7        46.085                                    20694762.994 5  84741705.80105     -2228.613 5        34.805    20694760.815 6  84741624.83706     -2228.798 6        36.552
E25         6.000    23665021.418 7 124360578.85707     -1806.273 7        47.295                                                                    23665023.398 7  92866797.19907     -1348.916 7        46.526    23665023.207 7  95289304.81507     -1384.047 7        46.571
G31         7.000                                                                                                                                                                    21936631.100 5  89826857.63905       292.301 5        34.524
G28         8.000    21417088.918 7 112547537.48407     -1403.580 7        43.896                                    21417086.707 5  87699440.29805     -1093.697 5        30.830    21417086.970 7  87699513.28307     -1093.679 7        44.302
G29         9.000    20410344.711 8 107257154.91808      -849.857 8        48.292                                    20410340.261 7  83577006.84807      -662.229 7        44.268    20410342.184 7  83576958.86207      -662.182 7        42.493
E11        10.000    24064189.539 6 126458283.35806      -627.069 6        36.832                                                                    24064185.087 6  94433074.14306      -468.087 6        39.982    24064184.016 6  96896552.22306      -480.443 6        41.287
E10        11.000    25244077.308 7 132658675.30807     -2217.771 7        44.527                                                                    25244078.380 5  99063213.98305     -1656.083 5        35.567    25244076.974 5 101647527.66705     -1699.429 5        35.081
G18        12.000    23289570.600 6 122387564.53906      2635.381 6        38.736                                    23289571.067 3  95366973.85803      2053.532 3        23.810    23289569.996 6  95367006.88206      2053.498 6        41.199
E12        13.000    27105643.358 5                     -3239.661 5        31.298                                                                                                                                    27105644.176 4 109143153.18604     -2482.138 4        28.540
G04        14.000    25368937.280 4                       158.496 4        28.360
G12        15.000    23927090.962 5                     -4200.708 5        34.205                                                                                                    23927099.104 5                     -3273.376 5        31.419
E24        16.000    27653542.456 5 145320346.37105     -3380.249 5        30.913                                                                    27653535.957 4 108518437.07604     -2525.446 4        24.090
G26        17.000    23142788.742 6 121616181.27706      2273.334 6        37.679                                    23142788.368 1  94765876.54201      1771.436 1         8.857    23142871.272 4                      1771.695 4        29.137
E07        18.000    27889500.747 5 146560326.71805      -960.047 5        30.475                                                                    27889522.070 5 109444431.91205      -717.082 5        31.162    27889508.320 5 112299556.25805      -735.634 5        34.629
E30        19.000    28782825.950 4                      1780.209 4        29.374                                                                    28782854.064 5                      1329.501 5        33.683    28782843.474 4 115896617.77604      1364.495 4        27.245
E08        20.000                                                                                                                                    27678716.768 5 108617281.63105     -2262.854 5        35.033    27678715.225 4                     -2322.010 4        28.569
E02        21.000    24129454.868 5 126801261.13505       671.503 5        30.913                                                                    24129455.246 6  94689237.71806       501.532 6        39.928    24129449.129 5  97159360.28205       514.628 5        33.305
S23        22.000    38235732.361 6 200930195.24006      -866.555 6        36.306
R08        23.000    23861132.916 5                     -1022.509 5        32.371                                                                    23861127.032 4                      -795.516 4        29.820
E36        24.000    25369105.889 5 133315588.77905      1867.754 5        34.471                                                                    25369107.977 6  99553929.14106      1394.633 6        40.062    25369118.627 5 102150972.38905      1431.042 5        32.742
R18        25.000    19327534.946 8 103171727.88908       409.267 8        49.761                                                                    19327536.049 7  80244663.76007       318.308 7        44.640
S21        27.000    38515515.135 5 202400474.41205      -862.086 5        35.562
R07        28.000    24376354.359 5                     -3578.900 5        35.400                                                                    24376355.894 5                     -2783.660 5        30.596
R19        29.000    21978548.629 4                      3039.619 4        27.701
R15        30.000    20701474.599 5 110622703.49605     -3806.341 5        32.090                                                                    20701483.833 6  86039747.06006     -2960.475 6        38.925
S36        31.000    38286816.030 5 201198584.13405      -862.315 5        35.886
R16        34.000    19299748.718 8 103096389.16108       129.291 8        50.486                                                                    19299750.557 7  80185768.83507       100.515 7        46.577
C44        35.000                                                                                                                                    21403512.641 7 111454022.49307      -569.937 7        46.631                                                                    21403512.292 7  90565415.40907      -463.006 7        42.880
R17        36.000    20192053.140 8 108052148.64808     -3412.733 8        52.649                                                                    20192052.938 7  84040296.10507     -2654.371 7        46.145
R09        37.000    22651488.489 7 120957916.87407      3059.844 7        44.420                                                                    22651488.804 7  94078087.81707      2379.859 7        43.577
C12        41.000                                                                                                                                    22392377.595 7 116603034.66307       914.819 7        47.804    22392372.485 7  90164862.75907       707.244 7        42.548    22392374.894 8  94749500.74408       743.429 8        48.238
C35        42.000                                                                                                                                    23272598.191 7 121186519.86007     -3180.518 7        42.792                                                                    23272600.127 6  98474014.27606     -2584.464 6        40.746
C05        43.000                                                                                                                                                                                                    39495410.553 5 159031661.27405      -625.015 5        33.042
C38        44.000                                                                                                                                    39042016.128 5 203302026.97105        54.493 5        34.100                                                                    39042012.337 5                        44.310 5        32.030
C25        45.000                                                                                                                                    23568454.012 8 122727111.53708      1550.509 8        50.200                                                                    23568454.649 7  99726015.56207      1259.992 7        43.979
C08        46.000                                                                                                                                                                                                    38818022.920 5 156304098.57705       519.594 5        33.293    38818039.394 5                       546.005 5        30.257
C26        48.000                                                                                                                                    24345124.389 5 126771432.73005     -3892.463 5        35.033                                                                    24345123.299 6 103012168.35706     -3162.710 6        37.947
C24        51.000                                                                                                                                    21553040.482 8 112232345.86408     -1470.510 8        50.663                                                                    21553038.988 8  91198037.69108     -1194.835 8        51.657
C34        52.000                                                                                                                                                                                                                                                                    24022647.283 6 101647723.59706      1645.727 6        40.717
I06        58.000    38763007.403 5 152114427.37705      -692.959 5        34.533
> 2025 01 02 15 46 15.0000000  0 42
G20         1.000    23708055.389 4                      -375.300 4        28.464
G11         2.000    24063973.728 5 126457113.27115     -3822.528 5        34.609                                                                                                    24063949.654 3                     -2979.434 3        21.857
G25         3.000    20697484.242 7 108766178.78907     -2862.477 7        47.260                                    20697484.589 5  84752852.95105     -2230.504 5        35.014    20697483.186 6  84752771.97806     -2230.363 6        37.176
E25         6.000    23666740.755 7 124369613.44707     -1807.762 7        47.417                                                                    23666742.696 7  92873543.81807     -1349.979 7        46.555    23666742.462 7  95296227.42907     -1385.191 7        46.460
G31         7.000    21936283.244 6 115276148.23106       371.441 6        40.072                                    21936328.124 1  89825401.38701       289.468 1         9.524    21936275.780 5  89825402.82905       289.518 5        34.790
G28         8.000    21418425.936 7 112554563.51007     -1407.115 7        44.158                                    21418423.565 5  87704915.11905     -1096.456 5        30.279    21418424.160 7  87704988.10707     -1096.421 7        43.742
G29         9.000    20411154.714 8 107261409.97908      -852.328 8        48.253                                    20411150.671 7  83580322.48407      -664.152 7        44.631    20411152.073 7  83580274.49807      -664.236 7        43.579
E11        10.000    24064786.507 6 126461424.19706      -629.713 6        36.994                                                                    24064782.446 6  94435419.58506      -470.159 6        38.901    24064781.831 6  96898958.85106      -482.379 6        40.868
E10        11.000    25246188.013 7 132669769.47007     -2220.052 7        44.184                                                                    25246188.332 5  99071498.59805     -1657.871 5        35.752    25246188.161 5 101656028.37305     -1701.102 5        35.776
G18        12.000    23287064.064 6 122374390.81706      2634.051 6        39.700                                    23287063.810 3  95356708.65103      2052.510 3        22.952    23287062.587 6  95356741.68606      2052.416 6        40.722
E12        13.000    27108726.747 5                     -3241.239 5        31.192                                                                                                                                    27108726.430 4 109155567.47204     -2483.972 4        27.641
G04        14.000    25368787.396 5                       154.761 5        30.694
G12        15.000    23931089.369 5 125758718.24215     -4201.634 5        35.857                                                                                                    23931098.429 5                     -3274.256 5        31.449
E24        16.000    27656759.366 5 145337248.74005     -3381.096 5        30.981                                                                    27656752.986 3 108531058.95103     -2524.402 3        23.124
G26        17.000    23140626.064 5 121604816.51705      2272.245 5        35.952                                    23140625.731 1  94757020.93801      1770.563 1         9.905    23140714.260 5                      1770.681 5        30.083
E07        18.000    27890413.589 4 146565133.24104      -962.559 4        28.322                                                                    27890437.621 5 109448021.19605      -718.723 5        31.441    27890423.328 5 112303239.23905      -737.937 5        34.957
E30        19.000    28781133.758 5                      1780.487 5        30.257                                                                    28781159.230 5                      1329.686 5        33.395    28781149.764 4 115889796.36304      1364.707 4        26.156
E08        20.000    27681616.755 5 145467882.81815     -3031.919 5        31.275                                                                    27681599.431 5 108628598.46705     -2263.984 5        34.090    27681599.064 4                     -2322.952 4        26.204
E02        21.000    24128819.656 4 126797905.56804       670.857 4        28.483                                                                    24128815.693 6  94686732.00806       500.530 6        39.045    24128813.018 5  97156789.21005       513.538 5        34.348
S23        22.000    38236560.877 6 200934527.51806      -866.559 6        36.442
R08        23.000    23862093.549 5 127780386.24815     -1026.771 5        31.306                                                                    23862079.389 5                      -798.584 5        30.996
E36        24.000    25367328.071 5 133306253.99005      1866.027 5        35.962                                                                    25367331.447 6  99546958.35106      1393.459 6        39.691    25367341.494 5 102143819.66705      1429.804 5        31.577
R18        25.000    19327153.610 8 103169691.41308       405.107 8        48.954                                                                    19327154.957 7  80243079.84307       315.158 7        44.870
S21        27.000    38516333.724 5 202404784.78305      -862.328 5        35.429
R07        28.000    24379702.399 6 130506320.81816     -3581.758 6        38.435                                                                    24379695.856 4                     -2785.700 4        28.180
R19        29.000    21975712.552 4                      3038.024 4        29.081
R15        30.000                                                                                                                                    20705046.752 6  86054554.39806     -2962.634 6        36.881
S36        31.000    38287633.576 5 201202893.74805      -862.227 5        35.995
R16        34.000    19299628.852 8 103095751.05908       125.685 8        50.367                                                                    19299631.030 7  80185272.54307        97.790 7        47.411
C44        35.000                                                                                                                                    21404060.565 7 111456877.77207      -572.388 7        46.647                                                                    21404060.655 7  90567735.58407      -465.222 7        42.595
R17        36.000    20195242.920 8 108069219.51308     -3415.791 8        52.289                                                                    20195242.816 7  84053573.45307     -2656.756 7        45.627
R09        37.000    22648624.851 7 120942619.20907      3059.045 7        45.317                                                                    22648624.529 7  94066189.68907      2379.139 7        44.930
C12        41.000                                                                                                                                    22391500.073 7 116598465.73907       912.516 7        47.537    22391494.850 7  90161329.77407       705.690 7        42.508    22391497.190 8  94745788.13208       741.465 8        48.225
C35        42.000                                                                                                                                    23275652.864 6 121202426.12406     -3182.028 6        41.979                                                                    23275654.517 6  98486939.43906     -2585.795 6        40.617
C05        43.000                                                                                                                                                                                                    39496187.927 5 159034787.60605      -625.477 5        33.174
C38        44.000                                                                                                                                    39041964.217 5 203301756.75705        53.344 5        33.240                                                                    39041963.825 5                        43.432 5        32.168
C25        45.000                                                                                                                                    23566965.775 8 122719362.42608      1548.871 8        50.208                                                                    23566966.544 7  99719718.81107      1258.475 7        44.250
C08        46.000                                                                                                                                    38817441.742 4                       670.304 4        26.144    38817377.652 5 156301502.93005       518.721 5        34.224    38817394.975 4                       545.073 4        29.716
C26        48.000                                                                                                                                    24348861.902 5 126790897.58705     -3893.644 5        35.210                                                                    24348861.158 6 103027985.17706     -3164.003 6        37.550
C24        51.000                                                                                                                                    21554453.628 8 112239704.68508     -1473.200 8        50.619                                                                    21554452.093 8  91204017.35108     -1197.189 8        51.193
C34        52.000                                                                                                                                    24020708.073 6 125082176.13306      2023.991 6        40.903                                                                    24020703.113 6 101639497.11006      1644.665 6        40.579
I06        58.000    38763889.514 5 152117890.76305      -692.987 5        34.467
> 2025 01 02 15 46 20.0000000  0 41
G20         1.000    23708419.084 4                      -378.514 4        27.389
G25         3.000    20700208.649 7 108780494.76707     -2864.483 7        47.729                                    20700208.174 5  84764008.28405     -2232.069 5        35.876    20700207.684 6  84763927.30806     -2231.979 6        37.573
E25         6.000    23668461.327 7 124378654.44207     -1809.030 7        47.346                                                                    23668463.268 7  92880295.21407     -1350.852 7        46.552    23668462.951 7  95303154.95507     -1386.107 7        46.268
G31         7.000    21935929.197 6 115274297.04406       368.458 6        38.805                                    21935975.725 1  89823958.83001       287.098 1         8.667    21935923.817 5  89823960.36505       287.097 5        35.629
G28         8.000    21419766.410 7 112561606.23707     -1410.445 7        44.703                                    21419763.724 5  87710402.96605     -1099.061 5        30.098    21419763.984 7  87710475.96707     -1099.001 7        43.458
G29         9.000    20411966.966 8 107265676.30508      -854.564 8        48.764                                    20411963.152 7  83583646.90207      -665.897 7        45.129    20411963.848 7  83583598.91907      -665.896 7        43.606
E11        10.000    24065385.907 6 126464577.24106      -632.010 6        36.355                                                                    24065382.555 6  94437774.12906      -471.937 6        38.078    24065381.981 6  96901374.82106      -484.246 6        40.653
E10        11.000    25248300.845 7 132680874.11307     -2222.170 7        43.139                                                                    25248303.396 5  99079791.04705     -1659.427 5        35.814    25248301.588 6 101664537.12306     -1702.666 6        36.439
G18        12.000    23284557.835 6 122361222.97806      2632.713 6        40.198                                    23284557.336 3  95346448.01103      2051.461 3        23.200    23284557.048 6  95346481.04306      2051.608 6        39.991
E12        13.000    27111810.758 5                     -3242.418 5        30.649                                                                                                                                    27111810.739 4 109167987.04504     -2484.763 4        26.479
G04        14.000    25368648.865 5                       152.600 5        33.976
G12        15.000    23935087.336 6 125779728.46806     -4202.782 6        37.138                                    23935073.630 1  98010123.98311     -3274.902 1         8.000    23935097.714 5                     -3274.643 5        31.192
E24        16.000    27659974.519 5 145354153.48305     -3381.583 5        30.823                                                                    27659970.669 3 108543682.65703     -2525.874 3        23.162
G26        17.000    23138462.205 5 121593456.03305      2271.575 5        33.838                                    23138464.001 1  94748168.64001      1770.002 1        11.333    23138548.318 4                      1770.079 4        26.838
E07        18.000    27891331.223 4 146569951.35704      -965.512 4        27.641                                                                    27891354.446 5 109451619.18305      -720.599 5        31.977    27891340.616 5 112306931.08205      -739.369 5        35.109
E30        19.000    28779439.581 5                      1780.649 5        30.966                                                                    28779464.185 5                      1329.678 5        32.245    28779454.465 4 115882974.30804      1363.991 4        26.108
E08        20.000    27684497.549 5 145483044.01805     -3032.698 5        30.566                                                                    27684482.626 5 108639920.18205     -2265.169 5        32.204    27684484.007 3                     -2324.576 3        22.419
E02        21.000    24128184.686 4 126794554.58004       668.882 4        26.192                                                                    24128177.245 6  94684229.63006       499.913 6        37.856    24128177.049 5  97154221.54205       513.088 5        34.948
S23        22.000    38237380.239 6 200938859.67606      -866.575 6        36.087
R08        23.000    23863060.778 5 127785528.96615     -1031.035 5        30.302                                                                    23863035.015 5                      -801.532 5        31.208
E36        24.000    25365552.754 6 133296925.82006      1864.750 6        37.357                                                                    25365556.172 6  99539992.54006      1392.520 6        39.108    25365561.546 5 102136672.02205      1428.933 5        32.617
R18        25.000    19326775.341 8 103167674.54008       401.209 8        48.121                                                                    19326776.580 7  80241511.18107       312.020 7        44.209
S21        27.000    38517152.952 5 202409094.84305      -862.168 5        35.290
R07        28.000    24383049.854 6 130524234.06206     -3584.126 6        39.471                                                                    24383038.246 4                     -2787.878 4        27.234
R19        29.000    21972875.375 4                      3035.387 4        29.071
R15        30.000                                                                                                                                    20708611.869 5  86069371.65305     -2964.652 5        35.581
S36        31.000    38288455.469 6 201207203.13506      -862.012 6        36.057
R16        34.000    19299512.185 8 103095130.02908       122.399 8        49.911                                                                    19299515.446 8  80184789.54108        95.176 8        48.082
C44        35.000                                                                                                                                    21404610.716 7 111459744.40607      -574.598 7        46.418                                                                    21404611.303 7  90570064.97007      -467.064 7        42.779
R17        36.000    20198435.431 8 108086304.70108     -3418.626 8        51.691                                                                    20198435.449 7  84066861.94107     -2659.002 7        44.507
R09        37.000    22645760.768 7 120927324.76107      3058.394 7        45.210                                                                    22645761.420 7  94054294.07407      2378.801 7        44.980
C12        41.000                                                                                                                                    22390624.365 7 116593906.92007       910.495 7        47.065    22390620.061 7  90157804.60207       704.150 7        42.400    22390621.693 8  94742083.73008       739.868 8        48.268
C35        42.000                                                                                                                                    23278708.334 6 121218338.88506     -3183.414 6        41.030                                                                    23278710.376 6  98499869.86506     -2586.851 6        40.830
C05        43.000                                                                                                                                                                                                    39496963.811 5 159037913.63805      -625.371 5        33.317
C38        44.000                                                                                                                                    39041914.602 5 203301491.52105        52.357 5        33.245                                                                    39041913.693 5                        42.633 5        33.048
C25        45.000                                                                                                                                    23565478.718 8 122711620.68108      1547.460 8        49.890                                                                    23565479.731 7  99713428.03007      1257.404 7        44.510
C08        46.000                                                                                                                                                                                                    38816732.979 5 156298910.88405       517.953 5        35.019    38816751.445 4                       544.592 4        29.592
C26        48.000                                                                                                                                    24352600.527 5 126810367.99105     -3894.952 5        35.014                                                                    24352600.410 6 103043806.47106     -3164.914 6        37.244
C24        51.000                                                                                                                                    21555869.080 8 112247075.76808     -1475.599 8        50.276                                                                    21555867.574 8  91210006.96808     -1199.100 8        50.892
C34        52.000                                                                                                                                    24018763.087 6 125072057.83006      2022.953 6        41.917                                                                    24018759.717 6 101631275.19106      1643.771 6        40.539
I06        58.000    38764772.257 5 152121353.80505      -692.616 5        34.471
> 2025 01 02 15 46 25.0000000  0 42
G20         1.000    23708773.000 4                      -381.163 4        25.774
G11         2.000                                                                                                                                                                    24071214.878 3                     -2979.940 3        21.786
G25         3.000    20702934.728 7 108794821.29507     -2866.045 7        47.676                                    20702933.949 6  84775171.83406     -2233.289 6        36.567    20702933.543 6  84775090.83806     -2233.303 6        36.930
E25         6.000    23670183.240 7 124387701.85807     -1809.795 7        47.315                                                                    23670185.056 7  92887051.41407     -1351.471 7        46.720    23670184.703 7  95310087.40207     -1386.777 7        46.335
G31         7.000    21935580.082 5 115272461.80305       365.860 5        35.562                                    21935626.182 1  89822528.70101       285.031 1         7.250    21935574.811 6  89822530.33806       285.166 6        36.370
G28         8.000    21421109.929 7 112568665.68207     -1413.250 7        44.001                                    21421107.008 4  87715903.82704     -1101.234 4        29.441    21421107.479 7  87715976.83607     -1101.141 7        43.338
G29         9.000    20412780.966 8 107269953.92108      -856.326 8        49.574                                    20412777.662 7  83586980.11607      -667.267 7        45.383    20412777.321 7  83586932.12107      -667.234 7        43.077
E11        10.000    24065988.258 5 126467742.47105      -634.142 5        35.352                                                                    24065984.735 6  94440137.76906      -473.374 6        37.289    24065984.417 6  96903800.10906      -485.695 6        40.520
E10        11.000    25250415.827 7 132691989.27507     -2223.719 7        42.449                                                                    25250419.992 6  99088091.31906     -1660.788 6        36.397    25250418.680 6 101673053.92906     -1703.844 6        37.599
G18        12.000    23282052.508 6 122348060.99806      2632.092 6        40.572                                    23282052.025 3  95336191.94903      2050.967 3        22.838    23282052.966 6  95336224.97306      2050.875 6        39.550
E12        13.000    27114897.112 5                     -3243.681 5        30.196                                                                                                                                    27114896.891 4 109180411.96704     -2485.216 4        26.515
G04        14.000    25368509.364 5 133312409.35615       149.941 5        33.503
G12        15.000    23939086.962 6 125800742.62206     -4202.902 6        37.977                                    23939076.215 1  98026498.63201     -3274.900 1         9.905    23939099.119 4                     -3275.154 4        29.943
E24        16.000    27663192.439 4 145371060.65204     -3381.529 4        29.782                                                                    27663187.467 3                     -2525.317 3        22.971
G26        17.000    23136301.199 5 121582099.88405      2271.284 5        34.000                                    23136303.093 1  94739319.74701      1769.830 1        10.963
E07        18.000    27892251.418 4 146574781.12604      -966.536 4        28.654                                                                    27892274.699 5 109455225.85005      -722.109 5        32.629    27892259.677 5 112310631.84605      -740.646 5        35.448
E30        19.000    28777747.953 5                      1781.249 5        31.019                                                                    28777770.500 5                      1330.075 5        32.808    28777757.896 4 115876151.51004      1364.808 4        25.173
E08        20.000    27687386.195 5 145498211.68805     -3033.775 5        30.785                                                                    27687367.703 5 108651246.59405     -2265.365 5        30.589    27687373.963 3                     -2327.094 3        18.925
E02        21.000    24127549.479 4 126791207.99604       670.263 4        26.216                                                                    24127539.792 6  94681730.61906       499.744 6        36.877    24127539.639 5  97151657.33405       512.750 5        35.557
S23        22.000    38238206.286 6 200943191.57906      -865.840 6        36.095
R08        23.000                                                                                                                                    23863995.014 5                      -804.523 5        32.461
E36        24.000    25363779.109 6 133287604.31606      1864.089 6        38.321                                                                    25363782.090 6  99533031.71206      1391.811 6        38.450    25363779.791 5 102129529.48605      1427.906 5        35.481
R18        25.000    19326400.602 8 103165677.28208       397.806 8        48.092                                                                    19326402.213 7  80239957.76607       309.403 7        43.640
S21        27.000    38517971.693 5 202413404.56405      -861.428 5        35.543
R07        28.000    24386396.785 6 130542159.85216     -3586.287 6        39.571                                                                    24386391.695 4                     -2788.708 4        27.281
R19        29.000    21970039.069 4                      3034.051 4        28.976
R15        30.000                                                                                                                                    20712179.187 6  86084198.86606     -2966.027 6        36.930
S36        31.000    38289275.990 5 201211511.48405      -861.248 5        35.905
R16        34.000    19299399.053 8 103094525.86608       119.371 8        49.481                                                                    19299402.079 7  80184319.63207        92.874 7        47.977
C44        35.000                                                                                                                                    21405162.946 7 111462622.43007      -576.447 7        46.227                                                                    21405163.853 7  90572403.58807      -468.370 7        42.493
R17        36.000    20201630.553 8 108103404.20708     -3420.950 8        51.608                                                                    20201630.903 7  84080161.54007     -2660.690 7        43.617
R09        37.000    22642895.720 7 120912033.69507      3058.170 7        44.509                                                                    22642897.379 7  94042401.06707      2378.586 7        44.373
C12        41.000                                                                                                                                    22389749.595 7 116589358.22607       909.092 7        46.487    22389748.678 7  90154287.26207       703.039 7        42.948    22389748.217 8  94738387.54608       738.750 8        48.176
C35        42.000                                                                                                                                    23281765.775 6 121234258.16006     -3184.254 6        40.737                                                                    23281767.740 6  98512805.57206     -2587.447 6        41.013
C05        43.000                                                                                                                                                                                                    39497739.231 5 159041039.40605      -625.050 5        33.245
C38        44.000                                                                                                                                    39041865.755 5 203301231.23805        51.871 5        33.269                                                                    39041863.696 5                        42.105 5        32.503
C25        45.000                                                                                                                                    23563993.096 8 122703886.35208      1546.396 8        50.005                                                                    23563994.373 7  99707143.27207      1256.633 7        44.832
C08        46.000                                                                                                                                                                                                    38816089.533 5 156296322.48105       517.752 5        35.976    38816108.842 4                       543.993 4        28.900
C26        48.000                                                                                                                                    24356340.495 5 126829843.94705     -3895.381 5        35.276                                                                    24356340.550 6 103059632.23006     -3165.165 6        36.919
C24        51.000                                                                                                                                    21557286.893 8 112254459.18608     -1477.640 8        49.891                                                                    21557285.380 8  91216006.58908     -1200.626 8        50.565
C34        52.000                                                                                                                                    24016816.793 7 125061945.22607      2022.250 7        42.311                                                                    24016817.134 6 101623057.87306      1643.281 6        40.036
I06        58.000    38765655.374 5 152124816.47705      -692.480 5        34.519
> 2025 01 02 15 46 30.0000000  0 42
G20         1.000    23709128.458 3                      -383.521 3        23.867
G11         2.000                                                                                                                                                                    24074854.081 3                     -2981.748 3        23.619
G25         3.000    20705662.980 7 108809158.81807     -2868.834 7        47.093                                    20705662.118 6  84786343.94906     -2235.459 6        37.361    20705661.723 6  84786262.95706     -2235.449 6        37.365
E25         6.000    23671906.464 7 124396756.17407     -1811.758 7        47.473                                                                    23671908.079 7  92893812.75807     -1352.919 7        46.930    23671907.720 7  95317025.13207     -1388.203 7        46.568
G31         7.000    21935232.095 5 115270642.91005       362.170 5        31.404                                    21935279.703 1  89821111.32401       282.251 1         6.250    21935228.610 6  89821113.06506       282.176 6        36.945
G28         8.000    21422455.786 6 112575742.32406     -1417.229 6        41.928                                    21422453.566 4  87721418.09004     -1104.339 4        28.682    21422453.919 7  87721491.09707     -1104.294 7        43.289
G29         9.000    20413596.955 8 107274243.24208      -859.151 8        50.383                                    20413594.208 7  83590322.45307      -669.471 7        45.762    20413593.097 7  83590274.46307      -669.502 7        42.379
E11        10.000    24066593.423 5 126470920.36805      -637.253 5        34.733                                                                    24066589.566 6  94442510.89806      -475.674 6        37.077    24066589.350 6  96906235.13406      -488.111 6        41.046
E10        11.000    25252532.899 7 132703115.38407     -2226.507 7        42.097                                                                    25252538.595 6  99096399.77306     -1662.664 6        37.104    25252540.236 6 101681579.11706     -1705.953 6        39.775
G18        12.000    23279548.349 6 122334905.35106      2630.211 6        40.696                                    23279547.657 3  95325940.82503      2049.516 3        22.705    23279549.340 6  95325973.83706      2049.634 6        39.387
E12        13.000    27117986.391 4                     -3245.437 4        29.896                                                                                                                                    27117983.388 4 109192842.59604     -2487.183 4        26.719
G04        14.000    25368364.390 5 133311667.73705       146.768 5        31.464
G12        15.000    23943086.889 6 125821761.16906     -4204.328 6        37.962                                    23943079.332 1  98042876.62601     -3276.086 1         9.810    23943101.485 4                     -3275.965 4        28.540
E24        16.000    27666412.752 4 145387970.73004     -3383.020 4        27.928                                                                    27666407.523 3                     -2526.131 3        23.695
G26        17.000    23134142.331 5 121570748.57305      2269.632 5        33.683                                    23134143.143 1  94730474.65401      1768.572 1        10.296
E07        18.000                                                                                                                                    27893198.281 5 109458841.51505      -723.963 5        32.731    27893181.367 5 112314341.89105      -742.856 5        35.705
E30        19.000    28776054.965 5                      1781.193 5        30.785                                                                    28776077.477 5                      1329.842 5        32.677
E08        20.000    27690272.799 5 145513386.21805     -3035.924 5        32.323                                                                    27690254.854 4 108662578.20804     -2266.828 4        29.782
E02        21.000    24126915.930 4 126787866.44604       666.945 4        28.730                                                                    24126903.512 6  94679235.33506       498.616 6        36.189    24126902.958 6  97149096.93606       511.440 6        36.291
S23        22.000    38239034.686 6 200947523.57206      -867.008 6        36.321
R08        23.000    23865026.017 3                     -1038.104 3        20.643                                                                    23864962.392 5                      -807.906 5        33.491
E36        24.000    25362007.529 6 133278289.99306      1861.820 6        39.817                                                                    25362009.224 6  99526076.23106      1390.506 6        38.114    25362006.120 6 102122392.53706      1426.768 6        38.144
R18        25.000    19326030.630 7 103163700.16807       393.230 7        47.371                                                                    19326032.214 7  80238420.02007       305.865 7        43.215
S21        27.000    38518793.997 5 202417714.47605      -862.204 5        35.024
R07        28.000    24389740.476 6 130560098.65706     -3589.104 6        40.784                                                                    24389737.390 4                     -2791.400 4        25.955
R19        29.000    21967206.332 4                      3032.031 4        29.697
R15        30.000                                                                                                                                    20715749.597 6  86099036.58506     -2968.813 6        38.390
S36        31.000    38290091.261 5 201215820.42405      -862.063 5        35.671
R16        34.000    19299289.245 8 103093939.26008       115.382 8        49.636                                                                    19299291.623 7  80183863.39607        89.731 7        47.808
C44        35.000                                                                                                                                    21405717.952 7 111465512.30307      -579.369 7        45.681                                                                    21405718.944 7  90574751.86107      -470.858 7        42.345
R17        36.000    20204829.057 8 108120518.53708     -3424.519 8        52.034                                                                    20204829.258 7  84093472.67307     -2663.576 7        42.815
R09        37.000    22640030.802 7 120896746.46607      3056.774 7        43.742                                                                    22640033.000 7  94030511.05207      2377.527 7        43.467
C12        41.000                                                                                                                                    22388877.625 7 116584820.10107       906.333 7        45.992    22388878.099 7  90150778.12007       700.864 7        43.591    22388876.829 8  94734699.95808       736.507 8        48.086
C35        42.000                                                                                                                                    23284825.135 6 121250184.36606     -3185.976 6        40.627                                                                    23284826.565 6  98525746.93006     -2588.918 6        41.275
C05        43.000                                                                                                                                                                                                    39498516.251 5 159044165.29605      -625.448 5        33.006
C38        44.000                                                                                                                                    39041817.183 5 203300976.36305        50.112 5        33.222                                                                    39041814.633 5                        41.092 5        32.569
C25        45.000                                                                                                                                    23562509.264 8 122696159.86508      1544.333 8        50.057                                                                    23562510.457 7  99700864.88607      1254.954 7        44.981
C08        46.000                                                                                                                                                                                                    38815447.825 6 156293738.05306       516.492 6        36.733    38815468.121 4                       542.969 4        27.904
C26        48.000                                                                                                                                    24360082.199 5 126849325.85805     -3897.465 5        34.310                                                                    24360081.622 6 103075462.87806     -3166.771 6        36.775
C24        51.000                                                                                                                                    21558707.245 8 112261855.33908     -1480.713 8        49.293                                                                    21558705.648 8  91222016.57308     -1203.202 8        50.124
C34        52.000                                                                                                                                    24014874.756 6 125051838.75006      2020.533 6        41.483                                                                    24014875.868 6 101614845.52806      1641.871 6        39.096
I06        58.000    38766536.923 5 152128279.09305      -692.601 5        34.329
> 2025 01 02 15 46 35.0000000  0 42
G20         1.000    23709496.182 3                      -387.863 3        21.929
G11         2.000    24078488.421 5 126533628.97005     -3828.777 5        30.362                                                                                                    24078500.139 4                     -2984.212 4        24.767
G25         3.000    20708393.645 7 108823507.20207     -2870.798 7        47.127                                    20708392.651 6  84797524.51706     -2236.987 6        38.258    20708393.610 6  84797443.50706     -2236.857 6        38.345
E25         6.000    23673630.873 7 124405817.26007     -1812.972 7        47.362                                                                    23673632.452 7  92900579.16307     -1353.799 7        47.348    23673632.021 7  95323968.04707     -1389.097 7        46.735
G31         7.000    21934887.566 4 115268840.27904       358.989 4        29.460                                    21934936.488 1  89819706.77101       279.608 1         4.143    21934885.009 6  89819708.47706       279.528 6        37.679
G28         8.000    21423806.182 6 112582836.03106     -1420.411 6        40.043                                    21423803.339 4  87726945.64904     -1106.812 4        27.820    21423803.815 7  87727018.65407     -1106.815 7        43.372
G29         9.000    20414415.398 8 107278544.18508      -861.423 8        51.061                                    20414412.747 7  83593673.84907      -671.240 7        46.112    20414411.483 6  83593625.85706      -671.141 6        41.893
E11        10.000    24067201.875 5 126474110.80905      -639.216 5        34.424                                                                    24067196.765 6  94444893.37606      -477.549 6        37.130    24067196.900 6  96908679.76806      -489.942 6        41.068
E10        11.000    25254652.268 6 132714252.33306     -2228.594 6        41.468                                                                    25254658.698 6  99104716.32406     -1664.184 6        38.195    25254662.192 6 101690112.59606     -1707.466 6        41.089
G18        12.000    23277046.134 6 122321755.94306      2629.221 6        40.744                                    23277044.890 3  95315694.55103      2048.727 3        22.914    23277047.025 6  95315727.57206      2048.720 6        39.213
E12        13.000    27121074.408 4                     -3246.567 4        28.777                                                                                                                                    27121070.728 4 109205278.73204     -2487.165 4        26.323
G04        14.000    25368223.413 4                       142.749 4        28.133
G12        15.000    23947087.222 6 125842783.99406     -4205.148 6        37.671                                    23947082.964 1  98059258.05501     -3276.796 1         8.381    23947106.842 4                     -3276.380 4        26.886
E24        16.000                                                                                                                                    27669624.422 3                     -2525.393 3        23.924
G26        17.000    23131981.554 5 121559401.88505      2269.108 5        33.509                                    23131984.119 1  94721633.07401      1768.146 1        11.407
E07        18.000                                                                                                                                    27894124.659 5 109462466.13705      -725.964 5        32.850    27894104.970 6 112318061.12206      -744.791 6        36.076
E30        19.000    28774360.886 5                      1781.309 5        30.226                                                                    28774385.079 5                      1330.151 5        32.485    28774367.601 4 115862504.93404      1365.233 4        25.233
E08        20.000                                                                                                                                    27693143.794 4 108673914.79904     -2267.990 4        28.976    27693182.378 4                     -2327.089 4        29.858
E02        21.000    24126279.636 5 126784529.65305       666.445 5        30.891                                                                    24126268.795 5  94676743.65605       498.147 5        35.724    24126267.578 6  97146540.25406       510.974 6        36.730
S23        22.000    38239854.146 6 200951855.74106      -865.863 6        36.435
R08        23.000                                                                                                                                    23865931.741 5  99400773.52315      -811.347 5        33.269
E36        24.000    25360237.352 6 133268982.69806      1860.605 6        40.892                                                                    25360236.930 6  99519126.01106      1389.478 6        37.440    25360236.932 6 102115261.00206      1425.708 6        39.814
R18        25.000    19325663.177 7 103161742.98607       389.434 7        46.655                                                                    19325665.669 7  80236897.78907       302.935 7        42.648
S21        27.000    38519610.422 5 202422024.66205      -862.026 5        35.843
R07        28.000    24393091.788 6 130578050.51616     -3591.732 6        38.357                                                                    24393090.758 4                     -2793.774 4        27.126
R19        29.000    21964375.491 5                      3029.912 5        30.672                                                                    21964400.542 4                      2357.035 4        27.066
R15        30.000    20719314.942 6 110718023.20406     -3819.483 6        40.052                                                                    20719321.863 6  86113884.56306     -2970.695 6        38.156
S36        31.000    38290917.527 6 201220129.86406      -861.882 6        36.250
R16        34.000    19299182.934 8 103093370.00308       112.081 8        49.472                                                                    19299184.648 7  80183420.64707        87.236 7        47.596
C44        35.000                                                                                                                                    21406276.106 7 111468413.88507      -581.482 7        46.192                                                                    21406276.322 7  90577109.64207      -472.600 7        42.347
R17        36.000    20208030.446 8 108137647.55308     -3427.278 8        53.083                                                                    20208029.614 7  84106795.20907     -2665.604 7        43.217
R09        37.000    22637168.267 6 120881463.14706      3056.208 6        41.955                                                                    22637168.951 7  94018624.06707      2377.137 7        42.561
C12        41.000                                                                                                                                    22388008.297 7 116580292.48807       904.442 7        45.812    22388008.867 7  90147277.10707       699.313 7        44.513    22388007.403 8  94731020.92208       734.808 8        48.055
C35        42.000                                                                                                                                    23287886.060 6 121266117.42006     -3187.306 6        41.118                                                                    23287886.548 6  98538693.86406     -2590.040 6        41.721
C05        43.000                                                                                                                                                                                                    39499293.303 5 159047291.22205      -625.272 5        33.341
C38        44.000                                                                                                                                    39041769.835 5 203300726.78605        49.065 5        33.958                                                                    39041766.917 5                        40.098 5        32.569
C25        45.000                                                                                                                                    23561026.949 8 122688441.12808      1542.877 8        50.412                                                                    23561028.162 7  99694592.82107      1253.620 7        45.135
C08        46.000                                                                                                                                    38814824.076 4                       666.592 4        28.104    38814806.624 6 156291157.53206       515.835 6        38.084    38814827.288 4                       541.977 4        28.114
C26        48.000                                                                                                                                    24363824.247 5 126868813.63705     -3898.213 5        31.819                                                                    24363824.340 6 103091298.30206     -3167.815 6        36.609
C24        51.000                                                                                                                                    21560130.121 8 112269264.13408     -1483.065 8        49.703                                                                    21560128.500 8  91228036.84508     -1205.203 8        49.880
C34        52.000                                                                                                                                    24012936.248 6 125041738.26806      2019.469 6        41.192                                                                    24012935.268 6 101606638.06506      1641.016 6        38.006
I06        58.000    38767419.261 5 152131741.62505      -692.345 5        34.210
> 2025 01 02 15 46 40.0000000  0 41
G20         1.000    23709864.228 4                      -389.901 4        25.083
G11         2.000    24082134.080 4 126552780.06004     -3830.625 4        29.716                                                                                                    24082149.292 4                     -2985.236 4        26.575
G25         3.000    20711126.079 7 108837866.01607     -2872.597 7        46.919                                    20711125.327 6  84808713.21206     -2238.389 6        38.826    20711126.558 6  84808632.20306     -2238.330 6        38.916
E25         6.000    23675356.484 7 124414884.69007     -1813.928 7        47.383                                                                    23675358.010 7  92907350.30107     -1354.528 7        47.796    23675357.486 7  95330915.82407     -1389.941 7        46.931
G31         7.000    21934549.060 4 115267053.55904       355.817 4        28.863                                    21934596.251 1  89818314.26701       277.278 1         4.571    21934545.206 6  89818316.23506       277.311 6        38.544
G28         8.000    21425159.579 6 112589946.39106     -1423.458 6        37.720                                    21425156.295 4  87732486.17904     -1109.180 4        26.790    21425156.454 7  87732559.16207     -1109.303 7        43.617
G29         9.000    20415235.646 8 107282856.30408      -863.318 8        51.320                                    20415233.236 7  83597033.95107      -672.716 7        46.296    20415232.538 6  83596985.96406      -672.822 6        41.831
E11        10.000    24067811.872 5 126477313.41005      -641.318 5        34.719                                                                    24067806.124 6  94447284.93506      -479.145 6        37.531    24067806.543 6  96911133.70206      -491.566 6        41.290
E10        11.000    25256774.124 6 132725399.67106     -2230.399 6        41.068                                                                    25256780.657 6  99113040.63706     -1665.546 6        39.054    25256783.069 6 101698654.09306     -1709.012 6        41.995
G18        12.000    23274544.674 6 122308612.36806      2628.200 6        40.200                                    23274543.227 3  95305452.82903      2047.933 3        22.629    23274545.790 6  95305485.83806      2048.139 6        38.625
E12        13.000    27124163.978 4                     -3248.444 4        28.455                                                                                                                                    27124159.672 4 109217720.19204     -2488.523 4        27.665
G12        15.000    23951089.132 6 125863810.64906     -4205.462 6        36.575                                    23951085.451 1  98075642.35901     -3277.027 1         6.500
E24        16.000                                                                                                                                    27672843.091 4                     -2526.591 4        24.180
G26        17.000    23129823.778 5 121548059.51305      2268.090 5        33.701                                    23129825.930 2  94712794.87802      1767.356 2        12.848
E07        18.000    27895072.255 4 146589342.46204      -974.110 4        29.554                                                                    27895051.883 5 109466099.39605      -727.306 5        32.257    27895030.952 6 112321789.17906      -746.329 6        36.095
E30        19.000    28772666.463 4                      1781.510 4        29.137                                                                    28772689.999 5                      1330.239 5        32.928    28772672.394 4 115855680.70504      1364.717 4        24.767
E08        20.000    27696036.454 4 145543755.03104     -3038.361 4        28.455                                                                    27696034.317 4 108685256.12804     -2268.465 4        29.128    27696070.272 4                     -2327.885 4        29.517
E02        21.000    24125646.062 5 126781197.31505       666.206 5        30.460                                                                    24125634.491 5  94674255.32205       497.598 5        35.786    24125633.966 6  97143986.98606       510.448 6        37.115
S23        22.000    38240676.670 6 200956187.59506      -866.282 6        36.163
R08        23.000                                                                                                                                    23866905.201 5  99404837.64805      -814.317 5        31.638
E36        24.000    25358468.247 6 133259682.04306      1859.652 6        41.235                                                                    25358465.781 6  99512180.76406      1388.694 6        36.631    25358467.646 6 102108134.55206      1424.780 6        41.025
R18        25.000    19325300.208 7 103159805.35907       385.766 7        46.483                                                                    19325302.848 7  80235390.75007       299.961 7        43.276
S21        27.000    38520433.898 5 202426334.74305      -861.778 5        35.443
R07        28.000    24396447.169 6 130596014.61906     -3593.959 6        37.871                                                                    24396452.729 4                     -2795.767 4        26.683
R19        29.000    21961543.818 5                      3027.926 5        30.528                                                                    21961574.320 4                      2354.397 4        25.865
R15        30.000    20722897.967 6 110737126.23306     -3821.776 6        40.501                                                                    20722895.632 6  86128742.42506     -2972.603 6        38.504
S36        31.000    38291736.621 5 201224438.77405      -861.769 5        35.990
R16        34.000    19299079.205 8 103092817.48608       108.955 8        49.202                                                                    19299081.151 7  80182990.93107        84.730 7        46.675
C44        35.000                                                                                                                                    21406836.674 7 111471326.76807      -583.523 7        46.499                                                                    21406835.792 7  90579476.58707      -474.139 7        42.013
R17        36.000    20211234.232 8 108154790.74108     -3429.916 8        53.382                                                                    20211233.490 7  84120128.79507     -2667.714 7        44.489
R09        37.000    22634305.415 6 120866182.99606      3055.867 6        39.556                                                                    22634307.774 6  94006739.54206      2376.814 6        41.554
C12        41.000                                                                                                                                    22387140.600 7 116575774.90407       902.674 7        45.464    22387141.405 7  90143783.83307       698.135 7        45.270    22387139.836 8  94727350.00308       733.520 8        48.002
C35        42.000                                                                                                                                    23290948.494 6 121282056.86206     -3188.345 6        41.213                                                                    23290947.823 6  98551645.97306     -2590.907 6        41.869
C05        43.000                                                                                                                                                                                                    39500070.207 5 159050416.79705      -624.786 5        33.299
C38        44.000                                                                                                                                    39041722.839 5 203300482.12605        48.558 5        34.038                                                                    39041719.844 5                        39.286 5        32.269
C25        45.000                                                                                                                                    23559546.084 8 122680729.72408      1541.715 8        50.592                                                                    23559547.164 7  99688326.67607      1252.795 7        45.163
C08        46.000                                                                                                                                    38814191.073 4                       666.264 4        28.057    38814166.229 6 156288580.57906       515.068 6        38.589    38814187.761 4                       541.304 4        27.497
C26        48.000                                                                                                                                    24367566.535 4 126888306.86404     -3899.643 4        27.281                                                                    24367568.247 6 103107138.10206     -3168.198 6        36.193
C24        51.000                                                                                                                                    21561555.219 8 112276685.14208     -1485.321 8        49.959                                                                    21561553.706 8  91234067.01408     -1206.866 8        49.508
C34        52.000                                                                                                                                    24010998.153 6 125031643.39106      2018.671 6        40.381                                                                    24010995.873 6 101598435.15306      1640.361 6        36.537
I06        58.000    38768302.108 5 152135203.73805      -692.279 5        34.905
> 2025 01 02 15 46 45.0000000  0 42
G20         1.000    23710246.601 4                      -393.394 4        29.848
G11         2.000    24085782.773 5 126571940.06405     -3833.055 5        31.736                                                                                                    24085796.168 4                     -2987.002 4        27.030
G25         3.000    20713860.452 7 108852235.66107     -2874.905 7        46.723                                    20713860.002 6  84819910.34206     -2240.183 6        39.162    20713860.490 6  84819829.33406     -2240.202 6        38.928
E25         6.000    23677083.241 8 124423958.83308     -1815.281 8        48.222                                                                    23677084.974 8  92914126.46008     -1355.582 8        48.144    23677084.260 7  95337868.75607     -1390.980 7        47.002
G31         7.000    21934209.833 4 115265283.03004       351.992 4        26.407                                    21934258.935 1  89816934.60201       274.312 1         2.600    21934208.915 6  89816936.62106       274.776 6        38.886
G28         8.000    21426515.643 6 112597073.71006     -1427.114 6        38.030                                    21426512.632 4  87738039.93704     -1112.030 4        25.940    21426512.970 7  87738112.93207     -1112.108 7        43.757
G29         9.000    20416058.121 8 107287179.98608      -865.754 8        51.464                                    20416055.849 7  83600403.06607      -674.616 7        46.311    20416055.632 6  83600355.06906      -674.485 6        41.771
E11        10.000    24068425.528 5 126480528.49305      -644.008 5        34.624                                                                    24068417.815 6  94449685.78706      -480.896 6        37.195    24068418.396 6  96913597.20506      -493.624 6        41.333
E10        11.000    25258897.711 6 132736557.76306     -2232.602 6        41.361                                                                    25258904.005 6  99121372.98906     -1667.098 6        40.007    25258905.021 7 101707203.83107     -1710.747 7        42.461
G18        12.000    23272044.724 6 122295474.97606      2627.034 6        39.417                                    23272042.736 3  95295215.94103      2047.037 3        22.667    23272045.898 6  95295248.92806      2047.046 6        38.529
E12        13.000    27127254.750 4                     -3249.860 4        26.970                                                                                                                                    27127250.036 4 109230167.12604     -2489.938 4        28.370
G04        14.000    25367943.909 3                       139.720 3        21.262
G12        15.000    23955089.634 5 125884841.50805     -4206.399 5        34.905                                    23955087.758 1  98092029.95001     -3277.634 1         6.125
E24        16.000    27676057.917 3                     -3385.458 3        22.114                                                                    27676062.297 3                     -2527.248 3        23.276
G26        17.000    23127666.981 5 121536721.74505      2267.382 5        34.571                                    23127668.605 2  94703960.31402      1766.792 2        12.545
E07        18.000    27896005.379 4 146594219.68504      -975.802 4        26.910                                                                    27895980.926 5 109469741.58405      -729.494 5        31.864    27895958.738 5 112325526.39205      -748.443 5        35.838
E30        19.000    28770970.846 4                      1781.522 4        26.359                                                                    28770992.656 5                      1330.379 5        32.533    28770977.407 4 115848855.95104      1365.559 4        25.158
E08        20.000    27698928.279 4 145558949.23004     -3039.165 4        28.607                                                                    27698927.301 4 108696602.47604     -2269.553 4        28.910    27698962.263 4                     -2329.048 4        29.621
E02        21.000                                                                                                                                    24125001.685 6  94671770.57106       496.732 6        36.045    24125000.904 6  97141437.39806       509.659 6        37.849
S23        22.000    38241504.846 6 200960519.41506      -866.385 6        36.760
R08        23.000    23867884.185 4                     -1051.031 4        27.389                                                                    23867881.997 5  99408917.66715      -817.282 5        32.108
E36        24.000    25356699.182 6 133250388.38806      1858.219 6        41.421                                                                    25356696.584 6  99505240.74306      1387.505 6        36.121    25356698.295 6 102101013.44406      1423.769 6        41.633
R18        25.000    19324941.906 7 103157887.67707       381.686 7        45.824                                                                    19324944.470 7  80233899.23607       296.913 7        44.248
S21        27.000    38521256.497 5 202430645.01005      -861.800 5        35.719
R07        28.000    24399806.290 6 130613991.52406     -3596.449 6        37.505
R19        29.000    21958712.829 5                      3026.212 5        30.068                                                                    21958741.221 3                      2353.434 3        23.181
R15        30.000    20726476.346 6 110756242.38706     -3824.344 6        39.051                                                                    20726473.532 6  86143610.50206     -2974.515 6        39.267
S36        31.000    38292557.021 5 201228746.96705      -861.552 5        35.824
R16        34.000    19298978.784 8 103092282.59008       105.449 8        49.069                                                                    19298980.531 7  80182574.92307        81.975 7        46.244
C44        35.000                                                                                                                                    21407398.674 7 111474251.32107      -585.948 7        46.574                                                                    21407397.330 6  90581853.00606      -476.019 6        41.626
R17        36.000    20214440.389 8 108171948.44808     -3432.827 8        53.570                                                                    20214440.620 7  84133473.69507     -2670.024 7        45.699
R09        37.000    22631443.144 6 120850906.63906      3055.072 6        39.072                                                                    22631446.733 6  93994857.98606      2376.144 6        40.775
C12        41.000                                                                                                                                    22386275.616 7 116571267.77207       900.461 7        45.359    22386275.567 7  90140298.66907       696.288 7        45.684    22386274.265 7  94723687.57207       731.797 7        47.727
C35        42.000                                                                                                                                    23294010.904 6 121298003.07406     -3189.736 6        41.483                                                                    23294010.301 7  98564603.56807     -2591.840 7        42.201
C05        43.000                                                                                                                                                                                                    39500844.929 5 159053542.33105      -624.915 5        33.240
C38        44.000                                                                                                                                    39041676.538 5 203300242.64305        47.452 5        34.314                                                                    39041674.059 5                        38.452 5        31.766
C25        45.000                                                                                                                                    23558066.537 8 122673026.05308      1540.094 8        50.601                                                                    23558067.693 7  99682066.81207      1251.492 7        45.288
C08        46.000                                                                                                                                    38813555.557 4                       664.943 4        28.635    38813527.075 6 156286007.47706       514.324 6        39.192    38813548.945 4                       540.598 4        26.910
C26        48.000                                                                                                                                                                                                                                                                    24371313.115 5 103122982.58405     -3169.115 5        35.714
C24        51.000                                                                                                                                    21562982.722 8 112284118.73208     -1487.846 8        50.168                                                                    21562981.312 8  91240107.40908     -1208.936 8        49.250
C34        52.000                                                                                                                                    24009061.329 6 125021554.49906      2017.276 6        39.529                                                                    24009058.227 5 101590237.07705      1639.247 5        35.890
I06        58.000    38769184.048 5 152138665.69205      -692.159 5        34.410
> 2025 01 02 15 46 50.0000000  0 41
G11         2.000    24089438.691 5 126591108.83705     -3834.666 5        32.796                                                                                                    24089446.939 4                     -2988.219 4        27.138
G25         3.000    20716596.815 7 108866615.94107     -2876.935 7        46.687                                    20716596.518 6  84831115.75106     -2241.766 6        39.312    20716596.383 6  84831034.74406     -2241.702 6        38.300
E25         6.000    23678811.436 8 124433039.54208     -1816.678 8        48.839                                                                    23678812.991 8  92920907.51808     -1356.571 8        48.395    23678812.247 7  95344826.70207     -1391.919 7        47.117
G31         7.000                                                                                                                                                                    21933874.300 6  89815569.54206       272.242 6        38.976
G28         8.000    21427875.830 6 112604217.87706     -1430.574 6        37.036                                    21427872.064 4  87743606.81704     -1114.742 4        24.707    21427872.597 7  87743679.80207     -1114.498 7        44.358
G29         9.000    20416882.949 8 107291515.04208      -867.966 8        51.310                                    20416880.609 7  83603781.04407      -676.341 7        46.360    20416880.043 7  83603733.03807      -676.305 7        42.347
E11        10.000    24069040.692 5 126483755.91505      -646.900 5        34.457                                                                    24069032.220 6  94452095.88306      -482.854 6        38.000    24069032.728 6  96916070.16606      -495.505 6        41.745
E10        11.000    25261022.845 6 132747726.46406     -2234.668 6        41.602                                                                    25261029.029 6  99129713.27706     -1668.736 6        40.374    25261029.314 7 101715761.68707     -1712.293 7        42.317
G18        12.000    23269546.173 6 122282343.64306      2625.831 6        39.273                                    23269543.577 3  95284983.76103      2046.096 3        22.343    23269547.470 6  95285016.76706      2045.963 6        38.772
E12        13.000    27130344.176 4                     -3251.650 4        25.083                                                                                                                                    27130342.542 4 109242619.46604     -2490.907 4        28.900
G04        14.000    25367807.131 3                       130.012 3        23.276
G12        15.000    23959089.983 5 125905876.42305     -4207.276 5        32.856                                    23959089.959 1  98108420.74201     -3278.421 1         5.000
E24        16.000    27679279.744 3                     -3385.987 3        19.821                                                                    27679280.716 3                     -2526.586 3        22.781
G26        17.000    23125510.436 5 121525388.52105      2266.364 5        34.229                                    23125512.085 2  94695129.23302      1765.960 2        12.242
E07        18.000                                                                                                                                    27896912.779 5 109473392.47805      -730.723 5        30.226    27896888.954 6 112329272.59306      -750.234 6        36.102
E30        19.000    28769273.530 4                      1781.631 4        25.519                                                                    28769295.894 5                      1330.372 5        32.341    28769282.397 4 115842030.69404      1365.403 4        25.308
E08        20.000    27701823.006 4 145574149.96804     -3040.605 4        27.401                                                                    27701822.446 4 108707953.64804     -2270.592 4        28.521    27701853.985 4                     -2329.912 4        29.820
E02        21.000                                                                                                                                    24124369.622 6  94669289.30806       495.866 6        36.045    24124368.844 6  97138891.38306       509.117 6        38.315
S23        22.000    38242329.364 6 200964851.13406      -865.804 6        36.072
R08        23.000    23868868.192 4                     -1055.655 4        29.583                                                                    23868863.248 5                      -820.548 5        33.036
E36        24.000    25354930.339 6 133241101.57806      1856.844 6        40.496                                                                    25354929.101 5  99498305.82005      1386.591 5        35.667    25354930.282 6 102093897.57206      1422.800 6        41.793
R18        25.000    19324586.702 7 103155989.77007       377.777 7        46.249                                                                    19324589.019 7  80232423.10307       293.820 7        45.120
S21        27.000    38522078.950 6 202434955.18206      -861.991 6        36.004
R07        28.000    24403167.200 5                     -3598.892 5        35.805                                                                    24403166.500 3                     -2799.301 3        23.352
R19        29.000    21955885.047 4                      3023.694 4        28.891
R15        30.000    20730056.925 6 110775371.54006     -3827.244 6        36.594                                                                    20730053.798 6  86158488.69106     -2976.429 6        39.390
S36        31.000    38293375.041 6 201233054.57406      -861.415 6        36.144
R16        34.000    19298881.772 8 103091764.72008       101.964 8        49.075                                                                    19298884.398 7  80182172.14807        79.315 7        46.201
C44        35.000                                                                                                                                    21407962.348 7 111477187.38807      -588.237 7        45.862                                                                    21407961.084 6  90584238.79006      -477.914 6        41.361
R17        36.000    20217649.634 8 108189120.65608     -3435.679 8        53.812                                                                    20217649.717 7  84146829.85507     -2672.230 7        46.375
R09        37.000    22628584.262 6 120835633.80306      3054.347 6        39.853                                                                    22628587.008 6  93982979.12606      2375.646 6        40.100
C12        41.000                                                                                                                                    22385412.660 7 116566770.89807       898.556 7        45.398    22385411.518 7  90136821.42207       694.797 7        46.036    22385410.566 7  94720033.49907       730.290 7        47.443
C35        42.000                                                                                                                                    23297073.405 6 121313955.88506     -3191.154 6        41.225                                                                    23297074.005 7  98577566.55907     -2592.832 7        42.360
C05        43.000                                                                                                                                                                                                    39501621.015 5 159056667.74505      -624.821 5        33.341
C38        44.000                                                                                                                                    39041630.904 5 203300008.30905        46.507 5        34.357                                                                    39041628.878 5                        37.741 5        31.562
C25        45.000                                                                                                                                    23556588.483 8 122665329.95708      1538.630 8        50.645                                                                    23556589.669 7  99675813.11707      1250.439 7        45.347
C08        46.000                                                                                                                                    38812914.783 4                       664.048 4        29.431    38812889.237 6 156283438.10806       513.768 6        39.763    38812910.952 4                       539.367 4        26.754
C26        48.000                                                                                                                                    24375048.455 4                     -3901.029 4        24.827                                                                    24375058.602 5 103138831.67805     -3170.008 5        34.895
C24        51.000                                                                                                                                    21564412.602 8 112291564.75108     -1490.291 8        50.223                                                                    21564411.284 8  91246157.91308     -1210.854 8        48.988
C34        52.000                                                                                                                                    24007124.584 6 125011471.38306      2016.162 6        38.520                                                                    24007122.313 5 101582043.73705      1638.387 5        35.433
I06        58.000    38770066.728 5 152142127.37405      -692.269 5        34.771
> 2025 01 02 15 46 55.0000000  0 42
G20         1.000    23711021.256 4                      -398.901 4        28.663
G11         2.000    24093092.657 5 126610285.80905     -3836.330 5        33.713                                                                                                    24093095.873 4                     -2989.539 4        28.142
G25         3.000    20719335.285 7 108881006.28407     -2879.041 7        46.677                                    20719334.721 6  84842329.01006     -2243.402 6        39.054    20719334.954 6  84842248.01106     -2243.438 6        37.267
E25         6.000    23680540.556 8 124442126.22808     -1817.962 8        49.745                                                                    23680542.176 8  92927693.04008     -1357.620 8        48.515    23680541.271 7  95351789.23907     -1392.925 7        47.494
G31         7.000                                                                                                                                                                    21933542.173 6  89814214.54606       269.842 6        37.403
G28         8.000    21429237.694 6 112611378.27206     -1433.568 6        36.053                                    21429234.710 3  87749186.34803     -1117.065 3        23.981    21429235.151 7  87749259.35107     -1117.186 7        44.578
G29         9.000    20417710.050 8 107295860.92808      -870.270 8        51.195                                    20417707.488 7  83607167.46507      -678.135 7        46.270    20417706.875 7  83607119.46307      -678.154 7        42.591
E11        10.000    24069656.335 5 126486995.05905      -649.055 5        33.820                                                                    24069648.708 6  94454514.72806      -484.649 6        38.141    24069649.039 7  96918552.10207      -497.272 7        42.161
E10        11.000    25263150.293 7 132758905.16807     -2236.759 7        42.190                                                                    25263155.364 6  99138061.03506     -1670.410 6        40.515    25263155.732 7 101724327.21107     -1713.787 7        42.030
G18        12.000    23267048.131 6 122269217.77706      2624.579 6        39.943                                    23267045.926 3  95274755.85003      2045.127 3        21.857    23267049.423 6  95274788.83306      2045.216 6        38.829
E12        13.000    27133435.413 4                     -3252.499 4        24.617                                                                                                                                    27133435.249 4 109255076.68404     -2491.588 4        29.223
G04        14.000    25367679.373 3                       133.723 3        23.371
G12        15.000    23963091.625 5 125926914.77305     -4207.981 5        30.641                                    23963093.255 1  98124814.24701     -3279.021 1         6.000
E24        16.000    27682499.160 3                     -3385.009 3        23.162                                                                    27682500.495 3                     -2526.701 3        22.076
G26        17.000    23123352.963 5 121514059.21705      2265.625 5        31.321                                    23123356.369 2  94686301.20602      1765.437 2        13.455    23123395.974 4                      1765.618 4        28.114
E07        18.000    27897845.175 4                      -980.388 4        26.048                                                                    27897848.197 4 109477051.76704      -733.037 4        29.024    27897821.259 6 112333027.34506      -751.928 6        36.147
E30        19.000    28767575.619 3                      1780.047 3        20.738                                                                    28767599.039 5                      1330.464 5        32.168    28767587.590 4 115835204.44104      1365.090 4        25.970
E08        20.000    27704716.652 4 145589356.59204     -3041.978 4        26.216                                                                    27704718.523 4 108719309.26504     -2271.540 4        28.019    27704746.731 4                     -2330.876 4        29.896
E02        21.000    24123774.851 4 126771228.48704       663.056 4        26.287                                                                    24123738.161 6  94666811.06506       495.327 6        36.306    24123737.943 6  97136348.47606       508.363 6        38.871
S23        22.000    38243155.344 6 200969182.13006      -865.693 6        36.174
R08        23.000    23869860.235 4                     -1059.196 4        28.379                                                                    23869854.145 5  99417125.30415      -823.955 5        33.024
E36        24.000    25353162.705 6 133231821.05906      1855.492 6        39.805                                                                    25353163.012 5  99491375.56805      1385.660 5        35.367    25353163.803 7 102086786.52507      1421.775 7        42.100
R18        25.000    19324234.919 7 103154110.98607       373.883 7        46.393                                                                    19324237.026 7  80230961.84407       290.753 7        45.816
S21        27.000    38522894.019 5 202439264.70005      -861.881 5        35.357
R07        28.000    24406528.876 5 130649982.21715     -3601.399 5        32.563                                                                    24406533.672 4                     -2801.340 4        25.534
R19        29.000    21953061.950 4                      3022.371 4        25.970                                                                    21953048.984 4                      2350.509 4        29.261
R15        30.000    20733639.270 6 110794513.00006     -3829.462 6        36.688                                                                    20733636.091 6  86173376.46106     -2978.453 6        39.045
S36        31.000    38294196.742 6 201237362.54406      -861.807 6        36.106
R16        34.000    19298788.200 8 103091263.41608        98.543 8        48.963                                                                    19298790.811 7  80181782.25807        76.649 7        47.028
C44        35.000                                                                                                                                    21408527.913 7 111480134.36007      -590.525 7        45.469                                                                    21408526.624 6  90586633.44006      -479.714 6        41.147
R17        36.000    20220861.425 8 108206306.52408     -3438.546 8        53.387                                                                    20220861.529 7  84160196.63707     -2674.393 7        46.395
R09        37.000    22625725.148 6 120820363.96606      3053.549 6        40.119                                                                    22625727.516 6  93971102.60606      2375.017 6        40.601
C12        41.000                                                                                                                                    22384550.461 7 116562283.71907       896.534 7        44.787    22384549.453 7  90133351.67307       693.173 7        46.188    22384548.597 7  94716387.30607       728.520 7        47.168
C35        42.000                                                                                                                                    23300136.274 6 121329914.73506     -3192.513 6        41.056                                                                    23300138.716 7  98590534.42507     -2594.003 7        42.438
C05        43.000                                                                                                                                                                                                    39502397.432 5 159059792.56205      -624.791 5        33.659
C38        44.000                                                                                                                                    39041587.285 5 203299778.47505        45.635 5        34.057                                                                    39041584.233 5                        36.917 5        31.351
C25        45.000                                                                                                                                    23555112.092 8 122657640.84308      1537.135 8        50.736                                                                    23555113.091 7  99669565.09307      1249.101 7        45.687
C08        46.000                                                                                                                                    38812270.113 4                       663.249 4        29.403    38812251.551 6 156280872.06906       512.835 6        39.844    38812272.731 4                       538.564 4        26.431
C26        48.000                                                                                                                                    24378797.745 4                     -3902.042 4        27.665                                                                    24378804.365 5 103154684.86205     -3170.967 5        34.095
C24        51.000                                                                                                                                    21565844.828 8 112299022.62308     -1492.767 8        50.007                                                                    21565843.509 8  91252218.03708     -1212.894 8        48.814
C34        52.000                                                                                                                                    24005188.645 6 125001393.53406      2015.056 6        37.482                                                                    24005187.640 5 101573854.67105      1637.310 5        35.800
I06        58.000    38770948.286 5 152145588.35905      -692.259 5        34.571
> 2025 01 02 15 47  0.0000000  0 42
G20         1.000    23711393.912 4                      -401.735 4        29.735
G11         2.000    24096745.466 5 126629471.62505     -3838.018 5        34.024                                                                                                    24096748.406 4                     -2990.443 4        28.455
G25         3.000    20722075.314 7 108895407.30107     -2881.109 7        46.905                                    20722074.775 6  84853550.58406     -2245.019 6        38.688    20722076.432 6  84853469.58006     -2245.009 6        36.798
E25         6.000    23682270.772 8 124451219.53008     -1819.139 8        50.033                                                                    23682272.655 8  92934483.49908     -1358.455 8        48.783    23682271.594 7  95358756.84407     -1393.943 7        47.603
G31         7.000                                                                                                                                                                    21933213.999 5  89812872.12005       267.077 5        35.857
G28         8.000    21430603.542 5 112618555.61305     -1436.994 5        35.310                                    21430600.880 3  87754779.06503     -1119.723 3        23.010    21430601.458 7  87754852.06007     -1119.763 7        45.056
G29         9.000    20418539.468 8 107300218.25208      -872.434 8        50.955                                    20418536.549 7  83610562.79607      -679.822 7        46.054    20418535.885 7  83610514.78507      -679.835 7        42.290
E11        10.000    24070277.878 5 126490246.66405      -651.612 5        33.186                                                                    24070267.477 6  94456942.85406      -486.546 6        38.471    24070267.814 7  96921043.56607      -499.123 7        42.461
E10        11.000    25265279.669 7 132770094.54907     -2238.822 7        42.408                                                                    25265283.702 6  99146416.75706     -1671.836 6        40.853    25265283.339 6 101732900.91806     -1715.444 6        41.671
G18        12.000    23264551.587 6 122256098.03606      2623.504 6        41.333                                    23264549.839 3  95264532.69603      2044.288 3        21.381    23264553.301 6  95264565.70206      2044.197 6        39.126
E12        13.000    27136525.908 4                     -3252.363 4        24.466                                                                                                                                    27136529.166 4 109267539.36304     -2493.070 4        29.687
G04        14.000    25367560.240 3                       121.082 3        20.476
G12        15.000    23967095.432 4 125947957.31504     -4209.184 4        28.000                                    23967097.808 1  98141210.97801     -3279.736 1         4.571
E24        16.000                                                                                                                                    27685721.351 3                     -2526.529 3        22.552
G26        17.000    23121196.411 5 121502734.48005      2264.779 5        30.075                                    23121201.673 2  94677476.75202      1764.753 2        14.429
E07        18.000                                                                                                                                    27898784.211 4 109480719.80104      -734.389 4        27.892    27898755.992 6 112336791.16306      -753.623 6        36.004
E30        19.000                                                                                                                                    28765902.657 5                      1330.779 5        31.321    28765892.266 4 115828377.57004      1365.227 4        25.068
E08        20.000    27707614.039 4 145604569.74904     -3042.782 4        24.962                                                                    27707613.951 4 108730669.75804     -2272.469 4        28.085    27707640.681 5                     -2331.869 5        30.875
E02        21.000    24123142.592 3                       665.028 3        21.000                                                                    24123107.623 6  94664336.34806       494.831 6        36.930    24123108.278 6  97133809.21906       507.661 6        39.402
S23        22.000    38243978.507 6 200973512.94506      -866.099 6        36.231
R08        23.000    23870838.318 4                     -1064.021 4        25.128                                                                    23870845.509 5  99421252.93415      -827.243 5        32.551
E36        24.000    25351394.994 6 133222547.45606      1854.109 6        38.997                                                                    25351397.932 5  99484450.50405      1384.605 5        35.490    25351398.527 7 102079680.77307      1420.665 7        42.091
R18        25.000    19323885.991 7 103152252.06107       369.972 7        46.495                                                                    19323888.563 7  80229516.03007       287.676 7        45.791
S21        27.000    38523713.556 5 202443574.21605      -861.826 5        35.338
R07        28.000    24409884.876 4 130667996.11604     -3603.167 4        25.278                                                                    24409895.201 4                     -2802.956 4        24.361
R19        29.000    21950239.874 3                      3020.643 3        22.552                                                                    21950233.418 5                      2349.098 5        30.408
R15        30.000    20737223.714 6 110813667.51006     -3831.912 6        38.171                                                                    20737220.007 6  86188274.35606     -2980.518 6        38.781
S36        31.000    38295013.708 5 201241670.42305      -861.582 5        35.881
R16        34.000    19298697.647 8 103090779.37008        95.290 8        48.962                                                                    19298700.223 7  80181405.79507        74.093 7        47.392
C44        35.000                                                                                                                                    21409096.464 7 111483092.89507      -592.767 7        45.004                                                                    21409094.584 6  90589037.49906      -481.551 6        40.944
R17        36.000    20224075.341 8 108223506.76708     -3441.344 8        52.406                                                                    20224075.072 7  84173574.62007     -2676.615 7        45.457
R09        37.000    22622866.793 6 120805097.84406      3052.984 6        40.698                                                                    22622868.718 6  93959228.99906      2374.338 6        40.603
C12        41.000                                                                                                                                    22383689.525 7 116557806.89607       894.466 7        44.167    22383690.018 7  90129889.91507       691.656 7        46.234    22383688.633 7  94712749.52307       726.888 7        46.712
C35        42.000                                                                                                                                    23303200.022 6 121345880.19706     -3193.709 6        40.572                                                                    23303204.699 7  98603507.70107     -2594.991 7        42.423
C05        43.000                                                                                                                                                                                                    39503174.005 5 159062917.23605      -624.455 5        33.527
C38        44.000                                                                                                                                    39041543.651 5 203299553.82805        44.766 5        34.133                                                                    39041540.621 5                        36.016 5        31.449
C25        45.000                                                                                                                                    23553637.196 8 122649959.38508      1535.645 8        50.652                                                                    23553638.033 7  99663323.29207      1247.967 7        45.967
C08        46.000                                                                                                                                    38811630.457 4                       662.138 4        28.957    38811615.543 6 156278309.75706       512.229 6        40.002    38811637.188 4                       537.549 4        26.754
C26        48.000                                                                                                                                                                                                                                                                    24382551.479 5 103170542.62805     -3171.810 5        32.629
C24        51.000                                                                                                                                    21567279.441 8 112306492.98408     -1495.152 8        49.519                                                                    21567277.991 8  91258288.32508     -1214.901 8        48.490
C34        52.000                                                                                                                                    24003253.792 6 124991321.57606      2013.885 6        36.578                                                                    24003253.590 6 101565670.39406      1636.427 6        36.049
I06        58.000    38771830.247 5 152149049.10505      -692.150 5        34.495
> 2025 01 02 15 47  5.0000000  0 41
G11         2.000    24100400.465 5 126648666.25005     -3839.677 5        34.252                                                                                                    24100401.198 4                     -2991.886 4        28.180
G25         3.000    20724817.741 7 108909819.03307     -2883.243 7        47.036                                    20724816.984 6  84864780.52006     -2246.678 6        38.363    20724819.475 6  84864699.52106     -2246.677 6        37.433
E25         6.000    23684002.311 8 124460319.45508     -1820.473 8        49.970                                                                    23684004.459 8  92941278.90608     -1359.466 8        49.105    23684003.182 7  95365729.52707     -1394.996 7        47.744
G31         7.000    21932908.314 6                       339.775 6        36.348                                                                                                    21932891.141 5  89811542.26305       264.777 5        34.924
G28         8.000    21431972.512 5 112625749.79905     -1440.387 5        35.090                                    21431970.265 3  87760384.93703     -1122.366 3        22.800    21431970.453 7  87760457.93507     -1122.411 7        45.305
G29         9.000    20419370.887 8 107304586.99808      -874.740 8        50.763                                    20419367.774 7  83613967.02607      -681.617 7        45.898    20419366.696 6  83613919.00606      -681.577 6        41.924
E11        10.000    24070902.111 5 126493510.62105      -653.919 5        30.445                                                                    24070888.602 6  94459380.21606      -488.413 6        38.529    24070889.017 7  96923544.50207      -501.049 7        42.658
E10        11.000    25267410.590 7 132781294.55507     -2240.793 7        42.195                                                                    25267414.527 6  99154780.40906     -1673.338 6        41.106    25267412.102 6 101741482.75506     -1716.935 6        41.077
G18        12.000    23262056.197 7 122242984.46107      2622.334 7        42.447                                    23262054.911 3  95254314.35903      2043.366 3        21.690    23262058.002 6  95254347.37306      2043.122 6        39.456
E12        13.000    27139615.209 3                     -3253.821 3        23.162                                                                                                                                    27139624.398 4 109280007.48704     -2494.330 4        29.772
G04        14.000    25367441.259 3                       125.034 3        21.167
G12        15.000    23971102.765 4 125969003.83904     -4210.077 4        26.647                                    23971102.790 1  98157610.83601     -3280.821 1         3.400    23971084.706 4                     -3280.527 4        24.797
E24        16.000    27688963.284 4                     -3385.784 4        25.729                                                                    27688942.842 3                     -2529.532 3        22.076
G26        17.000    23119045.176 5 121491414.31805      2263.491 5        31.117                                    23119047.916 2  94668655.89102      1763.766 2        16.151
E07        18.000                                                                                                                                    27899724.121 4 109484396.69704      -735.582 4        26.946    27899693.092 5 112340564.04805      -755.318 5        35.910
E30        19.000                                                                                                                                    28764206.213 5                      1330.733 5        30.709    28764197.279 4 115821550.25004      1365.774 4        25.504
E08        20.000    27710509.845 4 145619789.59704     -3045.365 4        24.662                                                                    27710510.192 4 108742035.14104     -2273.482 4        27.581    27710533.024 5                     -2333.034 5        31.774
E02        21.000                                                                                                                                    24122477.973 6  94661865.19306       493.834 6        37.471    24122479.785 6  97131273.56506       506.897 6        39.532
S23        22.000    38244800.418 6 200977843.72206      -866.055 6        36.125
R08        23.000    23871823.452 4                     -1067.625 4        28.607                                                                    23871839.964 5  99425396.57605      -830.102 5        33.293
E36        24.000    25349629.381 6 133213280.76106      1852.794 6        38.129                                                                    25349634.564 6  99477530.58306      1383.675 6        36.144    25349635.008 7 102072580.33507      1419.602 7        42.191
R18        25.000    19323541.873 7 103150412.99407       366.015 7        46.965                                                                    19323542.931 7  80228085.63507       284.631 7        45.458
S21        27.000    38524535.386 5 202447883.88705      -861.831 5        35.381
R07        28.000    24413256.576 4 130686022.75804     -3606.276 4        27.557                                                                    24413259.837 3                     -2805.009 3        22.648
R19        29.000    21947412.605 3                      3020.779 3        18.806                                                                    21947421.389 5                      2347.463 5        30.453
R15        30.000    20740811.897 6 110832834.98406     -3834.477 6        38.670                                                                    20740808.099 6  86203182.32206     -2982.476 6        38.823
S36        31.000    38295837.577 6 201245978.48806      -861.398 6        36.113
R16        34.000    19298610.523 8 103090312.61908        91.809 8        49.227                                                                    19298612.197 7  80181042.76607        71.476 7        47.030
C44        35.000                                                                                                                                    21409666.433 7 111486062.99207      -595.018 7        43.704                                                                    21409664.939 6  90591450.93706      -483.711 6        41.020
R17        36.000    20227291.832 8 108240721.51808     -3444.157 8        52.137                                                                    20227291.592 7  84186963.88607     -2678.860 7        44.333
R09        37.000    22620011.488 6 120789835.39706      3052.306 6        40.644                                                                    22620011.034 6  93947358.23806      2374.046 6        40.667
C12        41.000                                                                                                                                    22382831.894 7 116553340.39007       892.417 7        43.795    22382833.116 7  90126436.14707       690.063 7        45.989    22382830.720 7  94709120.12307       725.006 7        46.134
C35        42.000                                                                                                                                    23306266.455 6 121361852.31806     -3194.992 6        40.248                                                                    23306271.920 7  98616486.35107     -2596.239 7        42.199
C05        43.000                                                                                                                                                                                                    39503950.274 5 159066041.84905      -624.726 5        33.311
C38        44.000                                                                                                                                    39041498.976 5 203299334.30405        43.511 5        33.449                                                                    39041498.387 5                        35.509 5        30.657
C25        45.000                                                                                                                                    23552163.692 8 122642285.57208      1534.171 8        50.591                                                                    23552164.390 7  99657087.70007      1246.455 7        46.074
C08        46.000                                                                                                                                    38810995.379 5                       660.995 5        30.060    38810979.904 6 156275751.22706       511.381 6        40.291    38811001.145 4                       537.112 4        27.234
C26        48.000                                                                                                                                    24386309.758 5                     -3904.889 5        33.383                                                                    24386299.514 5 103186405.00905     -3173.044 5        32.138
C24        51.000                                                                                                                                    21568716.502 8 112313975.83208     -1497.644 8        49.615                                                                    21568714.667 7  91264368.73707     -1217.028 7        47.921
C34        52.000                                                                                                                                    24001319.816 6 124981255.53506      2012.524 6        36.121                                                                    24001320.373 6 101557490.89506      1635.493 6        36.015
I06        58.000    38772711.950 5 152152509.63505      -691.969 5        34.971
> 2025 01 02 15 47 10.0000000  0 42
G20         1.000    23712150.032 5 124608159.77215      -408.150 5        34.714
G11         2.000    24104057.328 5 126667870.23905     -3841.682 5        33.671                                                                                                    24104050.615 4                     -2993.564 4        27.521
G25         3.000    20727561.782 7 108924242.06307     -2885.913 7        46.314                                    20727561.451 6  84876019.24906     -2248.764 6        37.928    20727564.027 6  84875938.26406     -2248.931 6        37.898
E25         6.000    23685735.408 8 124469426.62808     -1822.255 8        49.928                                                                    23685737.567 8  92948079.72108     -1360.775 8        49.674    23685736.078 7  95372707.74907     -1396.278 7        47.641
G31         7.000    21932585.951 6 115256518.57116       336.133 6        40.706                                                                                                    21932571.065 5  89810225.51705       261.787 5        35.395
G28         8.000    21433344.173 5 112632961.51405     -1444.233 5        35.310                                    21433343.013 3  87766004.42903     -1125.375 3        23.810    21433343.095 7  87766077.44607     -1125.343 7        45.552
G29         9.000    20420204.339 8 107308967.82108      -877.471 8        50.346                                    20420201.231 7  83617380.66307      -683.746 7        45.734    20420200.427 6  83617332.64806      -683.708 6        41.459
E11        10.000                                                                                                                                    24071512.440 6  94461827.30906      -490.483 6        39.009    24071512.701 7  96926055.42807      -503.200 7        42.859
E10        11.000    25269544.230 6 132792505.83906     -2243.573 6        41.909                                                                    25269547.604 6  99163152.48806     -1675.267 6        41.752    25269543.520 6 101750073.24506     -1719.163 6        40.510
G18        12.000    23259561.813 7 122229877.68607      2620.545 7        43.206                                    23259561.418 3  95244101.30103      2041.973 3        21.262    23259563.494 6  95244134.32206      2042.026 6        39.907
E12        13.000    27142714.477 3                     -3256.276 3        21.929                                                                                                                                    27142721.482 4 109292481.48204     -2495.719 4        29.801
G04        14.000    25367321.200 3                       123.948 3        23.238
G12        15.000    23975110.680 3                     -4210.624 3        23.352
E24        16.000    27692185.777 4                     -3386.568 4        25.113                                                                    27692165.938 3                     -2528.495 3        22.629
G26        17.000    23116892.922 5 121480099.37905      2261.912 5        33.521                                    23116895.380 2  94659839.08102      1762.490 2        17.170    23116898.313 5                      1762.914 5        30.815
E07        18.000    27900613.485 5                      -988.737 5        30.604                                                                                                                                    27900632.630 5 112344346.45105      -757.587 5        35.581
E30        19.000                                                                                                                                    28762509.304 4                      1330.978 4        29.991    28762502.575 4 115814722.85404      1365.201 4        26.060
E08        20.000                                                                                                                                    27713407.119 4 108753405.91804     -2274.759 4        28.294    27713423.204 5                     -2334.055 5        32.533
E02        21.000                                                                                                                                    24121849.165 6  94659398.02306       492.920 6        38.456    24121852.121 6  97128742.04406       505.776 6        39.468
S23        22.000    38245625.741 6 200982174.98606      -866.207 6        36.352
R08        23.000    23872828.333 4                     -1072.260 4        27.066                                                                    23872843.256 5                      -833.649 5        31.494
E36        24.000    25347867.566 6 133204021.62406      1850.927 6        38.000                                                                    25347873.061 6  99470616.33106      1382.048 6        36.764    25347872.982 7 102065485.68807      1418.306 7        42.356
R18        25.000    19323201.310 7 103148594.40207       361.523 7        46.679                                                                    19323202.215 7  80226671.17907       281.222 7        44.935
S21        27.000    38525353.072 5 202452194.03205      -862.024 5        35.676
R07        28.000                                                                                                                                    24416635.671 3                     -2805.057 3        22.667
R19        29.000                                                                                                                                    21944598.400 4                      2346.017 4        29.071
R15        30.000    20744400.560 6 110852016.09906     -3837.727 6        36.858                                                                    20744399.484 6  86218100.90906     -2984.938 6        38.841
S36        31.000    38296659.426 5 201250287.34605      -861.910 5        35.600
R16        34.000    19298526.807 8 103089863.65108        87.796 8        49.825                                                                    19298527.554 7  80180693.58407        68.349 7        46.420
C44        35.000                                                                                                                                    21410238.456 6 111489045.30006      -597.947 6        41.430                                                                    21410237.613 6  90593874.28606      -485.623 6        41.261
R17        36.000    20230511.382 8 108257951.25308     -3447.569 8        52.453                                                                    20230511.590 7  84200364.78507     -2681.424 7        44.262
R09        37.000    22617152.807 6 120774577.23906      3051.131 6        38.823                                                                    22617153.151 6  93935490.81306      2372.976 6        40.536
C12        41.000                                                                                                                                    22381976.504 7 116548884.91407       889.891 7        44.132    22381976.607 7  90122990.91507       688.147 7        45.144    22381974.914 7  94705499.70807       723.220 7        45.526
C35        42.000                                                                                                                                    23309335.086 6 121377831.69106     -3196.746 6        40.179                                                                    23309340.242 6  98629470.92506     -2597.505 6        41.909
C05        43.000                                                                                                                                                                                                    39504725.193 5 159069166.79305      -624.804 5        33.096
C38        44.000                                                                                                                                    39041455.051 5 203299120.57805        42.183 5        32.982                                                                    39041456.756 5                        34.231 5        30.619
C25        45.000                                                                                                                                    23550691.753 8 122634620.04808      1532.151 8        50.892                                                                    23550692.463 7  99650858.85507      1245.135 7        46.575
C08        46.000                                                                                                                                    38810360.489 5                       659.943 5        30.128    38810345.445 6 156273196.99206       510.342 6        40.369    38810367.431 4                       536.277 4        27.138
C26        48.000                                                                                                                                    24390061.613 6 127005442.93616     -3906.181 6        36.382                                                                    24390048.780 5 103202272.50805     -3173.814 5        30.755
C24        51.000                                                                                                                                    21570156.277 8 112321471.77208     -1500.628 8        50.452                                                                    21570153.866 7  91270459.83407     -1219.353 7        47.322
C34        52.000                                                                                                                                    23999386.791 6 124971195.99506      2010.940 6        36.310                                                                    23999388.007 5 101549316.69205      1634.373 5        35.586
I06        58.000    38773593.769 5 152155970.42205      -692.096 5        34.714
> 2025 01 02 15 47 15.0000000  0 41
G20         1.000    23712539.206 5 124610208.10305      -410.912 5        32.766
G11         2.000    24107711.820 5 126687083.08805     -3843.200 5        32.766                                                                                                    24107703.322 4                     -2994.631 4        28.588
G25         3.000    20730307.949 7 108938675.82607     -2887.641 7        44.764                                    20730308.203 6  84887266.33806     -2250.111 6        37.690    20730310.310 6  84887185.33006     -2250.139 6        38.577
E25         6.000    23687469.612 8 124478540.47008     -1823.284 8        49.465                                                                    23687471.923 8  92954885.51808     -1361.527 8        49.911    23687470.278 7  95379691.08907     -1396.987 7        47.672
G31         7.000    21932266.740 6 115254844.92006       333.282 6        41.123                                                                                                    21932252.758 5  89808921.39705       259.564 5        35.690
G28         8.000    21434718.021 5 112640190.16505     -1447.088 5        32.988                                    21434719.021 4  87771637.13104     -1127.598 4        24.962    21434718.733 7  87771710.15007     -1127.704 7        45.297
G29         9.000    20421040.239 8 107313360.10508      -879.411 8        50.005                                    20421036.816 7  83620803.22807      -685.257 7        45.701    20421036.485 6  83620755.22406      -685.242 6        41.068
E11        10.000                                                                                                                                    24072138.745 6  94464283.66106      -492.026 6        39.393    24072138.967 7  96928575.87507      -504.804 7        43.219
E10        11.000    25271680.208 7 132803727.79407     -2245.257 7        42.557                                                                    25271682.863 6  99171532.53906     -1676.725 6        41.695    25271678.776 6 101758671.89806     -1720.560 6        40.205
G18        12.000    23257068.647 7 122216777.10707      2619.677 7        43.501                                    23257069.132 3  95233893.08903      2041.300 3        21.476    23257070.192 6  95233926.11906      2041.141 6        40.098
E12        13.000    27145812.931 3                     -3257.362 3        20.190                                                                                                                                    27145821.276 5 109304960.93605     -2496.265 5        30.211
G12        15.000                                                                                                                                                                    23979110.276 3                     -3281.696 3        21.690
E24        16.000    27695403.556 4                     -3386.718 4        25.639                                                                    27695391.963 3                     -2529.315 3        22.267
G26        17.000    23114740.989 5 121468789.04205      2261.814 5        34.529                                    23114743.586 2  94651025.85102      1762.453 2        17.774    23114751.366 5                      1762.489 5        30.694
E07        18.000    27901564.273 5                      -990.764 5        31.638                                                                    27901618.897 4 109491778.15304      -739.217 4        28.161    27901574.544 5 112348137.92405      -758.744 5        35.362
E30        19.000    28760831.970 3                      1780.218 3        22.552                                                                    28760811.438 4                      1330.870 4        27.904    28760808.771 4 115807895.04104      1365.207 4        26.587
E08        20.000    27716306.230 3                     -3048.307 3        21.262                                                                    27716304.356 4 108764781.44004     -2275.140 4        28.322    27716319.304 5                     -2334.863 5        30.860
E02        21.000    24121220.442 5 126757857.96215       659.790 5        33.940                                                                    24121221.117 6  94656934.42106       492.574 6        38.724    24121224.689 6  97126214.16006       505.408 6        39.126
S23        22.000    38246452.361 6 200986506.19306      -866.115 6        36.378
R08        23.000                                                                                                                                    23873844.718 4  99433732.78514      -836.262 4        29.602
E36        24.000    25346108.645 6 133194769.48206      1849.909 6        38.375                                                                    25346113.391 6  99463707.27706      1381.382 6        37.819    25346112.409 7 102058396.40707      1417.487 7        42.557
R18        25.000    19322864.131 7 103146795.67007       357.886 7        46.709                                                                    19322865.250 7  80225272.17907       278.338 7        45.254
S21        27.000    38526173.163 5 202456504.30205      -861.741 5        35.595
R07        28.000    24419989.245 4                     -3611.365 4        25.053                                                                    24420002.543 4                     -2808.888 4        26.539
R19        29.000    21941770.737 3                      3014.275 3        20.119                                                                    21941779.578 4                      2344.767 4        28.142
R15        30.000    20747994.908 5 110871210.29505     -3839.971 5        35.943                                                                    20747994.229 6  86233029.66306     -2986.599 6        38.817
S36        31.000    38297476.811 5 201254596.49605      -861.663 5        35.890
R16        34.000    19298446.304 8 103089432.06808        84.808 8        49.961                                                                    19298446.708 7  80180357.91407        65.941 7        45.496
C44        35.000                                                                                                                                    21410812.204 6 111492039.17506      -599.728 6        39.045                                                                    21410812.400 6  90596307.05106      -487.294 6        41.101
R17        36.000    20233733.996 8 108275195.41508     -3450.073 8        52.358                                                                    20233734.986 7  84213776.92107     -2683.429 7        44.268
R09        37.000    22614290.887 6 120759322.84806      3050.692 6        38.348                                                                    22614295.699 6  93923626.32906      2372.737 6        39.790
C12        41.000                                                                                                                                    22381123.817 7 116544439.80707       888.106 7        44.042    22381121.475 7  90119553.69307       686.818 7        43.886    22381121.178 7  94701887.72307       721.721 7        45.219
C35        42.000                                                                                                                                    23312404.920 6 121393817.72706     -3197.691 6        39.886                                                                    23312409.893 6  98642460.89906     -2598.394 6        41.204
C05        43.000                                                                                                                                                                                                    39505499.745 5 159072291.68805      -624.632 5        33.311
C38        44.000                                                                                                                                    39041413.376 5 203298912.04405        41.529 5        32.210                                                                    39041416.042 4                        33.576 4        29.583
C25        45.000                                                                                                                                    23549221.147 8 122626962.23308      1530.923 8        50.715                                                                    23549222.099 7  99644636.28207      1244.049 7        46.818
C08        46.000                                                                                                                                    38809726.051 4                       659.154 4        29.991    38809711.740 6 156270646.58706       509.842 6        40.234    38809734.294 4                       535.981 4        24.977
C26        48.000                                                                                                                                    24393812.949 6 127024975.93106     -3907.006 6        38.294                                                                    24393799.071 5 103218144.68705     -3174.742 5        30.355
C24        51.000                                                                                                                                    21571598.204 8 112328980.25208     -1502.793 8        50.875                                                                    21571595.548 7  91276561.10807     -1221.083 7        46.611
C34        52.000                                                                                                                                    23997455.592 6 124961142.36806      2010.368 6        37.025                                                                    23997456.303 5 101541147.36905      1633.414 5        34.800
I06        58.000    38774475.974 5 152159430.99505      -692.075 5        34.600
> 2025 01 02 15 47 20.0000000  0 42
G20         1.000    23712927.914 5 124612271.14905      -413.947 5        31.291
G11         2.000    24111365.694 5 126706304.34105     -3844.948 5        32.066                                                                                                    24111364.097 4                     -2995.887 4        29.564
G25         3.000    20733056.098 7 108953119.93307     -2889.840 7        43.187                                    20733057.147 6  84898521.48306     -2251.823 6        37.316    20733059.508 6  84898440.47606     -2251.709 6        39.450
E25         6.000    23689204.729 8 124487660.58308     -1824.569 8        48.882                                                                    23689207.514 8  92961696.00308     -1362.527 8        50.207    23689205.719 7  95386679.24207     -1398.106 7        47.564
G31         7.000    21931949.858 6 115253187.10006       329.922 6        40.293                                                                                                    21931937.329 6  89807629.61906       257.189 6        36.129
G28         8.000    21436096.309 5 112647435.37205     -1451.107 5        33.000                                    21436098.181 4  87777282.74904     -1130.719 4        25.308    21436097.407 7  87777355.73807     -1130.345 7        45.487
G29         9.000    20421878.049 8 107317763.45808      -881.767 8        49.997                                    20421874.517 7  83624234.41707      -687.092 7        45.565    20421874.695 6  83624186.40706      -687.056 6        41.454
E11        10.000    24072785.922 4 126503378.88104      -662.004 4        28.815                                                                    24072766.926 6  94466749.03906      -493.900 6        39.201    24072767.220 7  96931105.55407      -506.770 7        43.308
E10        11.000    25273817.683 7 132814960.01607     -2247.443 7        42.779                                                                    25273820.064 7  99179920.25707     -1678.268 7        42.172    25273816.875 6 101767278.42506     -1721.994 6        40.167
G18        12.000    23254576.553 7 122203682.36507      2618.403 7        43.401                                    23254577.969 3  95223689.42303      2040.307 3        21.500    23254578.197 6  95223722.45006      2040.347 6        39.940
E12        13.000    27148914.869 3                     -3255.041 3        21.190                                                                                                                                    27148921.618 5 109317445.48205     -2497.209 5        30.709
G04        14.000    25367106.737 4                       118.264 4        26.335
G12        15.000    23983145.926 4                     -4212.698 4        26.156                                                                                                    23983119.426 3                     -3281.917 3        20.976
E24        16.000    27698623.804 4                     -3386.742 4        24.015
G26        17.000    23112589.973 5 121457482.99005      2260.839 5        35.614                                    23112592.507 3  94642215.95703      1761.681 3        18.298    23112598.870 4                      1761.892 4        29.232
E07        18.000    27902508.277 5                      -993.254 5        31.728                                                                    27902559.231 5 109495481.80205      -741.262 5        30.566    27902518.664 5 112351938.23005      -760.883 5        35.019
E30        19.000    28759142.010 3                      1782.851 3        22.343                                                                    28759115.342 4                      1330.967 4        26.838    28759113.834 4 115801066.33704      1365.949 4        25.669
E08        20.000    27719205.769 4                     -3048.817 4        24.722                                                                    27719202.483 4 108776161.68104     -2275.941 4        28.882    27719224.490 5                     -2335.817 5        30.128
E02        21.000    24120593.260 5 126754563.24205       658.527 5        35.371                                                                    24120593.876 6  94654474.11406       491.643 6        38.988    24120596.712 6  97123689.68506       504.529 6        38.808
S23        22.000    38247272.344 6 200990837.15006      -866.256 6        36.526
R08        23.000    23874867.522 5                     -1079.912 5        32.335                                                                    23874849.624 4  99437924.71114      -839.898 4        28.370
E36        24.000    25344350.575 6 133185523.95206      1848.515 6        38.411                                                                    25344354.855 6  99456803.15406      1380.455 6        38.877    25344352.978 7 102051312.18107      1416.369 7        42.737
R18        25.000    19322531.530 7 103145016.40907       353.949 7        46.895                                                                    19322531.923 7  80223888.30707       275.275 7        45.482
S21        27.000    38526997.189 5 202460813.92805      -861.954 5        35.171
R07        28.000    24423369.206 4                     -3614.109 4        28.919                                                                    24423384.007 4                     -2811.216 4        28.256
R19        29.000                                                                                                                                    21938964.111 4                      2343.119 4        28.104
R15        30.000                                                                                                                                    20751591.968 6  86247968.19106     -2988.682 6        38.102
S36        31.000    38298304.697 5 201258905.75405      -861.612 5        35.957
R16        34.000    19298368.671 8 103089017.49808        81.238 8        49.980                                                                    19298369.117 7  80180035.48107        63.168 7        44.972
C44        35.000                                                                                                                                    21411388.827 6 111495044.25006      -601.947 6        37.879                                                                    21411389.635 6  90598748.91306      -489.165 6        41.504
R17        36.000    20236959.444 8 108292453.51508     -3453.050 8        52.061                                                                    20236960.181 7  84227199.88607     -2685.722 7        44.084
R09        37.000    22611436.578 6 120744071.75406      3049.993 6        40.010                                                                    22611439.968 6  93911764.43206      2372.076 6        39.727
C12        41.000                                                                                                                                    22380271.743 7 116540004.68107       886.037 7        43.482    22380269.093 7  90116124.18607       685.153 7        42.389    22380269.348 7  94698283.83707       720.016 7        44.761
C35        42.000                                                                                                                                    23315476.994 6 121409810.04706     -3199.013 6        39.664                                                                    23315480.830 6  98655455.96106     -2599.352 6        40.470
C05        43.000                                                                                                                                                                                                    39506276.113 5 159075416.20305      -624.807 5        32.778
C38        44.000                                                                                                                                    39041372.783 5 203298708.34405        40.415 5        31.132                                                                    39041375.958 4                        32.951 4        29.308
C25        45.000                                                                                                                                    23547751.802 8 122619311.76708      1529.340 8        50.346                                                                    23547752.982 7  99638419.66207      1242.798 7        46.996
C08        46.000                                                                                                                                    38809093.312 5                       658.285 5        30.996    38809079.680 6 156268099.67306       509.040 6        40.212    38809102.834 3                       536.408 3        23.524
C26        48.000                                                                                                                                    24397566.416 6 127044514.22206     -3908.156 6        38.877                                                                    24397552.109 5 103234021.11405     -3175.687 5        30.747
C24        51.000                                                                                                                                    21573042.540 8 112336500.89108     -1505.331 8        50.634                                                                    21573039.509 7  91282672.23107     -1223.068 7        45.658
C34        52.000                                                                                                                                    23995526.193 6 124951094.30606      2009.178 6        38.474                                                                    23995525.927 5 101532982.51905      1632.462 5        33.413
I06        58.000    38775357.201 5 152162891.07605      -691.964 5        34.505
