     3.04           OBSERVATION DATA    M                   RINEX VERSION / TYPE
ssrcrin-15.6.1x                         20250102 014500 UTC PGM / RUN BY / DATE 
(00000000023479385599111004) Septentrio proprietary         COMMENT             
ract                                                        MARKER NAME         
01                                                          MARKER NUMBER       
geodetic                                                    MARKER TYPE         
NFB                 CLIMERS@TUW                             OBSERVER / AGENCY   
3296359             SEPT ASTERX SB3 PROB4.14.4              REC # / TYPE / VERS 
Unknown             Unknown                                 ANT # / TYPE        
  4127446.6095  1206914.5065  4695543.3161                  APPROX POSITION XYZ 
        0.0000        0.0000        0.0000                  ANTENNA: DELTA H/E/N
G   23 X1  C1C L1C D1C S1C C1W S1W C2W L2W D2W S2W C2L L2L  SYS / # / OBS TYPES 
       D2L S2L C5Q L5Q D5Q S5Q C1L L1L D1L S1L              SYS / # / OBS TYPES 
E   21 X1  C1C L1C D1C S1C C6C L6C D6C S6C C5Q L5Q D5Q S5Q  SYS / # / OBS TYPES 
       C7Q L7Q D7Q S7Q C8Q L8Q D8Q S8Q                      SYS / # / OBS TYPES 
S    9 X1  C1C L1C D1C S1C C5I L5I D5I S5I                  SYS / # / OBS TYPES 
R   17 X1  C1C L1C D1C S1C C2P L2P D2P S2P C2C L2C D2C S2C  SYS / # / OBS TYPES 
       C3Q L3Q D3Q S3Q                                      SYS / # / OBS TYPES 
C   25 X1  C1P L1P D1P S1P C5P L5P D5P S5P C2I L2I D2I S2I  SYS / # / OBS TYPES 
       C7I L7I D7I S7I C6I L6I D6I S6I C7D L7D D7D S7D      SYS / # / OBS TYPES 
J   17 X1  C1C L1C D1C S1C C2L L2L D2L S2L C5Q L5Q D5Q S5Q  SYS / # / OBS TYPES 
       C1L L1L D1L S1L                                      SYS / # / OBS TYPES 
I    5 X1  C5A L5A D5A S5A                                  SYS / # / OBS TYPES 
SEPTENTRIO RECEIVERS OUTPUT ALIGNED CARRIER PHASES.         COMMENT             
NO FURTHER PHASE SHIFT APPLIED IN THE RINEX ENCODER.        COMMENT             
G L1C                                                       SYS / PHASE SHIFT   
G L2W                                                       SYS / PHASE SHIFT   
G L2L  0.00000                                              SYS / PHASE SHIFT   
G L5Q  0.00000                                              SYS / PHASE SHIFT   
G L1L  0.00000                                              SYS / PHASE SHIFT   
E L1C  0.00000                                              SYS / PHASE SHIFT   
E L6C  0.00000                                              SYS / PHASE SHIFT   
E L5Q  0.00000                                              SYS / PHASE SHIFT   
E L7Q  0.00000                                              SYS / PHASE SHIFT   
E L8Q  0.00000                                              SYS / PHASE SHIFT   
S L1C                                                       SYS / PHASE SHIFT   
S L5I                                                       SYS / PHASE SHIFT   
R L1C                                                       SYS / PHASE SHIFT   
R L2P  0.00000                                              SYS / PHASE SHIFT   
R L2C                                                       SYS / PHASE SHIFT   
R L3Q  0.00000                                              SYS / PHASE SHIFT   
C L1P  0.00000                                              SYS / PHASE SHIFT   
C L5P  0.00000                                              SYS / PHASE SHIFT   
C L2I                                                       SYS / PHASE SHIFT   
C L7I                                                       SYS / PHASE SHIFT   
C L6I                                                       SYS / PHASE SHIFT   
C L7D                                                       SYS / PHASE SHIFT   
J L1C                                                       SYS / PHASE SHIFT   
J L2L  0.00000                                              SYS / PHASE SHIFT   
J L5Q  0.00000                                              SYS / PHASE SHIFT   
J L1L  0.00000                                              SYS / PHASE SHIFT   
I L5A                                                       SYS / PHASE SHIFT   
  2025     1     2     1    45    0.0000000     GPS         TIME OF FIRST OBS   
 C1C    0.000 C2C    0.000 C2P    0.000                     GLONASS COD/PHS/BIS 
DBHZ                                                        SIGNAL STRENGTH UNIT
    18                                                      LEAP SECONDS        
 24 R01  1 R02 -4 R03  5 R04  6 R05  1 R06 -4 R07  5 R08  6 GLONASS SLOT / FRQ #
    R09 -2 R10 -7 R11  0 R12 -1 R13 -2 R14 -7 R15  0 R16 -1 GLONASS SLOT / FRQ #
    R17  4 R18 -3 R19  3 R20  2 R21  4 R22 -3 R23  3 R24  2 GLONASS SLOT / FRQ #
                                                            END OF HEADER       
> 2025 01 02 01 45  0.0000000  0 36
G03         1.000    19933026.802 8 104748743.80508     -1289.759 8        48.981                                    19933023.281 7  81622407.84607     -1005.004 7        45.049    19933025.009 7  81622434.83907     -1005.050 7        42.874
G19         2.000    22291354.347 7 117141988.71607      -281.240 7        43.566
G28         3.000    23384643.151 5 122887072.14205     -2251.096 5        35.429                                                                                                    23384634.228 5                     -1754.104 5        31.826
E07         5.000    27059227.153 3                     -3577.042 3        21.048                                                                    27059215.054 4                     -2673.262 4        24.045    27059218.758 5                     -2741.549 5        30.604
G09         6.000    22487892.259 4 118174754.41704      2396.474 4        29.242                                    22487893.559 3  92084223.76903      1867.421 3        20.690    22487888.906 5  92084232.74005      1867.175 5        35.195
G21         8.000    23816936.001 5                     -3967.887 5        33.539
G02         9.000    22156145.874 5 116431363.46505     -3454.217 5        32.168                                    22156135.714 2  90725601.90802     -2691.580 2        13.758
G31        10.000    22192821.625 6 116624082.72406      -450.186 6        40.300                                    22192816.235 5  90875961.41205      -350.795 5        31.487    22192815.700 6  90875893.41606      -350.701 6        38.147
G17        11.000    22479925.415 6 118133023.63406     -2170.597 6        39.441                                    22479923.263 4  92051605.42204     -1691.377 4        28.521    22479924.002 6  92051523.47106     -1691.443 6        37.214
G04        12.000    20714379.842 7 108854843.43207      1105.552 7        43.168                                    20714369.943 3  84821879.00003       861.469 3        19.433    20714376.079 6  84821910.98906       861.484 6        38.150
E12        13.000    24565723.262 7 129093789.05507       748.080 7        44.447                                                                    24565720.350 7  96401169.74907       558.583 7        42.990    24565720.074 6  98916056.28106       573.219 6        39.619
E29        14.000    23514463.439 5 123569333.12305     -1512.139 5        35.810                                                                    23514462.862 7  92275813.98907     -1129.332 7        47.913    23514460.957 7  94682978.46507     -1158.927 7        44.150
G06        15.000    23941134.298 7 125811514.65307      2529.808 7        44.686                                    23941130.623 5  98034965.94405      1971.279 5        32.012    23941130.053 5  98034958.96505      1971.265 5        34.667
R08        18.000                                                                                                                                    22686064.509 3                      1977.269 3        22.076
E26        19.000    27165781.376 5                     -3761.748 5        31.034                                                                                                                                    27165782.622 4                     -2882.074 4        25.534
E19        20.000    23684131.396 6 124460950.53706       947.181 6        38.829                                                                    23684129.875 7  92941629.33307       707.188 7        42.085    23684129.844 6  95366180.80706       725.532 6        40.024
R06        21.000    20087001.599 6 107188106.15106     -3132.023 6        41.318
S36        23.000    38171280.893 6 200591445.68506      -849.807 6        36.934
S23        24.000    38119199.829 6 200317712.27706      -846.321 6        41.082
E33        28.000    23626695.509 7 124159113.01407     -2192.863 7        46.220                                                                    23626694.130 8  92716267.68908     -1637.543 8        51.784    23626692.352 7  95134907.40407     -1680.357 7        47.656
E10        29.000    26069914.048 7 136998560.47007      1649.293 7        42.036                                                                    26069912.131 7 102304011.90007      1231.524 7        43.393    26069914.504 7 104972751.99007      1263.699 7        46.813
R21        30.000    21332578.715 4 114154996.92404     -4794.137 4        28.237                                                                    21332581.471 5  88787142.53505     -3729.259 5        30.830
C20        31.000                                                                                                                                    23508457.857 5 122414756.74005      1322.680 5        34.433                                                                    23508430.132 7  99471872.05007      1074.999 7        42.423
R23        33.000    21619890.704 7 115651990.66407      2646.073 7        45.452
R07        34.000    19487167.676 8 104316434.58008       170.363 8        51.491                                                                    19487165.231 7  81134937.18807       132.532 7        45.895
R22        35.000    19353050.685 8 103307899.64908      -768.300 8        48.663                                                                    19353047.801 7  80350576.09507      -597.609 7        45.896
C32        36.000                                                                                                                                    21862575.534 8 113844119.55508     -1501.700 8        50.367                                                                    21862573.068 8  92507720.87508     -1220.053 8        48.198
C30        38.000                                                                                                                                    22930278.515 7 119403892.77607     -3145.758 7        42.191                                                                    22930267.795 7  97025477.93607     -2556.092 7        42.032
C16        45.000                                                                                                                                    38691886.573 6 201478802.17106      -815.483 6        39.471    38691885.279 6 155796205.25906      -630.504 6        39.775    38691879.099 5 163718022.41805      -662.346 5        30.641
C39        46.000                                                                                                                                    38946222.876 5                     -1256.283 5        34.167
C09        47.000                                                                                                                                    38665878.071 7 201343372.95307      -200.004 7        42.216    38665874.289 7 155691470.50807      -154.582 7        43.735    38665871.789 6 163607948.82006      -162.337 6        41.747
C41        49.000                                                                                                                                                                                                                                                                    25124039.130 4                     -2911.156 4        29.299
C06        50.000                                                                                                                                    38235622.289 6 199102927.54906      -704.469 6        39.267    38235616.673 7 153959126.16007      -544.816 7        43.300    38235616.704 6 161787405.15306      -572.294 6        37.085
C29        54.000                                                                                                                                    23031775.096 4 119932529.32104       103.641 4        29.393                                                                    23031762.040 7  97454951.59207        84.332 7        42.938
I09        58.000    37179475.666 7 145900238.71107      -793.024 7        42.474
I01        59.000   377314153.255 6 177520967.52406     -2918.814 6        39.937
> 2025 01 02 01 45  5.0000000  0 37
G03         1.000    19934254.667 8 104755196.46308     -1291.489 8        50.087                                    19934251.430 7  81627435.89007     -1006.356 7        45.652    19934253.190 7  81627462.89107     -1006.429 7        43.517
G19         2.000    22291622.062 7 117143403.12007      -284.675 7        42.157
G28         3.000    23386786.906 5 122898334.79705     -2254.100 5        35.252                                                                                                    23386781.246 5                     -1756.370 5        33.281
E07         5.000    27062634.140 3                     -3579.035 3        19.881                                                                    27062620.101 3                     -2672.507 3        23.314    27062623.143 5                     -2741.947 5        30.264
G09         6.000                                                                                                                                                                    22485606.641 5  92074898.75105      1866.404 5        32.683
G21         8.000    23820711.740 5                     -3968.624 5        33.066
G02         9.000    22159433.204 5 116448636.55905     -3455.567 5        31.751                                    22159422.728 2  90739061.46902     -2692.656 2        13.576
G31        10.000    22193252.126 6 116626342.07406      -453.674 6        40.427                                    22193246.271 5  90877721.95805      -353.514 5        31.147    22193247.675 6  90877653.96906      -353.545 6        38.682
G17        11.000    22481991.655 6 118143882.75106     -2173.077 6        39.387                                    22481990.074 4  92060067.07404     -1693.305 4        27.988    22481990.401 6  92059985.09206     -1693.412 6        36.560
G04        12.000    20713328.384 7 108849321.27507      1103.166 7        43.464                                    20713319.849 3  84817576.03503       859.599 3        19.612    20713325.620 6  84817608.00906       859.659 6        38.823
E12        13.000    24565012.309 7 129090052.03307       746.620 7        44.054                                                                    24565009.232 7  96398379.11207       557.600 7        43.329    24565008.673 6  98913192.84806       572.148 6        40.043
E29        14.000    23515904.165 6 123576898.94206     -1514.033 6        37.009                                                                    23515902.535 7  92281463.79407     -1130.617 7        47.814    23515900.393 7  94688775.65507     -1160.206 7        43.591
G06        15.000    23938727.460 7 125798866.95807      2529.130 7        44.414                                    23938724.492 5  98025110.59905      1970.753 5        31.879    23938723.437 5  98025103.61605      1970.914 5        34.505
R08        18.000                                                                                                                                    22683688.347 4                      1978.642 4        25.459
E26        19.000    27169362.287 5                     -3762.315 5        31.215                                                                                                                                    27169361.745 4                     -2882.980 4        24.707
E19        20.000    23683230.558 6 124456219.41306       945.338 6        38.619                                                                    23683229.403 6  92938096.35406       705.927 6        41.683    23683230.022 6  95362555.66406       724.288 6        40.427
R06        21.000    20089937.000 6 107203770.28206     -3133.799 6        41.006
R15        22.000    23161782.024 5 123769117.51315      -771.002 5        30.891
S36        23.000    38172089.479 6 200595694.91406      -849.720 6        37.229
S23        24.000    38120005.870 6 200321943.25706      -846.241 6        41.287
E33        28.000    23628782.767 7 124170081.67307     -2194.651 7        46.703                                                                    23628781.393 8  92724458.56908     -1638.872 8        51.728    23628779.620 7  95143311.94907     -1681.641 7        47.657
E10        29.000    26068345.453 6 136990315.88206      1648.529 6        41.452                                                                    26068343.376 7 102297855.20907      1231.066 7        43.031    26068345.604 7 104966434.69307      1263.146 7        47.007
R21        30.000    21337057.613 4 114178974.09904     -4796.349 4        29.194                                                                    21337063.389 4  88805791.47604     -3730.888 4        29.659
C20        31.000                                                                                                                                    23507185.661 5 122408145.22405      1321.770 5        34.667                                                                    23507160.284 6  99466499.73206      1073.997 6        41.576
R23        33.000    21617418.660 7 115638765.65707      2643.708 7        45.756
R07        34.000    19487009.728 8 104315589.06208       167.657 8        51.887                                                                    19487007.155 7  81134279.54607       130.407 7        44.987
R22        35.000    19353771.952 8 103311751.45508      -772.571 8        48.258                                                                    19353769.578 7  80353571.94407      -600.822 7        46.385
C32        36.000                                                                                                                                    21864017.683 8 113851631.25108     -1503.087 8        50.979                                                                    21864015.704 8  92513824.77108     -1221.551 8        48.181
C30        38.000                                                                                                                                    22933302.289 6 119419626.18906     -3147.829 6        40.920                                                                    22933288.246 6  97038262.62706     -2557.850 6        41.139
C16        45.000                                                                                                                                    38692669.898 6 201482880.39906      -816.124 6        39.282    38692668.597 6 155799358.79606      -630.990 6        39.580    38692662.459 5 163721336.28405      -663.284 5        30.309
C39        46.000                                                                                                                                    38947433.425 5 202809484.72415     -1257.074 5        34.814
C09        47.000                                                                                                                                    38666070.447 7 201344373.83407      -200.619 7        42.318    38666066.399 7 155692244.45707      -155.195 7        44.021    38666064.066 6 163608762.15506      -163.085 6        41.809
C41        49.000                                                                                                                                    25127527.834 3                     -3575.936 3        20.310                                                                    25127478.273 4                     -2911.785 4        28.275
C06        50.000                                                                                                                                    38236299.793 6 199106451.50306      -705.166 6        39.459    38236293.640 7 153961851.10707      -545.389 7        43.204    38236293.746 6 161790268.66006      -572.877 6        37.474
C29        54.000                                                                                                                                                                                                                                                                    23031663.438 7  97454535.36807        82.036 7        43.238
I09        58.000    37180486.229 7 145904203.63807      -793.062 7        42.434
I01        59.000   377317872.083 6 177535561.64106     -2918.858 6        40.236
> 2025 01 02 01 45 10.0000000  0 37
G03         1.000    19935484.492 8 104761658.86008     -1293.497 8        50.287                                    19935481.493 7  81632471.52207     -1007.918 7        46.402    19935482.994 7  81632498.52107     -1007.931 7        43.983
G19         2.000    22291893.551 7 117144834.91207      -288.212 7        42.129
G28         3.000    23388933.655 6 122909612.50706     -2257.011 6        36.457                                                                                                    23388928.497 5  95773751.81115     -1758.692 5        34.090
E07         5.000    27066039.316 3                     -3578.898 3        21.024                                                                    27066024.558 4                     -2671.747 4        24.797    27066027.032 5                     -2742.300 5        30.702
G09         6.000    22483348.715 6 118150803.99206      2393.705 6        36.250                                    22483333.689 4  92065561.07604      1865.222 4        25.624    22483330.844 5  92065570.03905      1865.121 5        30.951
G21         8.000    23824486.612 5                     -3969.375 5        32.180
G02         9.000    22162722.111 4 116465918.40104     -3457.297 4        29.611                                    22162711.410 2  90752527.86302     -2693.976 2        13.576
G31        10.000    22193685.856 6 116628618.92606      -457.229 6        40.274                                    22193679.634 5  90879496.15705      -356.288 5        30.377    22193682.322 6  90879428.14806      -356.086 6        38.435
G17        11.000    22484064.341 6 118154754.83906     -2175.718 6        40.379                                    22484059.264 4  92068538.83804     -1695.363 4        27.281    22484058.508 5  92068456.84205     -1695.384 5        35.743
G04        12.000    20712279.783 7 108843811.14207      1100.854 7        42.667                                    20712272.278 3  84813282.42303       857.801 3        20.310    20712276.820 6  84813314.41006       857.684 6        37.648
E12        13.000    24564302.549 7 129086322.08707       745.272 7        43.681                                                                    24564299.253 7  96395593.77507       556.568 7        43.558    24564298.683 6  98910334.83606       571.023 6        40.279
E29        14.000    23517346.481 6 123584473.85706     -1515.809 6        38.498                                                                    23517343.851 7  92287120.41307     -1132.023 7        47.710    23517341.520 7  94694579.82107     -1161.543 7        43.319
G06        15.000    23936321.287 7 125786222.95807      2528.585 7        43.335                                    23936319.001 5  98015258.12405      1970.327 5        31.570    23936317.749 5  98015251.17005      1970.192 5        34.024
R08        18.000                                                                                                                                    22681314.595 4                      1977.757 4        28.047
E26        19.000    27172943.744 5                     -3762.786 5        30.883                                                                                                                                    27172942.254 4                     -2883.692 4        25.835
E19        20.000    23682332.993 6 124451496.40506       943.890 6        38.718                                                                    23682330.399 6  92934569.43506       704.841 6        41.538    23682331.496 6  95358936.75006       723.069 6        40.846
R06        21.000    20092873.331 6 107219443.79506     -3135.569 6        39.781
R15        22.000    23162491.605 4                      -774.128 4        27.665                                                                    23162444.130 4                      -603.684 4        24.737
S36        23.000    38172902.402 6 200599944.76606      -849.957 6        37.180
S23        24.000    38120812.350 6 200326173.95106      -846.176 6        41.399
E33        28.000    23630871.647 7 124181059.24607     -2196.441 7        47.101                                                                    23630870.253 8  92732656.11408     -1640.216 8        51.765    23630868.622 7  95151723.33907     -1682.968 7        47.718
E10        29.000    26066777.141 6 136982074.92606      1647.813 6        40.710                                                                    26066775.468 7 102291701.24307      1230.505 7        43.156    26066777.372 7 104960120.18107      1262.625 7        47.252
R21        30.000    21341541.552 5 114202962.48705     -4798.471 5        30.536                                                                    21341547.706 5  88824449.04905     -3732.086 5        31.343
C20        31.000                                                                                                                                    23505912.323 5 122401539.55305      1320.708 5        35.471                                                                    23505891.693 6  99461132.15606      1072.888 6        40.644
R23        33.000    21614949.462 7 115625552.26307      2641.440 7        46.141
R07        34.000    19486854.607 8 104314757.18808       164.973 8        52.247                                                                    19486851.955 7  81133632.53207       128.311 7        44.373
R22        35.000    19354496.560 7 103315624.94207      -776.966 7        47.212                                                                    19354494.889 7  80356584.65507      -604.181 7        46.635
C32        36.000                                                                                                                                    21865461.338 8 113859150.68808     -1504.678 8        51.460                                                                    21865459.792 8  92519934.92208     -1222.623 8        48.049
C30        38.000                                                                                                                                    22936329.175 6 119435369.56306     -3149.593 6        38.844                                                                    22936311.255 6  97051055.40006     -2559.337 6        40.231
C16        45.000                                                                                                                                    38693454.289 6 201486962.62106      -816.908 6        39.195    38693452.518 6 155802515.44306      -631.567 6        39.474    38693446.204 5 163724653.46005      -663.868 5        30.808
C39        46.000                                                                                                                                    38948640.092 5 202815771.19905     -1257.708 5        35.490
C09        47.000                                                                                                                                    38666263.301 7 201345378.63207      -201.397 7        42.337    38666260.078 7 155693021.42907      -155.710 7        44.349    38666257.027 6 163609578.61506      -163.456 6        41.905
C41        49.000                                                                                                                                                                                                                                                                    25130916.785 4                     -2911.032 4        26.383
C06        50.000                                                                                                                                    38236977.290 6 199109979.62006      -706.110 6        39.381    38236971.048 7 153964579.26907      -545.960 7        43.149    38236971.193 6 161793135.55606      -573.704 6        37.769
C29        54.000                                                                                                                                                                                                                                                                    23031567.547 7  97454129.90707        79.977 7        43.570
I09        58.000    37181496.398 7 145908169.04307      -793.078 7        42.400
I01        59.000   377321591.404 6 177550156.09606     -2918.861 6        40.198
> 2025 01 02 01 45 15.0000000  0 37
G03         1.000    19936715.674 8 104768131.35708     -1295.583 8        50.521                                    19936713.523 7  81637515.02607     -1009.546 7        46.958    19936714.233 7  81637542.02707     -1009.584 7        44.199
G19         2.000    22292170.631 7 117146284.51607      -291.834 7        44.247
G28         3.000    23391084.836 6 122920905.68106     -2260.229 6        37.796                                                                                                    23391076.536 5  95782551.79405     -1761.174 5        34.471
E07         5.000    27069444.045 3                     -3578.502 3        21.643                                                                    27069430.467 4                     -2673.119 4        24.391    27069432.695 5                     -2742.674 5        30.664
G09         6.000    22481071.121 6 118138839.34406      2392.252 6        38.315                                    22481055.840 4  92056237.94404      1864.075 4        26.359    22481055.996 5  92056246.92105      1864.095 5        30.377
G21         8.000    23828261.561 5                     -3970.191 5        30.936
G02         9.000    22166010.440 4 116483209.20904     -3459.178 4        29.204                                    22166001.768 2  90766001.25702     -2695.476 2        13.394
G31        10.000    22194121.575 6 116630913.64806      -460.825 6        40.377                                    22194116.266 4  90881284.26304      -359.098 4        29.488    22194117.811 6  90881216.25606      -358.954 6        37.399
G17        11.000    22486141.401 6 118165640.33406     -2178.374 6        39.381                                    22486130.801 4  92077021.07104     -1697.443 4        25.579    22486130.894 5  92076939.12105     -1697.722 5        35.276
G04        12.000    20711233.396 7 108838313.46507      1098.190 7        42.461                                    20711226.826 3  84808998.51503       855.725 3        20.190    20711229.335 5  84809030.48705       855.957 5        35.414
E12        13.000    24563594.134 7 129082599.66107       743.733 7        43.594                                                                    24563590.957 7  96392814.04607       555.239 7        43.532    24563590.027 6  98907482.59406       569.756 6        40.405
E29        14.000    23518789.529 6 123592058.31606     -1517.947 6        39.835                                                                    23518787.021 7  92292784.12907     -1133.528 7        47.405    23518784.650 7  94700391.29607     -1163.133 7        42.906
G06        15.000    23933916.099 7 125773583.08007      2527.591 7        42.237                                    23933914.363 5  98005408.86105      1969.550 5        30.800    23933912.582 5  98005401.89805      1969.537 5        34.186
R08        18.000    22678994.478 4 121444618.17114      2541.498 4        28.161                                                                    22678940.118 5                      1976.686 5        30.506
E26        19.000    27176525.106 5                     -3763.606 5        30.445                                                                                                                                    27176523.572 4                     -2883.896 4        25.323
E19        20.000    23681436.487 6 124446781.92506       941.988 6        39.003                                                                    23681433.124 6  92931048.90006       703.486 6        41.113    23681434.377 6  95355324.36206       721.783 6        41.004
R06        21.000    20095811.955 6 107235126.80906     -3137.684 6        38.607
R15        22.000                                                                                                                                    23163179.507 4                      -606.332 4        27.293
S36        23.000    38173708.049 6 200604194.32106      -849.767 6        36.960
S23        24.000    38121618.583 6 200330404.72206      -846.189 6        41.187
E33        28.000    23632962.218 7 124192046.16307     -2198.333 7        47.308                                                                    23632960.827 8  92740860.62508     -1641.626 8        51.438    23632959.406 7  95160141.88307     -1684.485 7        47.926
E10        29.000    26065210.276 6 136973837.99006      1646.884 6        40.377                                                                    26065208.188 7 102285550.28107      1229.772 7        42.737    26065209.828 7 104953808.75007      1261.890 7        47.405
R21        30.000    21346028.197 5 114226962.29605     -4801.192 5        33.671                                                                    21346032.952 5  88843115.57205     -3734.414 5        33.934
C20        31.000                                                                                                                                    23504641.079 6 122394940.18806      1319.205 6        36.030                                                                    23504624.459 6  99455769.63706      1071.807 6        40.033
R23        33.000    21612480.739 7 115612351.17307      2638.939 7        46.516
R07        34.000    19486701.840 8 104313939.62108       161.999 8        52.494                                                                    19486699.622 7  81132996.64807       125.990 7        44.503
R22        35.000    19355226.238 7 103319520.53807      -781.382 7        46.915                                                                    19355224.912 7  80359614.57207      -607.712 7        46.308
C32        36.000                                                                                                                                    21866906.276 8 113866678.27508     -1506.348 8        51.716                                                                    21866905.446 8  92526051.70608     -1224.200 8        48.013
C30        38.000                                                                                                                                    22939362.629 6 119451123.36606     -3152.042 6        36.646                                                                    22939336.417 6  97063856.61906     -2561.310 6        39.802
C16        45.000                                                                                                                                    38694239.555 6 201491049.26406      -817.822 6        39.538    38694237.182 6 155805675.48206      -632.341 6        39.225    38694231.143 5 163727974.15505      -664.285 5        30.166
C39        46.000                                                                                                                                    38949848.468 6 202822061.79206     -1258.613 6        36.034
C09        47.000                                                                                                                                    38666456.984 7 201346387.70207      -202.344 7        42.406    38666453.808 7 155693801.71107      -156.471 7        44.886    38666450.869 7 163610398.58307      -164.455 7        42.051
C41        49.000                                                                                                                                                                                                                                                                    25134353.111 4                     -2913.516 4        25.278
C06        50.000                                                                                                                                    38237655.988 6 199113512.30206      -707.076 6        39.523    38237649.405 7 153967310.95807      -546.736 7        42.965    38237649.847 6 161796006.15206      -574.693 6        38.195
C29        54.000                                                                                                                                                                                                                                                                    23031474.370 7  97453735.55207        77.645 7        43.941
I09        58.000    37182507.161 7 145912135.23507      -793.342 7        42.307
I01        59.000   377325310.209 6 177564751.18606     -2919.106 6        40.002
> 2025 01 02 01 45 20.0000000  0 36
G03         1.000    19937949.252 8 104774614.13308     -1297.643 8        50.539                                    19937947.530 7  81642566.53607     -1011.148 7        47.371    19937947.621 7  81642593.53507     -1011.045 7        44.305
G19         2.000    22292450.188 7 117147752.12707      -295.382 7        44.021
G28         3.000    23393245.144 6 122932214.43506     -2263.380 6        37.138                                                                                                    23393232.112 5  95791363.90205     -1763.932 5        33.545
E07         5.000    27072851.207 3                     -3580.724 3        22.038                                                                    27072837.271 3                     -2674.017 3        23.962    27072839.303 5                     -2743.127 5        30.536
G09         6.000    22478794.372 6 118126882.00606      2390.743 6        39.180                                    22478779.390 4  92046920.53104      1862.908 4        25.970    22478780.481 4  92046929.51904      1862.830 4        29.469
G21         8.000    23832037.900 4                     -3971.363 4        29.403
G02         9.000    22169304.367 5 116500509.34005     -3460.776 5        31.057                                    22169293.785 2  90779481.85802     -2696.711 2        13.818
G31        10.000    22194562.844 6 116633226.47606      -464.510 6        41.585                                    22194555.889 4  90883086.47204      -361.967 4        28.910    22194554.080 5  90883018.46205      -361.805 5        35.814
G17        11.000    22488211.582 5 118176539.44205     -2181.190 5        35.338                                    22488204.883 4  92085513.90104     -1699.640 4        24.632    22488204.536 5  92085431.93905     -1699.510 5        35.181
G04        12.000    20710190.343 7 108832828.42407      1095.669 7        42.296                                    20710183.677 3  84804724.46503       853.773 3        20.381    20710185.686 5  84804756.43705       853.557 5        34.614
E12        13.000    24562887.493 7 129078884.92407       742.137 7        43.627                                                                    24562884.130 7  96390040.05907       554.104 7        43.845    24562882.882 6  98904636.23906       568.585 6        40.720
E29        14.000    23520234.292 6 123599652.45306     -1519.972 6        40.934                                                                    23520231.968 7  92298455.07507     -1134.989 7        47.021    23520229.606 7  94706210.16407     -1164.537 7        42.521
G06        15.000    23931511.230 6 125760947.52106      2526.630 6        40.284                                    23931510.446 5  97995562.95805      1968.802 5        30.015    23931508.927 5  97995556.02805      1968.585 5        33.916
R08        18.000                                                                                                                                    22676569.850 5                      1975.432 5        31.894
E26        19.000    27180104.600 4                     -3764.500 4        29.744                                                                                                                                    27180105.516 4                     -2883.618 4        25.534
E19        20.000    23680539.983 6 124442076.18206       940.123 6        38.441                                                                    23680537.689 6  92927534.86306       702.103 6        40.794    23680538.631 6  95351718.65406       720.422 6        40.851
R06        21.000    20098752.503 6 107250819.75206     -3139.650 6        37.350
S36        23.000    38174516.684 6 200608444.15306      -849.974 6        36.794
S23        24.000    38122423.413 6 200334635.93806      -846.386 6        41.046
E33        28.000    23635054.655 7 124203042.59307     -2200.270 7        47.197                                                                    23635053.251 8  92749072.24708     -1643.067 8        51.216    23635052.007 8  95168567.71508     -1685.903 8        48.155
E10        29.000    26063643.877 6 136965605.26806      1646.008 6        39.799                                                                    26063641.760 7 102279402.46407      1229.221 7        42.675    26063643.238 7 104947500.56407      1261.262 7        47.736
R21        30.000    21350518.837 6 114250973.70506     -4803.448 6        36.692                                                                    21350518.933 6  88861791.10206     -3736.090 6        36.798
C20        31.000                                                                                                                                                                                                                                                                    23503358.312 6  99450412.34206      1070.806 6        39.456
R23        33.000    21610015.367 7 115599162.32707      2636.455 7        46.772
R07        34.000    19486551.633 8 104313136.12208       159.226 8        52.935                                                                    19486549.593 7  81132371.71007       123.757 7        44.278
R22        35.000    19355961.057 7 103323438.43507      -785.929 7        47.589                                                                    19355958.623 7  80362661.84007      -611.357 7        46.466
C32        36.000                                                                                                                                    21868352.841 8 113874214.17108     -1508.093 8        51.945                                                                    21868352.662 8  92532175.22808     -1225.580 8        48.058
C30        38.000                                                                                                                                    22942400.230 5 119466887.71005     -3154.247 5        35.005                                                                    22942363.905 6  97076666.37506     -2562.984 6        39.892
C16        45.000                                                                                                                                    38695025.830 6 201495140.45606      -818.770 6        39.673    38695022.347 6 155808839.08106      -633.160 6        38.961    38695016.975 5 163731298.61605      -665.502 5        30.332
C39        46.000                                                                                                                                    38951057.317 6 202828356.60706     -1259.538 6        36.363
C09        47.000                                                                                                                                    38666651.480 7 201347401.27907      -203.251 7        42.533    38666648.346 7 155694585.47007      -157.191 7        45.234    38666645.609 7 163611222.17907      -165.198 7        42.362
C41        49.000                                                                                                                                                                                                                                                                    25137788.229 4                     -2912.484 4        24.947
C06        50.000                                                                                                                                    38238335.267 6 199117049.72506      -708.160 6        39.330    38238328.522 7 153970046.31807      -547.411 7        42.601    38238329.477 6 161798880.60106      -575.550 6        38.342
C29        54.000                                                                                                                                                                                                                                                                    23031383.757 7  97453352.43807        75.354 7        44.141
I09        58.000    37183518.117 7 145916102.33107      -793.598 7        42.320
I01        59.000   377329029.918 6 177579347.01206     -2919.238 6        40.098
> 2025 01 02 01 45 25.0000000  0 37
G03         1.000    19939184.948 8 104781107.15808     -1299.781 8        50.717                                    19939183.478 7  81647626.03507     -1012.819 7        47.802    19939183.812 7  81647653.04707     -1012.844 7        44.673
G19         2.000    22292731.694 7 117149237.75307      -299.066 7        44.304
G28         3.000    23395408.663 5 122943538.71805     -2266.579 5        35.581                                                                                                    23395387.180 5  95800188.09505     -1766.304 5        32.503
E07         5.000    27076257.385 3                     -3579.486 3        22.229                                                                    27076245.055 3                     -2674.700 3        23.048    27076245.378 5                     -2743.628 5        30.596
G09         6.000    22476517.715 6 118114931.93506      2389.108 6        38.414                                    22476504.340 4  92037608.81604      1861.639 4        24.496    22476506.268 4  92037617.79004      1861.429 4        28.057
G21         8.000    23835815.540 5                     -3971.867 5        30.091
G02         9.000    22172601.442 5 116517818.67605     -3462.781 5        34.219                                    22172587.520 2  90792969.61902     -2698.219 2        14.667
G31        10.000    22195007.504 7 116635557.33507      -468.110 7        43.424                                    22194998.624 4  90884902.72104      -364.763 4        27.976    22194996.144 5  90884834.70105      -364.464 5        34.338
G17        11.000    22490280.704 5 118187452.20605     -2184.149 5        34.157                                    22490281.357 4  92094017.34504     -1701.963 4        24.962    22490280.995 6  92093935.40906     -1702.114 6        36.423
G04        12.000    20709149.595 7 108827355.97907      1093.118 7        42.354                                    20709142.978 3  84800460.20103       851.774 3        20.786    20709145.325 6  84800492.17306       851.895 6        36.435
E12        13.000    24562182.378 7 129075177.85007       740.513 7        44.141                                                                    24562178.611 7  96387271.78907       552.925 7        43.727    24562177.172 6  98901795.75406       567.497 6        40.822
E29        14.000    23521681.812 7 123607256.23007     -1521.933 7        42.436                                                                    23521678.650 7  92304133.22307     -1136.474 7        46.608    23521676.650 7  94712036.43307     -1166.088 7        42.463
G06        15.000    23929105.815 6 125748316.20606      2525.561 6        38.261                                    23929107.302 4  97985720.36904      1967.976 4        28.768    23929104.957 5  97985713.44705      1967.937 5        33.784
R08        18.000                                                                                                                                    22674205.953 5                      1974.343 5        31.419
E26        19.000    27183684.778 4                     -3765.183 4        27.569                                                                                                                                    27183689.651 4                     -2885.076 4        25.609
E19        20.000    23679645.726 6 124437379.07206       938.199 6        37.853                                                                    23679643.886 6  92924027.29306       700.631 6        40.408    23679644.527 6  95348119.56706       718.929 6        40.961
R06        21.000    20101693.740 5 107266522.41305     -3141.434 5        35.214
R15        22.000    23164620.324 5 123784706.75915      -787.588 5        34.862                                                                    23164656.546 5                      -612.797 5        30.181
S36        23.000    38175324.300 6 200612694.08206      -850.174 6        36.949
S23        24.000    38123227.290 6 200338867.22106      -846.396 6        41.042
E33        28.000    23637149.294 7 124214048.50407     -2202.334 7        47.458                                                                    23637147.470 8  92757290.94308     -1644.584 8        50.860    23637146.390 8  95177000.80508     -1687.457 8        48.431
E10        29.000    26062077.919 6 136957376.74606      1645.049 6        38.781                                                                    26062075.990 7 102273257.78107      1228.469 7        42.419    26062077.443 8 104941195.57708      1260.555 8        48.034
R21        30.000    21355008.574 6 114274996.78706     -4805.982 6        38.841                                                                    21355008.201 6  88880475.68806     -3737.974 6        37.784
C20        31.000                                                                                                                                    23502093.044 6 122381760.67606      1316.604 6        40.658                                                                    23502093.703 6  99445060.23506      1069.802 6        39.474
R23        33.000    21607551.807 7 115585985.84307      2633.883 7        46.815
R07        34.000    19486403.865 8 104312347.22208       156.163 8        52.660                                                                    19486402.514 7  81131758.12007       121.461 7        43.791
R22        35.000    19356699.902 8 103327378.59108      -790.375 8        48.218                                                                    19356697.115 7  80365726.39407      -614.763 7        47.134
C32        36.000                                                                                                                                    21869801.093 8 113881758.33908     -1509.845 8        52.114                                                                    21869801.432 7  92538305.47807     -1226.837 7        47.980
C30        38.000                                                                                                                                                                                                                                                                    22945393.541 6  97089484.67106     -2564.672 6        39.970
C16        45.000                                                                                                                                    38695812.478 6 201499236.19506      -819.781 6        39.718    38695809.027 6 155812006.17606      -633.903 6        38.544    38695802.863 4 163734626.72504      -665.943 4        29.299
C39        46.000                                                                                                                                    38952266.810 6 202834655.71606     -1260.329 6        36.507
C09        47.000                                                                                                                                    38666846.955 7 201348419.26507      -204.217 7        42.918    38666844.064 7 155695372.64907      -157.879 7        45.533    38666841.110 7 163612049.37607      -165.845 7        42.466
C41        49.000                                                                                                                                                                                                                                                                    25141229.728 4                     -2912.515 4        24.316
C06        50.000                                                                                                                                    38239015.255 6 199120591.82406      -709.039 6        39.667    38239008.871 7 153972785.30107      -548.306 7        42.468    38239009.618 6 161801758.83206      -576.116 6        38.604
C29        54.000                                                                                                                                                                                                                                                                    23031295.921 7  97452980.56307        73.171 7        44.036
I09        58.000    37184529.062 7 145920070.30607      -793.734 7        42.391
I01        59.000   377332749.500 6 177593943.60006     -2919.593 6        40.298
> 2025 01 02 01 45 30.0000000  0 37
G03         1.000    19940422.688 8 104787610.66008     -1301.862 8        50.030                                    19940421.384 8  81652693.69708     -1014.439 8        48.086    19940421.066 7  81652720.70307     -1014.474 7        44.333
G19         2.000    22293017.905 7 117150741.56707      -302.682 7        44.418
G28         3.000                                                                                                                                                                    23397543.153 5  95809024.58005     -1768.726 5        30.996
E07         5.000    27079664.100 3                     -3581.135 3        21.762                                                                    27079652.386 3                     -2675.197 3        22.952    27079652.678 5                     -2744.405 5        30.287
G09         6.000    22474240.419 6 118102989.38906      2387.690 6        38.360                                    22474230.494 3  92028302.97503      1860.520 3        23.390    22474231.571 4  92028311.96104      1860.520 4        26.766
G21         8.000    23839596.230 5                     -3972.869 5        32.341
G02         9.000    22175897.593 6 116535137.41406     -3465.012 6        38.553                                    22175882.985 2  90806464.70802     -2699.994 2        14.857
G31        10.000    22195454.446 7 116637906.40407      -471.735 7        43.498                                    22195444.606 4  90886733.14504      -367.592 4        27.401    22195441.893 5  90886665.15005      -367.786 5        33.401
G17        11.000    22492364.191 5 118198378.68705     -2186.537 5        32.204                                    22492360.232 3  92102531.48303     -1703.801 3        23.714    22492359.796 6  92102449.54306     -1704.053 6        37.304
G04        12.000    20708110.234 7 108821896.35207      1090.559 7        42.063                                    20708104.771 3  84796205.94003       849.791 3        21.405    20708107.625 6  84796237.92906       849.763 6        38.114
E12        13.000    24561478.781 7 129071478.69807       738.853 7        44.328                                                                    24561474.621 7  96384509.43307       551.777 7        44.036    24561473.215 6  98898961.34206       566.180 6        40.801
E29        14.000    23523130.596 7 123614869.85707     -1523.896 7        43.304                                                                    23523127.235 7  92309818.72807     -1137.919 7        46.403    23523125.589 7  94717870.25607     -1167.595 7        42.188
G06        15.000    23926701.021 5 125735689.39405      2524.709 5        35.995                                    23926704.507 4  97975881.31004      1967.307 4        27.760    23926702.033 5  97975874.36705      1967.456 5        33.994
R08        18.000    22671824.080 5 121406528.12315      2536.920 5        30.332                                                                    22671845.692 5                      1973.621 5        30.845
E26        19.000    27187265.689 4                     -3764.810 4        24.962                                                                                                                                    27187274.001 4                     -2885.741 4        25.759
E19        20.000    23678753.263 6 124432690.84906       936.666 6        37.274                                                                    23678751.603 6  92920526.37506       699.384 6        40.513    23678752.183 6  95344527.29906       717.656 6        41.120
R06        21.000    20104637.724 5 107282235.08705     -3143.714 5        34.452
R15        22.000    23165357.544 5 123788655.50615      -791.758 5        34.686                                                                    23165402.220 4                      -615.968 4        28.720
S36        23.000    38176138.036 6 200616944.51906      -850.328 6        37.100
S23        24.000    38124030.550 6 200343098.78306      -846.464 6        40.980
E33        28.000    23639245.509 7 124225064.10507     -2204.175 7        47.137                                                                    23639243.629 8  92765516.88608     -1645.987 8        50.748    23639242.541 8  95185441.33908     -1688.897 8        48.668
E10        29.000    26060513.035 6 136949152.63306      1644.194 6        38.039                                                                    26060511.075 7 102267116.39207      1227.893 7        42.546    26060512.398 8 104934893.98008      1259.949 8        48.216
R21        30.000    21359500.886 6 114299031.50806     -4808.258 6        40.288                                                                    21359500.316 6  88899169.35806     -3739.697 6        38.898
C20        31.000                                                                                                                                    23500834.573 6 122375180.73806      1315.174 6        41.859                                                                    23500830.138 6  99439713.52306      1068.883 6        39.321
R23        33.000    21605091.177 7 115572821.89507      2631.479 7        46.809
R07        34.000    19486258.398 8 104311572.58408       153.283 8        52.180                                                                    19486257.218 7  81131155.61907       119.253 7        42.762
R22        35.000    19357443.133 8 103331341.21308      -794.910 8        48.666                                                                    19357439.435 7  80368808.42007      -618.253 7        47.235
C32        36.000                                                                                                                                    21871250.801 8 113889310.99708     -1511.502 8        51.851                                                                    21871251.797 7  92544442.66107     -1228.099 7        47.818
C30        38.000                                                                                                                                                                                                                                                                    22948425.160 6  97102311.69106     -2566.239 6        40.212
C16        45.000                                                                                                                                    38696599.004 6 201503336.69306      -820.798 6        39.462    38696596.121 6 155815176.94106      -634.667 6        38.081    38696590.428 4 163737958.76204      -666.826 4        29.365
C39        46.000                                                                                                                                    38953476.612 6 202840959.23106     -1261.216 6        36.284
C09        47.000                                                                                                                                    38667042.976 7 201349441.92307      -205.087 7        42.914    38667040.489 7 155696163.44307      -158.658 7        46.116    38667037.517 7 163612880.39507      -166.487 7        42.373
C41        49.000                                                                                                                                    25144672.715 4                     -3584.584 4        29.498                                                                    25144671.612 3                     -2913.861 3        23.524
C06        50.000                                                                                                                                    38239696.632 6 199124138.88106      -710.158 6        39.775    38239689.777 7 153975528.08607      -548.911 7        42.250    38239690.872 6 161804641.13106      -576.829 6        38.577
C29        54.000                                                                                                                                    23031218.369 6 119929571.63816        87.201 6        40.334                                                                    23031210.943 7  97452620.13107        70.847 7        44.211
I09        58.000    37185540.415 7 145924039.33007      -793.896 7        42.480
I01        59.000   377336468.752 6 177608541.08806     -2919.683 6        40.360
> 2025 01 02 01 45 35.0000000  0 37
G03         1.000    19941662.388 8 104794124.53908     -1303.796 8        49.779                                    19941661.204 8  81657769.44408     -1015.943 8        48.215    19941660.438 7  81657796.46307     -1016.110 7        44.178
G19         2.000    22293308.126 7 117152263.50407      -306.364 7        44.399
G28         3.000                                                                                                                                                                    23399702.650 4  95817873.28104     -1770.603 4        29.536
E07         5.000    27083071.512 3                     -3581.946 3        21.929                                                                    27083062.092 3                     -2675.514 3        23.771    27083060.376 5                     -2744.629 5        30.551
G09         6.000    22471965.338 6 118091054.38506      2386.074 6        39.598                                    22471958.239 3  92019002.96003      1859.281 3        23.714    22471960.483 4  92019011.94104      1859.505 4        26.467
G21         8.000    23843378.024 5                     -3973.769 5        33.934
G02         9.000    22179195.085 6 116552465.45506     -3466.699 6        39.387                                    22179180.194 2  90819967.07102     -2701.335 2        15.238
G31        10.000    22195904.162 7 116640273.68107      -475.351 7        42.957                                    22195894.648 4  90888577.74004      -370.400 4        26.814    22195892.967 5  90888509.73805      -370.409 5        34.548
G17        11.000                                                                                                                                                                    22494440.987 6  92110974.34806     -1706.127 6        38.015
G04        12.000    20707073.757 7 108816449.46607      1088.069 7        42.279                                    20707069.447 3  84791961.60903       847.845 3        22.514    20707070.792 6  84791993.62306       847.740 6        38.658
E12        13.000    24560776.147 7 129067787.35107       737.493 7        44.625                                                                    24560772.087 7  96381752.90807       550.778 7        44.015    24560770.644 6  98896132.90506       565.067 6        40.856
E29        14.000    23524580.908 7 123622493.27507     -1525.763 7        44.006                                                                    23524577.732 7  92315511.53907     -1139.418 7        45.896    23524576.607 7  94723711.58307     -1169.148 7        42.082
G06        15.000    23924299.442 5 125723067.03605      2523.844 5        35.538                                    23924302.208 4  97966045.70004      1966.637 4        26.240    23924300.138 5  97966038.78905      1966.576 5        34.238
R08        18.000                                                                                                                                    22669480.808 5                      1972.401 5        30.423
E26        19.000    27190847.316 3                     -3766.850 3        20.381                                                                                                                                    27190863.385 4                     -2885.191 4        24.977
E19        20.000    23677861.734 6 124428011.46406       934.957 6        36.352                                                                    23677861.119 6  92917032.02906       698.190 6        40.541    23677861.453 6  95340941.79006       716.326 6        41.182
R06        21.000    20107585.474 5 107297957.73305     -3145.810 5        34.667
R15        22.000    23166096.776 5 123792625.54015      -796.067 5        35.500                                                                    23166147.023 4                      -619.702 4        29.877
S36        23.000    38176944.476 6 200621195.35506      -850.286 6        36.692
S23        24.000    38124837.324 6 200347330.55706      -846.407 6        40.880
E33        28.000    23641343.658 7 124236089.31007     -2206.096 7        47.003                                                                    23641341.640 8  92773749.99808     -1647.411 8        50.594    23641340.662 8  95193889.22108     -1690.377 8        48.807
E10        29.000    26058948.671 6 136940932.86806      1643.595 6        37.554                                                                    26058946.870 7 102260978.24607      1227.316 7        42.468    26058948.124 8 104928595.70808      1259.287 8        48.350
R21        30.000    21363993.842 6 114323077.88306     -4810.361 6        38.877                                                                    21363994.104 6  88917872.14806     -3741.477 6        38.501
C20        31.000                                                                                                                                    23499577.271 7 122368607.35507      1313.904 7        42.425                                                                    23499567.880 6  99434372.09506      1067.875 6        39.622
R23        33.000    21602632.933 7 115559670.39807      2629.006 7        46.536
R07        34.000    19486116.113 8 104310812.49408       150.488 8        51.647                                                                    19486114.783 7  81130564.44907       117.081 7        42.840
R22        35.000    19358189.797 8 103335326.23408      -799.327 8        48.852                                                                    19358185.551 7  80371907.89107      -621.725 7        46.691
C32        36.000                                                                                                                                    21872702.409 8 113896872.06208     -1513.100 8        51.817                                                                    21872703.837 7  92550586.64507     -1229.439 7        47.778
C30        38.000                                                                                                                                                                                                                                                                    22951458.651 6  97115147.31406     -2567.939 6        40.608
C16        45.000                                                                                                                                    38697386.485 6 201507441.87906      -821.692 6        39.667    38697383.942 6 155818351.32306      -635.150 6        37.490    38697379.158 4 163741294.53704      -667.283 4        28.957
C39        46.000                                                                                                                                    38954687.268 6 202847267.13806     -1262.018 6        36.219
C09        47.000                                                                                                                                    38667240.243 7 201350469.15707      -205.972 7        43.357    38667237.831 7 155696957.75907      -159.302 7        46.215    38667234.874 7 163613715.10407      -167.233 7        42.482
C41        49.000                                                                                                                                    25148124.969 4                     -3585.289 4        29.782                                                                    25148111.962 3                     -2912.457 3        23.352
C06        50.000                                                                                                                                    38240379.725 6 199127690.74806      -711.010 6        40.179    38240371.765 6 153978274.62906      -549.629 6        41.781    38240373.012 6 161807527.31206      -577.642 6        38.736
C29        54.000                                                                                                                                    23031136.306 6 119929142.01006        84.444 6        40.734                                                                    23031128.633 7  97452271.01307        68.708 7        44.194
I09        58.000    37186552.249 7 145928009.33907      -794.188 7        42.493
I01        59.000   377340189.124 6 177623139.39306     -2919.706 6        40.482
> 2025 01 02 01 45 40.0000000  0 37
G03         1.000    19942904.233 8 104800648.41008     -1305.696 8        50.342                                    19942902.857 8  81662852.98008     -1017.430 8        48.210    19942901.798 7  81662880.00407     -1017.491 7        43.943
G19         2.000    22293600.691 7 117153803.18607      -309.672 7        44.924
G28         3.000    23401854.601 4 122977605.87804     -2275.594 4        27.796                                                                                                    23401868.744 4  95826733.89604     -1773.578 4        27.904
E07         5.000    27086476.863 3                     -3582.230 3        21.095                                                                    27086469.894 3                     -2673.845 3        22.419    27086468.455 4                     -2744.782 4        29.374
G09         6.000    22469695.661 6 118079126.42806      2385.010 6        40.591                                    22469687.727 4  92009708.44504      1858.447 4        24.421    22469693.992 4  92009717.43204      1857.894 4        27.772
G21         8.000    23847157.704 5 125317666.76015     -3974.330 5        35.271
G02         9.000    22182492.939 6 116569802.38306     -3468.424 6        38.396                                    22182479.134 2  90833476.30502     -2702.657 2        16.302
G31        10.000    22196357.775 7 116642658.78907      -478.637 7        42.057                                    22196348.486 4  90890436.23804      -372.961 4        26.335    22196349.899 5  90890368.27705      -373.128 5        35.157
G17        11.000    22496550.444 5 118220272.37705     -2192.139 5        34.290                                    22496526.273 3  92119591.52103     -1708.154 3        21.429    22496526.205 6  92119509.50106     -1708.111 6        38.453
G04        12.000    20706040.265 7 108811014.91407      1085.736 7        42.375                                    20706036.618 3  84787726.88803       846.028 3        23.257    20706036.061 6  84787758.91606       846.073 6        38.664
E12        13.000    24560075.032 7 129064103.44207       736.086 7        44.516                                                                    24560071.232 7  96379001.92907       549.760 7        44.056    24560069.392 6  98893310.16206       564.103 6        40.565
E29        14.000    23526033.555 7 123630126.04907     -1527.428 7        44.017                                                                    23526030.128 7  92321211.33407     -1140.627 7        45.624    23526029.334 6  94729560.06706     -1170.408 6        41.735
G06        15.000    23921898.985 6 125710448.71206      2523.087 6        36.238                                    23921900.236 4  97956213.26004      1966.033 4        24.331    23921899.236 5  97956206.35205      1966.091 5        34.348
R08        18.000                                                                                                                                    22667114.380 5                      1971.295 5        30.453
E26        19.000    27194430.869 3                     -3768.288 3        19.373                                                                                                                                    27194455.015 4                     -2886.393 4        24.932
E19        20.000    23676973.379 6 124423340.56606       933.397 6        36.242                                                                    23676972.252 6  92913544.03806       696.956 6        40.527    23676972.329 6  95337362.77906       715.240 6        41.204
R06        21.000    20110532.927 6 107313689.86306     -3147.156 6        36.563
R15        22.000    23166838.431 5 123796616.62015      -800.371 5        34.419                                                                    23166896.096 4                      -622.643 4        29.621
S36        23.000    38177749.363 6 200625445.90106      -850.048 6        36.370
S23        24.000    38125640.808 6 200351562.37906      -846.447 6        40.679
E33        28.000    23643443.629 7 124247123.72607     -2207.825 7        46.754                                                                    23643441.467 8  92781989.98608     -1648.624 8        50.542    23643440.398 8  95202344.16608     -1691.693 8        48.906
E10        29.000    26057385.072 6 136932717.05006      1643.030 6        37.913                                                                    26057383.387 7 102254843.05107      1226.747 7        42.201    26057384.615 8 104922300.46908      1258.813 8        48.365
R21        30.000    21368488.109 5 114347135.50405     -4812.687 5        35.690                                                                    21368490.344 6  88936583.63006     -3742.981 6        38.195
C20        31.000                                                                                                                                    23498316.775 7 122362040.09007      1312.933 7        42.648                                                                    23498306.913 6  99429035.65606      1066.704 6        39.886
R23        33.000    21600176.151 7 115546531.01907      2626.724 7        46.268
R07        34.000    19485977.295 8 104310066.43808       147.856 8        51.486                                                                    19485975.387 7  81129984.20807       114.916 7        42.550
R22        35.000    19358940.213 8 103339333.26008      -803.539 8        48.781                                                                    19358935.799 7  80375024.47107      -624.990 7        45.449
C32        36.000                                                                                                                                    21874156.025 8 113904441.12708     -1514.536 8        51.671                                                                    21874157.322 7  92556737.13207     -1230.766 7        47.751
C30        38.000                                                                                                                                    22954497.444 6 119530091.05716     -3162.257 6        40.551                                                                    22954494.115 6  97127991.24306     -2569.623 6        40.815
C16        45.000                                                                                                                                    38698175.659 6 201511551.33806      -822.280 6        39.715    38698173.059 6 155821529.01806      -635.677 6        36.896    38698167.786 4 163744633.85204      -668.302 4        28.749
C39        46.000                                                                                                                                    38955899.485 6 202853578.99906     -1262.829 6        36.163
C09        47.000                                                                                                                                    38667438.494 7 201351500.55907      -206.649 7        43.312    38667435.897 7 155697755.30507      -159.781 7        46.493    38667432.867 7 163614553.20207      -168.054 7        42.364
C41        49.000                                                                                                                                    25151571.811 4                     -3585.327 4        29.318                                                                    25151553.869 3                     -2912.956 3        23.676
C06        50.000                                                                                                                                    38241063.166 6 199131247.05806      -711.802 6        40.272    38241054.766 6 153981024.58606      -550.222 6        41.275    38241055.873 6 161810417.09306      -578.470 6        39.018
C29        54.000                                                                                                                                    23031056.015 6 119928725.98806        81.955 6        38.565                                                                    23031048.914 7  97451932.92207        66.429 7        44.376
I09        58.000    37187564.030 7 145931980.01907      -794.103 7        42.353
I01        59.000   377343909.605 6 177637738.25906     -2919.730 6        40.660
> 2025 01 02 01 45 45.0000000  0 37
G03         1.000    19944147.873 8 104807182.40708     -1307.725 8        50.625                                    19944146.339 8  81667944.40708     -1019.008 8        48.212    19944145.206 7  81667971.43107     -1019.018 7        43.460
G19         2.000    22293897.620 7 117155360.77107      -313.267 7        45.330
G28         3.000                                                                                                                                                                    23404035.868 4  95835606.48704     -1775.506 4        26.228
E07         5.000    27089886.157 3                     -3582.596 3        19.672                                                                    27089879.805 3                     -2674.238 3        21.310    27089876.878 4                     -2745.174 4        29.744
G09         6.000    22467428.605 6 118067205.72106      2383.452 6        40.305                                    22467418.719 4  92000419.59104      1857.226 4        24.466    22467425.409 4  92000428.59304      1856.859 4        28.474
G21         8.000    23850940.558 6 125337540.36906     -3974.945 6        36.699
G02         9.000    22185792.439 6 116587148.35106     -3470.104 6        36.102                                    22185780.126 2  90846992.65202     -2703.969 2        16.415
G31        10.000    22196814.417 6 116645061.88606      -482.345 6        41.108                                    22196805.969 4  90892308.75704      -375.841 4        25.820    22196807.968 5  90892240.80505      -375.896 5        34.890
G17        11.000    22498635.204 5 118231239.20905     -2194.762 5        34.600                                    22498613.255 3  92128137.10303     -1710.184 3        18.567    22498612.873 6  92128055.07406     -1710.023 6        38.279
G04        12.000    20705008.203 7 108805592.87607      1083.149 7        42.844                                    20705005.950 3  84783501.93203       844.012 3        23.467    20705005.189 6  84783533.95906       843.980 6        38.805
E12        13.000    24559375.598 7 129060427.10007       734.592 7        44.584                                                                    24559371.548 7  96376256.62407       548.578 7        43.953    24559369.855 6  98890493.23906       562.788 6        40.605
E29        14.000    23527488.029 7 123637768.33307     -1529.455 7        44.480                                                                    23527484.508 7  92326918.22807     -1142.089 7        45.431    23527483.879 6  94735415.85106     -1171.871 6        41.573
G06        15.000    23919499.955 6 125697834.57706      2522.188 6        36.662                                    23919498.608 3  97946384.07903      1965.323 3        22.876    23919497.984 5  97946377.19305      1965.275 5        33.886
R08        18.000                                                                                                                                    22664749.648 4                      1970.179 4        29.488
E26        19.000    27198016.494 3                     -3767.717 3        21.214                                                                                                                                    27198041.453 3                     -2887.776 3        23.276
E19        20.000    23676086.711 6 124418678.17806       931.568 6        37.225                                                                    23676085.059 6  92910062.39306       695.790 6        40.760    23676085.085 6  95333790.29906       714.002 6        41.461
R06        21.000    20113484.398 6 107329431.65606     -3149.165 6        38.601
R15        22.000    23167588.261 5 123800628.79905      -804.360 5        31.140                                                                    23167644.560 4                      -625.756 4        28.929
S36        23.000    38178558.463 6 200629696.92106      -850.348 6        36.242
S23        24.000    38126447.153 6 200355794.33606      -846.454 6        40.846
E33        28.000    23645545.255 7 124258167.49407     -2209.642 7        47.014                                                                    23645543.121 8  92790236.96108     -1650.035 8        50.630    23645542.073 8  95210806.27408     -1693.144 8        49.180
E10        29.000    26055823.405 6 136924505.30806      1642.122 6        38.510                                                                    26055820.643 7 102248710.92607      1226.115 7        42.273    26055821.918 8 104916008.36708      1258.169 8        48.404
R21        30.000    21372984.252 5 114371204.50605     -4815.012 5        33.383                                                                    21372987.314 6  88955303.99506     -3744.982 6        36.159
C20        31.000                                                                                                                                    23497054.438 7 122355479.09607      1311.607 7        42.398                                                                    23497046.902 6  99423704.32006      1065.760 6        40.088
R23        33.000    21597721.931 7 115533404.00407      2624.302 7        46.044
R07        34.000    19485841.161 8 104309334.52908       145.028 8        51.663                                                                    19485838.824 7  81129414.94707       112.828 7        42.023
R22        35.000    19359694.594 8 103343362.41308      -807.978 8        49.423                                                                    19359691.153 7  80378158.26507      -628.466 7        44.766
C32        36.000                                                                                                                                    21875611.662 8 113912018.33108     -1516.186 8        51.629                                                                    21875612.309 7  92562894.23707     -1232.047 7        47.448
C30        38.000                                                                                                                                    22957533.002 7 119545907.72907     -3164.277 7        43.168                                                                    22957531.865 6  97140843.57206     -2571.299 6        41.230
C16        45.000                                                                                                                                    38698965.725 6 201515665.23106      -823.258 6        39.802    38698963.099 6 155824710.13206      -636.574 6        36.495    38698958.188 4 163747976.68104      -668.716 4        28.265
C39        46.000                                                                                                                                    38957112.247 5 202859894.96605     -1263.701 5        35.829
C09        47.000                                                                                                                                    38667637.461 7 201352536.28807      -207.526 7        43.501    38667634.669 7 155698556.19207      -160.455 7        46.769    38667631.794 7 163615394.81507      -168.690 7        42.245
C41        49.000                                                                                                                                    25155015.931 4                     -3585.848 4        28.256                                                                    25154996.003 3                     -2915.399 3        23.314
C06        50.000                                                                                                                                    38241747.008 6 199134807.92306      -712.484 6        40.467    38241738.405 6 153983778.10706      -551.062 6        41.182    38241739.724 6 161813310.60706      -579.007 6        38.802
C29        54.000                                                                                                                                    23030976.089 5 119928323.75505        78.892 5        34.076                                                                    23030971.653 7  97451605.98207        64.355 7        44.301
I09        58.000    37188576.301 7 145935951.50507      -794.337 7        42.248
I01        59.000   377347630.385 6 177652337.75806     -2919.967 6        40.501
> 2025 01 02 01 45 50.0000000  0 37
G03         1.000    19945392.816 8 104813726.51108     -1309.991 8        50.819                                    19945391.700 8  81673043.71308     -1020.773 8        48.160    19945390.571 7  81673070.73407     -1020.759 7        43.302
G19         2.000    22294197.247 7 117156936.19707      -317.066 7        45.445
G28         3.000    23406215.868 4 123000394.37404     -2282.286 4        27.641                                                                                                    23406207.443 4  95844491.07804     -1777.989 4        26.144
E07         5.000                                                                                                                                    27093290.079 3                     -2676.439 3        23.048    27093285.761 4                     -2745.768 4        29.735
G09         6.000    22465160.354 6 118055292.22806      2381.774 6        37.924                                    22465151.557 3  91991136.35003      1855.924 3        23.486    22465157.846 4  91991145.30504      1856.060 4        28.408
G21         8.000    23854723.410 6 125357417.93506     -3976.205 6        36.964
G02         9.000    22189097.275 5 116604503.32605     -3472.083 5        35.695                                    22189082.763 2  90860515.98002     -2705.510 2        16.830
G31        10.000    22197275.272 6 116647482.89806      -486.212 6        40.446                                    22197266.694 4  90894195.24004      -378.867 4        25.910    22197267.110 5  90894127.29705      -378.852 5        34.557
G17        11.000                                                                                                                                                                    22500701.436 6  92136611.05306     -1712.459 6        36.836
G04        12.000    20703978.987 7 108800183.29707      1080.528 7        42.845                                    20703977.123 3  84779286.68003       841.963 3        22.952    20703976.242 6  84779318.70006       842.026 6        38.294
E12        13.000    24558677.374 7 129056758.30907       732.868 7        44.131                                                                    24558673.371 7  96373516.94507       547.190 7        43.928    24558671.926 6  98887682.08406       561.556 6        40.410
E29        14.000    23528943.837 7 123645420.10407     -1531.554 7        44.504                                                                    23528940.846 7  92332632.21207     -1143.669 7        45.005    23528940.228 6  94741278.88706     -1173.473 6        41.647
G06        15.000    23917100.957 6 125685224.64106      2521.373 6        37.645                                    23917097.351 3  97936558.18403      1964.700 3        21.976    23917095.905 5  97936551.24805      1964.712 5        32.539
R08        18.000                                                                                                                                    22662381.521 4                      1969.532 4        27.174
E26        19.000    27201604.796 3                     -3767.467 3        21.167                                                                                                                                    27201624.444 3                     -2887.394 3        20.905
E19        20.000    23675201.322 6 124414024.32006       929.808 6        38.282                                                                    23675199.566 6  92906587.12306       694.280 6        40.777    23675199.309 6  95330224.37406       712.459 6        41.774
R06        21.000    20116438.215 6 107345182.95106     -3151.502 6        39.228
R15        22.000    23168342.441 4 123804662.05714      -808.448 4        28.654
S36        23.000    38179365.815 6 200633947.77006      -850.397 6        36.038
S23        24.000    38127254.218 6 200360026.39106      -846.574 6        40.958
E33        28.000    23647648.564 7 124269220.59207     -2211.748 7        47.303                                                                    23647646.490 8  92798490.89908     -1651.628 8        50.644    23647645.431 8  95219275.52608     -1694.739 8        49.075
E10        29.000    26054261.545 6 136916297.67306      1640.811 6        38.486                                                                    26054258.555 7 102242581.83307      1225.508 7        42.294    26054259.749 8 104909719.39508      1257.302 8        48.152
R21        30.000    21377483.664 5 114395284.84605     -4817.301 5        33.533                                                                    21377485.129 5  88974033.13305     -3746.952 5        31.736
C20        31.000                                                                                                                                    23495795.261 7 122348924.36307      1310.153 7        42.832                                                                    23495787.969 6  99418378.04906      1064.599 6        40.443
R23        33.000    21595270.000 7 115520289.12207      2621.507 7        46.018
R07        34.000    19485706.981 8 104308616.82108       141.945 8        52.102                                                                    19485704.605 6  81128856.72106       110.410 6        40.749
R22        35.000    19360453.700 8 103347413.70308      -812.647 8        50.058                                                                    19360450.730 7  80381309.26907      -632.101 7        45.150
C32        36.000                                                                                                                                    21877068.823 8 113919603.66108     -1518.066 8        51.332                                                                    21877068.884 7  92569057.93707     -1233.587 7        47.360
C30        38.000                                                                                                                                    22960574.236 7 119561734.69107     -3166.630 7        44.336                                                                    22960571.533 6  97153704.27106     -2573.142 6        41.762
C16        45.000                                                                                                                                    38699756.104 6 201519783.49506      -824.252 6        39.498    38699753.716 6 155827894.65206      -637.356 6        36.310    38699749.008 4 163751323.09004      -669.868 4        28.142
C39        46.000                                                                                                                                    38958324.978 5 202866215.01605     -1264.584 5        35.552
C09        47.000                                                                                                                                    38667837.609 7 201353576.31807      -208.684 7        43.833    38667834.584 7 155699360.41207      -161.374 7        46.955    38667831.640 7 163616239.92307      -169.622 7        42.413
C41        49.000                                                                                                                                    25158456.845 4                     -3585.961 4        28.085                                                                    25158441.862 3                     -2915.196 3        22.571
C06        50.000                                                                                                                                    38242431.347 6 199138373.37406      -713.810 6        40.601    38242423.186 6 153986535.11606      -551.868 6        40.949    38242424.578 6 161816207.80706      -579.853 6        39.096
C29        54.000                                                                                                                                    23030899.217 5 119927935.12805        76.300 5        34.019                                                                    23030897.127 7  97451290.17607        61.819 7        44.336
I09        58.000    37189587.947 7 145939923.76707      -794.656 7        42.152
I01        59.000   377351350.764 6 177666937.93606     -2920.376 6        40.350
> 2025 01 02 01 45 55.0000000  0 37
G03         1.000    19946639.919 8 104820280.59408     -1312.095 8        51.260                                    19946638.925 8  81678150.79708     -1022.413 8        48.136    19946637.731 7  81678177.81907     -1022.428 7        43.443
G19         2.000    22294499.932 7 117158529.39607      -320.769 7        45.267
G28         3.000    23408384.247 5 123011811.63405     -2285.342 5        30.106
E07         5.000                                                                                                                                    27096700.219 3                     -2675.180 3        23.105    27096695.771 4                     -2745.893 4        29.393
G09         6.000    22462892.264 5 118043385.81805      2380.426 5        34.924                                    22462885.849 3  91981858.63503      1854.899 3        21.738    22462892.697 4  91981867.67504      1854.088 4        27.329
G21         8.000    23858507.121 6 125377299.36106     -3977.029 6        37.002                                    23858499.024 2                     -3098.496 2        14.762
G02         9.000    22192403.487 5 116621867.19805     -3473.829 5        34.795                                    22192387.310 2  90874046.27202     -2706.838 2        15.524
G31        10.000    22197740.236 6 116649921.73506      -489.799 6        39.625                                    22197730.687 4  90896095.62104      -381.660 4        26.216    22197728.515 5  90896027.67505      -381.897 5        33.737
G17        11.000    22502796.165 6 118253212.65306     -2200.147 6        41.046                                    22502793.552 4  92145259.25804     -1714.400 4        24.241    22502792.880 5  92145177.25405     -1714.506 5        34.990
G04        12.000    20702951.790 7 108794786.08707      1077.872 7        43.429                                    20702950.103 3  84775081.07803       839.889 3        22.324    20702948.074 6  84775113.09406       839.954 6        37.168
E12        13.000    24557980.897 7 129053096.97007       731.184 7        44.166                                                                    24557976.594 7  96370782.82207       546.052 7        43.685    24557975.127 6  98884876.63906       560.343 6        40.205
E29        14.000    23530401.268 7 123653081.22407     -1533.385 7        44.238                                                                    23530399.003 7  92338353.16807     -1145.053 7        44.974    23530398.366 6  94747149.10706     -1174.942 6        41.375
G06        15.000    23914702.048 6 125672618.77506      2520.514 6        37.554                                    23914696.608 3  97926735.47503      1964.033 3        22.648    23914696.108 5  97926728.51605      1964.101 5        30.596
R08        18.000    22659978.685 5 121343179.69915      2530.389 5        35.390                                                                    22660015.635 4                      1967.830 4        27.222
E26        19.000    27205198.465 3                     -3768.517 3        23.371
E19        20.000    23674317.366 6 124409378.88406       927.906 6        38.610                                                                    23674315.459 6  92903118.13906       692.946 6        40.908    23674315.175 6  95326664.86606       711.102 6        41.671
R06        21.000    20119391.659 6 107360943.70706     -3153.376 6        40.613
R15        22.000                                                                                                                                    23169138.275 3                      -631.804 3        23.352
S36        23.000    38180174.297 5 200638198.52405      -850.385 5        35.905
S23        24.000    38128056.951 6 200364258.28106      -846.537 6        40.594
E33        28.000    23649753.756 7 124280282.90707     -2213.681 7        47.723                                                                    23649751.576 8  92806751.72108     -1653.074 8        50.579    23649750.502 8  95227751.83908     -1696.205 8        49.004
E10        29.000    26052700.725 6 136908094.00706      1640.068 6        38.501                                                                    26052697.168 7 102236455.72207      1224.705 7        42.082    26052698.346 7 104903433.46707      1256.670 7        47.804
R21        30.000    21381984.272 5 114419376.41205     -4819.584 5        33.503                                                                    21381985.798 4  88992770.96204     -3748.563 4        26.108
C20        31.000                                                                                                                                    23494538.770 7 122342375.77807      1308.921 7        43.316                                                                    23494530.150 6  99413056.81006      1063.525 6        40.665
R23        33.000    21592820.982 7 115507186.47007      2619.017 7        45.494
R07        34.000    19485575.898 8 104307913.03308       139.056 8        52.717                                                                    19485571.865 6  81128309.33406       108.169 6        39.682
R22        35.000    19361217.289 8 103351487.04208      -817.128 8        50.263                                                                    19361213.433 7  80384477.42107      -635.644 7        45.648
C32        36.000                                                                                                                                    21878527.426 8 113927196.98208     -1519.728 8        50.989                                                                    21878527.072 7  92575228.13607     -1234.852 7        47.164
C30        38.000                                                                                                                                    22963616.379 7 119577571.85207     -3168.705 7        44.199                                                                    22963613.199 6  97166573.25606     -2574.820 6        41.936
C16        45.000                                                                                                                                    38700547.562 6 201523906.05006      -825.203 6        39.465    38700544.812 5 155831082.46905      -638.132 5        35.652    38700541.147 4 163754673.03104      -670.545 4        28.512
C39        46.000                                                                                                                                    38959539.927 5 202872539.02505     -1265.683 5        35.400
C09        47.000                                                                                                                                    38668037.996 7 201354620.52407      -209.500 7        43.865    38668034.992 7 155700167.86307      -162.047 7        47.148    38668032.188 7 163617088.42907      -170.261 7        42.313
C41        49.000                                                                                                                                    25161897.168 4                     -3586.235 4        28.834                                                                    25161883.840 3                     -2914.927 3        23.314
C06        50.000                                                                                                                                    38243116.927 6 199141943.25106      -714.593 6        40.632    38243108.511 6 153989295.57506      -552.584 6        40.822    38243110.008 6 161819108.63306      -580.683 6        38.838
C29        54.000                                                                                                                                    23030825.619 6 119927560.06806        73.532 6        36.541                                                                    23030825.026 7  97450985.41907        59.584 7        44.101
I09        58.000    37190600.537 7 145943896.71407      -794.877 7        42.271
I01        59.000   377355070.831 6 177681538.65306     -2920.361 6        40.572
> 2025 01 02 01 46  0.0000000  0 36
G03         1.000    19947888.967 8 104826844.81708     -1313.952 8        51.759                                    19947888.032 8  81683265.78508     -1023.858 8        48.092    19947886.816 7  81683292.79307     -1023.820 7        43.443
G19         2.000    22294806.254 7 117160140.52307      -324.127 7        44.960
G28         3.000    23410553.443 5 123023244.19205     -2288.079 5        33.186                                                                                                    23410564.153 4  95862296.18404     -1782.994 4        27.916
E07         5.000                                                                                                                                    27100110.033 3                     -2674.935 3        23.067    27100105.790 4                     -2746.456 4        29.611
G09         6.000    22460628.878 5 118031486.65805      2378.985 5        32.515                                    22460621.732 3  91972586.57903      1853.741 3        19.075    22460626.396 4  91972595.58404      1853.634 4        27.737
G21         8.000    23862290.510 6 125397184.79306     -3977.798 6        36.877                                    23862282.620 2  97712060.16312     -3099.573 2        14.524
G02         9.000    22195709.315 4 116639240.10004     -3475.446 4        29.668                                    22195693.413 2  90887583.60102     -2708.113 2        14.476
G31        10.000    22198206.966 6 116652378.53106      -493.244 6        40.186                                    22198197.708 4  90898009.98904      -384.346 4        26.299    22198197.170 5  90897942.00905      -384.206 5        33.126
G17        11.000    22504894.880 6 118264219.38106     -2202.736 6        41.638                                    22504887.040 4  92153835.92204     -1716.417 4        25.714    22504887.822 5  92153753.90305     -1716.472 5        32.701
G04        12.000    20701927.377 7 108789401.40407      1075.600 7        43.856                                    20701924.787 3  84770885.24303       838.121 3        20.786    20701921.494 5  84770917.24405       838.140 5        35.805
E12        13.000    24557285.860 7 129049443.24007       729.936 7        43.670                                                                    24557281.279 7  96368054.38907       545.094 7        43.374    24557279.829 6  98882077.04906       559.134 6        39.907
E29        14.000    23531861.104 7 123660751.85707     -1535.041 7        43.941                                                                    23531859.056 7  92344081.23907     -1146.467 7        44.986    23531858.174 6  94753026.60406     -1176.285 6        41.590
G06        15.000    23912303.093 6 125660017.17806      2519.645 6        37.611                                    23912297.055 3  97916916.07003      1963.358 3        23.314    23912299.148 4  97916909.08604      1963.341 4        27.497
R08        18.000                                                                                                                                    22657653.979 5                      1967.264 5        30.317
E26        19.000    27208794.709 4                     -3769.524 4        24.947
E19        20.000    23673434.520 6 124404742.14306       926.279 6        38.018                                                                    23673433.090 6  92899655.64206       691.712 6        40.856    23673432.899 6  95323112.03106       709.847 6        41.845
R06        21.000    20122348.165 6 107376713.99906     -3155.121 6        41.900
S36        23.000    38180987.972 6 200642449.39906      -850.684 6        36.008
S23        24.000    38128861.266 6 200368490.13006      -846.392 6        40.679
E33        28.000    23651860.587 7 124291354.57207     -2215.291 7        47.819                                                                    23651858.401 8  92815019.52308     -1654.349 8        50.419    23651857.420 8  95236235.32308     -1697.469 8        48.987
E10        29.000    26051140.261 6 136899894.47206      1639.381 6        38.510                                                                    26051136.582 6 102230332.71106      1224.110 6        41.986    26051137.778 7 104897150.71507      1256.137 7        47.672
R21        30.000    21386489.565 6 114443479.44706     -4821.930 6        36.964                                                                    21386481.892 3                     -3749.043 3        23.162
C20        31.000                                                                                                                                    23493282.210 7 122335833.50107      1307.840 7        43.812                                                                    23493273.750 6  99407740.66506      1062.585 6        40.918
R23        33.000    21590372.612 7 115494095.98707      2616.713 7        44.683
R07        34.000    19485447.132 8 104307223.52808       136.425 8        53.374                                                                    19485443.704 6  81127773.05806       106.141 6        39.676
R22        35.000    19361984.651 8 103355582.53608      -821.457 8        50.385                                                                    19361980.542 7  80387662.81507      -638.940 7        45.460
C32        36.000                                                                                                                                    21879987.517 8 113934798.44508     -1521.172 8        51.356                                                                    21879986.744 7  92581404.94407     -1236.061 7        46.958
C30        38.000                                                                                                                                    22966658.388 7 119593419.35207     -3170.526 7        44.135                                                                    22966656.662 7  97179450.64207     -2576.319 7        42.064
C16        45.000                                                                                                                                    38701340.155 6 201528033.05806      -825.869 6        39.096    38701337.380 5 155834273.74005      -638.817 5        35.686    38701333.838 4 163758026.54104      -671.223 4        27.832
C39        46.000                                                                                                                                    38960754.397 5 202878867.13905     -1266.054 5        34.786
C09        47.000                                                                                                                                    38668239.553 7 201355669.04407      -210.248 7        44.068    38668236.401 7 155700978.65307      -162.666 7        47.445    38668233.472 7 163617940.43207      -170.906 7        42.258
C41        49.000                                                                                                                                    25165333.467 5                     -3586.642 5        30.830                                                                    25165328.085 3                     -2915.626 3        21.810
C06        50.000                                                                                                                                    38243803.717 6 199145517.74306      -715.520 6        40.610    38243795.006 6 153992059.59506      -553.242 6        40.689    38243796.351 6 161822013.20106      -581.225 6        39.267
C29        54.000                                                                                                                                                                                                                                                                    23030755.306 7  97450691.82807        57.585 7        43.710
I09        58.000    37191613.338 7 145947870.47507      -795.010 7        42.254
I01        59.000   377358791.684 6 177696140.00406     -2920.483 6        40.474
> 2025 01 02 01 46  5.0000000  0 35
G03         1.000    19949140.097 8 104833419.77308     -1315.927 8        51.633                                    19949139.112 7  81688389.13207     -1025.399 7        47.983    19949137.351 7  81688416.13907     -1025.361 7        43.575
G19         2.000    22295116.678 7 117161770.11507      -327.629 7        44.859
G28         3.000    23412732.938 5 123034692.79305     -2291.556 5        31.117                                                                                                    23412751.909 4  95871217.18404     -1785.560 4        26.335
E07         5.000                                                                                                                                    27103521.626 3                     -2675.643 3        23.924    27103516.771 4                     -2746.753 4        28.919
G09         6.000    22458369.301 5 118019595.44105      2377.753 5        30.136                                    22458358.465 2  91963320.63202      1852.723 2        16.377    22458365.516 4  91963329.63804      1853.016 4        25.774
G21         8.000    23866075.947 6 125417074.80006     -3978.314 6        36.798                                    23866067.160 2  97727558.87402     -3099.981 2        14.571
G31        10.000    22198678.661 6 116654853.89206      -496.782 6        41.483                                    22198668.355 4  90899938.83104      -387.105 4        27.030    22198669.165 5  90899870.89305      -387.275 5        32.401
G17        11.000    22506992.881 6 118275240.08306     -2205.422 6        41.533                                    22506983.261 4  92162423.47804     -1718.516 4        26.790    22506986.390 5  92162341.49905     -1718.959 5        31.426
G04        12.000    20700904.752 7 108784029.84707      1073.043 7        44.473                                    20700900.915 3  84766699.61103       836.146 3        19.313    20700897.806 5  84766731.60705       836.243 5        31.879
E12        13.000    24556592.006 7 129045797.72507       728.434 7        43.621                                                                    24556587.571 7  96365332.09207       543.886 7        43.240    24556585.921 6  98879283.73506       557.945 6        39.619
E29        14.000    23533322.819 7 123668432.59907     -1537.161 7        43.894                                                                    23533320.846 7  92349816.83907     -1147.841 7        45.070    23533319.970 6  94758911.83706     -1177.782 6        41.614
G06        15.000    23909905.523 6 125647420.39906      2518.856 6        37.667                                    23909899.000 4  97907100.42504      1962.750 4        24.556    23909900.579 4  97907093.44604      1962.361 4        28.284
R08        18.000                                                                                                                                    22655298.444 5                      1965.875 5        30.226
E26        19.000    27212381.849 4                     -3770.855 4        26.072
E19        20.000    23672553.136 6 124400114.55106       924.857 6        37.127                                                                    23672552.457 6  92896199.98006       690.583 6        40.865    23672552.134 6  95319566.21306       708.526 6        41.375
R06        21.000    20125304.934 7 107392494.61507     -3157.115 7        42.383
S36        23.000    38181793.843 5 200646700.65705      -850.164 5        35.557
S23        24.000    38129669.489 6 200372722.79806      -846.553 6        40.415
E33        28.000    23653969.152 8 124302436.20308     -2217.215 8        48.206                                                                    23653967.045 8  92823294.76508     -1655.780 8        50.363    23653966.245 8  95244726.43808     -1698.891 8        48.793
E10        29.000    26049580.046 6 136891699.68306      1638.393 6        38.381                                                                    26049577.133 7 102224213.19207      1223.643 7        42.154    26049578.054 7 104890871.57007      1255.581 7        47.059
R21        30.000                                                                                                                                    21390992.494 4                     -3751.900 4        29.156
C20        31.000                                                                                                                                    23492027.807 7 122329298.08507      1306.491 7        44.867                                                                    23492018.870 6  99402430.08106      1061.821 6        41.402
R23        33.000    21587927.120 7 115481018.50307      2614.296 7        44.194
R07        34.000    19485320.761 8 104306548.80508       133.577 8        53.349                                                                    19485318.367 6  81127248.28306       103.902 6        40.122
R22        35.000    19362755.257 8 103359700.78708      -825.740 8        49.695                                                                    19362751.490 7  80390865.90207      -642.256 7        45.157
C32        36.000                                                                                                                                    21881449.379 8 113942408.62408     -1522.816 8        52.195                                                                    21881448.194 7  92587588.81707     -1237.093 7        46.876
C30        38.000                                                                                                                                    22969702.204 7 119609277.77007     -3172.698 7        44.421                                                                    22969702.157 7  97192336.87107     -2577.877 7        42.411
C16        45.000                                                                                                                                    38702133.133 6 201532165.06206      -826.681 6        39.147    38702131.229 5 155837468.86705      -639.279 5        35.619    38702126.559 4 163761384.10004      -671.712 4        28.569
C39        46.000                                                                                                                                    38961970.258 5 202885199.97105     -1266.784 5        34.667
C09        47.000                                                                                                                                    38668441.842 7 201356722.49907      -211.105 7        44.096    38668438.866 7 155701793.24207      -163.170 7        47.549    38668435.794 7 163618796.41207      -171.246 7        42.436
C41        49.000                                                                                                                                    25168775.038 5                     -3587.072 5        32.377                                                                    25168773.027 3                     -2915.310 3        21.952
C06        50.000                                                                                                                                    38244491.636 6 199149097.40906      -716.419 6        40.536    38244482.718 6 153994827.63106      -553.897 6        40.567    38244483.882 6 161824921.95206      -581.953 6        39.240
C29        54.000                                                                                                                                    23030711.965 6 119926851.95006        67.986 6        40.317                                                                    23030688.335 7  97450409.86507        55.593 7        43.418
I09        58.000    37192626.110 7 145951845.46207      -795.134 7        42.292
I01        59.000   377362512.830 6 177710742.47306     -2920.490 6        40.336
> 2025 01 02 01 46 10.0000000  0 37
G03         1.000    19950392.954 8 104840004.15708     -1317.929 8        51.064                                    19950391.913 7  81693519.83007     -1026.959 7        47.909    19950390.797 7  81693546.83707     -1026.987 7        44.087
G19         2.000    22295430.055 7 117163416.92207      -331.208 7        43.647
G28         3.000    23414910.011 4 123046155.94504     -2294.232 4        26.000
E07         5.000                                                                                                                                    27106932.074 4                     -2677.703 4        24.090    27106928.051 4                     -2746.915 4        29.147
G09         6.000    22456106.244 4 118007710.80904      2376.259 4        27.844                                    22456096.517 2  91954059.82402      1851.601 2        13.758
G21         8.000    23869862.724 6 125436968.08306     -3978.904 6        36.533                                    23869852.031 2  97743060.08602     -3100.462 2        13.455
G31        10.000    22199153.449 6 116657346.55306      -500.397 6        41.840                                    22199142.370 4  90901881.17004      -389.923 4        27.808    22199145.225 5  90901813.20905      -389.797 5        32.168
G17        11.000    22509090.803 7 118286273.50307     -2208.030 7        42.093                                    22509082.298 4  92171020.94304     -1720.540 4        28.152    22509087.654 5  92170938.89305     -1720.606 5        32.120
G04        12.000    20699884.677 7 108778670.10507      1070.672 7        44.408                                    20699879.096 2  84762523.21002       834.287 2        17.962    20699878.568 4  84762555.19904       834.268 4        26.587
E12        13.000    24555899.415 7 129042159.09807       727.004 7        43.718                                                                    24555895.101 7  96362614.93507       542.913 7        42.984    24555893.309 6  98876495.68506       557.070 6        39.258
E29        14.000    23534786.137 7 123676122.11207     -1538.811 7        43.960                                                                    23534784.165 7  92355559.00907     -1149.248 7        45.374    23534783.460 6  94764803.80806     -1179.223 6        41.940
G06        15.000    23907509.124 6 125634827.17606      2518.273 6        38.264                                    23907502.398 4  97897287.53404      1962.290 4        25.985    23907506.624 5  97897280.54205      1961.854 5        30.355
R08        18.000                                                                                                                                    22652936.158 4                      1965.242 4        28.370
E26        19.000    27215966.387 4                     -3770.869 4        26.240
E19        20.000    23671674.220 6 124395494.83406       922.987 6        36.450                                                                    23671673.306 6  92892750.18606       689.460 6        40.832    23671672.986 6  95316026.42206       707.418 6        41.425
R06        21.000    20128263.394 7 107408284.03607     -3158.832 7        42.590
R15        22.000                                                                                                                                    23171399.445 5                      -642.110 5        30.294
S36        23.000    38182601.888 5 200650951.66705      -850.131 5        35.543
S23        24.000    38130472.901 6 200376955.04106      -846.537 6        40.529
E33        28.000    23656079.487 8 124313526.48008     -2218.952 8        48.412                                                                    23656077.344 8  92831576.45908     -1657.013 8        50.169    23656076.638 8  95253224.17908     -1700.280 8        48.780
E10        29.000    26048020.425 6 136883508.32306      1637.846 6        38.303                                                                    26048018.212 7 102218096.26407      1223.069 7        42.163    26048019.041 7 104884595.06807      1254.986 7        46.886
R21        30.000    21395523.625 6 114491719.89016     -4826.244 6        39.772                                                                    21395504.187 5                     -3753.959 5        34.729
C20        31.000                                                                                                                                    23490774.515 7 122322768.26007      1305.298 7        45.478                                                                    23490765.466 6  99397124.08906      1060.519 6        41.702
R23        33.000    21585485.158 7 115467952.72607      2611.815 7        44.993
R07        34.000    19485196.716 8 104305887.59308       130.874 8        52.899                                                                    19485194.640 6  81126734.01406       101.682 6        41.077
R22        35.000    19363530.739 8 103363840.50708      -830.157 8        49.245                                                                    19363527.574 7  80394085.70007      -645.687 7        45.830
C32        36.000                                                                                                                                    21882912.016 8 113950026.23308     -1524.329 8        52.730                                                                    21882910.961 7  92593778.76907     -1238.686 7        46.659
C30        38.000                                                                                                                                    22972748.582 7 119625145.79907     -3174.674 7        44.617                                                                    22972749.725 7  97205230.94607     -2579.757 7        42.872
C16        45.000                                                                                                                                    38702927.512 6 201536300.80806      -827.761 6        39.036    38702924.079 5 155840666.87505      -640.137 5        35.371    38702921.503 4 163764744.73604      -672.044 4        27.485
C39        46.000                                                                                                                                    38963186.678 5 202891536.23405     -1267.726 5        33.934
C09        47.000                                                                                                                                    38668644.433 7 201357779.57907      -211.889 7        43.729    38668641.700 7 155702610.64507      -163.802 7        47.645    38668638.686 7 163619655.40707      -172.232 7        42.389
C41        49.000                                                                                                                                    25172219.229 5                     -3587.182 5        33.473                                                                    25172216.172 3                     -2914.551 3        21.381
C06        50.000                                                                                                                                    38245179.782 6 199152680.98806      -717.243 6        40.408    38245170.668 6 153997598.67306      -554.544 6        40.694    38245171.964 6 161827833.90806      -582.792 6        39.003
C27        52.000                                                                                                                                    25927216.102 3                     -4380.394 3        19.821
C29        54.000                                                                                                                                    23030643.511 7 119926518.04207        65.377 7        42.212                                                                    23030623.893 7  97450138.55007        53.108 7        42.840
I09        58.000    37193639.391 7 145955820.73407      -795.116 7        42.239
I01        59.000   377366234.321 6 177725345.06106     -2920.619 6        40.157
> 2025 01 02 01 46 15.0000000  0 37
G03         1.000    19951647.781 8 104846598.52508     -1319.780 8        50.652                                    19951646.503 7  81698658.30407     -1028.402 7        47.933    19951645.733 7  81698685.30007     -1028.437 7        44.101
G19         2.000    22295745.596 7 117165081.48307      -334.655 7        42.336
G28         3.000    23417089.039 3                     -2299.255 3        18.597
E07         5.000                                                                                                                                    27110342.397 4                     -2677.504 4        25.383    27110338.508 4                     -2747.509 4        28.777
G09         6.000    22453841.913 4 117995833.22804      2374.799 4        27.677                                    22453835.978 2  91944804.66202      1850.513 2        12.909    22453838.254 3                      1849.067 3        22.019
G21         8.000    23873648.835 6 125456865.21806     -3979.867 6        36.178                                    23873637.944 2  97758564.34502     -3101.194 2        13.212
G31        10.000    22199630.516 7 116659857.03407      -503.732 7        42.442                                    22199619.926 4  90903837.39104      -392.523 4        28.872    22199624.353 5  90903769.40705      -392.418 5        33.102
G17        11.000    22511193.154 7 118297320.15707     -2210.607 7        42.444                                    22511184.220 4  92179628.72604     -1722.551 4        29.374    22511190.736 5  92179546.68505     -1722.454 5        33.156
G04        12.000    20698867.127 7 108773322.76507      1068.232 7        44.062                                    20698860.040 2  84758356.47302       832.365 2        17.811    20698856.266 3                       832.559 3        22.857
E12        13.000    24555208.365 7 129038527.94607       725.650 7        43.441                                                                    24555204.142 7  96359903.36607       541.900 7        42.745    24555202.234 6  98873713.38106       556.038 6        39.384
E29        14.000    23536251.737 7 123683820.98107     -1540.584 7        43.752                                                                    23536249.195 7  92361308.15407     -1150.479 7        45.549    23536248.746 7  94770702.93407     -1180.448 7        42.627
G06        15.000    23905113.695 6 125622238.09206      2517.244 6        38.871                                    23905107.044 4  97887477.86404      1961.491 4        27.461    23905113.742 5  97887470.82505      1962.117 5        32.868
R08        18.000                                                                                                                                    22650576.008 4                      1963.880 4        27.042
E26        19.000    27219551.725 4                     -3772.375 4        26.216
E19        20.000    23670797.111 6 124390883.53806       921.491 6        36.310                                                                    23670795.552 6  92889306.69806       688.149 6        40.729    23670795.436 6  95312493.09706       706.007 6        41.166
R06        21.000    20131222.443 7 107424082.83607     -3160.584 7        42.677
R15        22.000    23172214.101 5 123825284.56215      -829.705 5        34.338                                                                    23172177.985 5                      -645.595 5        30.347
S36        23.000    38183411.426 5 200655202.37905      -850.254 5        35.286
S23        24.000    38131278.504 6 200381187.40906      -846.246 6        40.482
E33        28.000    23658191.808 8 124324625.97408     -2220.710 8        48.524                                                                    23658189.453 8  92839865.04008     -1658.305 8        49.919    23658188.687 8  95261728.98608     -1701.598 8        48.839
E10        29.000    26046461.946 6 136875320.94606      1637.179 6        38.033                                                                    26046459.959 7 102211982.33707      1222.562 7        42.061    26046460.938 7 104878321.64107      1254.444 7        46.630
R21        30.000    21400034.439 6 114515856.51706     -4828.285 6        39.529                                                                    21400015.810 6  89067846.98216     -3755.426 6        38.586
C20        31.000                                                                                                                                    23489521.759 7 122316244.61607      1304.157 7        45.971                                                                    23489512.888 6  99391823.07806      1059.557 6        41.907
R23        33.000    21583045.565 7 115454899.10007      2609.607 7        45.797
R07        34.000    19485075.698 8 104305240.15508       128.216 8        53.180                                                                    19485073.729 6  81126230.46406        99.647 6        41.197
R22        35.000    19364310.597 8 103368002.28308      -834.441 8        49.453                                                                    19364306.981 7  80397322.63707      -649.042 7        45.863
C32        36.000                                                                                                                                    21884376.306 8 113957651.83908     -1525.815 8        52.994                                                                    21884375.288 7  92599975.19807     -1239.956 7        46.457
C30        38.000                                                                                                                                    22975799.114 7 119641023.99307     -3176.539 7        44.584                                                                    22975799.420 7  97218133.25807     -2581.224 7        43.822
C16        45.000                                                                                                                                    38703722.889 6 201540440.79806      -828.306 6        38.841    38703719.118 5 155843868.20305      -640.441 5        35.343    38703716.640 4 163768108.82504      -672.264 4        27.820
C39        46.000                                                                                                                                    38964404.055 5 202897876.41605     -1268.192 5        33.731
C09        47.000                                                                                                                                    38668847.792 7 201358840.85807      -212.470 7        43.881    38668845.438 7 155703431.29807      -164.407 7        47.417    38668842.577 7 163620517.77607      -172.927 7        42.419
C41        49.000                                                                                                                                    25175665.155 5                     -3587.611 5        35.167                                                                    25175659.482 3                     -2913.087 3        20.929
C06        50.000                                                                                                                                    38245868.918 6 199156268.97906      -717.997 6        40.596    38245859.958 6 154000373.13906      -555.143 6        40.663    38245860.931 6 161830749.46106      -583.669 6        38.988
C27        52.000                                                                                                                                    25931418.153 3                     -4379.733 3        20.476
C29        54.000                                                                                                                                    23030574.824 7 119926197.73207        62.879 7        43.431                                                                    23030562.250 7  97449878.29307        50.781 7        42.497
I09        58.000    37194652.465 7 145959796.68207      -795.263 7        42.072
I01        59.000   377369955.284 6 177739948.22206     -2920.605 6        40.195
> 2025 01 02 01 46 20.0000000  0 37
G03         1.000    19952904.731 8 104853203.15908     -1321.870 8        51.044                                    19952902.966 7  81703804.77507     -1030.030 7        47.958    19952902.001 7  81703831.77107     -1030.091 7        43.458
G19         2.000    22296065.103 6 117166764.09406      -338.442 6        40.574
G28         3.000    23419288.795 3                     -2305.584 3        23.048                                                                                                    23419347.211 4  95898050.33204     -1792.518 4        27.257
E07         5.000                                                                                                                                    27113755.037 4                     -2677.837 4        26.982    27113750.410 4                     -2747.588 4        28.512
G09         6.000    22451585.573 5 117983963.09905      2373.205 5        33.287                                    22451576.775 2  91935555.18302      1849.264 2        13.273    22451580.084 3                      1850.019 3        22.819
G21         8.000    23877436.031 5 125476766.43005     -3980.603 5        35.719                                    23877425.126 2  97774071.75902     -3101.767 2        12.303
G31        10.000    22200111.369 7 116662385.64207      -507.463 7        42.612                                    22200101.224 5  90905807.73305      -395.420 5        30.234    22200105.332 5  90905739.72605      -395.498 5        34.510
G17        11.000    22513298.055 7 118308380.29507     -2213.354 7        42.646                                    22513289.085 5  92188247.01405     -1724.691 5        30.325    22513293.551 5  92188164.97405     -1724.653 5        33.431
G04        12.000    20697852.085 7 108767988.08107      1065.682 7        43.907                                    20697843.752 2  84754199.56102       830.429 2        16.868    20697841.467 4                       830.356 4        26.527
E12        13.000    24554518.990 7 129034904.59207       723.938 7        42.508                                                                    24554514.461 7  96357197.60407       540.682 7        42.616    24554512.405 6  98870937.04506       554.820 6        38.429
E29        14.000    23537719.275 7 123691529.46507     -1542.605 7        43.280                                                                    23537715.862 7  92367064.48007     -1151.928 7        45.863    23537715.643 7  94776609.43607     -1182.007 7        42.808
G06        15.000    23902719.369 6 125609653.38506      2516.493 6        40.694                                    23902712.705 4  97877671.60504      1960.901 4        28.948    23902720.527 5  97877664.58905      1960.893 5        35.019
R08        18.000    22648220.701 4                      2523.889 4        25.338
E26        19.000    27223135.015 4                     -3772.535 4        26.012
E19        20.000    23669921.994 6 124386281.00706       919.815 6        36.302                                                                    23669919.787 6  92885869.76406       686.828 6        40.915    23669919.384 6  95308966.50706       704.545 6        40.393
R06        21.000    20134185.002 7 107439891.36107     -3162.720 7        42.815
R15        22.000    23172991.415 5 123829444.51015      -833.757 5        32.623                                                                    23172958.494 4                      -648.920 4        29.336
S36        23.000    38184213.921 5 200659453.76005      -849.949 5        34.886
S23        24.000    38132084.993 6 200385419.90606      -846.500 6        40.207
E33        28.000    23660305.889 8 124335734.95608     -2222.690 8        48.617                                                                    23660303.321 8  92848160.70908     -1659.820 8        49.645    23660302.478 8  95270241.06108     -1703.091 8        48.462
E10        29.000    26044903.455 6 136867137.88606      1636.089 6        36.329                                                                    26044902.661 7 102205871.60507      1221.831 7        42.006    26044903.690 7 104872051.49807      1253.675 7        46.097
R21        30.000    21404541.372 6 114540004.58606     -4830.777 6        39.051                                                                    21404530.440 6  89086628.80906     -3757.199 6        41.168
C20        31.000                                                                                                                                    23488269.502 7 122309727.37807      1302.872 7        45.311                                                                    23488261.371 6  99386527.29906      1058.524 6        41.850
R23        33.000    21580608.184 7 115441858.01307      2606.998 7        46.791
R07        34.000    19484957.844 8 104304607.08608       125.194 8        53.516                                                                    19484955.279 6  81125738.07506        97.393 6        41.173
R22        35.000    19365094.508 8 103372186.37908      -839.033 8        48.904                                                                    19365090.653 7  80400576.93607      -652.512 7        45.148
C32        36.000                                                                                                                                    21885842.191 8 113965285.70108     -1527.639 8        53.168                                                                    21885841.253 7  92606178.34007     -1241.397 7        46.228
C30        38.000                                                                                                                                    22978852.342 7 119656912.60307     -3178.619 7        43.839                                                                    22978851.005 7  97231044.06007     -2583.076 7        44.396
C16        45.000                                                                                                                                    38704519.360 6 201544585.37206      -829.297 6        38.480    38704515.673 5 155847073.04605      -641.053 5        35.581    38704513.136 4 163771476.65604      -674.089 4        27.653
C39        46.000                                                                                                                                    38965622.626 5 202904220.85105     -1269.246 5        33.329
C09        47.000                                                                                                                                    38669051.883 7 201359906.56807      -213.442 7        43.484    38669049.945 7 155704255.37007      -165.145 7        47.419    38669046.993 7 163621383.74807      -173.648 7        42.343
C41        49.000                                                                                                                                    25179108.276 6                     -3587.848 6        36.038                                                                    25179104.291 3                     -2917.026 3        20.500
C06        50.000                                                                                                                                    38246558.453 6 199159861.69606      -718.912 6        40.179    38246549.705 6 154003151.25306      -555.896 6        40.779    38246550.710 6 161833668.82406      -584.213 6        39.066
C27        52.000                                                                                                                                    25935626.397 3                     -4379.278 3        21.667
C29        54.000                                                                                                                                    23030511.870 7 119925891.33707        59.946 7        43.894                                                                    23030503.441 7  97449629.33307        48.531 7        42.231
I09        58.000    37195666.168 6 145963773.54906      -795.478 6        41.971
I01        59.000   377373676.892 6 177754552.12106     -2920.769 6        40.184
> 2025 01 02 01 46 25.0000000  0 36
G03         1.000    19954163.791 8 104859817.73808     -1323.741 8        51.127                                    19954161.231 7  81708958.99807     -1031.485 7        47.925    19954160.856 7  81708985.98307     -1031.525 7        42.798
G19         2.000    22296388.178 6 117168464.37606      -341.539 6        36.560
G28         3.000                                                                                                                                                                    23421535.319 4  95907018.56904     -1794.674 4        26.563
E07         5.000                                                                                                                                    27117167.216 4                     -2678.191 4        27.521    27117162.795 4                     -2748.240 4        27.533
G09         6.000    22449331.991 6 117972100.00506      2372.134 6        37.293                                    22449318.820 2  91926311.22302      1848.414 2        12.364
G21         8.000    23881223.981 5 125496671.41905     -3980.852 5        34.419                                    23881213.060 1  97789582.16201     -3101.953 1        10.815
G31        10.000    22200595.874 6 116664932.06706      -510.860 6        41.921                                    22200586.203 5  90907791.96805      -398.069 5        30.966    22200590.314 5  90907723.94505      -398.212 5        35.690
G17        11.000    22515404.904 7 118319453.61607     -2215.792 7        42.493                                    22515396.619 5  92196875.56905     -1726.591 5        30.468    22515401.207 5  92196793.53405     -1726.614 5        33.874
G04        12.000    20696839.732 7 108762665.73707      1063.366 7        43.839                                    20696830.232 2  84750052.30002       828.601 2        17.019    20696831.153 4                       828.323 4        28.635
E12        13.000    24553830.352 6 129031288.66906       722.633 6        41.983                                                                    24553826.355 7  96354497.40407       539.577 7        42.315    24553824.086 6  98868166.40906       553.576 6        37.909
E29        14.000    23539187.594 7 123699247.24307     -1544.382 7        42.976                                                                    23539184.461 7  92372827.75007     -1153.211 7        46.008    23539184.150 7  94782523.05407     -1183.371 7        43.253
G06        15.000    23900326.368 6 125597072.81706      2515.871 6        41.142                                    23900319.452 5  97867868.55905      1960.420 5        30.294    23900325.357 6  97867861.54306      1960.432 6        36.794
R08        18.000    22645862.653 4                      2522.559 4        26.060                                                                    22645848.654 4                      1961.887 4        27.222
E26        19.000    27226721.122 4                     -3773.233 4        25.549
E19        20.000    23669047.945 6 124381686.87906       918.337 6        36.571                                                                    23669045.686 6  92882439.08306       685.650 6        41.027    23669044.933 6  95305446.31406       703.465 6        39.766
R06        21.000    20137149.729 7 107455709.20707     -3164.390 7        42.694
S36        23.000    38185024.966 5 200663704.90805      -849.997 5        35.400
S23        24.000    38132887.577 6 200389652.25106      -846.406 6        40.327
E33        28.000    23662421.480 8 124346853.09608     -2224.375 8        48.933                                                                    23662419.048 8  92856463.21208     -1661.024 8        49.318    23662418.037 8  95278760.15908     -1704.385 8        48.415
E10        29.000    26043346.371 5 136858958.77305      1635.599 5        34.910                                                                    26043346.077 6 102199763.85006      1221.291 6        41.955    26043347.296 7 104865784.39907      1253.236 7        45.853
R21        30.000    21409045.247 6 114564163.67606     -4832.749 6        38.841                                                                    21409047.911 7  89105419.25707     -3758.857 7        42.482
C20        31.000                                                                                                                                    23487018.793 7 122303216.30007      1301.747 7        43.824                                                                    23487010.763 6  99381236.48106      1057.714 6        41.485
R23        33.000    21578172.996 7 115428829.15007      2604.710 7        47.702
R07        34.000    19484841.954 8 104303987.98708       122.566 8        52.674                                                                    19484839.359 7  81125256.55207        95.348 7        42.724
R22        35.000    19365882.172 8 103376392.46708      -843.316 8        48.105                                                                    19365878.375 7  80403848.33607      -655.907 7        44.767
C32        36.000                                                                                                                                    21887309.671 8 113972927.50008     -1529.007 8        53.078                                                                    21887308.765 7  92612387.92507     -1242.441 7        46.136
C30        38.000                                                                                                                                    22981904.551 7 119672811.32107     -3180.536 7        42.216                                                                    22981904.240 7  97243963.05007     -2584.423 7        44.837
C16        45.000                                                                                                                                    38705315.687 6 201548734.18406      -830.062 6        37.955    38705312.512 5 155850281.16505      -641.855 5        35.319    38705310.423 4 163774847.88104      -674.218 4        28.427
C39        46.000                                                                                                                                    38966842.167 5 202910569.23705     -1270.171 5        33.263
C09        47.000                                                                                                                                    38669257.155 7 201360976.39707      -214.198 7        43.092    38669255.394 7 155705082.63107      -165.702 7        47.173    38669252.449 7 163622253.06107      -174.054 7        42.237
C41        49.000                                                                                                                                    25182554.019 6 131132169.96816     -3588.051 6        36.514                                                                    25182550.852 3                     -2917.226 3        20.524
C06        50.000                                                                                                                                    38247248.531 6 199163458.79406      -719.668 6        40.010    38247240.599 6 154005932.75806      -556.534 6        40.660    38247241.384 6 161836591.77606      -585.039 6        39.093
C27        52.000                                                                                                                                    25939839.054 3                     -4381.627 3        20.881
C29        54.000                                                                                                                                    23030453.228 7 119925598.52307        57.366 7        44.038                                                                    23030447.302 7  97449391.40007        46.540 7        42.027
I09        58.000    37196679.165 6 145967751.06506      -795.398 6        41.852
I01        59.000   377377398.667 6 177769156.53006     -2920.914 6        40.389
> 2025 01 02 01 46 30.0000000  0 37
G03         1.000    19955424.466 8 104866442.20308     -1326.117 8        51.651                                    19955421.366 8  81714120.92308     -1033.337 8        48.283    19955421.539 7  81714147.91307     -1033.355 7        42.802
G19         2.000    22296714.524 5 117170182.36805      -345.424 5        34.700
G28         3.000    23423695.222 4                     -2306.380 4        26.168
E07         5.000                                                                                                                                    27120579.466 4                     -2678.533 4        29.109    27120574.262 4                     -2748.082 4        27.832
G09         6.000    22447079.893 6 117960244.02806      2370.437 6        39.456                                    22447062.082 2  91917072.75102      1847.135 2        12.606    22447096.205 3                      1848.594 3        23.448
G21         8.000    23885013.008 5 125516580.15405     -3982.178 5        32.677                                    23885001.575 1  97805095.41301     -3102.977 1        10.222
G31        10.000    22201083.999 6 116667496.20206      -514.810 6        40.415                                    22201074.634 5  90909790.00805      -401.151 5        31.585    22201077.987 5  90909721.98005      -401.065 5        35.857
G17        11.000    22517515.076 7 118330540.00707     -2218.742 7        42.373                                    22517506.589 5  92205514.31705     -1728.887 5        30.362    22517509.586 5  92205432.26305     -1728.644 5        33.030
G04        12.000    20695829.249 7 108757355.70007      1060.714 7        44.083                                    20695819.551 2  84745914.61702       826.537 2        17.887    20695821.353 5                       826.782 5        30.083
E12        13.000    24553143.239 6 129027680.16606       720.739 6        41.008                                                                    24553139.576 6  96351802.73806       538.300 6        41.931    24553137.295 6  98865401.45306       552.091 6        37.225
E29        14.000    23540657.419 7 123706974.26007     -1546.541 7        42.385                                                                    23540654.621 7  92378597.92407     -1154.877 7        45.895    23540654.485 7  94788443.75707     -1185.034 7        43.591
G06        15.000    23897932.741 6 125584496.29506      2514.669 6        41.492                                    23897927.116 5  97858068.66605      1959.481 5        31.291    23897931.213 6  97858061.66206      1959.546 6        37.966
R08        18.000    22643510.334 4                      2521.309 4        28.853
E26        19.000    27230312.309 4                     -3773.807 4        25.113
E19        20.000    23668175.134 6 124377101.12006       916.185 6        37.418                                                                    23668173.174 6  92879014.64806       684.130 6        40.982    23668171.786 6  95301932.53806       702.059 6        38.805
R06        21.000    20140115.570 7 107471536.26407     -3166.644 7        42.789
R15        22.000    23174539.723 5 123837827.09005      -842.644 5        34.967
S36        23.000    38185835.112 5 200667955.95905      -850.891 5        35.324
S23        24.000    38133693.252 6 200393884.27106      -846.739 6        40.174
E33        28.000    23664538.938 8 124357980.35908     -2226.540 8        49.087                                                                    23664536.485 8  92864772.53508     -1662.714 8        48.950    23664535.460 8  95287286.25008     -1706.148 8        48.227
E10        29.000    26041791.027 5 136850783.63005      1634.141 5        32.539                                                                    26041790.476 6 102193659.01206      1220.577 6        41.862    26041791.643 7 104859520.31407      1252.352 7        45.443
R21        30.000    21413558.335 6 114588333.71706     -4835.111 6        38.384                                                                    21413564.738 7  89124218.21807     -3760.778 7        42.844
C20        31.000                                                                                                                                    23485769.167 7 122296711.25607      1300.225 7        43.020                                                                    23485761.335 6  99375950.58306      1056.462 6        41.104
R23        33.000    21575740.220 8 115415812.53808      2601.903 8        48.073
R07        34.000    19484728.790 8 104303382.89708       119.470 8        52.208                                                                    19484726.574 7  81124785.96007        92.871 7        43.867
R22        35.000    19366673.801 7 103380620.48207      -847.977 7        47.172                                                                    19366670.601 7  80407136.80307      -659.467 7        44.755
C32        36.000                                                                                                                                    21888778.664 8 113980577.17608     -1530.900 8        52.875                                                                    21888777.913 7  92618603.91407     -1243.998 7        46.051
C30        38.000                                                                                                                                    22984954.493 6 119688720.08806     -3182.968 6        40.300                                                                    22984959.429 7  97256890.22307     -2586.530 7        45.020
C16        45.000                                                                                                                                    38706111.851 6 201552887.15806      -831.161 6        37.645    38706109.640 5 155853492.51805      -642.933 5        35.238    38706108.534 4 163778222.54304      -675.264 4        27.545
C39        46.000                                                                                                                                    38968062.491 5 202916921.43105     -1270.833 5        33.587
C09        47.000                                                                                                                                    38669463.703 7 201362050.34107      -215.443 7        43.024    38669461.447 7 155705913.06107      -166.508 7        47.010    38669458.713 7 163623125.73207      -175.026 7        42.093
C41        49.000                                                                                                                                    25185998.847 6 131150111.55006     -3588.524 6        36.594                                                                    25185996.434 3                     -2914.631 3        21.452
C06        50.000                                                                                                                                    38247940.339 6 199167060.24506      -720.978 6        39.856    38247932.007 6 154008717.62606      -557.551 6        40.713    38247932.927 6 161839518.23506      -585.813 6        38.871
C27        52.000                                                                                                                                    25944050.370 3                     -4381.618 3        21.857
C29        54.000                                                                                                                                    23030398.984 7 119925319.24307        54.301 7        44.363                                                                    23030393.697 6  97449164.47506        44.056 6        41.733
I09        58.000    37197692.864 6 145971729.19506      -795.786 6        41.757
I01        59.000   377381120.123 6 177783761.38306     -2921.125 6        40.072
> 2025 01 02 01 46 35.0000000  0 35
G03         1.000    19956686.987 8 104873076.79108     -1327.894 8        52.237                                    19956683.490 8  81719290.73808     -1034.721 8        48.481    19956684.603 7  81719317.72807     -1034.761 7        42.688
G19         2.000    22297045.033 5 117171918.22305      -348.878 5        35.495
E07         5.000                                                                                                                                    27123992.920 4                     -2679.215 4        28.938    27123987.313 4                     -2749.242 4        27.581
G09         6.000    22444826.635 6 117948395.37606      2368.971 6        40.319                                    22444806.596 1  91907840.06501      1845.975 1        11.778
G21         8.000    23888802.823 5 125536492.80005     -3983.312 5        31.411                                    23888791.454 1  97820611.74301     -3103.829 1         8.381
G31        10.000    22201574.390 6 116670078.30706      -518.238 6        37.879                                    22201566.432 5  90911802.04905      -403.833 5        30.868    22201569.369 6  90911734.03906      -403.782 6        37.180
G17        11.000    22519627.076 7 118341639.77107     -2221.355 7        42.878                                    22519619.136 4  92214163.48004     -1730.923 4        29.829    22519620.379 5  92214081.43805     -1730.975 5        32.479
G04        12.000    20694821.487 7 108752058.22407      1058.244 7        45.070                                    20694811.518 3  84741786.73403       824.628 3        18.896    20694814.353 5                       824.636 5        32.952
E12        13.000    24552457.898 6 129024079.27906       719.377 6        40.184                                                                    24552454.283 6  96349113.76406       537.184 6        41.998    24552452.488 6  98862642.32306       551.347 6        36.994
E29        14.000    23542129.219 6 123714710.73306     -1548.169 6        41.876                                                                    23542126.717 7  92384375.16607     -1156.148 7        46.065    23542126.558 7  94794371.71007     -1186.359 7        43.936
G06        15.000    23895540.341 7 125571924.07707      2513.994 7        42.057                                    23895535.549 5  97848272.13205      1958.954 5        32.090    23895538.587 6  97848265.11406      1959.027 6        38.402
E26        19.000    27233903.729 3                     -3774.323 3        23.638
E19        20.000    23667303.887 6 124372523.96806       914.562 6        37.584                                                                    23667302.524 6  92875596.63906       682.834 6        41.340    23667299.852 6  95298425.36706       700.922 6        37.849
R06        21.000    20143082.773 7 107487372.88907     -3168.289 7        42.845
R15        22.000    23175319.423 5 123842050.15805      -846.882 5        35.814
S36        23.000    38186643.416 5 200672207.49805      -850.346 5        35.557
S23        24.000    38134500.237 6 200398116.44906      -846.399 6        40.470
E33        28.000    23666658.236 8 124369116.97808     -2228.329 8        49.084                                                                    23666655.740 8  92873088.83808     -1664.018 8        48.940    23666654.784 8  95295819.50608     -1707.434 8        48.232
E10        29.000    26040237.319 5 136842612.63405      1633.754 5        30.506                                                                    26040235.763 7 102187557.30607      1220.097 7        42.296    26040236.769 7 104853259.42307      1251.897 7        45.198
R21        30.000    21418080.774 6 114612515.07906     -4837.352 6        39.751                                                                    21418082.976 7  89143025.92907     -3762.369 7        42.601
C20        31.000                                                                                                                                    23484520.556 7 122290212.49807      1299.120 7        43.746                                                                    23484513.091 6  99370669.82606      1055.489 6        40.572
R23        33.000    21573308.795 7 115402808.45507      2599.525 7        47.413
R07        34.000    19484618.829 8 104302791.88908       116.731 8        53.210                                                                    19484616.248 7  81124326.28707        90.768 7        44.319
R22        35.000    19367469.290 7 103384870.72007      -852.319 7        46.005                                                                    19367467.128 7  80410442.55107      -662.821 7        44.962
C32        36.000                                                                                                                                    21890249.284 8 113988234.96408     -1532.415 8        52.617                                                                    21890248.661 7  92624826.49207     -1245.280 7        46.056
C30        38.000                                                                                                                                    22988009.189 6 119704639.14806     -3184.922 6        38.943                                                                    22988016.432 7  97269825.71307     -2588.007 7        45.034
C16        45.000                                                                                                                                    38706909.088 6 201557044.54706      -831.827 6        37.157    38706908.587 5 155856707.28005      -643.428 5        35.714    38706907.262 4 163781600.75104      -676.239 4        28.569
C39        46.000                                                                                                                                    38969283.870 5 202923277.75705     -1271.529 5        33.707
C09        47.000                                                                                                                                    38669670.845 7 201363128.61007      -216.049 7        42.974    38669668.638 7 155706746.85007      -167.071 7        46.928    38669665.696 7 163624001.91107      -175.634 7        42.148
C41        49.000                                                                                                                                    25189444.057 6 131168054.71906     -3588.895 6        36.696                                                                    25189442.946 3                     -2914.840 3        21.690
C06        50.000                                                                                                                                    38248632.344 6 199170666.27406      -721.858 6        39.538    38248624.409 6 154011506.02906      -558.030 6        40.472    38248625.429 6 161842448.43306      -586.482 6        38.679
C27        52.000                                                                                                                                    25948250.127 3                     -4381.497 3        21.643
C29        54.000                                                                                                                                    23030349.387 7 119925053.73107        51.629 7        44.698                                                                    23030342.877 6  97448948.72306        41.889 6        41.990
I09        58.000    37198707.080 6 145975708.13606      -795.953 6        41.538
I01        59.000   377384841.784 6 177798366.91106     -2921.279 6        40.293
> 2025 01 02 01 46 40.0000000  0 36
G03         1.000    19957951.508 8 104879721.68308     -1330.201 8        52.229                                    19957947.667 8  81724468.57708     -1036.520 8        48.804    19957948.977 7  81724495.56807     -1036.486 7        42.739
G19         2.000    22297382.509 6 117173672.17806      -352.498 6        37.127
E07         5.000                                                                                                                                    27127406.471 4                     -2679.594 4        29.431    27127399.931 4                     -2749.395 4        27.234
G09         6.000    22442570.861 6 117936554.18406      2367.269 6        40.734                                    22442552.527 1  91898613.18801      1844.622 1        10.148    22442567.314 3                      1845.514 3        20.810
G21         8.000    23892597.507 4 125556409.53804     -3983.446 4        29.659                                    23892581.776 1  97836131.22901     -3104.000 1         7.125
G31        10.000    22202067.334 5 116672678.55405      -521.653 5        35.462                                    22202061.441 4  90913828.24604      -406.498 4        28.815    22202064.463 6  90913760.25106      -406.862 6        38.237
G17        11.000    22521741.537 7 118352753.01107     -2224.135 7        42.785                                    22521734.160 4  92222823.14704     -1733.088 4        29.223    22521735.835 5  92222741.11605     -1732.906 5        33.689
G04        12.000    20693816.209 7 108746773.45607      1055.442 7        45.413                                    20693806.771 3  84737668.73203       822.419 3        21.071    20693810.863 5  84737691.79715       822.345 5        35.538
E12        13.000    24551773.822 6 129020486.21506       717.698 6        39.045                                                                    24551770.388 6  96346430.63806       535.940 6        41.881    24551769.441 6  98859889.20706       550.093 6        36.968
E29        14.000    23543602.218 6 123722456.87306     -1550.369 6        41.147                                                                    23543600.761 7  92390159.60007     -1157.695 7        46.071    23543600.599 7  94800307.03907     -1187.874 7        44.235
G06        15.000    23893148.545 7 125559356.33807      2512.968 7        42.055                                    23893144.819 5  97838479.08905      1958.158 5        32.527    23893146.807 6  97838472.09106      1958.145 6        38.595
R08        18.000                                                                                                                                    22638768.050 4                      1958.976 4        26.683
E26        19.000    27237490.972 3                     -3775.487 3        22.533
E19        20.000    23666434.896 6 124367955.60506       912.705 6        37.486                                                                    23666433.254 6  92872185.22106       681.441 6        41.740    23666429.740 6  95294924.94806       699.445 6        36.737
R06        21.000    20146052.745 7 107503219.13007     -3170.281 7        42.665
R15        22.000    23176110.905 5                      -851.199 5        33.413                                                                    23176149.099 3                      -662.222 3        22.495
S36        23.000    38187455.937 5 200676459.16705      -850.655 5        35.757
S23        24.000    38135306.765 6 200402348.93706      -846.689 6        40.350
E33        28.000    23668779.512 8 124380263.11008     -2230.338 8        49.270                                                                    23668776.804 8  92881412.24408     -1665.475 8        49.047    23668776.044 8  95304360.04408     -1708.936 8        48.210
E10        29.000    26038682.540 4 136834445.99204      1632.572 4        29.981                                                                    26038681.744 7 102181458.84407      1219.268 7        42.360    26038682.703 7 104847001.86907      1251.025 7        44.913
R21        30.000    21422605.436 6 114636707.87106     -4839.910 6        41.542                                                                    21422603.587 6  89161842.56506     -3764.254 6        41.452
C20        31.000                                                                                                                                    23483273.592 7 122283720.19807      1297.621 7        45.365                                                                    23483266.140 6  99365394.30506      1054.456 6        40.346
R23        33.000    21570878.038 7 115389816.91707      2596.844 7        46.048
R07        34.000    19484511.944 8 104302215.21808       113.723 8        53.593                                                                    19484508.717 7  81123877.76407        88.451 7        44.486
R22        35.000    19368269.032 7 103389143.29707      -856.908 7        44.960                                                                    19368267.870 7  80413765.67407      -666.497 7        44.606
C32        36.000                                                                                                                                    21891721.549 8 113995901.01808     -1534.202 8        52.423                                                                    21891720.993 7  92631055.77707     -1246.667 7        46.253
C30        38.000                                                                                                                                    22991070.160 6 119720568.55906     -3186.932 6        38.628                                                                    22991075.149 7  97282769.67607     -2589.751 7        44.922
C16        45.000                                                                                                                                    38707708.049 6 201561206.53006      -832.815 6        36.692    38707708.171 5 155859925.57805      -643.941 5        35.829    38707706.945 4 163784982.72504      -677.755 4        28.474
C39        46.000                                                                                                                                    38970505.826 5 202929638.36705     -1272.992 5        33.886
C09        47.000                                                                                                                                    38669878.694 7 201364211.35307      -217.226 7        43.039    38669876.506 7 155707584.09207      -167.874 7        46.974    38669873.597 7 163624881.71907      -176.433 7        42.002
C41        49.000                                                                                                                                    25192891.133 6 131185999.60406     -3589.536 6        36.469                                                                    25192890.026 3                     -2916.416 3        23.257
C06        50.000                                                                                                                                    38249325.898 6 199174277.02906      -722.772 6        39.724    38249318.397 6 154014298.09106      -558.850 6        40.417    38249318.667 6 161845382.45806      -587.231 6        38.640
C27        52.000                                                                                                                                    25952453.725 3                     -4380.719 3        21.048
C29        54.000                                                                                                                                    23030301.031 7 119924802.16007        48.726 7        44.990                                                                    23030294.827 7  97448744.29707        39.649 7        42.574
I09        58.000    37199721.019 6 145979687.97906      -796.077 6        41.745
I01        59.000   377388564.391 6 177812973.21406     -2921.430 6        40.408
> 2025 01 02 01 46 45.0000000  0 38
G03         1.000    19959218.006 8 104886376.78608     -1331.977 8        52.534                                    19959213.941 8  81729654.37308     -1037.905 8        49.241    19959215.593 7  81729681.36607     -1037.949 7        43.482
G19         2.000    22297724.396 6 117175444.25606      -356.297 6        39.210
G28         3.000    23430268.856 5                     -2315.778 5        33.132
G02         4.000    22225542.269 6 116796012.41416     -3491.609 6        36.665
E07         5.000                                                                                                                                    27130820.457 4                     -2679.999 4        29.374    27130813.979 4                     -2749.889 4        27.784
G09         6.000    22440316.205 6 117924720.39706      2365.986 6        40.994                                    22440300.036 1  91889392.14801      1843.576 1        10.667    22440322.918 4                      1843.115 4        26.551
G21         8.000    23896388.774 4 125576330.24204     -3984.608 4        27.329                                    23896372.603 1  97851653.87501     -3104.839 1         5.714
G31        10.000    22202566.156 5 116675296.88005      -525.293 5        34.690                                    22202559.745 4  90915868.53004      -409.339 4        25.835    22202562.690 6  90915800.54106      -409.505 6        39.282
G17        11.000    22523858.454 7 118363879.67107     -2226.619 7        42.955                                    22523851.625 4  92231493.26704     -1735.034 4        28.663    22523853.250 5  92231411.23005     -1734.975 5        33.299
G04        12.000    20692812.669 7 108741501.34607      1053.128 7        45.136                                    20692804.613 3  84733560.60303       820.609 3        22.971    20692807.188 6  84733583.59506       820.618 6        37.656
E12        13.000    24551091.560 6 129016900.94106       716.328 6        38.375                                                                    24551088.043 6  96343753.32106       534.812 6        41.754    24551088.049 6  98857142.06306       548.771 6        36.957
E29        14.000    23545076.952 6 123730212.55806     -1552.139 6        40.203                                                                    23545076.638 7  92395951.18607     -1159.117 7        45.872    23545076.451 7  94806249.71407     -1189.333 7        44.603
G06        15.000    23890758.137 6 125546793.05006      2512.087 6        41.261                                    23890754.692 5  97828689.50605      1957.469 5        32.719    23890755.682 6  97828682.52106      1957.424 6        38.535
R08        18.000    22636405.838 3                      2517.287 3        22.629                                                                    22636424.808 4                      1957.397 4        27.198
E26        19.000    27241075.187 3                     -3775.842 3        19.940
E19        20.000    23665567.192 6 124363395.88306       911.063 6        37.372                                                                    23665565.605 7  92868780.24307       680.348 7        42.063    23665561.516 5  95291431.15505       698.034 5        35.552
R06        21.000    20149023.658 7 107519075.04807     -3172.202 7        42.864
R15        22.000    23176910.426 5 123850559.82915      -855.431 5        31.864
S36        23.000    38188265.904 5 200680711.51005      -850.482 5        35.343
S23        24.000    38136112.105 6 200406581.63806      -846.600 6        40.064
E33        28.000    23670902.198 8 124391418.69708     -2232.076 8        49.192                                                                    23670899.706 8  92889742.71908     -1666.823 8        49.062    23670899.084 8  95312907.84408     -1710.298 8        48.260
E10        29.000    26037129.778 5 136826283.59805      1632.034 5        30.641                                                                    26037128.473 7 102175363.58407      1218.678 7        42.595    26037129.559 7 104840747.59307      1250.609 7        44.625
R21        30.000    21427129.460 7 114660911.88807     -4841.893 7        42.514                                                                    21427125.657 6  89180667.90106     -3766.048 6        40.110
C20        31.000                                                                                                                                    23482027.427 7 122277234.28807      1296.547 7        46.736                                                                    23482020.357 6  99360123.98206      1053.628 6        40.074
R23        33.000    21568451.468 7 115376838.00807      2594.535 7        44.873
R07        34.000    19484406.938 8 104301652.88708       111.097 8        53.886                                                                    19484404.568 7  81123440.40607        86.337 7        45.260
R22        35.000    19369073.955 7 103393438.20307      -861.216 7        45.023                                                                    19369072.512 7  80417106.14507      -669.885 7        44.807
C32        36.000                                                                                                                                    21893195.486 8 114003575.28008     -1535.716 8        52.374                                                                    21893194.922 7  92637291.73007     -1247.770 7        46.600
C30        38.000                                                                                                                                    22994132.467 6 119736508.35506     -3188.972 6        39.045                                                                    22994136.093 7  97295722.05207     -2591.181 7        44.758
C16        45.000                                                                                                                                    38708508.372 6 201565373.04006      -833.732 6        36.510    38708507.956 6 155863147.38006      -644.481 6        36.076    38708507.280 4 163788368.35604      -677.902 4        28.256
C39        46.000                                                                                                                                    38971728.434 5 202936003.09505     -1273.270 5        34.495
C09        47.000                                                                                                                                    38670087.489 7 201365298.53607      -217.954 7        43.234    38670085.376 7 155708424.78407      -168.490 7        46.967    38670082.411 7 163625765.14707      -176.967 7        42.076
C41        49.000                                                                                                                                    25196339.286 6 131203946.14606     -3589.512 6        36.299                                                                    25196336.328 3                     -2917.089 3        23.048
C06        50.000                                                                                                                                    38250021.058 6 199177892.50906      -723.673 6        39.919    38250012.419 6 154017093.79706      -559.429 6        40.331    38250012.941 6 161848320.33106      -588.052 6        38.766
C27        52.000                                                                                                                                    25956655.794 3                     -4383.106 3        20.119
C29        54.000                                                                                                                                    23030254.501 7 119924564.45507        46.112 7        45.618                                                                    23030249.382 7  97448551.15707        37.568 7        43.160
I09        58.000    37200735.687 6 145983668.72306      -796.198 6        41.712
I01        59.000   377392286.876 6 177827580.32106     -2921.535 6        40.205
> 2025 01 02 01 46 50.0000000  0 36
G03         1.000    19960486.427 8 104893041.91108     -1333.939 8        53.288                                    19960482.245 8  81734847.97808     -1039.434 8        49.822    19960484.154 7  81734874.97307     -1039.368 7        43.820
G19         2.000    22298064.746 6 117177234.10206      -359.427 6        40.446
G28         3.000    23432479.299 5 123138493.71715     -2318.516 5        32.748                                                                                                    23432452.014 4  95952038.30504     -1806.666 4        26.108
G02         4.000    22228861.103 5 116813475.12105     -3493.197 5        35.814                                    22228848.890 2  91023418.81312     -2721.963 2        16.528
E07         5.000                                                                                                                                    27134234.514 5                     -2680.280 5        30.309    27134227.870 4                     -2750.092 4        26.814
G09         6.000    22438065.330 6 117912893.83906      2364.832 6        40.782                                    22438049.335 1  91880176.73201      1842.720 1        11.037    22438073.405 4                      1842.695 4        29.213
G21         8.000    23900183.997 3                     -3985.189 3        22.838
G31        10.000    22203069.020 5 116677933.17605      -528.714 5        34.986                                    22203061.389 4  90917922.80504      -411.985 4        24.466    22203063.344 6  90917854.79906      -412.074 6        38.964
G17        11.000    22525978.104 7 118375019.53607     -2229.173 7        43.496                                    22525971.282 4  92240173.68504     -1737.020 4        27.641    22525971.520 5  92240091.64905     -1737.111 5        31.698
G04        12.000    20691811.501 7 108736241.67907      1050.895 7        44.838                                    20691804.893 4  84729462.17404       818.876 4        24.346    20691806.842 6  84729485.17506       818.903 6        39.342
E12        13.000    24550410.968 6 129013323.22506       714.976 6        38.538                                                                    24550407.177 6  96341081.63306       533.913 6        41.633    24550408.017 6  98854400.67706       547.859 6        37.198
E29        14.000    23546554.608 6 123737977.57606     -1553.970 6        38.904                                                                    23546554.200 7  92401749.74407     -1160.298 7        45.512    23546554.206 7  94812199.53607     -1190.570 7        45.013
G06        15.000    23888368.437 6 125534233.99406      2511.537 6        40.060                                    23888365.209 5  97818903.21905      1957.049 5        32.940    23888365.648 6  97818896.23106      1956.958 6        38.279
E19        20.000    23664701.065 6 124358844.70106       909.448 6        37.217                                                                    23664699.891 7  92865381.63907       679.157 7        42.366    23664695.474 5  95287943.88405       696.867 5        35.271
R06        21.000    20151997.489 7 107534940.32807     -3173.799 7        43.064
R15        22.000    23177720.189 4 123854846.37204      -859.308 4        27.737
S36        23.000    38189074.065 5 200684964.19005      -850.283 5        35.405
S23        24.000    38136917.122 6 200410814.34006      -846.552 6        40.086
E33        28.000    23673026.575 8 124402583.51508     -2233.740 8        49.164                                                                    23673024.241 8  92898080.07708     -1668.039 8        49.250    23673023.856 8  95321462.70408     -1711.591 8        48.588
E10        29.000    26035577.253 5 136818125.36805      1631.049 5        30.166                                                                    26035576.259 7 102169271.36807      1218.290 7        42.772    26035577.063 7 104834496.44607      1250.021 7        44.503
R21        30.000    21431654.436 7 114685126.94907     -4843.931 7        42.842                                                                    21431651.098 6  89199501.81206     -3767.485 6        38.141
C20        31.000                                                                                                                                    23480782.705 7 122270754.59307      1295.433 7        47.325                                                                    23480775.789 6  99354858.71706      1052.718 6        39.598
R23        33.000    21566028.563 7 115363871.48307      2592.225 7        44.126
R07        34.000    19484304.598 8 104301104.51608       108.420 8        53.538                                                                    19484302.429 7  81123013.89807        84.363 7        45.621
R22        35.000    19369883.636 7 103397755.21907      -865.492 7        45.746                                                                    19369881.429 7  80420463.81307      -673.178 7        45.332
C32        36.000                                                                                                                                    21894670.679 8 114011257.53608     -1537.091 8        52.362                                                                    21894670.326 7  92643534.19307     -1249.014 7        46.991
C30        38.000                                                                                                                                    22997197.013 6 119752458.27206     -3190.819 6        40.172                                                                    22997199.017 7  97308682.66807     -2592.840 7        44.548
C16        45.000                                                                                                                                    38709309.040 5 201569543.83605      -834.306 5        35.786    38709309.194 6 155866372.50306      -645.272 6        36.170    38709308.777 4 163791757.42804      -678.557 4        28.199
C39        46.000                                                                                                                                    38972951.504 5 202942371.83405     -1273.935 5        34.957
C09        47.000                                                                                                                                    38670296.931 7 201366389.93907      -218.493 7        43.338    38670295.145 7 155709268.72107      -169.026 7        47.148    38670291.866 7 163626651.98807      -177.525 7        42.112
C41        49.000                                                                                                                                    25199788.392 6 131221894.17806     -3589.507 6        36.011                                                                    25199782.053 3                     -2917.474 3        23.086
C06        50.000                                                                                                                                    38250716.747 6 199181512.41006      -724.268 6        40.262    38250707.668 6 154019892.95106      -560.189 6        39.961    38250708.054 6 161851261.80606      -588.572 6        38.565
C27        52.000                                                                                                                                    25960862.500 3                     -4379.926 3        20.119
C29        54.000                                                                                                                                    23030211.437 7 119924340.43307        43.543 7        46.471                                                                    23030206.687 7  97448369.13907        35.326 7        43.886
I09        58.000    37201750.476 6 145987650.17506      -796.255 6        41.626
I01        59.000   377396009.056 6 177842187.94406     -2921.480 6        40.246
> 2025 01 02 01 46 55.0000000  0 34
G03         1.000    19961756.938 8 104899717.34608     -1336.070 8        53.497                                    19961752.624 8  81740049.61808     -1041.093 8        50.310    19961754.331 7  81740076.62007     -1041.115 7        44.337
G19         2.000    22298407.031 6 117179042.04306      -363.255 6        41.139
G28         3.000    23434685.571 5 123150094.98405     -2321.612 5        30.725
G02         4.000    22232183.787 5 116830946.91705     -3494.784 5        33.886                                    22232174.775 2  91037033.21702     -2723.199 2        15.667
E07         5.000                                                                                                                                    27137650.037 5                     -2680.751 5        30.053    27137642.043 4                     -2750.596 4        27.006
G09         6.000    22435815.196 6 117901074.82006      2363.321 6        40.129                                    22435800.184 1  91870967.14901      1841.563 1        11.852    22435825.543 4                      1841.557 4        29.441
G21         8.000    23903983.136 3                     -3988.539 3        20.357
G31        10.000    22203576.616 6 116680587.59006      -532.488 6        37.743                                    22203566.705 4  90919991.24404      -414.928 4        25.504    22203568.633 6  90919923.22806      -415.151 6        38.321
G17        11.000    22528100.758 7 118386172.88607     -2231.957 7        44.014                                    22528093.080 4  92248864.61504     -1739.181 4        26.647    22528092.649 5  92248782.56405     -1738.962 5        30.113
G04        12.000    20690813.454 7 108730994.76207      1048.199 7        45.434                                    20690807.372 4  84725373.68004       816.764 4        25.519    20690808.726 6  84725396.67306       816.651 6        39.574
E12        13.000    24549731.410 6 129009753.35706       713.171 6        39.432                                                                    24549727.760 6  96338415.81706       532.627 6        41.437    24549729.443 6  98851665.33906       546.528 6        37.788
E29        14.000    23548033.516 6 123745752.21706     -1555.760 6        38.120                                                                    23548033.640 7  92407555.50507     -1161.835 7        44.978    23548033.743 7  94818156.74707     -1192.117 7        45.266
G06        15.000    23885977.833 6 125521679.46406      2510.560 6        38.408                                    23885976.441 5  97809120.46405      1956.285 5        33.210    23885975.956 6  97809113.48906      1956.332 6        38.156
E19        20.000    23663836.789 6 124354302.25306       907.727 6        37.365                                                                    23663835.740 7  92861989.56107       677.907 7        42.658    23663830.673 5  95284463.32305       695.606 5        35.024
R06        21.000    20154972.187 7 107550815.29107     -3175.908 7        43.213
S36        23.000    38189883.433 5 200689216.68505      -850.415 5        35.538
S23        24.000    38137721.442 6 200415047.25506      -846.630 6        39.886
E33        28.000    23675152.855 8 124413757.87508     -2235.718 8        49.223                                                                    23675150.720 8  92906424.56308     -1669.510 8        49.338    23675150.288 8  95330024.87708     -1713.065 8        48.741
E10        29.000    26034025.582 5 136809971.45905      1630.106 5        30.392                                                                    26034024.823 7 102163182.43707      1217.538 7        42.946    26034025.488 7 104828248.66207      1249.341 7        44.492
R21        30.000    21436181.369 7 114709353.39507     -4846.250 7        42.267                                                                    21436177.119 6  89218344.59006     -3769.213 6        36.783
C20        31.000                                                                                                                                    23479539.036 7 122264281.38107      1294.104 7        47.849                                                                    23479532.384 6  99349598.74006      1051.352 6        39.586
R23        33.000    21563607.413 7 115350917.75807      2589.635 7        44.376
R07        34.000    19484204.269 8 104300570.40508       105.462 8        53.048                                                                    19484202.999 7  81122598.48607        82.035 7        46.066
R22        35.000    19370697.298 7 103402094.61207      -869.999 7        46.726                                                                    19370694.103 7  80423838.88507      -676.617 7        45.944
C32        36.000                                                                                                                                    21896147.635 8 114018948.06608     -1538.850 8        52.423                                                                    21896147.217 7  92649783.39307     -1250.487 7        47.274
C30        38.000                                                                                                                                    23000263.233 6 119768418.62506     -3193.023 6        41.309                                                                    23000264.061 7  97321651.76507     -2594.742 7        44.435
C16        45.000                                                                                                                                    38710110.486 5 201573719.24105      -835.506 5        34.681    38710111.026 6 155869601.19506      -646.032 6        36.242    38710110.164 4 163795150.28804      -679.449 4        28.360
C39        46.000                                                                                                                                    38974175.704 5 202948744.87305     -1274.934 5        35.529
C09        47.000                                                                                                                                    38670507.488 7 201367485.83407      -219.548 7        43.568    38670505.952 7 155710116.14007      -169.762 7        47.194    38670502.376 7 163627542.50507      -178.401 7        42.279
C41        49.000                                                                                                                                    25203237.610 6 131239843.96106     -3590.086 6        36.314                                                                    25203227.943 3                     -2917.879 3        23.314
C06        50.000                                                                                                                                    38251413.014 6 199185137.06606      -725.246 6        40.768    38251403.913 6 154022695.76206      -560.859 6        39.832    38251404.069 6 161854207.15106      -589.490 6        38.637
C29        54.000                                                                                                                                    23030171.745 7 119924130.39207        40.664 7        47.040                                                                    23030166.512 7  97448198.49207        32.922 7        44.397
I09        58.000    37202764.674 6 145991632.55706      -796.571 6        41.535
I01        59.000   377399732.189 6 177856796.34906     -2921.791 6        40.255
> 2025 01 02 01 47  0.0000000  0 36
G03         1.000    19963028.861 8 104906402.78208     -1338.021 8        53.263                                    19963024.962 8  81745259.04708     -1042.611 8        50.610    19963026.289 7  81745286.04007     -1042.596 7        44.053
G19         2.000    22298752.746 6 117180867.79006      -366.953 6        40.324
G28         3.000    23436896.645 4                     -2323.722 4        24.887                                                                                                    23436879.443 3  95970130.20603     -1812.104 3        23.371
G02         4.000    22235508.134 5 116848427.59805     -3497.235 5        32.180                                    22235501.868 2  91050654.53202     -2725.111 2        15.286
E07         5.000                                                                                                                                    27141065.543 4                     -2680.958 4        29.934    27141057.044 4                     -2750.856 4        27.018
G09         6.000    22433565.884 6 117889263.03706      2361.710 6        39.637                                    22433552.577 1  91861763.16701      1840.279 1        11.704    22433575.092 4                      1840.198 4        29.156
G21         8.000    23907779.441 4                     -3986.425 4        25.233
G31        10.000    22204087.229 6 116683259.82706      -536.043 6        38.670                                    22204075.437 4  90922073.53804      -417.710 4        26.850    22204077.697 6  90922005.51506      -417.904 6        38.288
G17        11.000    22530225.421 7 118397339.42207     -2234.612 7        43.560                                    22530217.132 4  92257565.81004     -1741.245 4        26.240    22530219.000 4  92257483.77204     -1741.757 4        29.725
G04        12.000    20689817.372 7 108725760.30007      1045.713 7        45.389                                    20689811.908 4  84721294.88004       814.843 4        26.323    20689811.967 6  84721317.88706       814.657 6        38.970
E12        13.000    24549053.874 6 129006191.02306       711.792 6        40.291                                                                    24549049.881 6  96335755.64806       531.573 6        41.383    24549052.289 6  98848935.76806       545.490 6        38.186
E29        14.000    23549514.624 6 123753536.21406     -1557.433 6        38.348                                                                    23549514.812 7  92413368.23007     -1163.058 7        44.867    23549515.233 7  94824121.12707     -1193.613 7        45.383
G06        15.000    23883589.848 6 125509129.17106      2509.839 6        38.559                                    23883588.268 5  97799341.01805      1955.727 5        33.108    23883588.072 6  97799334.02906      1955.672 6        38.021
R08        18.000    22629370.652 4                      2513.352 4        28.351
E19        20.000    23662974.494 6 124349768.33506       906.029 6        37.724                                                                    23662973.078 7  92858603.86107       676.511 7        43.141    23662967.906 5  95280989.30305       694.342 5        34.933
R06        21.000    20157948.665 7 107566699.54007     -3177.772 7        43.960
S36        23.000    38190696.937 5 200693470.31605      -850.778 5        35.576
S23        24.000    38138528.082 6 200419280.21906      -846.616 6        39.808
E33        28.000    23677281.044 8 124424941.47108     -2237.544 8        49.268                                                                    23677278.927 8  92914775.95008     -1670.887 8        49.685    23677278.502 8  95338594.13108     -1714.546 8        49.050
E10        29.000    26032475.642 5 136801821.65505      1629.586 5        31.109                                                                    26032474.302 7 102157096.55707      1216.869 7        43.446    26032474.542 7 104822004.02607      1248.626 7        44.506
R21        30.000    21440708.948 6 114733590.91406     -4848.428 6        41.209                                                                    21440707.124 5  89237196.00105     -3771.127 5        35.843
C20        31.000                                                                                                                                    23478297.992 8 122257814.35708      1292.887 8        48.243                                                                    23478290.430 6  99344343.73906      1050.721 6        39.192
R23        33.000    21561188.609 7 115337976.46107      2587.121 7        44.603
R07        34.000    19484106.735 8 104300050.39308       102.700 8        52.857                                                                    19484106.290 7  81122194.04707        79.864 7        47.137
R22        35.000    19371514.889 8 103406456.12108      -874.502 8        48.634                                                                    19371511.018 7  80427231.16607      -680.102 7        45.895
C32        36.000                                                                                                                                    21897626.293 8 114026646.57108     -1540.420 8        52.371                                                                    21897625.691 7  92656039.02707     -1251.640 7        47.705
C30        38.000                                                                                                                                    23003330.786 7 119784389.06507     -3195.044 7        42.125                                                                    23003330.841 7  97334629.02007     -2596.170 7        44.250
C16        45.000                                                                                                                                    38710913.010 5 201577898.93505      -836.239 5        34.157    38710913.975 6 155872833.21206      -646.570 6        36.476    38710912.618 4 163798546.59504      -679.637 4        28.464
C39        46.000                                                                                                                                    38975400.951 5 202955121.88905     -1275.935 5        35.952
C09        47.000                                                                                                                                    38670718.814 7 201368585.92507      -220.299 7        43.412    38670717.395 7 155710966.80407      -170.404 7        47.198    38670713.845 7 163628436.39307      -178.891 7        42.275
C41        49.000                                                                                                                                    25206686.626 6 131257795.14406     -3590.201 6        36.405                                                                    25206674.679 3                     -2918.537 3        22.800
C06        50.000                                                                                                                                    38252110.958 6 199188766.21906      -726.252 6        40.987    38252100.644 6 154025502.04006      -561.489 6        39.661    38252100.911 6 161857156.08706      -590.139 6        38.613
C27        52.000                                                                                                                                    25969267.983 3                     -4377.823 3        19.194
C29        54.000                                                                                                                                    23030133.985 7 119923934.04507        38.035 7        46.852                                                                    23030128.698 7  97448038.91207        30.980 7        44.817
I09        58.000    37203780.122 6 145995615.61906      -796.647 6        41.454
I01        59.000   377403454.672 6 177871405.30606     -2921.771 6        40.195
> 2025 01 02 01 47  5.0000000  0 37
G03         1.000    19964302.729 8 104913097.98508     -1340.079 8        53.191                                    19964299.164 8  81750476.08608     -1044.218 8        50.902    19964300.130 7  81750503.08907     -1044.149 7        43.661
G19         2.000    22299102.136 6 117182711.03906      -370.283 6        39.670
G28         3.000    23439110.756 4                     -2327.562 4        24.496                                                                                                    23439088.374 3                     -1814.168 3        22.914
G02         4.000    22238836.054 5 116865916.81305     -3498.326 5        31.487                                    22238830.624 2  91064282.40002     -2725.984 2        14.810
E07         5.000                                                                                                                                    27144481.729 4                     -2681.244 4        29.640    27144472.697 4                     -2751.496 4        26.527
G09         6.000    22431320.171 6 117877458.22806      2360.371 6        39.027                                    22431306.338 2  91852564.56002      1839.246 2        13.758    22431324.399 4                      1839.273 4        29.308
G21         8.000    23911564.661 4                     -3987.391 4        28.806
G31        10.000    22204601.481 6 116685949.74006      -539.757 6        39.237                                    22204587.469 4  90924169.59804      -420.597 4        28.133    22204590.242 6  90924101.56006      -420.590 6        39.090
G17        11.000    22532352.589 7 118408518.86107     -2237.185 7        43.464                                    22532344.122 4  92266277.06204     -1743.260 4        26.144    22532348.123 5  92266195.07105     -1743.852 5        30.475
G04        12.000    20688823.341 7 108720538.04707      1043.245 7        45.290                                    20688818.453 4  84717225.59904       812.923 4        26.778    20688818.344 6  84717248.58806       813.003 6        38.952
E12        13.000    24548377.167 6 129002636.01106       710.147 6        40.534                                                                    24548373.376 6  96333100.93906       530.376 6        41.516    24548376.063 6  98846211.81606       544.226 6        38.619
E29        14.000    23550998.421 6 123761329.32006     -1559.543 6        38.276                                                                    23550997.566 7  92419187.75107     -1164.653 7        44.596    23550998.340 7  94830092.44907     -1195.094 7        45.482
G06        15.000    23881203.446 6 125496582.91006      2508.767 6        39.237                                    23881200.583 5  97789564.69705      1954.891 5        33.060    23881200.579 6  97789557.72306      1954.810 6        37.304
R08        18.000    22627025.241 4                      2511.810 4        28.730
E19        20.000    23662113.422 6 124345242.60806       904.426 6        37.388                                                                    23662111.818 7  92855224.26307       675.223 7        43.443    23662106.366 5  95277521.56305       692.730 5        35.490
R06        21.000    20160928.077 7 107582592.90207     -3179.534 7        44.260
R15        22.000                                                                                                                                    23180181.027 3                      -679.017 3        22.686
S36        23.000    38191506.493 6 200697722.70706      -850.242 6        36.030
S23        24.000    38139333.547 6 200423512.90706      -846.492 6        39.814
E33        28.000    23679410.802 8 124436134.03908     -2239.402 8        48.987                                                                    23679408.832 8  92923134.03408     -1672.283 8        49.959    23679408.351 8  95347170.25708     -1715.948 8        49.250
E10        29.000    26030925.948 5 136793675.75205      1628.734 5        32.497                                                                    26030924.454 7 102151013.55207      1216.214 7        43.812    26030924.542 7 104815762.33607      1247.940 7        44.391
R21        30.000    21445238.694 6 114757839.10206     -4850.797 6        40.429                                                                    21445239.675 5  89256055.67305     -3772.732 5        35.095
C20        31.000                                                                                                                                    23477058.419 7 122251353.28407      1291.647 7        47.916                                                                    23477049.723 6  99339093.63206      1049.692 6        39.237
R23        33.000    21558771.276 7 115325047.23707      2584.554 7        44.450
R07        34.000    19484012.461 8 104299544.09608        99.835 8        52.763                                                                    19484011.242 7  81121800.25807        77.664 7        47.402
R22        35.000    19372335.920 8 103410839.45608      -878.907 8        48.691                                                                    19372331.814 7  80430640.44607      -683.618 7        44.941
C32        36.000                                                                                                                                    21899106.244 8 114034352.81508     -1542.061 8        52.087                                                                    21899105.601 7  92662300.99907     -1252.933 7        47.907
C30        38.000                                                                                                                                    23006399.532 7 119800369.36607     -3197.150 7        43.170                                                                    23006399.753 7  97347614.34807     -2597.833 7        43.943
C16        45.000                                                                                                                                    38711717.340 5 201582082.70405      -837.203 5        33.299    38711717.219 6 155876068.35406      -647.324 6        36.677    38711715.872 4 163801946.21204      -680.006 4        27.988
C39        46.000                                                                                                                                    38976626.462 6 202961502.60006     -1276.378 6        36.352
C09        47.000                                                                                                                                    38670930.961 7 201369690.00807      -221.237 7        43.257    38670929.493 7 155711820.54407      -171.048 7        47.167    38670925.733 7 163629333.56807      -179.623 7        42.309
C41        49.000                                                                                                                                    25210133.640 5 131275747.54505     -3590.653 5        35.690                                                                    25210120.967 3                     -2918.616 3        22.724
C06        50.000                                                                                                                                    38252809.211 6 199192399.56906      -727.151 6        40.970    38252798.522 6 154028311.58106      -562.222 6        39.595    38252798.845 6 161860108.51706      -590.810 6        38.363
C27        52.000                                                                                                                                    25973482.778 3                     -4383.550 3        20.690
C29        54.000                                                                                                                                    23030098.164 7 119923751.11607        35.277 7        46.048                                                                    23030093.409 7  97447890.31407        28.680 7        44.798
I09        58.000    37204794.960 6 145999599.24706      -796.863 6        41.220
I01        59.000   377407177.765 6 177886014.68806     -2922.026 6        40.172
> 2025 01 02 01 47 10.0000000  0 35
G03         1.000    19965578.855 8 104919803.67708     -1342.199 8        53.491                                    19965575.298 8  81755701.30308     -1045.869 8        50.836    19965576.268 7  81755728.30507     -1045.965 7        43.361
G19         2.000    22299455.889 6 117184572.62406      -374.258 6        38.970
G02         4.000    22242171.348 5 116883415.43505     -3500.901 5        33.617                                    22242160.896 2  91077917.66502     -2727.957 2        14.857
E07         5.000                                                                                                                                    27147898.312 5                     -2681.563 5        30.189    27147888.717 4                     -2751.649 4        27.078
G09         6.000    22429075.526 6 117865661.22206      2358.446 6        37.686                                    22429061.771 2  91843372.09102      1837.741 2        15.000    22429075.432 5                      1837.942 5        30.491
G21         8.000    23915352.943 5                     -3988.434 5        31.321
G31        10.000    22205117.521 6 116688658.08806      -543.560 6        38.489                                    22205103.266 4  90926280.00804      -423.542 4        28.256    22205106.203 6  90926211.94106      -423.563 6        39.357
G17        11.000    22534482.934 7 118419711.93407     -2240.022 7        43.278                                    22534474.054 4  92274998.94404     -1745.476 4        26.587    22534477.413 5  92274916.91805     -1745.428 5        31.479
G04        12.000    20687832.102 7 108715328.75307      1040.517 7        45.583                                    20687827.295 4  84713166.42004       810.791 4        26.958    20687827.285 6  84713189.41206       810.922 6        38.769
E12        13.000    24547702.246 6 128999089.06606       708.662 6        40.503                                                                    24547698.408 6  96330452.26406       529.076 6        41.738    24547700.900 6  98843494.04506       543.017 6        38.805
E29        14.000    23552483.661 6 123769132.21606     -1561.606 6        38.847                                                                    23552482.288 7  92425014.59107     -1166.036 7        44.242    23552483.321 7  94836071.28907     -1196.601 7        45.171
G06        15.000    23878817.634 6 125484041.38706      2507.750 6        40.296                                    23878813.559 5  97779792.09005      1954.090 5        32.695    23878813.547 6  97779785.09806      1954.178 6        36.786
R08        18.000    22624679.772 3                      2509.347 3        23.714                                                                    22624751.364 4                      1952.209 4        25.143
E19        20.000    23661254.087 6 124340725.91006       902.321 6        37.104                                                                    23661252.420 7  92851851.41707       673.898 7        43.600    23661247.229 6  95274060.73606       691.311 6        36.076
R06        21.000    20163908.363 7 107598496.09707     -3181.689 7        44.140
S36        23.000    38192316.188 5 200701975.74005      -850.841 5        35.657
S23        24.000    38140138.810 6 200427746.16206      -846.747 6        39.985
E33        28.000    23681542.675 8 124447336.35008     -2241.529 8        49.157                                                                    23681540.659 8  92931499.38608     -1673.818 8        50.180    23681539.971 8  95355753.83208     -1717.452 8        49.361
E10        29.000    26029376.611 5 136785534.40705      1627.814 5        34.129                                                                    26029375.576 7 102144933.97507      1215.588 7        44.202    26029375.221 7 104809524.15707      1247.280 7        44.144
R21        30.000    21449773.301 6 114782098.77906     -4853.044 6        40.205                                                                    21449773.647 5  89274924.33105     -3774.630 5        35.786
C20        31.000                                                                                                                                    23475819.871 7 122244898.91907      1290.178 7        47.223                                                                    23475810.634 6  99333848.93606      1048.495 6        39.520
R23        33.000    21556355.825 7 115312131.10207      2581.846 7        44.367
R07        34.000    19483920.539 8 104299052.39708        96.914 8        52.304                                                                    19483919.221 7  81121417.82507        75.351 7        47.714
R22        35.000    19373160.271 8 103415245.36808      -883.502 8        48.687                                                                    19373156.305 7  80434067.26807      -687.082 7        44.012
C32        36.000                                                                                                                                    21900587.521 8 114042067.51308     -1543.811 8        51.956                                                                    21900587.218 8  92668569.82408     -1254.525 8        48.085
C30        38.000                                                                                                                                    23009470.469 7 119816360.24507     -3199.310 7        44.507                                                                    23009470.675 7  97360608.24707     -2599.789 7        43.727
C16        45.000                                                                                                                                    38712521.127 5 201586271.26005      -838.411 5        32.485    38712521.445 6 155879307.17606      -648.203 6        36.817    38712520.047 4 163805349.74204      -680.770 4        28.114
C39        46.000                                                                                                                                    38977851.482 6 202967887.80006     -1277.662 6        36.703
C09        47.000                                                                                                                                    38671143.548 7 201370798.77707      -222.234 7        43.401    38671142.595 7 155712677.91907      -171.874 7        47.201    38671138.846 7 163630234.53007      -180.561 7        42.171
C41        49.000                                                                                                                                    25213579.877 5 131293701.82505     -3590.997 5        35.576                                                                    25213566.424 3                     -2916.513 3        22.571
C06        50.000                                                                                                                                    38253507.650 6 199196037.86006      -728.144 6        41.044    38253497.293 6 154031124.92706      -562.935 6        39.517    38253497.393 6 161863064.93006      -591.786 6        38.414
C27        52.000                                                                                                                                    25977687.078 3                     -4386.287 3        18.716
C29        54.000                                                                                                                                    23030064.860 7 119923582.39507        32.281 7        44.662                                                                    23030060.787 7  97447753.20307        26.252 7        45.010
I09        58.000    37205810.813 6 146003583.90306      -796.992 6        41.275
I01        59.000   377410901.066 6 177900624.93306     -2922.087 6        40.369
> 2025 01 02 01 47 15.0000000  0 35
G03         1.000    19966856.918 8 104926519.35408     -1344.199 8        53.453                                    19966853.243 8  81760934.30008     -1047.428 8        50.748    19966854.401 7  81760961.31407     -1047.614 7        43.274
G19         2.000    22299814.739 6 117186451.98306      -377.798 6        39.348
G28         3.000    23443543.753 4                     -2341.303 4        25.534                                                                                                    23443546.058 3                     -1818.638 3        20.143
G02         4.000    22245507.800 5 116900922.79405     -3502.590 5        35.681                                    22245492.828 2  91091559.75402     -2729.284 2        15.952
E07         5.000                                                                                                                                    27151315.455 4                     -2681.798 4        29.384    27151305.511 4                     -2751.659 4        26.455
G09         6.000    22426829.344 5 117853871.36305      2357.191 5        34.881                                    22426818.783 2  91834185.16902      1836.776 2        13.515    22426830.753 5                      1836.826 5        32.120
G21         8.000    23919147.750 5                     -3989.049 5        32.036
G31        10.000    22205634.282 6 116691384.33906      -547.194 6        38.219                                    22205622.690 4  90928404.34704      -426.376 4        27.018    22205623.925 6  90928336.29206      -426.416 6        39.811
G17        11.000    22536615.841 7 118430918.14107     -2242.639 7        42.984                                    22536606.978 4  92283731.04704     -1747.514 4        27.593    22536611.518 5  92283649.01405     -1747.693 5        33.096
G04        12.000    20686843.242 7 108710131.90507      1037.989 7        45.123                                    20686838.226 4  84709116.93104       808.819 4        27.054    20686838.808 6  84709139.93906       808.815 6        38.685
E12        13.000    24547028.662 6 128995549.67206       706.997 6        40.417                                                                    24547024.930 6  96327809.20406       527.998 6        41.702    24547026.892 6  98840782.04806       541.840 6        39.159
E29        14.000    23553969.824 6 123776944.41006     -1563.488 6        38.066                                                                    23553968.860 7  92430848.38307     -1167.541 7        43.833    23553969.982 7  94842057.26007     -1198.018 7        44.900
G06        15.000    23876431.884 6 125471504.10606      2506.902 6        40.987                                    23876427.108 5  97770022.78705      1953.432 5        32.437    23876428.316 6  97770015.80406      1953.311 6        36.370
E19        20.000    23660396.307 6 124336217.66306       900.727 6        36.756                                                                    23660394.682 7  92848484.87107       672.619 7        43.568    23660390.030 6  95270606.37506       690.124 6        37.119
R06        21.000    20166889.701 7 107614408.57907     -3183.537 7        43.160
R15        22.000    23181783.914 5                      -880.593 5        33.677                                                                    23181787.722 5                      -684.667 5        30.060
S36        23.000    38193124.845 6 200706228.48006      -850.407 6        36.049
S23        24.000    38140941.207 6 200431979.21606      -846.711 6        40.079
E33        28.000    23683676.246 8 124458547.84808     -2243.354 8        49.195                                                                    23683674.101 8  92939871.61008     -1675.233 8        50.241    23683673.289 8  95364344.46608     -1718.880 8        49.472
E10        29.000    26027829.067 5 136777397.15405      1626.938 5        35.405                                                                    26027827.425 7 102138857.45607      1214.911 7        44.447    26027826.750 7 104803289.11807      1246.617 7        43.907
R21        30.000    21454308.830 6 114806369.37006     -4855.411 6        38.547                                                                    21454308.495 6  89293801.43706     -3776.471 6        36.374
C20        31.000                                                                                                                                    23474581.259 7 122238450.72407      1288.942 7        46.124                                                                    23474572.676 6  99328609.26406      1047.363 6        40.074
R23        33.000    21553944.331 7 115299227.34907      2579.355 7        44.549
R07        34.000    19483831.116 8 104298574.74608        94.004 8        52.302                                                                    19483829.801 7  81121046.32407        73.127 7        47.494
R22        35.000    19373989.764 8 103419673.35808      -887.921 8        49.421                                                                    19373986.259 7  80437511.27107      -690.631 7        44.014
C32        36.000                                                                                                                                    21902070.328 8 114049790.14408     -1545.408 8        51.993                                                                    21902070.341 8  92674845.09008     -1255.731 8        48.313
C30        38.000                                                                                                                                    23012543.979 7 119832361.17307     -3201.301 7        45.785                                                                    23012543.266 7  97373610.31607     -2601.308 7        43.304
C16        45.000                                                                                                                                    38713325.579 5 201590464.01405      -839.013 5        30.936    38713326.575 6 155882549.31806      -648.896 6        36.854    38713324.935 4 163808756.73104      -681.760 4        27.737
C39        46.000                                                                                                                                    38979077.779 6 202974276.91706     -1278.421 6        37.047
C09        47.000                                                                                                                                    38671357.445 7 201371911.73207      -223.183 7        43.604    38671356.319 7 155713538.51907      -172.519 7        47.203    38671352.551 7 163631138.89207      -181.274 7        42.379
C41        49.000                                                                                                                                    25217028.276 5 131311657.51305     -3591.286 5        34.890                                                                    25217016.379 3                     -2917.692 3        22.667
C06        50.000                                                                                                                                    38254206.702 6 199199680.58206      -729.085 6        40.908    38254196.803 6 154033941.73106      -563.872 6        39.571    38254196.842 6 161866024.94206      -592.462 6        38.363
C29        54.000                                                                                                                                    23030034.805 7 119923427.31907        29.486 7        43.348                                                                    23030030.766 7  97447627.19807        23.977 7        44.846
I09        58.000    37206825.935 6 146007569.30706      -797.284 6        41.073
I01        59.000   377414624.175 6 177915235.77806     -2922.408 6        40.164
> 2025 01 02 01 47 20.0000000  0 36
G03         1.000    19968136.752 8 104933245.38608     -1346.049 8        53.280                                    19968133.071 8  81766175.36608     -1048.871 8        50.669    19968134.357 7  81766202.37207     -1048.824 7        43.498
G19         2.000    22300177.920 6 117188349.54106      -381.126 6        40.243
G28         3.000    23445768.707 4                     -2336.682 4        29.147                                                                                                    23445759.829 3                     -1820.783 3        23.181
G02         4.000    22248840.174 6 116918439.31406     -3504.050 6        36.801                                    22248826.494 2  91105209.00102     -2730.440 2        16.943
E07         5.000                                                                                                                                    27154732.879 4                     -2682.349 4        28.417    27154721.983 4                     -2752.255 4        26.982
G09         6.000    22424585.839 5 117842089.16205      2356.032 5        31.434                                    22424576.993 2  91825004.22402      1835.849 2        13.455    22424588.999 5                      1835.469 5        33.707
G21         8.000    23922942.221 5                     -3990.087 5        31.985
G31        10.000    22206158.808 5 116694128.85405      -550.372 5        33.928                                    22206145.633 3  90930542.92103      -428.807 3        22.419    22206146.322 6  90930474.84006      -429.055 6        39.270
G17        11.000    22538751.075 7 118442137.84307     -2245.145 7        43.223                                    22538742.728 4  92292473.66404     -1749.466 4        28.616    22538748.774 5  92292391.62705     -1749.257 5        34.667
G04        12.000    20685856.481 7 108704947.87707      1035.704 7        44.579                                    20685851.598 4  84705077.43204       807.038 4        26.970    20685852.482 6  84705100.42406       807.002 6        38.081
E12        13.000    24546356.598 6 128992018.25406       705.720 6        40.164                                                                    24546352.789 6  96325172.10806       526.817 6        41.759    24546354.399 6  98838076.14806       540.564 6        39.252
E29        14.000    23555458.332 6 123784766.28006     -1565.071 6        37.849                                                                    23555457.178 7  92436689.39007     -1168.801 7        43.517    23555458.383 7  94848050.62507     -1199.240 7        44.585
G06        15.000    23874045.935 6 125458971.49206      2506.184 6        41.726                                    23874041.443 5  97760257.12305      1952.866 5        32.431    23874042.905 5  97760250.14805      1952.834 5        35.738
E26        19.000    27266245.432 3                     -3781.344 3        22.743
E19        20.000    23659539.829 6 124331718.30506       899.115 6        36.480                                                                    23659538.392 7  92845124.97107       671.431 7        43.469    23659534.316 6  95267158.82106       688.971 6        37.898
R06        21.000    20169873.368 7 107630330.67307     -3185.098 7        42.337
R15        22.000    23182610.910 5                      -884.711 5        35.638                                                                    23182611.269 4                      -688.198 4        29.128
S36        23.000    38193935.425 6 200710481.00606      -850.155 6        36.401
S23        24.000    38141749.721 6 200436212.59406      -846.554 6        40.119
E33        28.000    23685811.744 8 124469768.92708     -2244.963 8        49.193                                                                    23685809.432 8  92948250.98708     -1676.409 8        50.315    23685808.516 8  95372942.43508     -1720.179 8        49.763
E10        29.000    26026280.940 6 136769264.35406      1626.232 6        37.289                                                                    26026279.961 7 102132784.27907      1214.520 7        44.736    26026278.994 7 104797057.50007      1246.158 7        43.892
R21        30.000    21458848.221 5 114830651.41105     -4857.573 5        34.895                                                                    21458846.610 6  89312687.44306     -3778.022 6        36.265
C20        31.000                                                                                                                                    23473342.274 7 122232009.10807      1287.880 7        44.999                                                                    23473335.984 6  99323374.89606      1046.561 6        40.753
R23        33.000    21551535.109 7 115286336.56307      2577.090 7        43.858
R07        34.000    19483744.651 8 104298111.40808        91.435 8        52.218                                                                    19483743.186 7  81120685.94707        71.129 7        46.850
R22        35.000    19374824.424 8 103424123.80608      -892.098 8        49.476                                                                    19374819.725 7  80440972.74107      -693.939 7        44.494
C32        36.000                                                                                                                                    21903555.103 8 114057521.08608     -1546.832 8        52.134                                                                    21903554.815 8  92681127.11808     -1256.831 8        48.370
C30        38.000                                                                                                                                    23015619.352 7 119848372.52607     -3203.083 7        46.338                                                                    23015617.699 7  97386620.84207     -2602.738 7        42.739
C16        45.000                                                                                                                                    38714131.177 4 201594661.44704      -839.780 4        28.607    38714133.292 6 155885795.03006      -649.233 6        36.873    38714130.689 4 163812167.53604      -682.324 4        27.808
C39        46.000                                                                                                                                    38980305.219 6 202980670.38306     -1279.031 6        37.255
C09        47.000                                                                                                                                    38671572.696 7 201373029.26807      -223.790 7        43.930    38671570.853 7 155714402.66607      -173.047 7        46.950    38671567.112 7 163632046.97707      -181.702 7        42.224
C41        49.000                                                                                                                                    25220477.227 5 131329615.00305     -3591.420 5        34.910                                                                    25220462.941 3                     -2918.386 3        21.905
C06        50.000                                                                                                                                    38254906.909 6 199203328.11506      -729.861 6        41.282    38254897.421 6 154036762.23106      -564.397 6        39.162    38254897.436 6 161868988.85306      -593.069 6        38.297
C29        54.000                                                                                                                                    23030007.860 7 119923286.29807        27.016 7        42.519                                                                    23030003.511 7  97447512.60307        21.979 7        44.606
I09        58.000    37207842.084 6 146011555.65506      -797.254 6        41.018
I01        59.000   377418347.799 6 177929847.41206     -2922.302 6        40.167
> 2025 01 02 01 47 25.0000000  0 37
G03         1.000    19969418.351 8 104939981.18408     -1347.995 8        53.104                                    19969414.719 8  81771424.04508     -1050.386 8        50.548    19969416.035 7  81771451.05107     -1050.341 7        43.276
G19         2.000    22300541.872 6 117190264.62406      -384.642 6        40.334
G28         3.000    23447997.524 4                     -2341.720 4        28.171                                                                                                    23447983.683 4                     -1823.341 4        29.782
G02         4.000    22252171.846 6 116935964.40006     -3505.655 6        37.028                                    22252161.515 2  91118864.91002     -2731.698 2        17.660
E07         5.000                                                                                                                                    27158150.661 4                     -2682.642 4        27.904    27158140.632 4                     -2752.683 4        27.880
G09         6.000    22422346.335 4 117830314.01504      2354.471 4        26.048                                    22422336.505 2  91815828.77202      1834.722 2        12.970    22422348.770 5  91815769.70715      1834.610 5        34.800
G21         8.000    23926738.423 5                     -3990.654 5        30.928
G31        10.000                                                                                                                                                                    22206670.675 6  90932627.18406      -431.695 6        38.285
G17        11.000    22540888.797 7 118453370.44707     -2247.687 7        43.492                                    22540881.102 4  92301226.33904     -1751.434 4        29.403    22540888.130 5  92301144.29305     -1751.458 5        35.576
G04        12.000    20684872.878 7 108699776.08607      1033.265 7        43.105                                    20684867.103 4  84701047.46704       805.135 4        26.611    20684868.595 6  84701070.49306       805.132 6        38.141
E12        13.000    24545685.641 6 128988494.17806       704.262 6        39.321                                                                    24545682.164 6  96322540.49006       525.908 6        41.747    24545683.413 6  98835375.88506       539.612 6        39.498
E29        14.000    23556948.905 6 123792597.23406     -1567.154 6        38.114                                                                    23556947.436 7  92442537.18107     -1170.266 7        43.230    23556948.618 7  94854050.96607     -1200.727 7        43.981
G06        15.000    23871661.516 7 125446442.92007      2505.439 7        42.040                                    23871656.445 5  97750494.62305      1952.288 5        32.407    23871658.086 5  97750487.63105      1952.449 5        34.714
E26        19.000    27269846.912 3                     -3781.980 3        23.086
E19        20.000    23658684.526 5 124327227.22205       897.604 5        35.976                                                                    23658683.408 7  92841771.24807       670.280 7        43.046    23658680.352 6  95263717.61706       687.733 6        38.673
R06        21.000    20172858.560 6 107646261.93406     -3186.857 6        41.661
R15        22.000    23183441.654 6 123885270.98816      -888.777 6        36.370                                                                    23183441.694 4                      -690.759 4        26.371
S36        23.000    38194743.130 6 200714732.91206      -850.594 6        36.045
S23        24.000    38142553.298 6 200440445.76006      -846.432 6        39.991
E33        28.000    23687948.901 8 124480999.01608     -2246.796 8        48.905                                                                    23687946.391 8  92956637.09408     -1677.802 8        50.287    23687945.545 8  95381547.31108     -1721.591 8        49.818
E10        29.000    26024733.797 6 136761135.46106      1625.541 6        38.682                                                                    26024733.375 7 102126714.01107      1213.823 7        44.941    26024732.020 7 104790828.87807      1245.480 7        43.769
R21        30.000    21463391.463 4 114854944.09804     -4859.440 4        28.161                                                                    21463385.323 6  89331581.82106     -3779.610 6        36.892
C20        31.000                                                                                                                                    23472105.350 7 122225573.45807      1286.649 7        43.736                                                                    23472100.176 6  99318145.38906      1045.639 6        41.273
R23        33.000    21549126.547 7 115273458.06207      2574.635 7        43.585
R07        34.000    19483661.068 8 104297661.98508        88.674 8        52.322                                                                    19483658.869 7  81120336.39207        68.960 7        46.077
R22        35.000    19375661.942 8 103428596.14308      -896.515 8        48.691                                                                    19375658.210 7  80444451.23607      -697.344 7        44.223
C32        36.000                                                                                                                                    21905041.336 8 114065259.75808     -1548.378 8        52.073                                                                    21905040.874 8  92687415.42608     -1258.148 8        48.200
C30        38.000                                                                                                                                    23018695.993 7 119864393.73307     -3205.127 7        46.090                                                                    23018694.160 7  97399639.37307     -2604.333 7        42.099
C16        45.000                                                                                                                                    38714937.628 4 201598862.97604      -840.454 4        27.713    38714940.246 6 155889043.89306      -649.975 6        36.964    38714936.697 4 163815581.54904      -682.664 4        26.731
C39        46.000                                                                                                                                    38981534.085 6 202987067.56406     -1279.692 6        37.675
C09        47.000                                                                                                                                    38671788.135 7 201374150.77007      -224.576 7        44.123    38671786.311 7 155715269.89607      -173.670 7        47.016    38671782.439 7 163632958.29607      -182.444 7        42.047
C41        49.000                                                                                                                                    25223927.199 5 131347573.64305     -3591.771 5        34.400                                                                    25223909.985 3                     -2919.102 3        20.333
C06        50.000                                                                                                                                    38255608.006 6 199206979.87806      -730.651 6        40.868    38255598.528 6 154039586.01706      -564.972 6        39.456    38255598.852 6 161871956.21106      -593.678 6        37.830
C27        52.000                                                                                                                                    25990304.418 3                     -4378.732 3        19.731
C29        54.000                                                                                                                                    23029983.218 7 119923158.76507        24.344 7        42.082                                                                    23029978.954 7  97447408.95607        19.802 7        44.102
I09        58.000    37208858.110 6 146015542.53306      -797.294 6        40.965
I01        59.000   377422071.513 6 177944459.41306     -2922.363 6        40.150
> 2025 01 02 01 47 30.0000000  0 38
G03         1.000    19970701.982 8 104946727.02908     -1350.114 8        52.676                                    19970698.307 8  81776680.55508     -1052.040 8        50.398    19970699.691 7  81776707.55507     -1052.053 7        43.164
G19         2.000    22300909.524 6 117192197.56106      -388.313 6        40.253
G28         3.000    23450221.405 4                     -2342.925 4        28.085                                                                                                    23450214.209 5                     -1825.757 5        32.928
G02         4.000    22255509.134 5 116953498.31005     -3507.284 5        35.648                                    22255498.186 2  91132527.71902     -2732.951 2        17.623
E07         5.000                                                                                                                                    27161569.529 4                     -2682.723 4        28.815    27161558.579 4                     -2752.949 4        26.539
G09         6.000    22420101.473 3                      2351.965 3        20.452                                                                                                    22420107.564 5  91806599.95505      1833.301 5        35.462
G21         8.000    23930534.983 5                     -3991.711 5        30.370
G31        10.000    22207219.177 4                      -557.852 4        28.626                                                                                                    22207198.934 6  90934793.48606      -434.593 6        38.237
G17        11.000    22543028.570 7 118464616.18107     -2250.361 7        44.035                                    22543022.151 5  92309989.23505     -1753.520 5        30.121    22543027.770 5  92309907.19005     -1753.481 5        34.986
G04        12.000    20683890.925 6 108694616.81706      1030.648 6        41.957                                    20683885.104 4  84697027.25504       803.091 4        26.000    20683886.225 6  84697050.24906       803.203 6        38.988
E12        13.000    24545016.354 6 128984977.74606       702.575 6        38.685                                                                    24545013.178 7  96319914.58407       524.622 7        42.279    24545013.723 6  98832681.47406       538.289 6        39.375
E29        14.000    23558441.680 6 123800437.50006     -1568.788 6        38.336                                                                    23558439.493 7  92448391.93307     -1171.616 7        43.409    23558440.482 7  94860058.43307     -1202.089 7        42.948
G06        15.000    23869278.096 7 125433918.68807      2504.424 7        42.599                                    23869272.293 5  97740735.50305      1951.492 5        32.419    23869275.885 5  97740728.51005      1951.631 5        34.419
R08        18.000    22615348.060 5                      2504.917 5        34.319
E26        19.000    27273448.661 4                     -3781.111 4        24.241
E19        20.000    23657832.000 6 124322744.70306       895.769 6        36.102                                                                    23657830.182 7  92838423.91707       668.796 7        42.912    23657828.055 6  95260282.97106       686.381 6        38.895
R06        21.000    20175844.856 6 107662202.37606     -3188.833 6        41.063
R15        22.000    23184276.744 6 123889726.63416      -893.324 6        36.885
S36        23.000    38195551.675 6 200718984.96506      -850.458 6        36.087
S23        24.000    38143359.326 6 200444678.96206      -846.543 6        40.033
E33        28.000    23690087.843 8 124492238.34308     -2248.745 8        48.796                                                                    23690085.131 8  92965030.09508     -1679.228 8        50.675    23690084.172 8  95390159.25808     -1723.045 8        49.693
E10        29.000    26023187.607 6 136753010.71906      1624.538 6        39.562                                                                    26023187.541 7 102120646.84507      1213.123 7        45.655    26023185.719 7 104784603.43407      1244.758 7        43.568
R21        30.000                                                                                                                                    21467927.092 6  89350484.67116     -3781.358 6        37.195
C20        31.000                                                                                                                                    23470870.164 7 122219144.03507      1285.237 7        42.227                                                                    23470865.787 7  99312920.97007      1044.149 7        42.140
R23        33.000    21546721.750 7 115260592.11407      2572.006 7        44.330
R07        34.000    19483579.781 8 104297226.49108        85.698 8        52.828                                                                    19483577.226 7  81119997.67107        66.735 7        45.562
R22        35.000    19376502.544 7 103433090.61007      -901.053 7        47.884                                                                    19376499.931 7  80447946.95207      -700.837 7        44.250
C32        36.000                                                                                                                                    21906529.231 8 114073006.41608     -1550.058 8        52.100                                                                    21906528.375 8  92693710.23808     -1259.748 8        48.182
C30        38.000                                                                                                                                    23021773.683 7 119880425.03007     -3207.200 7        45.201                                                                    23021772.330 6  97412666.11806     -2606.208 6        41.182
C16        45.000                                                                                                                                    38715743.508 4 201603068.75804      -840.627 4        25.383    38715747.430 6 155892296.08306      -650.656 6        37.331    38715745.121 4 163818999.17704      -684.226 4        26.503
C39        46.000                                                                                                                                    38982762.830 6 202993468.74206     -1280.579 6        37.974
C09        47.000                                                                                                                                    38672004.224 7 201375276.51507      -225.477 7        44.442    38672002.712 7 155716140.39307      -174.423 7        46.874    38671998.626 7 163633873.07507      -183.434 7        42.171
C41        49.000                                                                                                                                    25227376.500 5 131365533.74905     -3591.888 5        34.129                                                                    25227359.506 3                     -2920.117 3        22.609
C06        50.000                                                                                                                                    38256309.357 6 199210636.13206      -731.536 6        40.770    38256300.574 6 154042413.25406      -565.718 6        39.351    38256300.941 6 161874927.22006      -594.602 6        37.913
C27        52.000                                                                                                                                    25994511.491 3                     -4383.445 3        21.071
C29        54.000                                                                                                                                    23029960.631 6 119923044.95106        21.432 6        41.692                                                                    23029956.481 7  97447316.49507        17.273 7        43.636
I09        58.000    37209874.153 6 146019530.15606      -797.494 6        40.763
I01        59.000   377425794.789 6 177959071.99606     -2922.587 6        40.167
> 2025 01 02 01 47 35.0000000  0 37
G03         1.000    19971987.317 8 104953482.44708     -1352.092 8        52.098                                    19971983.791 8  81781944.52008     -1053.578 8        50.035    19971985.179 7  81781971.51807     -1053.607 7        43.075
G19         2.000    22301280.202 6 117194147.88706      -391.747 6        40.138
G28         3.000                                                                                                                                                                    23452446.036 5  96033844.18215     -1828.080 5        34.805
G02         4.000    22258845.298 5 116971040.62205     -3509.338 5        31.140                                    22258836.731 2  91146197.11002     -2734.546 2        15.333
E07         5.000                                                                                                                                    27164988.858 4                     -2683.408 4        27.677    27164976.696 4                     -2753.468 4        27.485
G09         6.000    22417860.653 4                      2351.517 4        24.767                                                                                                    22417867.728 5  91797435.50305      1832.120 5        35.557
G21         8.000    23934332.566 4                     -3991.997 4        28.882
G31        10.000    22207749.521 5                      -561.504 5        30.596                                                                                                    22207731.683 6  90936973.43106      -437.247 6        37.788
G17        11.000    22545171.354 7 118475874.61307     -2253.037 7        44.141                                    22545165.395 5  92318762.03205     -1755.605 5        30.234    22545166.959 5  92318680.00205     -1755.457 5        33.467
G04        12.000    20682911.919 6 108689469.61406      1028.163 6        40.215                                    20682905.465 4  84693016.44204       801.177 4        25.158    20682907.533 6  84693039.43006       801.271 6        39.246
E12        13.000    24544348.775 6 128981468.50206       701.145 6        38.778                                                                    24544345.365 7  96317294.04207       523.571 7        42.351    24544345.220 6  98829992.57006       537.174 6        39.285
E29        14.000    23559935.599 6 123808286.66106     -1570.693 6        39.069                                                                    23559933.396 7  92454253.31507     -1172.948 7        43.501    23559934.130 6  94866072.72406     -1203.485 6        41.793
G06        15.000    23866895.626 7 125421398.35507      2503.638 7        43.179                                    23866889.159 5  97730979.41605      1950.884 5        32.240    23866893.864 5  97730972.40305      1951.031 5        34.938
R08        18.000    22613008.396 5 121091646.99215      2503.799 5        34.924                                                                    22612983.659 5                      1947.342 5        33.419
E19        20.000    23656980.947 6 124318270.22606       893.778 6        36.465                                                                    23656978.274 7  92835082.56307       667.687 7        42.476    23656976.932 6  95256854.46306       685.102 6        39.495
R06        21.000    20178834.174 6 107678151.72506     -3190.761 6        40.553
R15        22.000    23185114.762 6 123894202.97206      -897.518 6        36.042
S36        23.000    38196360.820 6 200723235.97706      -850.089 6        36.147
S23        24.000    38144163.883 6 200448911.84406      -846.612 6        39.823
E33        28.000    23692228.419 8 124503486.48108     -2250.555 8        48.923                                                                    23692225.537 8  92973429.68308     -1680.645 8        50.713    23692224.598 8  95398777.96408     -1724.474 8        49.604
E10        29.000    26021642.266 6 136744889.70206      1623.737 6        40.520                                                                    26021642.283 7 102114582.45607      1212.564 7        45.908    26021640.212 7 104778380.84907      1244.122 7        43.086
R21        30.000    21472520.987 5                     -4863.716 5        34.324                                                                    21472470.350 5  89369395.64005     -3782.841 5        35.705
C20        31.000                                                                                                                                    23469636.387 6 122212720.39106      1284.089 6        41.211                                                                    23469632.426 7  99307701.21107      1043.453 7        42.971
R23        33.000    21544320.069 7 115247738.35207      2569.468 7        44.454
R07        34.000    19483501.114 8 104296804.63108        82.938 8        53.088                                                                    19483498.444 7  81119669.54607        64.514 7        45.336
R22        35.000    19377347.989 7 103437606.78607      -905.493 7        46.286                                                                    19377345.992 7  80451459.52807      -704.215 7        44.101
C32        36.000                                                                                                                                    21908018.254 8 114080760.60308     -1551.636 8        52.378                                                                    21908017.414 7  92700011.14407     -1260.889 7        47.999
C30        38.000                                                                                                                                    23024852.986 7 119896465.95107     -3209.126 7        44.334                                                                    23024852.521 6  97425700.65906     -2607.782 6        40.231
C16        45.000                                                                                                                                    38716551.794 4 201607278.51504      -842.233 4        24.436    38716556.396 6 155895551.29106      -651.444 6        37.108    38716552.958 4 163822419.78704      -683.867 4        25.429
C39        46.000                                                                                                                                    38983993.227 6 202999873.49006     -1281.314 6        38.348
C09        47.000                                                                                                                                    38672221.352 7 201376406.02707      -226.418 7        44.868    38672219.400 7 155717013.81507      -175.004 7        46.668    38672215.529 7 163634790.89307      -184.041 7        42.061
C41        49.000                                                                                                                                    25230828.030 5 131383494.87605     -3592.375 5        33.210                                                                    25230809.314 3                     -2919.338 3        21.738
C06        50.000                                                                                                                                    38257012.049 6 199214296.42106      -732.460 6        40.667    38257003.686 6 154045243.62606      -566.486 6        39.477    38257003.835 6 161877901.50806      -595.200 6        37.879
C27        52.000                                                                                                                                    25998724.300 3                     -4383.243 3        19.910
C29        54.000                                                                                                                                    23029940.518 7 119922944.42307        18.697 7        42.100                                                                    23029936.597 7  97447234.81507        15.266 7        43.077
I09        58.000    37210890.606 6 146023518.16706      -797.649 6        40.749
I01        59.000   377429517.983 6 177973684.87606     -2922.740 6        40.095
> 2025 01 02 01 47 40.0000000  0 38
G03         1.000    19973274.763 8 104960248.23608     -1354.336 8        51.829                                    19973271.305 8  81787216.57008     -1055.328 8        49.916    19973273.101 7  81787243.56407     -1055.233 7        43.137
G19         2.000    22301654.739 6 117196116.40006      -395.589 6        39.228
G28         3.000    23454665.474 5                     -2349.295 5        33.084                                                                                                    23454677.212 6  96042990.93606     -1830.745 6        36.272
G02         4.000    22262187.711 3                     -3511.488 3        23.257
E07         5.000                                                                                                                                    27168408.370 4                     -2683.866 4        27.880    27168396.343 4                     -2753.582 4        27.114
G09         6.000    22415631.407 5                      2349.806 5        32.395                                                                                                    22415631.169 5  91788277.03805      1830.978 5        35.381
G21         8.000    23938130.333 4                     -3992.781 4        26.455
G31        10.000    22208284.819 5                      -565.194 5        32.299                                                                                                    22208267.340 6  90939167.65606      -440.317 6        37.524
G17        11.000    22547316.094 7 118487146.55707     -2255.890 7        43.681                                    22547310.683 5  92327545.36105     -1757.835 5        30.045    22547311.526 5  92327463.32205     -1758.033 5        32.904
G04        12.000    20681934.405 6 108684335.25506      1025.395 6        39.501                                    20681928.577 4  84689015.65104       799.006 4        24.707    20681930.071 6  84689038.66006       798.998 6        40.262
E12        13.000    24543682.781 6 128977967.21706       699.292 6        38.273                                                                    24543679.094 7  96314679.44607       522.189 7        42.483    24543678.701 6  98827309.74706       535.934 6        39.078
E29        14.000    23561431.698 6 123816145.49006     -1572.941 6        39.378                                                                    23561429.016 7  92460121.92907     -1174.524 7        43.401    23561429.603 6  94872094.41906     -1205.201 6        40.334
G06        15.000    23864513.336 7 125408882.73307      2502.525 7        43.670                                    23864507.157 5  97721227.00205      1950.015 5        32.575    23864512.951 5  97721219.98405      1949.986 5        35.743
R08        18.000    22610669.344 5 121079132.18205      2502.105 5        35.819                                                                    22610647.572 5  94172546.38415      1945.914 5        34.495
E26        19.000    27280659.408 3                     -3783.595 3        23.219
E19        20.000    23656131.456 6 124313804.66606       892.067 6        36.930                                                                    23656128.261 7  92831747.88307       666.237 7        42.076    23656127.629 6  95253432.80406       683.561 6        39.504
R06        21.000    20181825.502 6 107694110.78306     -3192.915 6        40.331
R15        22.000    23185957.370 5 123898700.67705      -901.756 5        32.611
S36        23.000    38197170.452 5 200727487.46305      -850.379 5        35.986
S23        24.000    38144969.911 6 200453144.96006      -846.932 6        39.718
E33        28.000    23694370.818 8 124514744.21808     -2252.617 8        49.012                                                                    23694367.753 8  92981836.42908     -1682.176 8        50.787    23694366.882 8  95407404.01908     -1726.054 8        49.443
E10        29.000    26020098.026 6 136736773.22306      1622.797 6        40.908                                                                    26020097.870 7 102108521.44407      1211.828 7        46.163    26020095.491 7 104772161.72207      1243.339 7        42.838
R21        30.000                                                                                                                                    21477015.410 5  89388315.42305     -3785.011 5        34.124
C20        31.000                                                                                                                                    23468404.175 6 122206303.31106      1282.658 6        40.698                                                                    23468400.373 7  99302486.82507      1042.235 7        43.871
R23        33.000    21541918.566 7 115234897.64207      2566.705 7        44.004
R07        34.000    19483424.623 8 104296397.17008        79.883 8        52.825                                                                    19483421.812 7  81119352.62707        62.080 7        44.567
R22        35.000    19378197.191 7 103442145.43407      -910.155 7        45.038                                                                    19378195.899 7  80454989.61707      -707.970 7        42.622
C32        36.000                                                                                                                                    21909508.599 8 114088523.11608     -1553.511 8        52.255                                                                    21909508.049 7  92706318.82707     -1262.366 7        47.916
C30        38.000                                                                                                                                    23027934.571 7 119912517.29507     -3211.458 7        43.818                                                                    23027935.000 6  97438743.69006     -2609.557 6        39.583
C16        45.000                                                                                                                                    38717361.377 4 201611492.84404      -843.190 4        24.165    38717365.280 6 155898810.08206      -652.188 6        37.493    38717362.309 4 163825844.41004      -685.042 4        25.308
C39        46.000                                                                                                                                    38985224.538 6 203006282.55906     -1282.583 6        38.589
C09        47.000                                                                                                                                    38672439.152 7 201377540.13407      -227.488 7        44.773    38672436.990 7 155717890.76607      -175.811 7        46.487    38672433.326 7 163635712.44807      -184.926 7        42.138
C41        49.000                                                                                                                                    25234277.638 5 131401457.73005     -3592.938 5        32.389                                                                    25234262.077 3                     -2918.512 3        22.609
C06        50.000                                                                                                                                    38257716.237 6 199217961.52906      -733.723 6        40.436    38257707.821 6 154048077.71306      -567.236 6        39.492    38257707.813 6 161880879.69806      -596.220 6        37.970
C27        52.000                                                                                                                                    26002929.070 3                     -4383.518 3        20.571
C29        54.000                                                                                                                                    23029922.285 6 119922858.00306        15.735 6        41.356                                                                    23029919.146 7  97447164.59507        12.846 7        42.718
I09        58.000    37211906.665 6 146027507.16006      -798.045 6        40.493
I01        59.000   377433242.715 6 177988298.59906     -2922.920 6        40.102
> 2025 01 02 01 47 45.0000000  0 37
G03         1.000    19974564.237 8 104967024.27908     -1356.294 8        51.867                                    19974560.850 8  81792496.60508     -1056.854 8        49.872    19974562.464 7  81792523.59607     -1056.856 7        43.951
G19         2.000    22302035.113 6 117198102.98406      -399.151 6        36.064
G28         3.000                                                                                                                                                                    23456913.897 6  96052149.66406     -1833.101 6        36.590
E07         5.000                                                                                                                                    27171828.554 4                     -2683.902 4        27.952    27171815.829 4                     -2754.113 4        26.599
G09         6.000    22413398.274 6 117783192.98016      2348.153 6        37.198                                    22413389.673 4  91779083.45314      1829.727 4        25.444    22413396.526 5  91779124.44305      1829.778 5        34.819
G21         8.000    23941928.449 3                     -3994.245 3        23.581
G31        10.000    22208825.049 5                      -568.534 5        32.251                                                                                                    22208806.467 6  90941375.99006      -443.115 6        37.800
G17        11.000    22549463.345 7 118498431.85407     -2258.484 7        42.914                                    22549458.229 4  92336339.08804     -1759.860 4        29.668    22549459.373 5  92336257.02305     -1759.930 5        31.947
G04        12.000    20680960.349 6 108679213.67406      1022.904 6        40.160                                    20680954.223 4  84685024.80104       797.056 4        24.421    20680955.123 6  84685047.79606       797.111 6        40.501
E12        13.000    24543018.262 6 128974473.82306       697.817 6        38.847                                                                    24543014.286 7  96312070.74507       521.110 7        42.595    24543013.417 6  98824632.99706       534.720 6        38.913
E29        14.000    23562928.985 6 123824013.85506     -1574.653 6        40.610                                                                    23562926.272 7  92465997.66607     -1176.010 7        43.196    23562926.515 6  94878123.44406     -1206.591 6        38.862
G06        15.000    23862132.353 7 125396371.70107      2501.728 7        44.092                                    23862126.416 5  97711478.15805      1949.389 5        32.844    23862131.672 6  97711471.16706      1949.313 6        36.892
R08        18.000    22608326.644 6 121066624.37406      2500.829 6        36.193                                                                    22608310.850 5  94162818.17705      1945.038 5        34.557
E26        19.000    27284256.229 3                     -3783.227 3        22.152
E19        20.000    23655282.512 6 124309347.89206       890.442 6        37.505                                                                    23655280.015 6  92828419.77206       664.851 6        41.466    23655279.663 6  95250017.87906       682.366 6        39.871
R06        21.000    20184817.308 6 107710079.18906     -3194.665 6        40.982
R15        22.000    23186813.175 5 123903219.53405      -906.006 5        32.904
S36        23.000    38197979.735 6 200731739.98906      -850.379 6        36.057
S23        24.000    38145774.279 6 200457378.37306      -846.834 6        39.898
E33        28.000    23696514.987 8 124526011.42008     -2254.429 8        49.526                                                                    23696511.803 8  92990250.25208     -1683.539 8        50.748    23696510.956 8  95416037.33908     -1727.491 8        49.517
E10        29.000    26018554.398 6 136728661.15106      1621.822 6        40.889                                                                    26018554.282 7 102102463.73307      1211.136 7        46.104    26018551.531 7 104765945.98807      1242.720 7        42.485
R21        30.000                                                                                                                                    21481562.753 5  89407243.85005     -3786.763 5        31.713
C20        31.000                                                                                                                                    23467173.472 6 122199892.70106      1281.357 6        40.784                                                                    23467169.349 7  99297277.67807      1041.289 7        44.933
R23        33.000    21539520.158 7 115222069.69607      2564.277 7        43.985
R07        34.000    19483350.518 8 104296003.99408        77.188 8        52.425                                                                    19483348.237 7  81119046.82707        59.978 7        44.349
R22        35.000    19379052.122 7 103446706.48207      -914.555 7        44.712                                                                    19379050.561 7  80458537.11007      -711.363 7        42.008
C32        36.000                                                                                                                                    21911000.413 8 114096293.81708     -1555.055 8        52.282                                                                    21911000.274 7  92712633.15307     -1263.593 7        47.907
C30        38.000                                                                                                                                    23031019.116 7 119928578.89907     -3213.377 7        43.663                                                                    23031019.394 6  97451795.05106     -2611.044 6        38.988
C16        45.000                                                                                                                                                                                                    38718175.532 6 155902072.37706      -652.734 6        37.539    38718171.531 4 163829272.57904      -686.360 4        25.263
C39        46.000                                                                                                                                    38986456.760 6 203012695.84006     -1283.238 6        38.562
C09        47.000                                                                                                                                    38672658.265 7 201378678.69207      -228.279 7        45.004    38672655.408 7 155718771.17307      -176.534 7        46.362    38672651.870 7 163636637.61507      -185.370 7        42.337
C41        49.000                                                                                                                                    25237726.529 4 131419422.25304     -3593.377 4        29.185                                                                    25237715.355 3                     -2919.296 3        22.533
C06        50.000                                                                                                                                    38258420.973 6 199221631.35806      -734.552 6        40.532    38258412.403 6 154050915.46206      -568.093 6        39.697    38258412.540 6 161883861.73206      -596.820 6        38.060
C27        52.000                                                                                                                                    26007133.276 3                     -4376.299 3        21.500
C29        54.000                                                                                                                                    23029906.888 6 119922785.55506        13.004 6        40.527                                                                    23029904.933 7  97447105.72507        10.601 7        42.368
I09        58.000    37212923.863 6 146031497.07106      -798.230 6        40.608
I01        59.000   377436966.796 6 178002913.03806     -2923.157 6        40.110
> 2025 01 02 01 47 50.0000000  0 35
G03         1.000    19975855.652 8 104973810.67408     -1358.287 8        51.817                                    19975852.429 8  81797784.71208     -1058.406 8        49.743    19975853.925 7  81797811.69707     -1058.365 7        44.640
G28         3.000                                                                                                                                                                    23459155.081 6  96061320.43806     -1835.097 6        36.586
E07         5.000                                                                                                                                    27175249.108 4                     -2684.477 4        28.142    27175235.810 4                     -2754.576 4        26.862
G09         6.000    22411166.460 6 117771454.75506      2346.842 6        39.441                                    22411158.195 4  91769936.82904      1828.708 4        27.557    22411163.519 5  91769977.82505      1828.825 5        34.638
G21         8.000    23945724.606 3                     -3994.076 3        22.495
G31        10.000    22209371.258 5                      -572.361 5        30.989                                                                                                    22209349.404 6  90943598.58406      -446.009 6        38.501
G17        11.000    22551613.472 7 118509730.63607     -2261.152 7        42.790                                    22551607.988 4  92345143.32204     -1761.936 4        29.071    22551609.145 5  92345061.22405     -1761.662 5        30.189
G04        12.000    20679987.136 6 108674104.91206      1020.333 6        40.334                                    20679982.379 3  84681043.95003       795.062 3        23.829    20679982.740 6  84681066.94406       795.027 6        40.584
E12        13.000    24542355.065 6 128970988.40206       696.194 6        39.102                                                                    24542351.170 7  96309467.99107       520.027 7        42.741    24542350.141 6  98821962.34406       533.479 6        38.754
E29        14.000    23564428.373 6 123831891.86906     -1576.694 6        41.108                                                                    23564425.339 7  92471880.59707     -1177.305 7        42.963    23564425.271 6  94884159.83706     -1208.031 6        37.304
G06        15.000    23859752.527 7 125383865.35507      2500.844 7        43.989                                    23859746.860 5  97701732.96505      1948.709 5        33.180    23859751.119 6  97701725.95506      1948.730 6        37.690
R08        18.000    22605981.863 5 121054123.69105      2499.448 5        35.800                                                                    22605973.829 5  94153095.44405      1944.252 5        35.395
E26        19.000    27287850.926 3                     -3784.955 3        20.857
E19        20.000    23654435.728 6 124304899.96006       888.446 6        37.573                                                                    23654433.625 6  92825098.25106       663.659 6        41.409    23654433.335 6  95246609.72506       680.976 6        40.155
R06        21.000    20187811.981 7 107726057.32907     -3196.630 7        42.070
R15        22.000    23187667.820 5                      -910.381 5        33.108                                                                    23187654.115 4                      -708.106 4        26.132
S36        23.000    38198787.623 6 200735992.23706      -850.482 6        36.147
S23        24.000    38146582.194 6 200461611.99306      -846.771 6        40.048
E33        28.000    23698660.836 8 124537288.20008     -2256.349 8        49.486                                                                    23698657.648 8  92998671.21808     -1684.919 8        50.766    23698656.984 8  95424677.97908     -1728.830 8        49.618
E10        29.000    26017011.544 6 136720553.56806      1621.096 6        40.465                                                                    26017011.516 7 102096409.37607      1210.581 7        46.323    26017008.407 7 104759733.68507      1242.115 7        42.366
R21        30.000    21486123.238 7 114976808.63017     -4870.681 7        43.871                                                                    21486111.658 4  89426180.86204     -3787.760 4        29.621
C20        31.000                                                                                                                                    23465943.693 6 122193488.61006      1280.164 6        41.766                                                                    23465939.866 7  99292073.85807      1040.095 7        45.571
R23        33.000    21537124.169 7 115209254.69407      2561.689 7        42.954
R07        34.000    19483279.026 8 104295625.17108        74.304 8        51.831                                                                    19483277.749 7  81118752.19907        57.779 7        44.700
R22        35.000    19379911.714 7 103451290.01907      -919.020 7        46.027                                                                    19379909.912 7  80462102.06607      -714.695 7        42.472
C32        36.000                                                                                                                                    21912494.017 8 114104072.78908     -1556.607 8        52.205                                                                    21912494.202 7  92718954.21707     -1264.998 7        47.836
C30        38.000                                                                                                                                    23034106.887 7 119944650.86807     -3215.496 7        43.670                                                                    23034105.847 6  97464854.87606     -2613.122 6        38.417
C16        45.000                                                                                                                                    38718981.575 4                      -848.298 4        24.376    38718986.804 6 155905338.26506      -653.598 6        37.834    38718982.350 4 163832704.52004      -686.706 4        25.098
C39        46.000                                                                                                                                    38987688.694 6 203019113.40806     -1284.070 6        38.601
C09        47.000                                                                                                                                    38672878.025 7 201379821.79107      -229.060 7        45.332    38672874.469 7 155719655.08807      -177.082 7        46.184    38672871.466 7 163637566.49607      -186.278 7        42.284
C41        49.000                                                                                                                                    25241174.983 4 131437388.56904     -3594.026 4        27.006
C06        50.000                                                                                                                                    38259126.657 6 199225305.94306      -735.481 6        40.546    38259118.641 6 154053756.88106      -568.685 6        40.036    38259118.389 6 161886847.64006      -597.606 6        38.201
C29        54.000                                                                                                                                    23029894.524 6 119922727.15306        10.421 6        40.477                                                                    23029893.377 7  97447058.28007         8.323 7        42.070
I09        58.000    37213940.395 6 146035487.92306      -798.353 6        40.636
I01        59.000   377440691.510 6 178017528.30606     -2923.016 6        40.145
> 2025 01 02 01 47 55.0000000  0 35
G03         1.000    19977149.010 8 104980607.74908     -1360.596 8        51.163                                    19977146.091 8  81803081.13708     -1060.205 8        49.771    19977147.652 7  81803108.12407     -1060.268 7        44.930
G19         2.000    22302819.779 5 117202130.80505      -406.587 5        30.475
G28         3.000                                                                                                                                                                    23461399.259 5  96070503.57305     -1838.213 5        35.129
G02         4.000    22272213.600 3                     -3514.903 3        22.267
E07         5.000                                                                                                                                    27178670.011 4                     -2685.092 4        27.545    27178656.338 4                     -2754.621 4        25.895
G09         6.000    22408935.215 6 117759724.56806      2345.171 6        40.451                                    22408927.656 4  91760796.41704      1827.404 4        29.725    22408931.365 5  91760837.42605      1827.562 5        34.581
G21         8.000    23949529.975 4                     -3995.638 4        25.203
G31        10.000                                                                                                                                                                    22209895.755 6  90945835.65906      -448.941 6        38.946
G17        11.000    22553766.280 7 118521043.17807     -2264.075 7        43.037                                    22553760.042 4  92353958.27804     -1764.214 4        28.910    22553759.679 4  92353876.21604     -1764.219 4        27.880
G04        12.000    20679016.377 6 108669009.31606      1017.681 6        40.300                                    20679012.743 3  84677073.37003       793.018 3        23.390    20679013.223 6  84677096.35806       792.975 6        40.131
E12        13.000    24541693.821 6 128967511.29106       694.585 6        39.267                                                                    24541689.519 7  96306871.45207       518.543 7        42.768    24541688.380 6  98819298.05206       532.050 6        38.649
E29        14.000    23565929.356 6 123839779.81306     -1578.642 6        41.106                                                                    23565926.099 7  92477770.97007     -1179.028 7        42.483    23565925.732 5  94890203.85705     -1209.648 5        34.910
G06        15.000    23857373.707 7 125371364.08207      2499.553 7        43.873                                    23857368.534 5  97691991.72105      1947.703 5        33.796    23857372.494 6  97691984.69806      1947.770 6        38.375
R08        18.000    22603644.345 5 121041630.53605      2497.711 5        34.190                                                                    22603640.495 6  94143378.55406      1942.676 6        37.490
E19        20.000    23653591.393 6 124300461.18606       886.745 6        37.066                                                                    23653589.128 6  92821783.59606       662.120 6        41.056    23653588.468 6  95243208.60506       679.372 6        40.288
R06        21.000    20190809.430 7 107742045.26007     -3198.641 7        42.345
S36        23.000    38199598.216 6 200740245.70606      -850.928 6        36.102
S23        24.000    38147385.445 6 200465846.42106      -847.181 6        39.910
E33        28.000    23700808.555 8 124548574.88208     -2258.468 8        49.569                                                                    23700805.475 8  93007099.58508     -1686.573 8        50.733    23700804.836 8  95433326.22108     -1730.464 8        49.943
E10        29.000    26015469.812 6 136712450.86106      1619.900 6        39.775                                                                    26015469.541 7 102090358.65307      1209.652 7        46.282    26015466.298 6 104753525.11606      1241.161 6        41.940
R21        30.000    21490672.284 7 115001167.94507     -4873.165 7        44.482                                                                    21490664.746 5  89445127.01605     -3790.052 5        30.400
C20        31.000                                                                                                                                    23464715.367 7 122187091.41507      1278.615 7        42.457                                                                    23464711.607 7  99286875.61407      1038.916 7        45.920
R23        33.000    21534731.829 7 115196453.07607      2558.865 7        43.647
R07        34.000    19483210.827 8 104295260.92508        71.227 8        51.286                                                                    19483209.614 7  81118468.89807        55.340 7        44.667
R22        35.000    19380775.452 7 103455896.38207      -923.683 7        46.930                                                                    19380773.048 7  80465684.79307      -718.497 7        43.071
C32        36.000                                                                                                                                    21913989.495 8 114111860.37908     -1558.504 8        51.934                                                                    21913989.775 7  92725282.27107     -1266.468 7        47.299
C30        38.000                                                                                                                                    23037196.989 7 119960733.51807     -3217.775 7        42.899                                                                    23037194.576 6  97477923.34506     -2614.797 6        38.120
C16        45.000                                                                                                                                    38719793.908 4                      -845.943 4        25.744    38719799.197 6 155908607.97706      -654.350 6        38.270    38719793.826 3                      -687.223 3        23.752
C39        46.000                                                                                                                                    38988921.384 6 203025535.63106     -1285.117 6        38.501
C09        47.000                                                                                                                                    38673098.762 7 201380969.81707      -230.288 7        45.356    38673094.874 7 155720542.81307      -178.038 7        45.994    38673091.866 7 163638499.34307      -186.995 7        42.184
C06        50.000                                                                                                                                    38259833.657 6 199228985.71406      -736.764 6        40.629    38259824.668 6 154056602.31606      -569.566 6        40.219    38259825.169 6 161889837.74306      -598.468 6        37.936
C27        52.000                                                                                                                                    26015566.403 3                     -4380.947 3        21.500
C29        54.000                                                                                                                                    23029887.213 6 119922683.15706         7.199 6        41.340                                                                    23029884.921 6  97447022.55006         5.772 6        41.454
I09        58.000    37214957.544 6 146039480.01806      -798.575 6        40.684
I01        59.000   377444415.845 6 178032144.65806     -2923.470 6        40.293
