     3.04           OBSERVATION DATA    M                   RINEX VERSION / TYPE
ssrcrin-15.6.1x                         20250102 131500 UTC PGM / RUN BY / DATE 
(00000000023479385599111004) Septentrio proprietary         COMMENT             
ract                                                        MARKER NAME         
01                                                          MARKER NUMBER       
geodetic                                                    MARKER TYPE         
NFB                 CLIMERS@TUW                             OBSERVER / AGENCY   
3296359             SEPT ASTERX SB3 PROB4.14.4              REC # / TYPE / VERS 
Unknown             Unknown                                 ANT # / TYPE        
  4127448.9008  1206914.9605  4695542.7779                  APPROX POSITION XYZ 
        0.0000        0.0000        0.0000                  ANTENNA: DELTA H/E/N
G   23 X1  C1C L1C D1C S1C C1W S1W C2W L2W D2W S2W C2L L2L  SYS / # / OBS TYPES 
       D2L S2L C5Q L5Q D5Q S5Q C1L L1L D1L S1L              SYS / # / OBS TYPES 
E   21 X1  C1C L1C D1C S1C C6C L6C D6C S6C C5Q L5Q D5Q S5Q  SYS / # / OBS TYPES 
       C7Q L7Q D7Q S7Q C8Q L8Q D8Q S8Q                      SYS / # / OBS TYPES 
S    9 X1  C1C L1C D1C S1C C5I L5I D5I S5I                  SYS / # / OBS TYPES 
R   17 X1  C1C L1C D1C S1C C2P L2P D2P S2P C2C L2C D2C S2C  SYS / # / OBS TYPES 
       C3Q L3Q D3Q S3Q                                      SYS / # / OBS TYPES 
C   25 X1  C1P L1P D1P S1P C5P L5P D5P S5P C2I L2I D2I S2I  SYS / # / OBS TYPES 
       C7I L7I D7I S7I C6I L6I D6I S6I C7D L7D D7D S7D      SYS / # / OBS TYPES 
J   17 X1  C1C L1C D1C S1C C2L L2L D2L S2L C5Q L5Q D5Q S5Q  SYS / # / OBS TYPES 
       C1L L1L D1L S1L                                      SYS / # / OBS TYPES 
I    5 X1  C5A L5A D5A S5A                                  SYS / # / OBS TYPES 
SEPTENTRIO RECEIVERS OUTPUT ALIGNED CARRIER PHASES.         COMMENT             
NO FURTHER PHASE SHIFT APPLIED IN THE RINEX ENCODER.        COMMENT             
G L1C                                                       SYS / PHASE SHIFT   
G L2W                                                       SYS / PHASE SHIFT   
G L2L  0.00000                                              SYS / PHASE SHIFT   
G L5Q  0.00000                                              SYS / PHASE SHIFT   
G L1L  0.00000                                              SYS / PHASE SHIFT   
E L1C  0.00000                                              SYS / PHASE SHIFT   
E L6C  0.00000                                              SYS / PHASE SHIFT   
E L5Q  0.00000                                              SYS / PHASE SHIFT   
E L7Q  0.00000                                              SYS / PHASE SHIFT   
E L8Q  0.00000                                              SYS / PHASE SHIFT   
S L1C                                                       SYS / PHASE SHIFT   
S L5I                                                       SYS / PHASE SHIFT   
R L1C                                                       SYS / PHASE SHIFT   
R L2P  0.00000                                              SYS / PHASE SHIFT   
R L2C                                                       SYS / PHASE SHIFT   
R L3Q  0.00000                                              SYS / PHASE SHIFT   
C L1P  0.00000                                              SYS / PHASE SHIFT   
C L5P  0.00000                                              SYS / PHASE SHIFT   
C L2I                                                       SYS / PHASE SHIFT   
C L7I                                                       SYS / PHASE SHIFT   
C L6I                                                       SYS / PHASE SHIFT   
C L7D                                                       SYS / PHASE SHIFT   
J L1C                                                       SYS / PHASE SHIFT   
J L2L  0.00000                                              SYS / PHASE SHIFT   
J L5Q  0.00000                                              SYS / PHASE SHIFT   
J L1L  0.00000                                              SYS / PHASE SHIFT   
I L5A                                                       SYS / PHASE SHIFT   
  2025     1     2    13    15    0.0000000     GPS         TIME OF FIRST OBS   
 C1C    0.000 C2C    0.000 C2P    0.000                     GLONASS COD/PHS/BIS 
DBHZ                                                        SIGNAL STRENGTH UNIT
    18                                                      LEAP SECONDS        
 24 R01  1 R02 -4 R03  5 R04  6 R05  1 R06 -4 R07  5 R08  6 GLONASS SLOT / FRQ #
    R09 -2 R10 -7 R11  0 R12 -1 R13 -2 R14 -7 R15  0 R16 -1 GLONASS SLOT / FRQ #
    R17  4 R18 -3 R19  3 R20  2 R21  4 R22 -3 R23  3 R24  2 GLONASS SLOT / FRQ #
                                                            END OF HEADER       
> 2025 01 02 13 15  0.0000000  0 42
G06         1.000    23006053.838 4 120897619.51404      -785.515 4        27.485                                    23006054.814 3  94205867.83203      -612.033 3        20.095    23006064.804 6  94205976.77506      -611.617 6        37.418
G25         3.000    20834225.751 7 109484802.56507      1147.762 7        42.876                                    20834223.665 5  85312768.25405       894.357 5        34.557    20834228.879 6  85312703.21206       894.271 6        37.936
G19         4.000    23481931.242 5 123398433.69105     -4089.499 5        35.943                                    23481925.905 1  96154554.93001     -3186.698 1         8.000
E25         6.000    23913371.144 6 125665664.37706       245.925 6        41.485                                                                    23913374.680 7  93841341.18607       183.776 7        42.853    23913375.064 8  96289271.69508       188.540 8        48.179
G11         7.000    23310455.348 6 122497306.62706      1385.733 6        36.975                                    23310456.511 2  95452449.02902      1079.812 2        14.952    23310458.071 6  95452428.98006      1079.833 6        36.817
G28         8.000    24892451.434 6 130810801.65306      2682.349 6        37.410                                                                                                    24892472.534 5                      2090.282 5        30.294
G29         9.000                                                                                                                                                                    23955055.546 5  98091968.38005      2167.398 5        30.166
E10        11.000    26629788.716 5 139940497.68805      1784.806 5        35.981                                                                    26629787.492 3 104501057.35803      1332.919 3        23.314    26629819.338 5                      1367.701 5        30.189
G24        12.000                                                                                                                                                                    21904908.382 6  89696907.12006     -3000.545 6        38.210
E12        13.000    26363938.433 3                       855.817 3        19.134                                                                    26363959.711 5 103457809.88505       640.397 5        31.419
E33        14.000                                                                                                                                    27115166.143 5                     -1396.712 5        30.060    27115158.609 3                     -1433.034 3        23.048
G12        15.000    20292778.126 8 106639243.94708     -1343.041 8        49.790                                    20292774.546 7  83095521.98207     -1046.528 7        45.512    20292776.247 7  83095540.00207     -1046.500 7        43.022
E24        16.000    24333591.323 7 127873847.35007     -2108.310 7        47.235                                                                    24333593.113 8  95490275.89408     -1574.404 8        49.227    24333592.900 8  97981352.52008     -1615.477 8        50.542
G32        17.000    22948791.140 7 120597144.97407      -491.530 7        47.499                                    22948798.172 6  93971451.34606      -383.016 6        36.155    22948798.165 6  93971571.32506      -383.083 6        36.287
E05        18.000                                                                                                                                    24815488.215 6  97381300.93106     -2828.256 6        37.267    24815482.821 4  99921705.28404     -2901.589 4        29.043
E08        20.000    27164029.268 5 142747894.06605       896.507 5        35.438                                                                    27164035.087 7 106597563.42807       669.350 7        43.147    27164030.530 6 109378378.40106       686.911 6        39.468
E02        21.000    27733810.177 4                      1568.375 4        29.536                                                                    27733848.214 4                      1171.403 4        26.695    27733821.354 5                      1201.871 5        32.383
S23        22.000    38241034.815 6 200958047.30006      -863.617 6        37.214
R14        23.000    20010700.985 8 106668272.33008     -2329.565 8        48.309                                                                    20010703.712 6  82964158.57506     -1811.872 6        40.667
R06        24.000    22913110.943 5                       451.954 5        31.728
R23        25.000    22835547.682 5                     -4359.382 5        32.174
E03        26.000    25091998.240 6 131859530.77706     -1682.907 6        40.086                                                                    25092007.623 6  98466485.84406     -1256.677 6        39.697    25092008.570 6 101035156.68706     -1289.435 6        37.671
S21        27.000    38529193.153 5 202472423.27905      -859.293 5        32.599
R15        30.000    20114486.539 8 107485973.57108       990.619 8        52.029                                                                    20114489.599 7  83600025.69207       770.481 7        46.866
S36        31.000    38300341.185 6 201269655.70706      -858.914 6        36.465
C07        32.000                                                                                                                                                                                                    40628485.757 4                     -1384.684 4        24.511
C10        33.000                                                                                                                                    39570958.497 4                     -1577.281 4        24.015    39570957.091 5                     -1220.270 5        32.000    39570949.283 4                     -1282.537 4        25.143
R16        34.000    24083227.146 5 128648220.29005      2601.605 5        34.233                                                                    24083236.675 5 100059769.55505      2023.298 5        35.281
C44        35.000                                                                                                                                                                                                                                                                    25213769.313 5 106687721.55405      2130.695 5        31.992
R17        36.000    21874406.253 5 117054746.02505      3273.402 5        34.405                                                                    21874409.461 6  91042395.87006      2546.022 6        41.244
C45        37.000                                                                                                                                    23968467.121 7 124810224.70807     -3284.112 7        44.852                                                                    23968463.831 6 101418403.46306     -2668.759 6        40.911
R24        38.000    20187288.627 6 107951067.09006      -296.613 6        40.048                                                                    20187301.639 4                      -230.311 4        26.790
C33        39.000                                                                                                                                    25909313.619 5 134916646.39405     -1956.890 5        34.495                                                                    25909334.274 4                     -1589.904 4        28.351
C35        42.000                                                                                                                                    22629426.064 8 117837396.18008      1074.127 8        49.176                                                                    22629427.514 8  95752541.34008       872.715 8        48.029
R05        44.000    22080721.121 4 118034074.17204     -3678.554 4        28.227
C29        46.000                                                                                                                                    23494151.528 7 122340204.38807     -2450.411 7        42.887                                                                    23494154.151 7  99411429.64607     -1991.221 7        43.640
C41        47.000                                                                                                                                    27095564.530 4 141093820.55304       353.074 4        26.060                                                                    27095574.040 5                       286.954 5        30.196
C26        48.000                                                                                                                                    21722078.680 7 113112584.69407      -655.919 7        47.941                                                                    21722080.431 7  91913251.27307      -533.112 7        45.941
C24        51.000                                                                                                                                    23747114.617 5                      1664.035 5        31.841                                                                    23747072.018 5 100481687.68605      1352.069 5        32.120
C14        53.000                                                                                                                                                                                                    25895563.921 6 104270708.15906     -2338.498 6        36.163    25895564.955 5                     -2457.262 5        33.820
I06        58.000    38595324.531 6 151456353.71406      -743.299 6        37.206
I02        59.000    37166590.675 5 145849686.49505      -849.771 5        31.743
> 2025 01 02 13 15  5.0000000  0 41
G06         1.000    23006801.487 5 120901553.30205      -788.269 5        32.485                                    23006805.255 3  94208933.14503      -614.233 3        18.896    23006811.446 5  94209042.12305      -614.085 5        35.467
G25         3.000    20833134.950 7 109479067.65307      1146.442 7        43.384                                    20833133.685 5  85308299.50205       893.321 5        35.581    20833138.091 6  85308234.48506       893.374 6        39.447
G19         4.000    23485823.467 5 123418884.27705     -4090.265 5        34.609                                    23485817.040 1  96170490.36201     -3187.252 1         6.375
E25         6.000    23913137.421 6 125664436.00106       245.530 6        40.622                                                                    23913140.523 7  93840423.88707       183.451 7        42.489    23913141.181 7  96288330.46507       188.190 7        47.725
G11         7.000    23309138.640 6 122490382.89506      1383.964 6        38.261                                    23309139.037 2  95447053.92002      1078.445 2        15.381    23309140.154 6  95447033.91506      1078.345 6        37.713
G28         8.000    24889899.748 6 130797390.29206      2682.502 6        36.113                                                                                                    24889923.021 5                      2089.872 5        32.323
G29         9.000    23952401.880 4                      2780.768 4        25.248                                                                                                    23952409.990 5  98081133.48505      2166.706 5        30.166
E10        11.000    26628090.338 5 139931577.16105      1783.604 5        32.719                                                                    26628085.108 3                      1332.905 3        21.643    26628124.074 5                      1366.395 5        30.619
G24        12.000                                                                                                                                                                    21908572.008 6  89711912.51906     -3001.522 6        38.580
E12        13.000                                                                                                                                    26363146.210 4 103454611.33404       639.516 4        27.581
E33        14.000                                                                                                                                    27116952.744 5                     -1398.395 5        30.400
G12        15.000    20294056.764 8 106645964.05808     -1344.770 8        49.896                                    20294053.591 7  83100758.43707     -1047.876 7        45.785    20294054.919 7  83100776.44507     -1047.683 7        42.303
E24        16.000    24335597.247 7 127884390.47307     -2108.714 7        46.528                                                                    24335599.640 8  95498148.99908     -1574.711 8        49.327    24335599.122 8  97989431.01808     -1615.714 8        50.226
G32        17.000    22949260.418 8 120599609.82408      -494.241 8        48.164                                    22949267.339 5  93973372.01505      -385.125 5        35.348    22949266.726 5  93973492.01105      -385.277 5        35.071
E05        18.000    24819084.673 4                     -3787.952 4        29.962                                                                    24819091.921 6  97395443.64506     -2828.561 6        36.703    24819087.388 4  99936216.94204     -2902.518 4        28.967
E08        20.000                                                                                                                                    27163182.727 7 106594219.16907       668.327 7        43.041    27163177.700 6 109374946.91806       685.741 6        39.003
E02        21.000    27732321.686 5                      1568.112 5        31.419                                                                    27732355.806 4                      1171.029 4        26.731    27732328.512 5                      1201.725 5        32.353
S23        22.000    38241854.965 6 200962365.71906      -863.471 6        37.074
R14        23.000    20012886.592 7 106679924.95907     -2331.213 7        47.192                                                                    20012889.286 6  82973221.75006     -1813.144 6        40.369
R06        24.000    22912690.079 5                       447.794 5        31.019
E03        26.000    25093600.548 6 131867950.33006     -1684.818 6        40.770                                                                    25093611.956 6  98472773.17606     -1258.134 6        41.449    25093617.368 6 101041608.06806     -1290.930 6        36.938
S21        27.000    38530020.171 5 202476716.29605      -858.111 5        34.205
R15        30.000    20113560.196 8 107481023.97608       989.485 8        52.332                                                                    20113562.501 7  83596176.01807       769.543 7        45.022
S36        31.000    38301154.225 5 201273950.23105      -858.534 5        35.233
C07        32.000                                                                                                                                                                                                    40630203.853 3                     -1381.520 3        22.590
C10        33.000                                                                                                                                    39572476.537 3                     -1578.922 3        23.238    39572475.766 5                     -1220.249 5        33.054    39572465.798 4                     -1282.473 4        26.695
R16        34.000    24080796.692 5 128635211.32605      2602.104 5        31.125                                                                    24080808.579 5 100049651.60505      2023.929 5        35.300
C44        35.000                                                                                                                                                                                                                                                                    25211251.549 5 106677067.59405      2130.897 5        32.635
R17        36.000    21871350.754 6 117038382.96906      3272.121 6        36.733                                                                    21871351.491 6  91029669.03006      2544.868 6        40.322
C45        37.000                                                                                                                                    23971620.662 7 124826647.54507     -3284.788 7        45.195                                                                    23971618.254 6 101431748.36906     -2669.213 6        41.418
R24        38.000    20187565.384 6 107952560.86806      -300.931 6        38.099                                                                    20187580.673 4                      -234.018 4        29.365
C33        39.000                                                                                                                                    25911194.835 5 134926436.10205     -1958.800 5        35.881                                                                    25911216.697 4                     -1591.956 4        26.000
C35        42.000                                                                                                                                    22628395.718 8 117832030.92808      1072.176 8        49.331                                                                    22628397.016 7  95748181.65507       871.158 7        47.784
R05        44.000    22084158.202 5 118052473.42005     -3681.201 5        30.030                                                                    22084145.467 5  91818547.77115     -2863.279 5        33.838
C29        46.000                                                                                                                                    23496507.582 6 122352461.37306     -2452.182 6        41.344                                                                    23496508.287 7  99421389.44907     -1992.734 7        43.790
C41        47.000                                                                                                                                    27095224.250 4 141092061.30104       350.702 4        26.156                                                                    27095236.271 5                       284.665 5        30.513
C26        48.000                                                                                                                                    21722709.166 8 113115868.49708      -657.384 8        48.088                                                                    21722711.056 7  91915919.63507      -534.204 7        45.710
C24        51.000                                                                                                                                    23745513.222 5                      1663.871 5        30.392                                                                    23745473.792 5 100474928.40305      1351.804 5        30.128
C14        53.000                                                                                                                                    25898468.231 5 134860113.74015     -3025.364 5        33.790    25898464.198 6 104282402.79306     -2339.248 6        36.730    25898471.953 5 109584903.14015     -2458.383 5        34.971
I06        58.000    38596271.308 6 151460068.00906      -742.406 6        37.777
I02        59.000    37167672.890 5 145853935.06305      -849.904 5        30.634
> 2025 01 02 13 15 10.0000000  0 40
G06         1.000    23007555.479 5 120905503.89705      -791.671 5        31.049                                    23007557.945 3  94212011.57703      -616.932 3        19.313    23007559.689 5  94212120.63305      -617.352 5        33.551
G25         3.000    20832044.842 6 109473341.61006      1144.258 6        41.876                                    20832045.216 5  85303837.67605       891.631 5        35.224    20832049.285 6  85303772.64706       891.736 6        40.496
G19         4.000    23489714.973 6 123439341.38306     -4092.251 6        36.321                                    23489709.261 1  96186430.93701     -3188.685 1         6.375
E25         6.000    23912903.995 6 125663212.59906       244.122 6        40.484                                                                    23912908.106 7  93839510.29707       182.330 7        43.719    23912908.317 7  96287393.02707       187.108 7        47.604
G11         7.000    23307822.853 6 122483470.34506      1381.281 6        39.048                                    23307823.727 2  95441667.50202      1076.312 2        16.566    23307824.568 6  95441647.52306      1076.353 6        38.219
G28         8.000    24887349.244 6 130783981.04106      2681.684 6        38.333                                                                                                    24887371.897 5                      2089.599 5        33.024
G29         9.000    23949752.726 3                      2777.790 3        22.267                                                                                                    23949764.084 5  98070302.11005      2165.815 5        30.204
E10        11.000    26626394.466 5 139922662.63405      1782.511 5        33.593                                                                                                                                    26626427.939 5                      1365.496 5        30.400
G24        12.000    21912214.417 6 115150154.39216     -3854.275 6        41.275                                    21912251.548 3  89727032.28413     -3003.320 3        19.940    21912238.943 6  89726925.26506     -3003.415 6        39.177
E33        14.000                                                                                                                                    27118735.155 4                     -1400.237 4        24.947
G12        15.000    20295337.350 8 106652694.95708     -1347.285 8        50.017                                    20295334.675 7  83106003.29307     -1049.836 7        45.901    20295336.189 7  83106021.30907     -1049.831 7        43.075
E24        16.000    24337604.078 7 127894938.04507     -2109.959 7        47.188                                                                    24337606.796 8  95506025.43508     -1575.634 8        48.917    24337605.941 8  97997512.91708     -1616.720 8        50.296
G32        17.000    22949732.929 8 120602090.87908      -497.805 8        48.326                                    22949739.453 5  93975305.28305      -387.901 5        34.852    22949739.113 5  93975425.22605      -387.764 5        33.401
E05        18.000    24822687.697 5                     -3788.937 5        30.664                                                                    24822696.429 6  97409589.48706     -2829.420 6        37.293    24822691.714 5  99950731.81005     -2902.983 5        30.128
E08        20.000    27162346.623 6 142738946.93306       892.701 6        38.604                                                                    27162332.156 7 106590882.20007       666.662 7        42.434    27162327.647 6 109371522.89006       684.092 6        39.078
E02        21.000    27730828.512 5                      1568.048 5        31.992                                                                    27730866.138 3                      1171.151 3        23.448    27730835.424 5                      1201.474 5        30.626
S23        22.000    38242682.743 6 200966684.20706      -863.683 6        37.588
R14        23.000    20015073.305 7 106691588.19107     -2333.720 7        46.451                                                                    20015078.301 6  82982293.16306     -1815.048 6        41.235
R06        24.000    22912265.574 4                       443.462 4        29.081
E03        26.000    25095205.043 6 131876381.76006     -1687.458 6        41.461                                                                    25095217.062 6  98479069.35106     -1260.176 6        41.731    25095222.480 6 101048068.57806     -1292.909 6        39.135
S21        27.000    38530832.495 5 202481009.16805      -858.232 5        32.323
R15        30.000    20112635.577 8 107476082.93808       987.369 8        52.621                                                                    20112638.187 7  83592332.98807       767.903 7        45.606
S36        31.000    38301973.225 5 201278244.54205      -859.201 5        34.995
C07        32.000                                                                                                                                                                                                    40631921.448 3                     -1381.973 3        19.910
C10        33.000                                                                                                                                    39573985.370 3                     -1587.271 3        19.881    39573994.427 5                     -1220.327 5        31.419    39573982.116 4                     -1281.565 4        26.778
R16        34.000    24078355.195 5 128622201.83705      2602.231 5        34.062                                                                    24078375.325 5 100039533.09905      2023.759 5        34.000
C44        35.000                                                                                                                                    25208776.898 4 131268494.40514      2620.857 4        25.684                                                                    25208734.402 5 106666415.43005      2130.392 5        32.545
R17        36.000    21868295.030 6 117022029.05306      3269.907 6        39.135                                                                    21868294.998 6  91016949.38006      2543.167 6        38.523
C45        37.000                                                                                                                                    23974775.843 7 124843075.58107     -3286.192 7        44.491                                                                    23974773.234 6 101445097.48706     -2670.181 6        41.840
R24        38.000    20187848.499 6                      -305.615 6        36.733                                                                    20187869.454 4                      -238.442 4        25.865
C33        39.000                                                                                                                                    25913074.640 5 134936238.21005     -1961.429 5        30.174                                                                    25913106.222 4                     -1593.820 4        26.659
C35        42.000                                                                                                                                    22627367.605 8 117826677.37408      1069.598 8        48.787                                                                    22627368.791 7  95743831.46407       869.127 7        47.785
C42        45.000                                                                                                                                    26462747.217 4                     -3688.364 4        25.955
C29        46.000                                                                                                                                    23498863.407 7 122364730.42207     -2455.060 7        42.387                                                                    23498864.234 7  99431359.02607     -1994.864 7        44.141
C41        47.000                                                                                                                                    27094883.740 4 141090314.44304       348.194 4        27.521                                                                    27094901.222 4                       282.747 4        28.265
C26        48.000                                                                                                                                    21723341.256 7 113119161.12707      -659.426 7        47.945                                                                    21723343.344 7  91918595.18707      -535.796 7        45.344
C24        51.000                                                                                                                                    23743912.059 5 123640819.64715      1662.410 5        30.951                                                                    23743878.153 5 100468171.89705      1351.127 5        30.075
C14        53.000                                                                                                                                    25901373.013 5 134875246.01705     -3027.009 5        33.341    25901369.578 6 104294103.84206     -2340.956 6        38.471    25901381.190 5 109597199.21405     -2459.781 5        35.586
I06        58.000    38597218.239 6 151463782.25406      -743.095 6        37.898
I02        59.000    37168755.483 5 145858183.98705      -849.589 5        31.585
> 2025 01 02 13 15 15.0000000  0 42
G06         1.000    23008307.615 5 120909471.51505      -794.994 5        33.677                                    23008313.887 3  94215103.23203      -619.492 3        19.403    23008315.839 5  94215212.24305      -619.387 5        32.892
G25         3.000    20830955.562 6 109467624.39606      1142.552 6        39.823                                    20830958.258 5  85299382.71405       890.294 5        34.548    20830960.668 6  85299317.67606       890.288 6        39.556
G19         4.000    23493608.741 5 123459805.01705     -4093.459 5        35.952                                    23493604.066 1  96202376.51601     -3189.711 1         5.857
E25         6.000    23912672.504 6 125661994.03406       243.268 6        39.796                                                                    23912676.742 7  93838600.34407       181.669 7        44.003    23912676.281 7  96286459.34707       186.354 7        47.699
G11         7.000    23306510.308 6 122476568.89806      1379.314 6        41.147                                    23306510.483 2  95436289.78302      1074.817 2        17.434    23306510.456 6  95436269.78106      1074.590 6        38.625
G28         8.000    24884797.873 6 130770573.81706      2681.221 6        39.901                                                                                                    24884821.892 5                      2089.448 5        31.947
G29         9.000    23947110.690 3                      2778.902 3        22.781                                                                                                    23947119.906 5  98059474.13405      2165.246 5        30.249
E10        11.000    26624699.484 5 139913754.16205      1781.294 5        32.281                                                                                                                                    26624730.784 4                      1364.925 4        29.223
G24        12.000                                                                                                                                                                    21915907.384 6  89741945.21706     -3004.691 6        40.384
E12        13.000    26361529.521 4                       851.989 4        28.237                                                                    26361540.700 4 103448236.76904       636.592 4        25.414
E33        14.000                                                                                                                                    27120518.093 4                     -1401.801 4        27.880    27120535.538 5                     -1438.530 5        32.311
G12        15.000    20296620.216 8 106659436.58408     -1349.336 8        50.665                                    20296618.013 7  83111256.52007     -1051.431 7        46.194    20296619.154 7  83111274.55307     -1051.539 7        43.714
E24        16.000    24339612.698 7 127905490.01607     -2110.814 7        47.537                                                                    24339614.917 8  95513905.15408     -1576.285 8        49.484    24339614.055 8  98005598.19208     -1617.389 8        50.705
G32        17.000    22950208.297 8 120604588.08308      -501.041 8        48.198                                    22950214.460 5  93977251.17505      -390.428 5        35.548    22950213.982 5  93977371.16505      -390.516 5        33.437
E05        18.000    24826296.336 5                     -3789.640 5        30.717                                                                    24826301.856 6  97423738.39106     -2830.227 6        36.722    24826297.761 5  99965249.83705     -2903.757 5        30.453
E08        20.000    27161497.566 6 142734487.96906       891.053 6        38.619                                                                    27161483.301 7 106587552.50907       665.223 7        42.457    27161479.646 6 109368106.33406       682.548 6        39.778
E02        21.000    27729338.930 4                      1568.103 4        29.052                                                                    27729376.766 3                      1171.224 3        19.164    27729342.005 4                      1201.233 4        25.789
S23        22.000    38243503.813 6 200971002.87806      -863.653 6        36.643
R14        23.000    20017263.084 7 106703261.96207     -2335.717 7        45.099                                                                    20017268.089 7  82991372.75007     -1816.615 7        42.174
R06        24.000    22911850.057 4                       440.209 4        25.368
E03        26.000    25096811.163 6 131884825.04206     -1689.848 6        40.641                                                                    25096823.529 7  98485374.39207     -1261.885 7        42.445    25096826.406 6 101054538.09606     -1294.858 6        38.105
S21        27.000    38531650.194 5 202485301.77705      -858.331 5        32.629
R15        30.000    20111712.022 8 107471150.20208       985.764 8        53.138                                                                    20111714.800 7  83588496.44707       766.683 7        44.262
S36        31.000    38302800.256 6 201282539.17306      -858.968 6        36.420
C07        32.000                                                                                                                                                                                                    40633642.312 3                     -1382.055 3        21.595
C10        33.000                                                                                                                                    39575506.585 4                     -1578.704 4        26.635    39575506.305 4                     -1219.761 4        28.682    39575496.386 4                     -1282.471 4        26.575
R16        34.000    24075917.863 5 128609191.60905      2602.050 5        35.976                                                                    24075939.511 5 100029414.00305      2024.052 5        33.180
C44        35.000                                                                                                                                                                                                                                                                    25206217.850 5 106655765.08705      2129.788 5        33.551
R17        36.000    21865240.482 6 117005684.34106      3268.120 6        40.429                                                                    21865240.823 6  91004236.85206      2541.782 6        38.117
C45        37.000                                                                                                                                    23977931.248 7 124859508.80207     -3287.096 7        44.453                                                                    23977929.046 7 101458450.81107     -2671.131 7        42.688
R24        38.000    20188139.330 5 107955617.66615      -309.466 5        30.694                                                                    20188155.231 4                      -241.462 4        26.946
C33        39.000                                                                                                                                    25914956.388 4 134946052.82904     -1963.821 4        24.677                                                                    25914988.592 4                     -1597.028 4        26.647
C35        42.000                                                                                                                                    22626341.344 7 117821335.49807      1067.291 7        47.940                                                                    22626342.980 7  95739490.76107       867.195 7        47.912
R05        44.000    22091023.931 4 118089318.42704     -3687.208 4        29.507                                                                    22091065.120 5  91847205.27305     -2868.178 5        31.691
C42        45.000                                                                                                                                    26466284.065 4                     -3688.694 4        24.767
C29        46.000                                                                                                                                    23501224.308 7 122377011.36707     -2457.385 7        45.645                                                                    23501222.552 7  99441338.33407     -1996.890 7        44.179
C41        47.000                                                                                                                                    27094551.925 5 141088580.07005       345.942 5        31.336                                                                    27094567.634 4                       281.449 4        26.132
C26        48.000                                                                                                                                    21723975.642 8 113122462.60408      -661.101 8        48.514                                                                    21723977.487 7  91921277.90707      -537.148 7        45.561
C24        51.000                                                                                                                                    23742323.273 5 123632508.07405      1662.409 5        30.181                                                                    23742282.961 5 100461418.16805      1350.635 5        33.126
C14        53.000                                                                                                                                                                                                    25904282.169 6 104305811.30806     -2342.163 6        40.155    25904291.131 5 109609501.98805     -2461.425 5        34.643
I06        58.000    38598164.181 6 151467496.32006      -742.831 6        37.977
I02        59.000    37169837.962 5 145862433.69705      -850.125 5        32.910
> 2025 01 02 13 15 20.0000000  0 41
G06         1.000    23009066.824 6 120913456.10106      -798.465 6        36.408                                    23009073.374 3  94218208.11703      -622.185 3        19.761    23009075.335 5  94218317.10205      -622.429 5        31.026
G25         3.000    20829869.997 6 109461916.10606      1140.968 6        38.462                                    20829872.741 5  85294934.69705       889.062 5        34.905    20829874.398 6  85294869.68206       889.084 6        39.183
G19         4.000    23497503.537 6 123480275.29606     -4094.656 6        36.938                                    23497500.106 1  96218327.51201     -3190.590 1         5.286
E25         6.000    23912440.715 6 125660780.56806       242.226 6        38.117                                                                    23912445.743 7  93837694.20907       180.907 7        44.852    23912445.164 7  96285529.54407       185.690 7        47.541
G11         7.000    23305199.477 7 122469678.77407      1377.018 7        42.009                                    23305199.260 3  95430920.86803      1073.016 3        18.567    23305198.993 6  95430900.86206      1073.125 6        37.304
G28         8.000    24882246.335 6 130757168.80506      2680.973 6        40.887                                                                                                    24882277.628 4                      2089.459 4        27.257
G29         9.000    23944467.876 4                      2777.720 4        29.772                                                                                                    23944477.167 5  98048649.83405      2164.754 5        30.634
E10        11.000    26623005.203 5 139904851.89305      1779.951 5        31.555                                                                    26623031.427 5                      1329.106 5        30.702    26623037.707 4                      1363.501 4        27.940
G24        12.000    21919577.003 7 115188715.15707     -3857.820 7        43.418                                    21919583.364 5  89757079.55905     -3006.092 5        34.567    21919576.565 6  89756972.55106     -3006.010 6        40.799
E12        13.000    26360713.705 4                       849.526 4        29.554                                                                    26360728.955 4 103445061.21604       634.435 4        24.752
E33        14.000                                                                                                                                    27122312.676 4                     -1403.865 4        29.829    27122321.643 5                     -1440.486 5        32.653
G12        15.000    20297905.143 8 106666189.15808     -1351.485 8        50.337                                    20297903.385 7  83116518.27407     -1053.105 7        46.811    20297904.044 7  83116536.29007     -1053.084 7        44.181
E24        16.000    24341621.785 7 127916046.54307     -2111.656 7        47.380                                                                    24341623.719 8  95521788.26108     -1576.845 8        49.339    24341622.934 8  98013686.95208     -1618.010 8        50.948
G32        17.000    22950685.811 8 120607101.60908      -504.202 8        48.209                                    22950692.445 5  93979209.75405      -392.883 5        34.848    22950692.067 5  93979329.68105      -392.615 5        32.042
E05        18.000    24829906.881 5                     -3790.783 5        31.260                                                                    24829908.044 6  97437890.49706     -2830.659 6        37.335    24829904.460 5  99979771.14305     -2904.148 5        32.192
E08        20.000                                                                                                                                    27160636.702 7 106584230.20107       663.889 7        42.089    27160633.223 6 109364697.35606       681.140 6        40.088
E02        21.000    27727851.972 4                      1567.635 4        26.216                                                                    27727877.726 3                      1169.762 3        22.686    27727847.674 3                      1199.413 3        20.310
S23        22.000    38244321.516 5 200975321.59005      -863.791 5        35.852
R14        23.000    20019455.286 6 106714946.35706     -2337.821 6        41.514                                                                    20019459.442 7  83000460.59007     -1818.187 7        43.090
R23        25.000    22851782.109 6 122241586.69816     -4369.966 6        37.221
E03        26.000    25098420.159 6 131893280.29506     -1692.060 6        40.226                                                                    25098433.717 7  98491688.37607     -1263.550 7        43.416    25098434.210 6 101061016.77306     -1296.490 6        37.429
S21        27.000    38532460.801 5 202489594.32405      -858.359 5        30.347
R15        30.000    20110789.772 8 107466226.12608       984.091 8        52.277                                                                    20110792.991 7  83584666.61807       765.429 7        42.516
S36        31.000    38303625.556 6 201286834.67106      -859.102 6        37.214
C07        32.000                                                                                                                                                                                                    40635363.381 3                     -1383.504 3        22.114
C10        33.000                                                                                                                                    39577023.788 4                     -1578.102 4        26.144    39577020.437 4                     -1220.264 4        29.261    39577011.533 4                     -1282.676 4        26.683
R16        34.000    24073480.680 5 128596180.64705      2602.415 5        32.317                                                                    24073506.551 5 100019294.41905      2024.123 5        32.257
C44        35.000                                                                                                                                    25203714.096 3                      2619.864 3        22.438                                                                    25203701.051 5 106645116.68805      2129.718 5        33.431
R17        36.000    21862186.409 6 116989349.12106      3266.285 6        40.117                                                                    21862187.712 5  90991531.71005      2540.400 5        35.424
C45        37.000                                                                                                                                    23981086.867 7 124875947.37407     -3288.028 7        43.433                                                                    23981086.659 7 101471808.46007     -2671.710 7        43.240
R24        38.000    20188435.186 5 107957180.96215      -314.544 5        32.281                                                                    20188449.567 4                      -244.959 4        25.880
C35        42.000                                                                                                                                    22625316.955 7 117816005.47307      1064.938 7        47.087                                                                    22625319.216 7  95735159.67207       865.474 7        47.521
R05        44.000    22094478.943 5 118107764.37305     -3690.487 5        30.891                                                                    22094519.483 5  91861552.06705     -2870.587 5        31.826
C42        45.000                                                                                                                                    26469832.624 4                     -3689.144 4        27.916
C29        46.000                                                                                                                                    23503584.679 7 122389304.46407     -2459.694 7        47.106                                                                    23503583.387 7  99451327.49707     -1998.656 7        43.981
C41        47.000                                                                                                                                    27094222.251 4 141086858.19704       342.756 4        26.132                                                                    27094239.484 4                       279.430 4        25.459
C26        48.000                                                                                                                                    21724611.485 8 113125773.10608      -662.933 8        48.632                                                                    21724613.306 7  91923967.95807      -538.650 7        45.464
C24        51.000                                                                                                                                    23740740.974 5 123624200.03405      1661.619 5        32.479                                                                    23740688.204 5 100454667.34205      1350.142 5        34.671
C14        53.000                                                                                                                                    25907175.460 4 134905535.17604     -3030.300 4        27.078    25907193.842 6 104317525.21506     -2343.458 6        40.105    25907204.857 5 109621811.56605     -2462.728 5        32.922
I06        58.000    38599110.798 6 151471210.41106      -742.713 6        37.728
I02        59.000    37170922.088 5 145866684.13105      -850.233 5        32.772
> 2025 01 02 13 15 25.0000000  0 43
G06         1.000    23009830.720 6 120917457.13506      -801.908 6        37.701                                    23009836.219 3  94221325.85503      -624.861 3        19.672    23009837.652 4  94221434.78504      -624.543 4        27.353
G25         3.000    20828785.010 6 109456216.24106      1138.967 6        39.508                                    20828788.546 5  85290493.26005       887.505 5        34.952    20828789.514 6  85290428.24206       887.645 6        38.703
G19         4.000    23501400.244 6 123500751.62306     -4095.777 6        37.648                                    23501396.606 1  96234283.09001     -3191.527 1         5.714
E25         6.000    23912210.296 6 125659571.55106       241.431 6        38.231                                                                    23912216.045 7  93836791.37207       180.268 7        45.020    23912214.771 7  96284603.16107       184.978 7        46.866
G11         7.000    23303889.602 7 122462799.33507      1374.902 7        42.027                                    23303889.924 3  95425560.27603      1071.355 3        19.672    23303889.959 6  95425540.26706      1071.382 6        36.212
G28         8.000    24879694.704 6 130743765.44306      2680.475 6        40.603                                                                                                    24879722.548 4                      2089.235 4        27.078
G29         9.000    23941827.866 5                      2777.055 5        32.695                                                                                                    23941834.842 4  98037828.75504      2164.058 4        28.028
E10        11.000    26621310.925 5 139895955.24005      1778.392 5        33.042                                                                    26621337.143 5                      1328.248 5        30.792    26621343.682 4                      1362.977 4        25.654
G24        12.000    21923245.325 7 115208009.03807     -3859.542 7        43.441                                    21923252.790 6  89772113.73406     -3007.438 6        36.450    21923247.762 6  89772006.74506     -3007.651 6        40.744
E12        13.000    26359905.696 5                       847.585 5        30.400                                                                    26359917.104 4 103441892.93704       631.813 4        24.316
E33        14.000                                                                                                                                    27124106.128 5                     -1405.522 5        30.189    27124108.043 5                     -1442.186 5        32.581
G12        15.000    20299191.653 8 106672952.00108     -1353.514 8        49.679                                    20299190.720 7  83121788.03007     -1054.686 7        47.340    20299191.394 7  83121806.04307     -1054.730 7        44.877
E24        16.000    24343631.440 7 127926606.97607     -2112.464 7        47.427                                                                    24343633.174 8  95529674.30308     -1577.464 8        49.118    24343632.369 8  98021778.71208     -1618.601 8        50.817
G32        17.000    22951167.167 7 120609630.81807      -507.397 7        47.794                                    22951173.538 5  93981180.56605      -395.374 5        34.700    22951174.279 5  93981300.53705      -395.389 5        31.479
E05        18.000    24833513.209 5                     -3791.332 5        32.245                                                                    24833515.593 6  97452045.33906     -2831.157 6        37.652    24833511.624 5  99994295.26605     -2905.152 5        32.605
E08        20.000                                                                                                                                    27159791.336 6 106580914.82406       662.430 6        41.518    27159787.758 6 109361295.48906       679.689 6        39.538
E02        21.000    27726358.723 3                      1566.362 3        19.254                                                                    27726381.499 4                      1170.376 4        25.143    27726355.659 3                      1201.052 3        21.119
S23        22.000    38245147.787 6 200979639.76306      -863.407 6        36.329
R14        23.000    20021649.970 6 106726640.69506     -2339.903 6        40.698                                                                    20021653.505 7  83009556.22807     -1819.892 7        43.994
R06        24.000    22911014.079 4                       431.874 4        24.316
R23        25.000    22855868.436 6 122263442.62606     -4372.665 6        36.594
E03        26.000    25100031.772 6 131901746.91106     -1694.495 6        41.063                                                                    25100044.407 7  98498010.84907     -1265.333 7        42.851    25100043.530 6 101067504.18106     -1298.292 6        36.359
S21        27.000    38533291.404 5 202493886.70805      -858.607 5        32.150
R15        30.000    20109868.994 8 107461309.95608       982.445 8        51.123                                                                    20109873.215 7  83580842.96307       764.136 7        42.605
S36        31.000    38304429.201 6 201291129.17106      -858.763 6        36.151
C07        32.000                                                                                                                                                                                                    40637083.865 3                     -1382.210 3        21.929
C10        33.000                                                                                                                                    39578540.232 4                     -1578.020 4        24.707    39578538.481 5                     -1220.322 5        31.019    39578526.801 4                     -1282.086 4        26.096
R16        34.000    24071037.582 5 128583168.60505      2602.508 5        34.262                                                                    24071077.789 5 100009173.95505      2023.975 5        30.951
C44        35.000                                                                                                                                    25201198.696 4                      2619.888 4        27.533                                                                    25201185.413 5 106634469.75905      2129.192 5        33.766
R17        36.000    21859133.982 6 116973022.68306      3264.377 6        41.273                                                                    21859138.588 5  90978833.45905      2538.971 5        34.829
C45        37.000                                                                                                                                    23984244.007 7 124892390.64107     -3289.139 7        42.753                                                                    23984244.437 7 101485169.94207     -2672.742 7        43.723
R24        38.000    20188730.496 6 107958766.89306      -319.437 6        37.270                                                                    20188746.250 4                      -248.535 4        26.491
C33        39.000                                                                                                                                                                                                                                                                    25918748.886 4                     -1600.325 4        25.098
C35        42.000                                                                                                                                    22624295.430 7 117810686.66307      1062.674 7        47.394                                                                    22624297.747 7  95730837.71707       863.401 7        47.496
R05        44.000    22097936.960 5 118126225.58305     -3693.709 5        34.819                                                                    22097973.779 4  91875910.71904     -2872.957 4        25.579
C42        45.000                                                                                                                                    26473382.989 4                     -3689.894 4        28.123
C29        46.000                                                                                                                                    23505947.353 8 122401609.09008     -2462.010 8        49.036                                                                    23505946.376 7  99461326.02507     -2000.633 7        44.083
C41        47.000                                                                                                                                    27093890.875 4                       340.827 4        26.048                                                                    27093911.164 4                       277.051 4        28.123
C26        48.000                                                                                                                                    21725249.499 8 113129091.95308      -664.597 8        48.651                                                                    21725250.465 7  91926664.80307      -540.070 7        45.669
C24        51.000                                                                                                                                    23739145.863 5 123615894.98705      1660.719 5        33.509                                                                    23739094.125 5 100447918.91805      1349.383 5        34.833
C14        53.000                                                                                                                                    25910092.111 5 134920691.77505     -3032.592 5        30.204    25910101.856 6 104329245.16806     -2344.451 6        41.011    25910117.085 5 109634127.48605     -2463.836 5        32.820
I06        58.000    38600057.279 6 151474923.96806      -742.630 6        37.467
I02        59.000    37172005.158 5 145870934.78105      -849.808 5        33.808
> 2025 01 02 13 15 30.0000000  0 42
G06         1.000    23010594.801 6 120921475.11506      -805.380 6        37.985                                    23010601.904 3  94224456.79503      -627.577 3        18.537    23010601.365 4  94224565.70604      -627.671 4        25.985
G25         3.000    20827703.205 6 109450525.32806      1137.145 6        36.752                                    20827705.748 5  85286058.78705       886.094 5        33.844    20827706.642 6  85285993.79006       885.991 6        38.541
G19         4.000    23505297.125 6 123521234.54406     -4097.259 6        37.936                                    23505294.229 1  96250243.80501     -3192.657 1         5.143
E25         6.000    23911979.698 6 125658367.59706       240.179 6        36.567                                                                    23911987.021 7  93835892.31407       179.398 7        45.324    23911985.245 7  96283680.65307       184.003 7        46.073
G11         7.000    23302582.734 7 122455931.22207      1372.529 7        42.116                                    23302582.780 3  95420208.51203      1069.499 3        19.791    23302582.839 5  95420188.50305      1069.487 5        35.333
G28         8.000    24877144.376 6 130730364.26706      2679.876 6        41.273                                                                                                    24877167.051 5                      2088.405 5        30.234
G29         9.000    23939187.748 5                      2776.050 5        34.300                                                                                                    23939191.655 4  98027011.12604      2163.008 4        28.986
E10        11.000    26619618.989 5 139887064.73305      1777.238 5        32.689                                                                    26619642.702 4                      1327.350 4        29.924
G24        12.000    21926917.702 7 115227312.37107     -3861.824 7        42.248                                    21926924.507 6  89787155.29306     -3009.212 6        37.153    21926921.317 6  89787048.28406     -3009.108 6        40.622
E12        13.000    26359094.526 5                       845.498 5        30.355
E33        14.000                                                                                                                                    27125899.709 5                     -1407.340 5        30.626    27125894.912 5                     -1444.093 5        32.814
G12        15.000    20300480.149 8 106679725.73008     -1355.950 8        49.004                                    20300480.126 7  83127066.26207     -1056.588 7        47.486    20300480.689 7  83127084.26807     -1056.546 7        45.770
E24        16.000    24345641.882 7 127937171.93407     -2113.408 7        46.942                                                                    24345643.661 8  95537563.72808     -1578.171 8        49.037    24345642.500 8  98029873.95008     -1619.358 8        50.468
G32        17.000    22951651.913 7 120612176.30507      -510.798 7        47.164                                    22951657.909 5  93983164.06805      -398.025 5        34.243    22951659.285 5  93983284.00905      -397.982 5        31.177
E05        18.000    24837117.475 5                     -3792.177 5        31.857                                                                    24837123.927 6  97466203.37606     -2832.224 6        37.456    24837119.917 5 100008822.63705     -2905.761 5        33.832
E08        20.000    27158934.785 5 142721169.37205       885.022 5        32.234                                                                    27158947.859 6 106577606.83806       660.718 6        40.858    27158944.563 6 109357901.21606       677.862 6        39.667
E02        21.000                                                                                                                                    27724892.685 4                      1170.378 4        26.946    27724861.010 3                      1199.760 3        21.524
S23        22.000    38245962.754 5 200983958.12105      -863.761 5        35.900
R14        23.000    20023845.319 6 106738345.87006     -2342.269 6        39.186                                                                    20023849.274 7  83018660.23707     -1821.705 7        43.714
R23        25.000    22859953.037 6 122285311.99406     -4375.467 6        36.590
E03        26.000    25101644.819 6 131910225.49506     -1696.978 6        40.849                                                                    25101656.639 7  98504342.27107     -1267.272 7        42.944    25101656.692 6 101074000.78406     -1300.314 6        38.141
S21        27.000    38534104.216 5 202498179.40005      -858.790 5        33.976
R15        30.000    20108950.789 8 107456402.33408       980.547 8        50.941                                                                    20108954.945 7  83577025.95207       762.639 7        42.777
S36        31.000    38305243.845 5 201295424.03605      -858.985 5        35.876
C07        32.000                                                                                                                                                                                                    40638799.899 3                     -1382.022 3        22.400
C10        33.000                                                                                                                                    39580052.257 3                     -1577.966 3        21.810    39580055.202 5                     -1220.302 5        32.701    39580038.459 4                     -1283.125 4        24.316
R16        34.000    24068601.268 6 128570156.04806      2602.422 6        36.484
C44        35.000                                                                                                                                    25198679.107 4                      2620.076 4        27.760                                                                    25198669.384 5 106623824.76705      2128.635 5        33.958
R17        36.000    21856083.094 6 116956705.72206      3262.158 6        41.142                                                                    21856089.698 5  90966142.53105      2537.252 5        35.352
C45        37.000                                                                                                                                    23987402.527 7 124908839.20407     -3290.260 7        42.085                                                                    23987402.875 7 101498535.76007     -2673.705 7        44.048
R24        38.000    20189030.064 6 107960376.05206      -324.382 6        38.450
C33        39.000                                                                                                                                                                                                                                                                    25920637.566 3                     -1601.541 3        22.495
C35        42.000                                                                                                                                    22623277.128 7 117805379.68307      1060.142 7        47.836                                                                    22623278.439 7  95726525.38707       861.471 7        47.472
R05        44.000    22101395.967 5                     -3697.019 5        35.790
C42        45.000                                                                                                                                    26476936.060 4                     -3690.141 4        29.791
C29        46.000                                                                                                                                    23508312.704 8 122413925.84208     -2464.689 8        49.478                                                                    23508311.494 7  99471334.41607     -2002.747 7        44.412
C41        47.000                                                                                                                                                                                                                                                                    27093585.183 5                       274.817 5        30.891
C26        48.000                                                                                                                                    21725888.759 8 113132419.79408      -666.529 8        48.810                                                                    21725889.297 7  91929368.97407      -541.713 7        45.803
C24        51.000                                                                                                                                                                                                                                                                    23737502.292 6 100441173.36306      1348.842 6        36.397
C14        53.000                                                                                                                                    25913000.634 4 134935856.65004     -3033.572 4        28.900    25913010.802 6 104340971.58706     -2346.078 6        41.192    25913028.911 5 109646450.25605     -2465.444 5        31.366
I06        58.000    38601003.542 6 151478637.51406      -742.891 6        37.104
I02        59.000    37173088.118 5 145875186.06505      -850.418 5        33.820
> 2025 01 02 13 15 35.0000000  0 43
G06         1.000    23011361.583 6 120925510.24506      -808.859 6        38.042                                    23011371.032 2  94227601.10402      -630.280 2        17.887    23011375.732 3  94227710.16803      -632.112 3        23.219
G25         3.000    20826621.363 5 109444843.54205      1135.484 5        35.933                                    20826624.357 5  85281631.41305       884.801 5        31.909    20826624.338 6  85281566.42006       884.751 6        38.381
G19         4.000    23509195.029 6 123541724.24206     -4098.520 6        37.236                                    23509193.296 1  96266209.88801     -3193.613 1         4.857
E25         6.000    23911752.614 6 125657168.86906       239.310 6        37.112                                                                    23911758.973 7  93834997.13807       178.727 7        45.570    23911756.221 7  96282762.12607       183.358 7        45.112
G11         7.000    23301278.402 6 122449074.59006      1370.250 6        41.421                                    23301277.258 3  95414865.70103      1067.719 3        18.925    23301278.143 5  95414845.67105      1067.630 5        33.299
G28         8.000    24874593.734 6 130716965.49906      2679.608 6        40.026                                                                                                    24874617.117 5                      2088.057 5        32.934
G29         9.000    23936549.173 5 125787396.19815      2775.050 5        33.078                                    23936555.414 3  98016193.31513      2162.375 3        20.119    23936550.946 4  98016197.31104      2162.656 4        28.986
E10        11.000    26617929.234 5 139878180.62305      1776.141 5        32.617                                                                    26617948.422 4                      1326.517 4        27.090    26617935.532 5                      1361.102 5        32.455
G24        12.000    21930593.507 6 115246625.25206     -3863.453 6        40.746                                    21930598.383 6  89802204.27406     -3010.479 6        37.418    21930596.766 6  89802097.25306     -3010.477 6        40.713
E12        13.000    26358286.200 4                       843.426 4        29.109                                                                    26358281.144 4                       629.936 4        27.605
E33        14.000                                                                                                                                    27127696.438 5                     -1409.055 5        30.445    27127688.087 5                     -1445.803 5        31.585
G12        15.000    20301771.579 8 106686510.49408     -1358.024 8        48.453                                    20301771.531 7  83132353.09707     -1058.205 7        47.377    20301771.693 7  83132371.09607     -1058.172 7        46.256
E24        16.000    24347652.627 7 127947741.60107     -2114.341 7        46.644                                                                    24347655.012 8  95545456.66408     -1578.877 8        49.224    24347653.781 8  98037972.79108     -1620.029 8        50.270
G32        17.000    22952138.783 7 120614738.25207      -513.935 7        46.940                                    22952145.803 5  93985160.36105      -400.470 5        33.066    22952148.842 4  93985280.32804      -400.561 4        29.962
E05        18.000    24840724.371 5                     -3793.051 5        31.125                                                                    24840732.470 6  97480364.65306     -2832.556 6        37.225    24840730.081 5 100023353.36005     -2906.318 5        35.243
E08        20.000    27158097.371 5 142716749.56105       883.051 5        32.407                                                                    27158106.650 6 106574306.34706       659.358 6        40.260    27158103.559 6 109354514.61906       676.539 6        39.535
E02        21.000    27723390.026 4                      1566.823 4        28.597                                                                    27723404.646 4                      1170.332 4        27.257    27723371.754 3                      1200.629 3        23.752
S23        22.000    38246792.633 6 200988276.71806      -863.844 6        36.287
R14        23.000    20026042.933 6 106750061.81906     -2344.370 6        38.811                                                                    20026047.587 7  83027772.66107     -1823.249 7        44.393
R06        24.000    22910235.905 3                       424.236 3        23.314
R23        25.000    22864042.129 6 122307194.87006     -4377.903 6        36.457
E03        26.000    25103260.421 6 131918716.21206     -1699.189 6        41.435                                                                    25103272.116 7  98510682.73707     -1268.923 7        42.717    25103273.800 6 101080506.68306     -1302.139 6        38.592
S21        27.000    38534924.016 5 202502472.47905      -858.486 5        34.638
R15        30.000    20108035.051 8 107451503.55108       978.963 8        52.005                                                                    20108037.740 7  83573215.80207       761.318 7        42.734
S36        31.000    38306058.110 5 201299718.56005      -858.926 5        35.929
C07        32.000                                                                                                                                                                                                    40640518.902 3                     -1381.058 3        22.514
C10        33.000                                                                                                                                    39581560.786 3                     -1584.051 3        19.284    39581572.106 5                     -1220.323 5        34.324    39581552.032 3                     -1282.342 3        22.990
R16        34.000    24066174.652 6 128557143.14206      2602.659 6        37.849                                                                    24066193.109 4  99988931.92304      2024.347 4        28.028
C44        35.000                                                                                                                                    25196166.024 5                      2619.262 5        30.702                                                                    25196154.345 5 106613181.83705      2128.673 5        33.671
R17        36.000    21853036.003 6 116940398.38206      3260.531 6        41.285                                                                    21853042.963 6  90953459.11006      2536.030 6        36.299
C45        37.000                                                                                                                                    23990562.830 6 124925293.24106     -3291.249 6        40.274                                                                    23990562.622 7 101511905.98307     -2674.321 7        43.975
R24        38.000    20189337.029 7 107962008.67407      -328.763 7        42.800                                                                    20189332.887 4                      -255.743 4        28.645
C33        39.000                                                                                                                                    25922526.775 3                     -1975.489 3        19.015                                                                    25922530.980 3                     -1605.261 3        21.810
C35        42.000                                                                                                                                    22622260.053 7 117800084.71207      1057.853 7        47.399                                                                    22622261.533 7  95722222.78307       859.639 7        47.268
R05        44.000    22104853.640 5                     -3700.283 5        33.425                                                                    22104872.237 4                     -2877.515 4        25.338
C42        45.000                                                                                                                                                                                                                                                                    26480504.018 4                     -2999.187 4        29.507
C29        46.000                                                                                                                                    23510679.698 8 122426254.84908     -2466.998 8        49.435                                                                    23510678.794 7  99481352.73907     -2004.645 7        44.272
C41        47.000                                                                                                                                                                                                                                                                    27093258.848 4                       272.801 4        29.137
C26        48.000                                                                                                                                    21726529.543 8 113135756.78108      -668.291 8        48.938                                                                    21726529.931 7  91932080.54007      -542.955 7        45.764
C24        51.000                                                                                                                                    23735926.930 5 123599295.68705      1659.104 5        32.904                                                                    23735910.610 5 100434430.84705      1348.375 5        35.771
C14        53.000                                                                                                                                    25915910.438 4 134951030.06704     -3035.678 4        29.801    25915922.822 7 104352704.58207     -2347.201 7        42.290    25915944.056 5 109658779.87105     -2466.881 5        31.962
I06        58.000    38601949.809 6 151482351.14106      -742.615 6        37.440
I02        59.000    37174172.592 5 145879438.23105      -850.723 5        34.743
> 2025 01 02 13 15 40.0000000  0 43
G06         1.000    23012132.072 6 120929561.73006      -811.868 6        38.072                                    23012142.508 2  94230758.19802      -632.673 2        15.381
G25         3.000    20825542.225 6 109439170.06906      1133.842 6        37.652                                    20825544.259 4  85277210.53904       883.523 4        29.668    20825543.981 6  85277145.56606       883.279 6        37.837
G19         4.000    23513094.673 6 123562219.87806     -4099.857 6        36.503                                    23513092.945 1  96282180.37801     -3194.719 1         4.429
E25         6.000    23911526.333 6 125655974.52906       238.382 6        39.772                                                                    23911531.671 7  93834105.26707       177.902 7        45.684    23911528.337 7  96281846.96707       182.569 7        44.912
G11         7.000    23299976.244 7 122442228.62507      1368.062 7        42.538                                    23299973.557 3  95409531.19003      1066.045 3        18.090    23299975.216 5  95409511.17505      1065.503 5        30.136
G28         8.000    24872043.260 6 130703568.33406      2679.166 6        38.027                                                                                                    24872070.510 5 101846965.19015      2087.709 5        34.067
G29         9.000    23933908.652 5 125773522.42805      2774.412 5        34.138                                    23933914.456 3  98005382.60903      2161.894 3        20.786    23933914.460 4  98005386.65304      2161.483 4        29.422
E10        11.000    26616238.735 5 139869302.02205      1775.282 5        34.248                                                                                                                                    26616254.278 5                      1360.164 5        32.958
G24        12.000    21934270.224 6 115265946.85806     -3865.392 6        41.688                                    21934274.307 6  89817260.07506     -3011.993 6        37.543    21934273.570 6  89817153.05006     -3012.035 6        41.170
E12        13.000    26357485.752 5                       841.487 5        30.468                                                                    26357481.300 4                       628.373 4        29.412
E33        14.000    27129487.848 4 142566413.80414     -1889.651 4        28.853                                                                    27129492.595 4                     -1410.781 4        29.327    27129482.741 5                     -1447.739 5        32.449
G12        15.000    20303064.839 7 106693305.53207     -1360.230 7        47.772                                    20303064.867 7  83137647.93607     -1059.920 7        47.126    20303064.508 7  83137665.92807     -1059.933 7        46.489
E24        16.000    24349664.469 7 127958315.14707     -2115.262 7        45.728                                                                    24349667.135 8  95553352.49608     -1579.596 8        49.515    24349665.810 8  98046074.59708     -1620.772 8        50.158
G32        17.000    22952629.330 7 120617315.85707      -517.257 7        46.860                                    22952636.827 5  93987168.88805      -403.059 5        31.570    22952640.700 4  93987288.83104      -403.078 4        27.461
E05        18.000    24844333.538 5                     -3793.840 5        30.211                                                                    24844341.627 6  97494528.61606     -2833.184 6        37.350    24844339.915 6 100037886.84106     -2907.212 6        36.151
E08        20.000    27157257.474 5 142712339.03905       881.009 5        31.313                                                                    27157267.265 6 106571012.77606       657.795 6        39.940    27157264.306 6 109351135.10306       675.109 6        39.462
E02        21.000    27721904.638 4                      1566.523 4        28.550                                                                    27721917.778 4                      1169.845 4        28.512    27721888.919 4                      1200.412 4        29.441
S23        22.000    38247604.729 5 200992594.68805      -863.877 5        34.852
R14        23.000    20028244.758 7 106761787.69307     -2346.301 7        42.015                                                                    20028247.490 7  83036892.80307     -1824.959 7        45.497
R06        24.000    22909832.131 4                       418.320 4        28.720
R23        25.000    22868135.181 6 122329090.34406     -4380.561 6        37.191
E03        26.000    25104878.489 7 131927218.22607     -1701.688 7        42.645                                                                    25104889.942 7  98517031.64207     -1270.756 7        42.938    25104892.658 6 101087021.23106     -1303.949 6        39.778
S21        27.000    38535743.137 5 202506765.05705      -858.674 5        33.485
R15        30.000    20107120.310 8 107446612.51208       977.236 8        52.026                                                                    20107122.735 7  83569411.67107       760.080 7        43.702
S36        31.000    38306872.375 5 201304012.94605      -858.984 5        35.205
C07        32.000                                                                                                                                                                                                    40642237.781 4                     -1382.864 4        24.105
C10        33.000                                                                                                                                    39583073.907 3                     -1571.731 3        18.239    39583085.933 5                     -1220.375 5        34.452    39583067.425 3                     -1282.585 3        20.810
R16        34.000    24063743.910 5 128544128.95305      2602.660 5        35.105
C44        35.000                                                                                                                                    25193655.212 5                      2618.876 5        31.902                                                                    25193639.456 5 106602540.33305      2128.263 5        33.886
R17        36.000    21849991.442 6 116924099.85206      3258.542 6        41.101                                                                    21849996.741 6  90940782.49606      2534.519 6        37.490
C45        37.000                                                                                                                                    23993724.360 6 124941751.93006     -3292.337 6        40.760                                                                    23993723.124 7 101525279.99107     -2675.215 7        43.718
R24        38.000    20189649.890 7 107963663.84107      -333.367 7        43.558                                                                    20189647.627 5                      -259.429 5        35.109
C33        39.000                                                                                                                                    25924425.408 3                     -1976.948 3        22.686                                                                    25924426.595 3                     -1605.227 3        23.276
C35        42.000                                                                                                                                    22621245.001 7 117794800.94107      1055.395 7        47.284                                                                    22621246.772 7  95717929.28007       857.793 7        47.063
R05        44.000    22108315.291 5 118181702.58215     -3703.049 5        34.524
C42        45.000                                                                                                                                                                                                                                                                    26484045.772 4                     -2999.352 4        29.896
C29        46.000                                                                                                                                    23513048.310 8 122438595.32308     -2469.424 8        49.245                                                                    23513048.558 7  99491380.34107     -2006.361 7        43.843
C41        47.000                                                                                                                                                                                                                                                                    27092935.783 4                       270.840 4        28.720
C26        48.000                                                                                                                                    21727171.732 8 113139102.09908      -670.064 8        49.419                                                                    21727172.286 7  91934798.88607      -544.294 7        45.305
C24        51.000                                                                                                                                    23734334.264 5 123591000.88405      1658.429 5        34.662                                                                    23734314.257 5 100427690.78305      1348.063 5        32.844
C14        53.000                                                                                                                                    25918831.140 5 134966211.13605     -3036.964 5        30.891    25918839.629 6 104364443.56006     -2348.538 6        41.950    25918855.734 5 109671115.74005     -2467.627 5        30.717
I06        58.000    38602896.294 6 151486064.22106      -742.560 6        37.433
I02        59.000    37175256.448 5 145883690.69305      -850.489 5        34.729
> 2025 01 02 13 15 45.0000000  0 43
G06         1.000    23012906.564 6 120933630.68806      -815.416 6        39.123                                    23012916.537 2  94233928.90902      -635.409 2        13.697    23012988.123 3                      -636.390 3        20.571
G25         3.000    20824464.331 6 109433506.01306      1132.030 6        40.052                                    20824465.977 4  85272796.99004       882.094 4        29.071    20824464.969 5  85272732.04405       882.294 5        35.848
G19         4.000    23516995.782 6 123582722.53906     -4101.087 6        36.026                                    23516993.997 1  96298156.54001     -3195.696 1         3.600
E25         6.000    23911300.612 6 125654785.65906       237.289 6        40.260                                                                    23911305.413 7  93833217.46907       177.251 7        45.713    23911301.819 7  96280936.01307       181.855 7        44.578
G11         7.000    23298676.661 7 122435394.46507      1365.667 7        43.522                                    23298672.073 2  95404205.87302      1064.149 2        17.962    23298672.958 4  95404185.90704      1063.988 4        26.623
G28         8.000    24869495.112 6 130690173.83506      2678.831 6        37.077                                    24869516.834 2 101836513.83012      2087.380 2        12.788    24869520.959 5 101836527.84605      2087.097 5        34.057
G29         9.000    23931269.407 6 125759653.78606      2773.360 6        36.083                                    23931274.638 3  97994575.89403      2161.047 3        21.667    23931274.213 5  97994579.88105      2161.227 5        30.551
E10        11.000    26614551.391 5 139860430.10005      1773.745 5        34.971                                                                    26614554.157 4                      1324.519 4        28.408    26614572.988 5                      1359.125 5        32.365
G24        12.000    21937949.147 7 115285278.28307     -3867.065 7        42.834                                    21937952.422 6  89832323.51306     -3013.295 6        37.474    21937952.340 6  89832216.49506     -3013.361 6        40.620
E12        13.000    26356685.918 5                       839.013 5        31.638                                                                    26356683.013 5                       626.722 5        30.506
E33        14.000    27131287.945 4 142575867.31204     -1891.560 4        29.801                                                                    27131291.681 4                     -1412.601 4        27.713    27131281.769 5                     -1449.833 5        31.940
G12        15.000    20304360.134 7 106700111.93707     -1362.304 7        47.951                                    20304360.323 7  83142951.63207     -1061.533 7        47.222    20304359.629 7  83142969.63007     -1061.584 7        46.573
E24        16.000    24351677.580 7 127968893.63807     -2115.933 7        45.043                                                                    24351680.255 8  95561252.01108     -1580.117 8        49.641    24351678.862 8  98054180.20008     -1621.394 8        49.934
G32        17.000    22953123.007 7 120619910.19007      -520.433 7        45.998                                    22953130.879 4  93989190.42204      -405.529 4        29.422    22953132.665 3  93989310.16403      -404.341 3        22.571
E05        18.000    24847943.810 4                     -3795.138 4        29.251                                                                    24847952.071 6  97508696.05706     -2833.771 6        36.760    24847950.499 6 100052423.87806     -2907.827 6        36.938
E08        20.000    27156417.453 5 142707938.77805       879.499 5        30.158                                                                    27156429.905 6 106567726.92106       656.379 6        39.583    27156427.466 6 109347763.51906       673.792 6        39.532
E02        21.000    27720415.271 4                      1566.136 4        28.360                                                                    27720430.270 4                      1169.705 4        28.711    27720405.941 4                      1200.148 4        28.057
S23        22.000    38248422.938 5 200996913.05005      -863.663 5        35.352
R14        23.000    20030447.817 7 106773524.66007     -2348.350 7        44.576                                                                    20030449.235 7  83046021.55207     -1826.562 7        46.507
R06        24.000    22909442.532 5                       414.398 5        31.977
R23        25.000    22872230.611 5 122350999.75905     -4383.315 5        35.052
E03        26.000    25106498.775 7 131935732.62407     -1704.000 7        43.137                                                                    25106510.080 7  98523389.79707     -1272.532 7        42.840    25106513.470 6 101093545.24106     -1305.611 6        40.837
S21        27.000    38536554.893 5 202511058.27505      -858.568 5        33.240
R15        30.000    20106206.201 8 107441730.63508       975.639 8        52.205                                                                    20106209.291 7  83565614.68807       758.846 7        45.953
S36        31.000    38307696.047 6 201308307.73706      -858.634 6        36.231
C07        32.000                                                                                                                                                                                                    40643954.298 4                     -1382.753 4        24.195
C10        33.000                                                                                                                                                                                                    39584601.773 5 159390792.37515     -1220.627 5        34.829    39584584.396 3                     -1286.547 3        22.952
R16        34.000    24061305.055 5 128531114.73005      2602.761 5        33.323                                                                    24061333.211 3                      2024.170 3        22.590
C44        35.000                                                                                                                                    25191145.769 5                      2618.354 5        32.114                                                                    25191124.745 5 106591901.21705      2127.719 5        34.057
R17        36.000    21846947.316 6 116907811.32906      3256.751 6        41.216                                                                    21846952.339 6  90928113.72106      2533.265 6        37.690
C45        37.000                                                                                                                                    23996888.509 6 124958216.35906     -3293.456 6        41.092                                                                    23996884.665 7 101538658.68407     -2676.206 7        43.274
R24        38.000    20189961.790 7 107965342.70407      -338.024 7        43.264                                                                    20189962.111 5  83972615.54615      -262.975 5        35.857
C33        39.000                                                                                                                                    25926325.088 4                     -1979.094 4        26.802                                                                    25926327.254 4                     -1607.192 4        24.556
C35        42.000                                                                                                                                    22620232.717 7 117789529.44207      1053.118 7        47.187                                                                    22620234.482 7  95713645.79107       855.669 7        47.347
R05        44.000    22111784.885 6 118200226.18316     -3706.076 6        40.715                                                                    22111838.600 5                     -2879.359 5        34.148
C42        45.000                                                                                                                                    26487551.133 3                     -3693.029 3        23.981                                                                    26487591.214 5                     -2999.914 5        30.015
C29        46.000                                                                                                                                    23515419.863 8 122450948.28708     -2471.728 8        49.203                                                                    23515420.826 7  99501418.17107     -2008.491 7        43.831
C41        47.000                                                                                                                                                                                                                                                                    27092617.645 4                       268.089 4        28.929
C26        48.000                                                                                                                                    21727815.569 8 113142456.83708      -671.732 8        49.273                                                                    21727816.410 7  91937524.93407      -545.904 7        45.129
C24        51.000                                                                                                                                    23732744.999 6 123582710.09506      1657.829 6        36.594                                                                    23732718.743 5 100420953.89305      1347.271 5        33.168
C14        53.000                                                                                                                                    25921750.880 5 134981400.99505     -3039.005 5        30.626    25921757.550 7 104376189.27207     -2349.708 7        42.002    25921769.008 5 109683458.75905     -2469.286 5        30.574
I06        58.000    38603842.231 6 151489777.61406      -742.777 6        37.161
I02        59.000    37176341.023 5 145887944.14905      -850.689 5        35.257
> 2025 01 02 13 15 50.0000000  0 43
G06         1.000    23013687.244 6 120937716.74306      -819.042 6        38.748                                    23013693.611 2  94237112.92202      -638.264 2        12.727
G25         3.000    20823388.603 7 109427851.07507      1130.293 7        42.125                                    20823389.152 4  85268390.57304       880.749 4        29.507    20823388.861 5  85268325.63005       880.435 5        34.352
G19         4.000    23520900.761 5 123603231.96505     -4102.626 5        35.438                                    23520896.628 1  96314137.86001     -3197.002 1         2.000
E25         6.000    23911075.548 6 125653601.97106       236.280 6        40.093                                                                    23911080.139 7  93832333.52507       176.565 7        45.463    23911076.404 7  96280029.01407       181.139 7        44.135
G11         7.000    23297378.604 7 122428571.77307      1363.552 7        43.445                                    23297372.843 2  95398889.47602      1062.484 2        17.019    23297376.063 4  95398869.50504      1062.437 4        27.892
G28         8.000    24866946.426 6 130676781.73606      2678.340 6        36.526                                    24866968.165 1 101826078.47201      2087.048 1        10.593    24866974.896 5 101826092.46905      2086.890 5        35.371
G29         9.000    23928630.763 6 125745789.95706      2772.306 6        36.499                                    23928635.893 3  97983772.92503      2160.232 3        22.267    23928638.964 5  97983776.95305      2160.242 5        32.880
E10        11.000    26612865.292 5 139851564.52805      1772.522 5        34.833                                                                    26612868.502 5                      1323.627 5        30.596    26612888.510 5                      1357.943 5        32.114
G24        12.000    21941629.873 7 115304619.21907     -3869.071 7        43.450                                    21941632.487 6  89847394.36006     -3014.859 6        37.471    21941632.789 6  89847287.33706     -3014.922 6        40.355
E12        13.000    26355888.480 5                       836.978 5        32.742                                                                    26355887.610 5                       625.091 5        31.826
E33        14.000    27133088.898 4 142585332.86504     -1894.131 4        29.611                                                                    27133093.030 4                     -1415.019 4        26.623    27133082.679 5                     -1451.635 5        32.311
G12        15.000    20305657.580 8 106706929.30808     -1364.424 8        48.472                                    20305657.818 7  83148263.86807     -1063.187 7        47.431    20305657.146 7  83148281.86707     -1063.161 7        47.051
E24        16.000    24353691.815 7 127979476.78807     -2116.928 7        44.304                                                                    24353694.108 8  95569155.01108     -1580.844 8        49.657    24353692.708 8  98062289.36308     -1622.142 8        49.721
G32        17.000    22953620.083 7 120622520.93007      -523.689 7        46.666                                    22953627.328 4  93991224.69804      -408.040 4        25.940    22953626.160 4                      -408.346 4        25.519
E05        18.000                                                                                                                                    24851563.087 6  97522866.73306     -2834.327 6        36.703    24851561.031 6 100066964.22506     -2908.337 6        37.690
E08        20.000    27155581.175 4 142703548.59304       876.881 4        28.540                                                                    27155594.419 6 106564448.56906       654.773 6        39.048    27155592.076 6 109344399.63906       672.127 6        39.658
E02        21.000    27718922.182 4                      1565.876 4        29.336                                                                    27718943.098 4                      1169.720 4        27.293    27718916.506 5                      1199.858 5        30.000
S23        22.000    38249250.537 5 201001231.72005      -863.629 5        35.338
R14        23.000    20032653.039 7 106785272.41807     -2350.450 7        46.924                                                                    20032653.289 7  83055158.68407     -1828.108 7        47.364
R06        24.000    22909060.074 5                       409.992 5        31.532
R23        25.000    22876331.470 5 122372922.64705     -4385.755 5        34.129
E03        26.000    25108121.398 7 131944259.11707     -1706.403 7        43.553                                                                    25108132.478 7  98529756.98207     -1274.354 7        42.671    25108136.258 6 101100078.54406     -1307.557 6        41.263
S21        27.000    38537359.320 5 202515351.56805      -858.372 5        33.689
R15        30.000    20105293.875 8 107436857.46108       973.878 8        51.844                                                                    20105298.258 7  83561824.46307       757.498 7        47.173
S36        31.000    38308515.432 5 201312602.68905      -859.058 5        35.738
C07        32.000                                                                                                                                                                                                    40645666.974 3                     -1383.897 3        21.286
C10        33.000                                                                                                                                    39586107.974 3                     -1574.751 3        19.075    39586118.181 5 159396895.07705     -1220.366 5        34.067    39586098.993 3                     -1279.267 3        22.552
R16        34.000                                                                                                                                    24058902.625 4                      2024.528 4        27.713
C44        35.000                                                                                                                                    25188640.104 5                      2617.771 5        32.443                                                                    25188610.777 5 106581264.11205      2127.517 5        33.557
R17        36.000    21843905.574 6 116891532.44406      3254.801 6        41.137                                                                    21843910.426 6  90915452.42306      2531.607 6        38.646
C45        37.000                                                                                                                                    24000053.063 6 124974686.16406     -3294.320 6        41.814                                                                    24000046.926 7 101552041.76407     -2677.069 7        42.790
R24        38.000    20190274.905 7 107967044.91107      -342.683 7        42.127                                                                    20190282.629 6  83973939.52006      -266.450 6        38.264
C33        39.000                                                                                                                                    25928230.723 5                     -1981.762 5        33.072                                                                    25928231.011 4                     -1610.958 4        25.143
C35        42.000                                                                                                                                    22619221.857 7 117784269.92507      1050.768 7        46.881                                                                    22619224.642 7  95709372.00507       853.894 7        47.552
R05        44.000                                                                                                                                    22115305.615 5  91948102.08215     -2885.084 5        31.887
C42        45.000                                                                                                                                                                                                                                                                    26491136.929 4                     -3000.307 4        27.725
C29        46.000                                                                                                                                    23517794.466 8 122463313.45608     -2474.133 8        48.538                                                                    23517795.513 7  99511465.87307     -2010.449 7        44.066
C41        47.000                                                                                                                                    27092303.905 5                       327.980 5        32.048                                                                    27092299.980 4                       266.595 4        28.976
C26        48.000                                                                                                                                    21728461.056 8 113145820.69608      -673.505 8        48.885                                                                    21728462.466 7  91940258.34407      -547.297 7        45.309
C24        51.000                                                                                                                                    23731148.053 6 123574423.03606      1657.335 6        39.450                                                                    23731126.775 5 100414220.07605      1346.349 5        32.353
C14        53.000                                                                                                                                    25924667.717 5 134996599.32405     -3040.532 5        32.772    25924677.165 7 104387941.57407     -2351.066 7        42.144    25924688.839 5 109695808.63005     -2470.628 5        30.543
I06        58.000    38604789.273 6 151493491.02906      -742.656 6        37.051
I02        59.000    37177425.252 5 145892198.55005      -850.816 5        35.800
> 2025 01 02 13 15 55.0000000  0 43
G06         1.000    23014466.296 6 120941819.62206      -822.229 6        36.881                                    23014473.677 2  94240310.06402      -640.685 2        13.758    23014523.285 3                      -641.573 3        21.929
G25         3.000    20822314.228 7 109422204.97507      1128.314 7        43.255                                    20822313.794 5  85263991.04105       879.199 5        30.113    20822314.817 5  85263926.09205       878.970 5        34.109
G19         4.000    23524807.606 6 123623747.76406     -4103.755 6        36.272
E25         6.000    23910850.168 6 125652423.19306       235.275 6        40.906                                                                    23910855.853 7  93831453.25707       175.710 7        45.366    23910852.050 7  96279125.78107       180.305 7        43.966
G11         7.000    23296082.164 7 122421760.31407      1361.271 7        42.762                                    23296076.234 2  95393581.84202      1060.754 2        17.094    23296079.793 4  95393561.83304      1060.957 4        29.573
G28         8.000    24864396.425 5 130663391.78905      2677.703 5        33.515                                    24864420.561 1 101815644.70101      2086.496 1         8.857    24864432.730 5 101815658.72305      2086.465 5        34.529
G29         9.000    23925992.603 5 125731930.68505      2771.417 5        35.305                                    23925998.338 3  97972973.52703      2159.553 3        23.105    23926001.623 5  97972977.52705      2159.459 5        33.006
E10        11.000    26611177.521 5 139842705.01205      1771.305 5        34.333                                                                    26611184.252 5                      1322.755 5        32.377    26611202.033 5                      1357.230 5        32.102
G24        12.000    21945311.128 7 115323969.38307     -3871.008 7        43.943                                    21945314.363 6  89862472.40106     -3016.364 6        37.013    21945314.333 6  89862365.37006     -3016.405 6        39.718
E12        13.000    26355091.140 5                       835.317 5        32.072                                                                    26355093.132 5                       623.679 5        32.623
E33        14.000    27134892.492 4 142594810.30904     -1896.770 4        28.047                                                                    27134896.480 4                     -1416.386 4        25.429    27134885.293 5                     -1453.350 5        32.509
G12        15.000    20306957.009 8 106713757.38708     -1366.672 8        48.388                                    20306957.325 7  83153584.45307     -1064.939 7        47.652    20306956.734 7  83153602.44607     -1064.908 7        47.348
E24        16.000    24355706.759 7 127990064.30007     -2117.894 7        43.666                                                                    24355708.937 8  95577061.27608     -1581.578 8        49.728    24355707.456 8  98070401.87308     -1622.796 8        49.536
G32        17.000    22954120.118 7 120625147.82007      -526.978 7        46.351                                    22954126.937 3  93993271.50703      -410.597 3        22.038
E05        18.000    24855183.474 4                     -3796.640 4        29.147                                                                    24855175.091 6  97537040.45706     -2835.035 6        36.767    24855172.615 6 100081507.68506     -2908.821 6        38.138
E08        20.000    27154745.867 4 142699168.14004       875.319 4        27.820                                                                    27154761.035 6 106561177.50606       653.467 6        38.757    27154758.676 6 109341043.24306       670.505 6        39.345
E02        21.000    27717427.467 5                      1565.741 5        30.377                                                                    27717456.882 4                      1168.899 4        25.489    27717427.760 5                      1199.785 5        31.502
S23        22.000    38250073.458 5 201005550.36205      -864.040 5        35.390
R14        23.000    20034859.606 7 106797030.71207     -2352.682 7        47.090                                                                    20034859.593 7  83064304.04207     -1829.893 7        47.425
R06        24.000    22908676.355 5                       405.993 5        32.569
R23        25.000    22880429.418 5 122394858.53405     -4388.181 5        32.084
E03        26.000    25109747.005 7 131952797.39507     -1708.825 7        44.153                                                                    25109756.862 7  98536132.97207     -1276.114 7        42.546    25109760.547 6 101106620.86706     -1309.396 6        41.559
S21        27.000    38538187.822 5 202519644.71405      -858.519 5        33.808
R15        30.000    20104383.921 8 107431992.69008       972.122 8        51.601                                                                    20104387.763 7  83558040.77107       756.117 7        47.764
S36        31.000    38309318.849 5 201316897.67105      -858.753 5        35.329
C07        32.000                                                                                                                                                                                                    40647379.780 3                     -1382.424 3        22.686
C10        33.000                                                                                                                                                                                                    39587632.523 5 159402997.90505     -1220.475 5        34.052    39587615.114 3                     -1280.595 3        23.448
R16        34.000    24056435.226 5                      2603.037 5        32.084
C44        35.000                                                                                                                                    25186130.008 5                      2617.550 5        32.269                                                                    25186097.213 5 106570628.88505      2126.865 5        33.323
R17        36.000    21840864.121 6 116875262.97006      3252.991 6        40.305                                                                    21840869.567 6  90902798.45506      2530.098 6        37.796
C45        37.000                                                                                                                                    24003218.559 7 124991161.14207     -3295.487 7        42.347                                                                    24003210.353 7 101565429.00407     -2677.728 7        42.174
R24        38.000    20190597.898 6 107968770.28506      -347.226 6        41.423                                                                    20190605.252 6  83975281.48106      -270.176 6        39.189
C33        39.000                                                                                                                                    25930136.542 6                     -1984.157 6        36.885                                                                    25930140.323 4                     -1612.047 4        28.076
C35        42.000                                                                                                                                    22618213.150 7 117779022.13207      1048.380 7        46.984                                                                    22618216.964 7  95705107.73007       852.107 7        47.556
R05        44.000    22118740.216 6 118237320.33806     -3712.433 6        38.186                                                                    22118777.064 5  91962533.76205     -2887.799 5        30.294
C42        45.000                                                                                                                                                                                                                                                                    26494682.460 4                     -3001.027 4        26.683
C29        46.000                                                                                                                                    23520171.272 7 122475690.55207     -2476.607 7        47.918                                                                    23520172.626 7  99521523.23407     -2012.147 7        44.278
C41        47.000                                                                                                                                    27091990.203 5                       325.635 5        33.293                                                                    27091987.182 4                       264.478 4        29.431
C26        48.000                                                                                                                                    21729108.550 8 113149193.39608      -675.426 8        48.139                                                                    21729110.244 7  91942998.92007      -548.573 7        45.571
C24        51.000                                                                                                                                    23729549.428 6 123566139.43806      1656.493 6        41.144                                                                    23729535.789 5 100407489.00305      1346.127 5        32.677
C14        53.000                                                                                                                                    25927590.556 5 135011805.75205     -3042.066 5        35.500    25927597.900 6 104399700.15206     -2352.238 6        41.130    25927611.296 4 109708165.12504     -2471.951 4        29.735
I06        58.000    38605735.117 6 151497204.33006      -742.551 6        37.422
I02        59.000    37178509.303 5 145896453.41905      -851.034 5        35.743
> 2025 01 02 13 16  0.0000000  0 43
G06         1.000    23015248.533 6 120945939.21406      -825.056 6        37.788                                    23015256.604 2  94243520.13502      -642.849 2        14.905
G25         3.000    20821241.109 7 109416567.51607      1126.932 7        44.084                                    20821240.331 5  85259598.24705       878.124 5        31.132    20821241.822 5  85259533.27805       877.975 5        35.167
G19         4.000    23528714.003 5 123644269.80005     -4104.562 5        35.881
E25         6.000    23910625.301 6 125651249.08706       234.606 6        40.257                                                                    23910632.411 7  93830576.49307       175.247 7        45.141    23910628.952 7  96278226.14707       179.766 7        43.712
G11         7.000    23294787.518 6 122414959.89106      1359.270 6        41.101                                    23294782.043 2  95388282.83002      1059.163 2        16.792    23294785.696 4  95388262.89804      1059.023 4        29.100
G28         8.000    24861847.645 5 130650003.75305      2677.803 5        33.138                                    24861873.458 1 101805212.53601      2086.573 1         7.750    24861890.924 5 101805226.49105      2086.561 5        33.904
G29         9.000    23923356.879 5 125718075.76605      2770.775 5        35.138                                    23923361.744 3  97962177.49703      2159.054 3        23.257    23923362.515 5  97962181.51405      2159.128 5        33.922
E10        11.000    26609490.906 5 139833851.41305      1770.434 5        33.916                                                                    26609500.302 5                      1321.956 5        33.934    26609516.808 5                      1356.217 5        31.306
G24        12.000    21948994.307 7 115343328.53207     -3872.556 7        44.336                                    21948997.916 6  89877557.43106     -3017.571 6        36.805    21948998.068 6  89877450.39406     -3017.409 6        38.535
E12        13.000    26354294.758 5                       833.029 5        30.649                                                                    26354300.228 5                       622.105 5        33.018
E33        14.000    27136700.059 4 142604299.47704     -1898.903 4        27.269                                                                    27136702.054 3                     -1418.480 3        23.638    27136691.408 5                     -1455.150 5        31.781
G12        15.000    20308258.473 8 106720595.97708     -1368.491 8        48.122                                    20308258.791 8  83158913.22408     -1066.353 8        48.055    20308258.055 7  83158931.22207     -1066.345 7        47.576
E24        16.000    24357722.111 7 128000655.97107     -2118.555 7        43.272                                                                    24357724.527 8  95584970.64508     -1581.912 8        49.994    24357722.963 8  98078517.57708     -1623.228 8        49.414
G32        17.000    22954622.139 7 120627790.66007      -529.918 7        45.415                                    22954631.184 3  93995330.75903      -412.900 3        21.571
E05        18.000    24858795.320 4                     -3797.135 4        27.808                                                                    24858787.938 6  97551217.04306     -2835.550 6        36.469    24858785.849 6 100096054.11906     -2909.468 6        38.631
E08        20.000    27153918.894 5 142694797.33405       873.202 5        32.317                                                                    27153929.130 6 106557913.57806       652.353 6        38.390    27153927.415 6 109337694.17806       669.276 6        39.568
E02        21.000    27715934.754 4                      1565.450 4        27.269                                                                    27715969.035 3                      1169.287 3        22.800    27715935.258 5                      1199.685 5        32.910
S23        22.000    38250872.519 5 201009868.90505      -863.346 5        33.587
R14        23.000    20037066.326 7 106808799.27907     -2354.505 7        46.507                                                                    20037067.432 7  83073457.37907     -1831.222 7        47.420
R06        24.000    22908297.595 5                       402.097 5        34.071
R23        25.000    22884533.216 4 122416807.46404     -4391.279 4        28.815
E03        26.000    25111374.216 7 131961347.27107     -1710.820 7        43.657                                                                    25111383.631 7  98542517.62607     -1277.637 7        42.195    25111386.576 6 101113172.07106     -1310.929 6        41.697
S21        27.000    38539011.835 5 202523937.44905      -858.215 5        33.874
R15        30.000    20103475.784 8 107427136.17408       970.729 8        52.155                                                                    20103478.900 7  83554263.49407       755.030 7        47.913
S36        31.000    38310146.197 6 201321191.98206      -858.612 6        36.563
C07        32.000                                                                                                                                                                                                    40649087.399 3                     -1382.548 3        21.405
C10        33.000                                                                                                                                    39589138.317 3                     -1576.989 3        23.600    39589146.985 5 159409100.65705     -1220.308 5        33.707    39589130.650 3                     -1284.171 3        23.048
R16        34.000    24053999.945 5                      2603.689 5        34.233                                                                    24054049.162 4                      2024.081 4        25.850
C44        35.000                                                                                                                                    25183615.472 5                      2617.876 5        33.898                                                                    25183583.852 5 106559995.38705      2126.557 5        33.317
R17        36.000    21837824.564 6 116859002.60306      3251.490 6        40.069                                                                    21837829.352 6  90890151.53906      2529.098 6        37.478
C45        37.000                                                                                                                                    24006383.387 7 125007641.07207     -3296.234 7        42.533                                                                    24006375.245 6 101578820.29706     -2678.380 6        41.933
R24        38.000    20190927.117 6 107970518.55806      -351.705 6        41.805                                                                    20190929.951 6  83976641.23806      -273.421 6        39.030
C33        39.000                                                                                                                                    25932040.692 6 135034951.07116     -1986.150 6        38.198                                                                    25932054.539 5                     -1614.182 5        30.000
C35        42.000                                                                                                                                    22617207.589 7 117773785.85007      1046.368 7        47.035                                                                    22617211.492 7  95700852.84507       850.217 7        47.749
R05        44.000    22122204.514 6 118255890.28106     -3715.173 6        37.989                                                                    22122250.352 5  91976977.08805     -2889.742 5        31.766
C42        45.000                                                                                                                                                                                                                                                                    26498229.539 4                     -3001.449 4        25.925
C29        46.000                                                                                                                                    23522550.434 7 122488079.35307     -2478.653 7        47.692                                                                    23522551.860 7  99531590.15707     -2014.140 7        44.284
C41        47.000                                                                                                                                    27091679.684 5                       323.403 5        34.771                                                                    27091675.161 4                       262.724 4        29.507
C26        48.000                                                                                                                                    21729757.599 7 113152574.74707      -676.805 7        47.883                                                                    21729759.733 7  91945746.55607      -549.999 7        45.768
C24        51.000                                                                                                                                    23727953.133 6 123557859.09706      1656.014 6        40.930                                                                    23727946.202 5 100400760.58105      1345.724 5        33.311
C14        53.000                                                                                                                                    25930515.377 6 135027020.19406     -3043.374 6        36.575    25930520.043 6 104411464.89106     -2353.322 6        40.601    25930536.340 5 109720528.12205     -2472.769 5        30.091
I06        58.000    38606681.266 6 151500917.32506      -742.051 6        37.516
I02        59.000    37179594.324 5 145900708.77305      -850.969 5        35.386
> 2025 01 02 13 16  5.0000000  0 43
G06         1.000    23016037.819 6 120950075.54006      -828.588 6        36.900                                    23016042.206 2  94246743.26702      -645.655 2        16.566
G25         3.000    20820170.018 7 109410938.79607      1125.069 7        44.156                                    20820169.020 5  85255212.26405       876.671 5        32.395    20820170.523 6  85255147.26106       876.774 6        36.223
G19         4.000    23532619.396 5 123664798.13305     -4106.061 5        35.557
E25         6.000    23910402.378 6 125650079.76206       233.616 6        39.790                                                                    23910409.937 7  93829703.30107       174.479 7        45.150    23910406.781 7  96277330.18007       179.041 7        43.323
G11         7.000    23293494.783 6 122408170.59306      1356.901 6        38.823                                    23293490.218 2  95382992.48402      1057.297 2        15.905    23293493.661 5  95382972.54905      1057.324 5        30.226
G28         8.000    24859301.490 5 130636617.71505      2677.313 5        33.533                                    24859325.720 1 101794781.79601      2086.219 1         6.750    24859342.592 5 101794795.83705      2085.918 5        33.240
G29         9.000    23920720.982 6 125704225.28406      2769.912 6        37.369                                    23920726.147 4  97951384.96004      2158.368 4        24.075    23920727.641 5  97951388.95705      2158.222 5        34.500
E10        11.000    26607806.828 5 139825003.78205      1769.229 5        33.287                                                                    26607817.445 5 104414788.09515      1321.090 5        35.319    26607832.759 4                      1355.389 4        28.578
G24        12.000    21952680.049 7 115362696.78107     -3874.414 7        44.551                                    21952683.204 6  89892649.54806     -3019.015 6        36.484    21952684.463 6  89892542.51206     -3018.835 6        38.015
E12        13.000    26353500.960 4                       830.902 4        27.305                                                                    26353508.809 5                       620.645 5        33.024
E33        14.000    27138506.286 4 142613800.22904     -1901.265 4        26.180                                                                                                                                    27138501.686 5                     -1456.981 5        32.060
G12        15.000    20309561.966 8 106727445.15208     -1370.704 8        48.354                                    20309562.162 8  83164250.23908     -1068.081 8        48.295    20309560.788 7  83164268.23407     -1068.062 7        47.191
E24        16.000    24359738.176 7 128011251.88607     -2119.348 7        43.098                                                                    24359740.968 8  95592883.18708     -1582.719 8        50.158    24359739.400 8  98086636.53108     -1623.919 8        49.333
G32        17.000    22955127.968 7 120630449.50807      -533.203 7        44.438                                    22955138.799 3  93997402.50603      -415.475 3        23.752    22955196.389 5                      -415.619 5        32.802
E05        18.000    24862410.300 4                     -3797.907 4        24.797                                                                    24862401.412 6  97565396.52106     -2835.897 6        36.764    24862399.075 6 100110603.50006     -2909.994 6        38.925
E08        20.000    27153090.901 5 142690436.11205       871.393 5        35.057                                                                    27153098.942 6 106554656.86706       650.694 6        38.348    27153097.681 6 109334352.49706       667.832 6        39.898
E02        21.000    27714444.474 3                      1564.738 3        21.595                                                                    27714483.338 3                      1169.219 3        21.143    27714436.446 5                      1199.458 5        33.473
S23        22.000    38251697.860 5 201014187.19805      -863.427 5        33.988
R14        23.000    20039273.150 7 106820578.12507     -2356.644 7        44.006                                                                    20039276.453 7  83082618.72007     -1832.967 7        46.775
R06        24.000    22907923.371 5 122241065.36015       397.822 5        34.224
R23        25.000    22888635.360 4 122438769.46504     -4393.848 4        29.545
E03        26.000    25113002.886 7 131969908.81207     -1713.327 7        42.773                                                                    25113012.290 6  98548911.00506     -1279.467 6        41.805    25113015.243 7 101119732.21807     -1312.773 7        42.135
S21        27.000    38539826.632 5 202528229.94405      -858.441 5        33.701
R15        30.000    20102568.619 8 107422288.09608       968.976 8        52.480                                                                    20102571.820 7  83550492.78407       753.659 7        47.964
S36        31.000    38310954.340 5 201325486.14005      -859.026 5        35.814
C07        32.000                                                                                                                                                                                                    40650796.855 3                     -1383.512 3        21.643
C10        33.000                                                                                                                                    39590664.138 3                     -1577.267 3        23.848    39590663.214 5 159415203.45805     -1220.380 5        33.263    39590646.409 3                     -1282.464 3        22.533
R16        34.000    24051561.575 5 128479127.59715      2603.793 5        34.657
C44        35.000                                                                                                                                    25181098.788 5 131124609.62815      2616.556 5        34.633                                                                    25181071.018 5 106549363.65005      2126.452 5        33.485
R17        36.000    21834787.585 6 116842751.70106      3249.438 6        39.916                                                                    21834791.972 6  90877512.00306      2527.316 6        37.372
C45        37.000                                                                                                                                    24009548.355 7 125024126.04307     -3297.339 7        42.104                                                                    24009541.168 6 101592215.64806     -2679.321 6        41.847
R24        38.000    20191257.499 6 107972289.79406      -356.408 6        39.258                                                                    20191260.796 6  83978018.87306      -277.066 6        38.859
C33        39.000                                                                                                                                    25933946.532 6 135044889.58106     -1988.897 6        38.009                                                                    25933968.698 5                     -1616.200 5        33.000
C35        42.000                                                                                                                                    22616204.592 7 117768561.18007      1043.990 7        47.418                                                                    22616208.286 7  95696607.38307       848.240 7        47.779
R05        44.000    22125669.846 6 118274475.49406     -3718.372 6        37.146                                                                    22125723.702 5  91991432.32605     -2891.661 5        32.006
C42        45.000                                                                                                                                                                                                                                                                    26501782.158 4                     -3001.179 4        26.754
C29        46.000                                                                                                                                    23524931.920 7 122500479.94307     -2481.166 7        47.696                                                                    23524933.256 7  99541666.64307     -2016.061 7        44.748
C41        47.000                                                                                                                                    27091366.389 6 141071869.84016       320.965 6        36.170                                                                    27091367.352 4                       260.493 4        29.810
C26        48.000                                                                                                                                    21730408.347 8 113155964.83208      -678.743 8        48.026                                                                    21730410.774 7  91948501.27007      -551.508 7        45.919
C24        51.000                                                                                                                                    23726356.639 6 123549582.07806      1655.268 6        39.273                                                                    23726356.436 5 100394034.82805      1345.045 5        33.216
C14        53.000                                                                                                                                    25933439.965 6 135042242.64706     -3045.377 6        37.233    25933444.335 6 104423235.86106     -2354.657 6        39.102    25933460.200 5 109732897.66705     -2474.202 5        31.162
I06        58.000    38607627.355 6 151504630.11406      -742.489 6        37.217
I02        59.000    37180678.886 5 145904964.59205      -851.107 5        35.295
> 2025 01 02 13 16 10.0000000  0 43
G06         1.000    23016827.942 6 120954228.97406      -832.533 6        36.261                                    23016830.213 3  94249979.72703      -648.731 3        18.537
G25         3.000    20819101.257 7 109405319.15707      1123.014 7        44.996                                    20819099.743 5  85250833.35405       875.077 5        33.796    20819101.999 6  85250768.35106       875.045 6        37.592
G19         4.000    23536525.376 5 123685333.10305     -4107.612 5        35.367
E25         6.000    23910181.942 6 125648915.60206       232.068 6        40.467                                                                    23910188.372 7  93828833.96107       173.424 7        45.100    23910185.548 7  96276438.16007       177.940 7        43.120
G11         7.000    23292203.837 6 122401392.79206      1354.406 6        36.185                                    23292200.567 2  95377711.12602      1055.395 2        14.095    23292204.591 5  95377691.16505      1055.082 5        31.743
G28         8.000    24856754.395 5 130623234.11605      2676.406 5        33.617                                    24856778.402 1 101784353.12301      2085.587 1         6.500
G29         9.000    23918087.276 6 125690379.64106      2768.473 6        38.520                                    23918091.459 4  97940596.17604      2157.256 4        24.361    23918092.990 5  97940600.19205      2157.425 5        34.814
E10        11.000    26606124.466 5 139816162.55705      1767.461 5        32.635                                                                    26606135.602 6 104408185.92806      1319.989 6        36.276    26606151.469 4                      1354.395 4        24.887
G24        12.000    21956368.459 7 115382074.46907     -3876.554 7        45.026                                    21956370.253 6  89907749.02406     -3020.682 6        36.178    21956372.098 6  89907641.98006     -3020.700 6        37.516
E12        13.000    26352708.861 3                       828.657 3        23.886                                                                    26352719.331 5                       619.082 5        32.545
E33        14.000                                                                                                                                    27140348.054 4                     -1422.049 4        24.602    27140313.919 5                     -1458.812 5        32.467
G12        15.000    20310867.683 8 106734305.34308     -1373.228 8        48.699                                    20310867.527 8  83169595.83808     -1070.046 8        48.569    20310865.995 7  83169613.83307     -1070.066 7        46.851
E24        16.000    24361755.107 7 128021852.47407     -2120.647 7        43.211                                                                    24361758.280 8  95600799.19808     -1583.632 8        50.416    24361756.696 8  98094759.05308     -1624.927 8        49.303
G32        17.000    22955637.135 7 120633124.79007      -536.781 7        43.446                                    22955648.599 4  93999487.13004      -418.262 4        26.144    22955699.562 5                      -418.239 5        33.497
E05        18.000    24866025.670 4                     -3798.855 4        24.872                                                                    24866015.450 6  97579579.21406     -2836.869 6        36.291    24866013.253 6 100125156.20906     -2911.052 6        38.802
E08        20.000    27152262.258 5 142686084.98405       869.101 5        35.948                                                                    27152270.533 6 106551407.67906       648.976 6        38.018    27152269.982 6 109331018.53906       665.875 6        39.793
E02        21.000    27712954.239 3                      1563.663 3        22.762                                                                    27713000.164 3                      1169.399 3        20.310    27712943.952 5 111588537.87715      1198.976 5        34.095
S23        22.000    38252525.464 5 201018505.66305      -864.268 5        34.062
R14        23.000    20041482.569 7 106832367.82807     -2359.041 7        43.494                                                                    20041488.320 7  83091788.51907     -1834.851 7        46.310
R06        24.000    22907551.971 5 122239088.39505       393.082 5        34.019
R23        25.000    22892747.348 4 122460744.77804     -4396.663 4        29.962
E03        26.000    25114633.667 7 131978482.39907     -1716.069 7        42.059                                                                    25114642.662 6  98555313.37106     -1281.493 6        41.256    25114645.758 6 101126301.58706     -1314.867 6        41.576
S21        27.000    38540658.725 5 202532522.87205      -858.536 5        32.677
R15        30.000    20101662.721 8 107417448.83408       966.928 8        52.053                                                                    20101666.740 8  83546728.94108       752.053 8        48.618
S36        31.000    38311773.371 6 201329780.97906      -859.193 6        36.412
C07        32.000                                                                                                                                                                                                    40652515.103 3                     -1380.352 3        20.667
C10        33.000                                                                                                                                    39592186.551 4                     -1577.621 4        24.241    39592177.791 5 159421306.57505     -1220.923 5        32.653    39592162.177 3                     -1283.419 3        22.800
R16        34.000    24049125.366 5                      2603.357 5        35.967
C44        35.000                                                                                                                                    25178585.635 5 131111528.27605      2615.857 5        35.257                                                                    25178558.638 5 106538734.03805      2125.700 5        32.880
R17        36.000    21831753.078 6 116826510.44206      3247.070 6        39.147                                                                    21831757.301 6  90864879.94406      2525.631 6        37.913
C45        37.000                                                                                                                                    24012714.584 6 125040616.39806     -3298.680 6        41.883                                                                    24012707.947 6 101605615.38906     -2680.252 6        41.664
R24        38.000    20191593.529 5 107974084.42605      -361.259 5        34.586                                                                    20191596.162 6  83979414.71806      -280.939 6        39.180
C33        39.000                                                                                                                                    25935856.120 6 135054840.66006     -1991.661 6        38.255                                                                    25935879.275 5                     -1618.069 5        34.381
C35        42.000                                                                                                                                    22615203.498 8 117763348.49508      1041.259 8        48.043                                                                    22615207.311 7  95692371.65607       846.285 7        47.564
R05        44.000    22129151.942 5 118293076.37905     -3721.899 5        35.843
C42        45.000                                                                                                                                                                                                                                                                    26505336.369 4                     -3001.781 4        26.311
C29        46.000                                                                                                                                    23527315.485 7 122512892.67807     -2483.861 7        47.414                                                                    23527317.096 7  99551753.01107     -2018.231 7        44.891
C41        47.000                                                                                                                                    27091058.628 5 141070272.70605       318.076 5        35.724                                                                    27091062.651 5                       258.484 5        31.072
C26        48.000                                                                                                                                    21731061.135 8 113159364.02008      -680.885 8        48.023                                                                    21731063.640 7  91951263.38407      -553.123 7        46.023
C24        51.000                                                                                                                                    23724764.415 6 123541308.78306      1654.222 6        37.032                                                                    23724768.035 5 100387312.10305      1344.218 5        34.205
C14        53.000                                                                                                                                    25936361.058 6 135057473.49206     -3047.163 6        36.348    25936368.774 5 104435013.23405     -2356.213 5        35.786    25936382.086 5 109745273.97305     -2475.795 5        30.574
I06        58.000    38608573.570 6 151508342.90506      -742.649 6        37.664
I02        59.000    37181762.485 5 145909221.32305      -851.614 5        34.871
> 2025 01 02 13 16 15.0000000  0 42
G06         1.000    23017620.330 6 120958399.82206      -835.827 6        36.367                                    23017620.854 3  94253229.73703      -651.295 3        19.910    23017615.000 4                      -650.799 4        24.301
G25         3.000    20818033.690 7 109399708.88007      1121.221 7        44.822                                    20818032.412 5  85246461.73905       873.671 5        34.571    20818034.561 6  85246396.74206       873.810 6        38.510
G19         4.000    23540432.067 6 123705874.97806     -4108.851 6        36.733
E25         6.000    23909961.936 6 125647756.81006       231.288 6        41.104                                                                    23909967.844 7  93827968.64307       172.813 7        45.005    23909965.141 7  96275550.27207       177.289 7        42.906
G11         7.000    23290914.221 5 122394626.81105      1352.012 5        33.796                                    23290913.017 2  95372438.95902      1053.484 2        14.286    23290918.181 5  95372418.96005      1053.890 5        32.551
G28         8.000    24854207.636 5 130609853.20505      2675.697 5        31.977                                    24854231.232 1 101773926.33601      2084.977 1         7.875
G29         9.000    23915454.142 6 125676539.07506      2767.808 6        39.874                                    23915457.937 4  97929811.34804      2156.723 4        24.872    23915459.590 5  97929815.34105      2156.779 5        34.557
E10        11.000    26604443.982 5 139807327.86705      1766.667 5        30.898                                                                    26604454.429 6 104401588.70206      1318.938 6        37.127    26604476.203 3                      1353.851 3        22.781
G24        12.000    21960058.236 7 115401461.81107     -3878.236 7        44.450                                    21960059.033 5  89922856.02205     -3022.001 5        35.952    21960061.283 6  89922748.99706     -3022.104 6        37.716
E12        13.000    26351915.756 3                       826.323 3        19.552                                                                    26351931.708 5                       617.409 5        31.826
E33        14.000    27142106.012 4 142632838.63004     -1906.743 4        27.509                                                                    27142156.235 4                     -1423.793 4        26.527    27142126.835 5                     -1460.567 5        32.198
G12        15.000    20312175.473 8 106741176.74608     -1375.272 8        48.793                                    20312174.949 8  83174950.17408     -1071.644 8        48.662    20312173.777 7  83174968.17307     -1071.602 7        46.660
E24        16.000    24363773.720 7 128032457.87307     -2121.396 7        43.141                                                                    24363776.560 8  95608718.82408     -1584.143 8        50.646    24363775.031 8  98102885.28108     -1625.503 8        49.325
G32        17.000    22956150.184 7 120635816.71207      -539.822 7        43.719                                    22956161.150 4  94001584.72604      -420.643 4        27.389
E05        18.000    24869643.297 4                     -3799.420 4        25.353                                                                    24869630.455 5  97593765.28705     -2837.438 5        35.971    24869628.663 6 100139712.34206     -2911.495 6        39.685
E08        20.000    27151436.018 5 142681744.15305       867.515 5        34.271                                                                    27151444.095 6 106548166.16106       647.689 6        37.603    27151444.031 6 109327692.44206       664.605 6        39.817
E02        21.000    27711470.027 4                      1564.079 4        24.962                                                                    27711513.434 3                      1170.333 3        21.810    27711457.200 5 111582542.69905      1199.087 5        34.386
S23        22.000    38253340.703 5 201022824.48905      -863.645 5        34.010
R14        23.000    20043697.005 7 106844168.54807     -2361.026 7        44.665                                                                    20043702.188 7  83100966.85507     -1836.323 7        45.816
R06        24.000    22907185.438 5 122237133.00305       389.090 5        35.671
R23        25.000    22896861.552 5 122482733.54005     -4398.753 5        31.177
E03        26.000    25116267.147 6 131987068.27206     -1718.216 6        41.623                                                                    25116275.527 6  98561724.91606     -1283.170 6        40.632    25116279.177 6 101132880.35506     -1316.499 6        41.454
S21        27.000    38541477.613 5 202536816.43505      -858.695 5        33.365
R15        30.000    20100758.558 8 107412618.44908       965.313 8        52.250                                                                    20100762.807 8  83542971.99608       750.765 8        49.293
S36        31.000    38312587.113 5 201334076.73505      -859.021 5        35.686
C07        32.000                                                                                                                                                                                                    40654236.879 3                     -1382.880 3        21.238
C10        33.000                                                                                                                                    39593702.059 4                     -1578.372 4        25.549    39593690.172 5 159427410.10205     -1220.492 5        31.208    39593678.768 3                     -1280.668 3        22.495
R16        34.000    24046686.405 6 128453092.17616      2603.862 6        37.327
C44        35.000                                                                                                                                    25176070.649 5 131098449.74505      2615.689 5        35.743                                                                    25176046.934 5 106528106.72405      2125.207 5        33.042
R17        36.000    21828720.437 6 116810279.14506      3245.498 6        39.249                                                                    21828725.459 6  90852255.63106      2524.326 6        37.335
C45        37.000                                                                                                                                    24015882.225 6 125057112.40706     -3299.625 6        40.946                                                                    24015875.932 6 101619019.72406     -2681.264 6        41.735
R24        38.000    20191933.703 6 107975902.64806      -365.738 6        37.834                                                                    20191935.191 6  83980828.92906      -284.511 6        39.565
C33        39.000                                                                                                                                    25937769.885 6 135064804.55806     -1993.813 6        38.577                                                                    25937789.905 5 109751294.96315     -1620.045 5        34.781
C35        42.000                                                                                                                                    22614205.299 8 117758148.04708      1039.035 8        48.768                                                                    22614208.470 7  95688145.89507       844.319 7        47.351
C42        45.000                                                                                                                                    26508833.539 3                     -3695.497 3        21.762
C29        46.000                                                                                                                                    23529701.365 7 122525317.78407     -2486.103 7        47.197                                                                    23529703.144 7  99561849.44107     -2020.031 7        44.919
C41        47.000                                                                                                                                    27090752.599 5 141068688.37305       315.543 5        34.410                                                                    27090759.663 5                       256.510 5        31.381
C26        48.000                                                                                                                                    21731715.412 8 113162772.53808      -682.442 8        48.143                                                                    21731718.185 7  91954033.11007      -554.548 7        45.925
C24        51.000                                                                                                                                    23723177.825 6 123533039.38406      1653.632 6        36.011                                                                    23723179.680 5 100380592.61105      1343.509 5        34.652
C14        53.000                                                                                                                                    25939289.144 6 135072712.94006     -3048.749 6        37.081    25939292.890 5 104446797.20305     -2356.786 5        30.785    25939304.174 5 109757657.29605     -2476.835 5        30.830
I06        58.000    38609519.804 6 151512055.92906      -742.442 6        37.690
I02        59.000    37182847.816 5 145913478.85305      -851.440 5        35.176
> 2025 01 02 13 16 20.0000000  0 41
G06         1.000    23018417.297 6 120962587.97406      -839.320 6        37.996                                    23018416.020 3  94256493.22703      -653.988 3        20.524    23018416.087 4                      -654.243 4        29.261
G25         3.000    20816967.835 7 109394107.91807      1119.380 7        45.175                                    20816966.927 5  85242097.38705       872.238 5        35.667    20816969.057 6  85242032.37706       872.141 6        38.754
G19         4.000    23544343.840 6 123726423.60606     -4110.412 6        36.004
E25         6.000    23909742.940 6 125646603.42106       230.246 6        40.689                                                                    23909748.240 7  93827107.35007       171.894 7        44.963    23909745.966 7  96274666.51507       176.320 7        43.060
G11         7.000    23289630.351 5 122387872.56605      1349.891 5        34.105                                    23289627.532 2  95367175.91002      1051.842 2        13.030    23289632.851 5  95367155.90705      1051.983 5        33.126
G28         8.000    24851660.815 5 130596474.87105      2675.447 5        30.989                                    24851684.321 1 101763501.61801      2085.051 1         5.714    24851674.158 5 101763515.70505      2084.766 5        34.890
G29         9.000    23912821.537 6 125662703.52006      2766.700 6        40.584                                    23912825.403 4  97919030.42404      2155.870 4        25.158    23912826.071 5  97919034.43905      2155.771 5        34.776
E10        11.000    26602764.445 5 139798499.87505      1765.385 5        30.513                                                                    26602774.783 6 104394996.37906      1318.099 6        37.323    26602806.910 3                      1352.521 3        23.181
G24        12.000    21963747.934 7 115420858.81207     -3880.337 7        43.742                                    21963749.705 5  89937970.54805     -3023.636 5        35.800    21963752.064 6  89937863.51006     -3023.445 6        37.754
E12        13.000                                                                                                                                    26351146.679 5                       615.889 5        30.928
E33        14.000    27143927.335 4 142642376.38004     -1908.660 4        29.469                                                                    27143970.560 4                     -1425.259 4        26.659    27143938.786 5                     -1462.500 5        30.958
G12        15.000    20313484.995 8 106748059.31208     -1377.597 8        49.067                                    20313484.436 8  83180313.20808     -1073.453 8        48.802    20313483.613 7  83180331.21207     -1073.383 7        46.528
E24        16.000    24365792.615 7 128043068.09707     -2122.486 7        43.443                                                                    24365795.616 8  95616642.06108     -1584.960 8        50.739    24365794.274 8  98111015.20808     -1626.314 8        49.524
G32        17.000    22956666.525 7 120638525.27207      -543.287 7        43.503                                    22956676.822 4  94003695.28604      -423.341 4        28.455    22956693.604 5  94003848.19615      -423.249 5        34.057
E05        18.000                                                                                                                                    24873246.189 5  97607954.69705     -2838.152 5        35.510    24873244.692 6 100154271.91506     -2912.149 6        40.036
E08        20.000    27150612.411 5 142677413.59205       865.292 5        33.677                                                                    27150619.772 6 106544932.30206       646.103 6        37.743    27150620.114 6 109324374.22406       662.837 6        40.162
E02        21.000                                                                                                                                    27710027.434 3                      1166.838 3        20.452    27709966.688 5 111576548.77205      1198.623 5        34.290
S23        22.000    38254172.317 5 201027143.83005      -863.961 5        34.514
R14        23.000    20045913.529 7 106855980.23007     -2363.312 7        44.525                                                                    20045917.814 7  83110153.71207     -1838.119 7        45.395
R06        24.000    22906824.009 5 122235199.15705       384.844 5        34.910
E03        26.000    25117903.457 6 131995666.43206     -1720.864 6        40.436                                                                    25117911.045 6  98568145.61406     -1285.000 6        40.296    25117914.818 6 101139468.52406     -1318.630 6        41.223
S21        27.000    38542293.545 5 202541110.53805      -858.558 5        33.844
R15        30.000    20099856.137 8 107407796.99708       963.488 8        52.216                                                                    20099860.807 8  83539221.99708       749.359 8        49.509
S36        31.000    38313416.997 6 201338372.40406      -859.031 6        36.219
C07        32.000                                                                                                                                                                                                    40655953.419 3                     -1384.198 3        20.000
C10        33.000                                                                                                                                    39595216.294 4                     -1578.897 4        26.766    39595205.289 5 159433514.17205     -1220.862 5        31.389    39595193.584 3                     -1284.438 3        22.095
R16        34.000    24044246.448 6 128440074.29616      2603.777 6        37.210
C44        35.000                                                                                                                                                                                                                                                                    25173536.220 5 106517481.65905      2124.375 5        33.042
R17        36.000    21825691.036 6 116794057.84806      3243.328 6        40.474                                                                    21825693.281 6  90839639.08806      2522.466 6        36.359
C45        37.000                                                                                                                                    24019048.877 6 125073613.98806     -3300.829 6        40.677                                                                    24019045.091 6 101632428.57406     -2682.383 6        41.733
R24        38.000    20192277.813 6 107977744.57806      -370.662 6        40.665                                                                    20192280.896 6  83982261.51606      -288.247 6        40.896
C33        39.000                                                                                                                                    25939686.477 6 135074781.26206     -1996.538 6        38.396                                                                    25939703.175 5 109759401.84105     -1622.294 5        34.314
C35        42.000                                                                                                                                    22613209.790 8 117752959.83008      1036.419 8        49.356                                                                    22613211.937 7  95683930.04607       842.047 7        46.723
R05        44.000    22136152.286 5 118330326.06505     -3728.249 5        35.343
C29        46.000                                                                                                                                    23532089.522 7 122537755.25907     -2488.650 7        47.044                                                                    23532091.899 7  99571955.89607     -2022.378 7        45.026
C41        47.000                                                                                                                                    27090450.100 5 141067116.80705       313.256 5        32.731                                                                    27090455.441 5                       254.260 5        30.302
C26        48.000                                                                                                                                    21732371.370 8 113166190.38208      -684.461 8        48.485                                                                    21732374.495 7  91956810.38407      -556.388 7        46.092
C24        51.000                                                                                                                                    23721591.790 6 123524773.93406      1652.924 6        37.130                                                                    23721593.337 5 100373876.26405      1342.892 5        35.890
C14        53.000                                                                                                                                    25942224.432 5 135087960.95405     -3050.334 5        35.514                                                                    25942230.647 5 109770047.54705     -2478.639 5        31.238
I06        58.000    38610466.110 6 151515769.16906      -742.673 6        37.648
I02        59.000    37183932.735 6 145917737.13406      -851.642 6        36.023
> 2025 01 02 13 16 25.0000000  0 42
G06         1.000    23019219.256 6 120966793.77706      -842.906 6        37.206                                    23019215.381 3  94259770.47903      -656.816 3        20.976    23019215.367 5                      -656.858 5        30.257
G25         3.000    20815903.755 7 109388516.62507      1117.312 7        44.778                                    20815903.271 6  85237740.56106       870.626 6        36.095    20815905.693 6  85237675.53606       870.708 6        39.159
G19         4.000    23548256.203 5 123746979.31305     -4111.799 5        34.495
E25         6.000    23909524.754 6 125645455.72406       228.969 6        39.670                                                                    23909529.763 7  93826250.29507       171.036 7        45.050    23909527.727 7  96273787.10607       175.378 7        43.187
G11         7.000    23288349.204 6 122381130.41706      1347.296 6        37.648                                    23288344.499 2  95361922.31002      1049.854 2        12.667    23288349.109 5  95361902.32505      1049.594 5        33.659
G28         8.000    24849117.432 5 130583099.54605      2675.053 5        33.509                                    24849138.496 1 101753079.40201      2084.431 1         6.750    24849129.041 5 101753093.39805      2084.314 5        35.048
G29         9.000    23910188.909 6 125648873.37406      2765.604 6        40.758                                    23910193.938 4  97908253.70604      2155.004 4        25.820    23910195.155 5  97908257.72605      2155.028 5        35.024
E10        11.000    26601085.722 4 139789678.79304      1763.603 4        29.479                                                                    26601096.490 6 104388409.26806      1316.883 6        37.459    26601121.609 4                      1351.635 4        25.805
G24        12.000    21967440.245 7 115440265.75907     -3882.330 7        42.823                                    21967442.416 5  89953092.82405     -3025.189 5        35.576    21967443.528 6  89952985.80606     -3025.223 6        36.684
E12        13.000    26350363.227 3                       822.924 3        22.457                                                                    26350366.846 4                       614.137 4        29.517
E33        14.000    27145750.659 4 142651926.69704     -1911.124 4        28.237                                                                    27145791.230 4                     -1427.291 4        26.443    27145754.327 4                     -1464.578 4        29.858
G12        15.000    20314797.067 8 106754953.39208     -1379.924 8        49.767                                    20314796.039 8  83185685.21208     -1075.266 8        49.047    20314795.656 7  83185703.21307     -1075.271 7        46.773
E24        16.000    24367812.392 7 128053683.48507     -2123.696 7        43.524                                                                    24367815.653 8  95624569.13908     -1585.865 8        50.975    24367814.399 8  98119149.08608     -1627.257 8        49.709
G32        17.000    22957184.481 7 120641250.76607      -546.681 7        43.331                                    22957195.606 4  94005819.04804      -425.981 4        28.701    22957200.015 5  94005972.07105      -426.181 5        34.295
E05        18.000    24876901.295 4                     -3801.215 4        24.481                                                                    24876863.102 5  97622147.67105     -2839.056 5        35.810    24876861.658 6 100168835.17506     -2913.067 6        40.400
E08        20.000    27149790.327 5 142673093.61105       863.046 5        33.958                                                                    27149797.329 6 106541706.37306       644.351 6        37.747    27149797.873 6 109321064.12406       661.267 6        40.129
E02        21.000    27708514.016 4                      1563.911 4        27.317                                                                    27708538.245 3                      1166.166 3        20.143    27708476.735 5 111570556.43305      1198.329 5        34.000
S23        22.000    38255013.631 6 201031463.80806      -863.934 6        36.132
R14        23.000    20048131.436 7 106867803.22707     -2365.694 7        45.475                                                                    20048135.918 7  83119349.38107     -1839.934 7        44.482
R06        24.000    22906463.117 5 122233286.99705       380.398 5        33.114
E03        26.000    25119541.764 6 132004277.10406     -1723.260 6        39.330                                                                    25119549.173 6  98574575.67106     -1286.831 6        40.241    25119552.871 6 101146066.31406     -1320.451 6        41.261
S21        27.000    38543111.338 5 202545405.63905      -858.939 5        33.784
R15        30.000    20098955.241 8 107402984.79308       961.520 8        52.341                                                                    20098959.875 8  83535479.19808       747.821 8        49.575
S36        31.000    38314236.252 5 201342668.52605      -859.142 5        35.619
C07        32.000                                                                                                                                                                                                    40657673.464 3                     -1383.368 3        20.857
C10        33.000                                                                                                                                    39596727.617 4                     -1578.983 4        27.976    39596721.259 5 159439619.05805     -1220.847 5        31.864    39596710.779 3                     -1284.541 3        20.905
R16        34.000    24041804.106 5 128427056.50705      2603.924 5        35.086                                                                    24041805.542 5                      2025.156 5        30.460
C44        35.000                                                                                                                                                                                                                                                                    25171025.539 5 106506859.14105      2124.366 5        32.994
R17        36.000    21822664.344 6 116777846.80706      3241.336 6        41.013                                                                    21822663.002 5  90827030.55105      2520.885 5        35.600
C45        37.000                                                                                                                                    24022218.974 6 125090121.48106     -3301.977 6        40.644                                                                    24022214.855 6 101645842.26106     -2683.180 6        41.390
R24        38.000    20192626.650 6 107979610.36106      -375.366 6        40.753                                                                    20192629.479 6  83983712.69406      -291.991 6        41.111
C33        39.000                                                                                                                                    25941602.774 6 135084771.03506     -1999.222 6        37.240                                                                    25941618.047 5 109767519.40005     -1624.664 5        33.395
C35        42.000                                                                                                                                    22612216.181 8 117747784.13508      1033.938 8        49.405                                                                    22612217.858 7  95679724.40007       840.116 7        46.385
R05        44.000    22139633.232 5 118348974.65905     -3731.087 5        34.733                                                                    22139612.365 5  92049375.89405     -2901.787 5        31.909
C42        45.000                                                                                                                                    26515953.145 4                     -3696.273 4        26.922
C29        46.000                                                                                                                                    23534480.396 7 122550205.36407     -2491.162 7        46.472                                                                    23534482.723 7  99582072.65207     -2024.313 7        44.928
C41        47.000                                                                                                                                    27090151.102 5 141065558.69705       310.188 5        31.789                                                                    27090154.975 5                       252.019 5        30.755
C26        48.000                                                                                                                                    21733029.638 8 113169617.86608      -686.426 8        48.483                                                                    21733032.816 7  91959595.51707      -557.793 7        46.065
C24        51.000                                                                                                                                    23720006.914 6 123516512.68206      1651.927 6        36.873                                                                    23720007.825 6 100367163.40006      1342.302 6        37.164
C14        53.000                                                                                                                                    25945160.618 5 135103217.90405     -3052.261 5        33.389                                                                    25945158.704 5 109782445.08005     -2479.811 5        31.381
I06        58.000    38611412.468 6 151519482.82206      -742.721 6        37.819
I02        59.000    37185019.040 6 145921996.76806      -851.878 6        36.030
> 2025 01 02 13 16 30.0000000  0 42
G06         1.000    23020023.078 6 120971016.51806      -846.362 6        36.023                                    23020018.887 3  94263060.93303      -659.493 3        21.738    23020020.125 5                      -659.524 5        32.042
G25         3.000    20814840.705 7 109382934.24107      1115.574 7        43.822                                    20814841.176 5  85233390.67205       869.271 5        35.852    20814843.071 6  85233325.66206       869.313 6        39.282
G19         4.000    23552166.339 5 123767541.52505     -4112.792 5        31.562
E25         6.000    23909306.967 6 125644312.98806       227.891 6        40.579                                                                    23909312.099 7  93825396.94607       170.322 7        45.087    23909310.386 7  96272911.49507       174.791 7        43.729
G11         7.000    23287069.266 6 122374399.65606      1345.082 6        37.951                                    23287063.553 2  95356677.57902      1048.078 2        12.667    23287067.272 5  95356657.55905      1047.644 5        33.461
G28         8.000    24846572.488 5 130569726.50105      2674.305 5        32.491                                    24846592.394 1 101742658.80501      2083.900 1         7.125    24846581.836 5 101742672.85905      2083.712 5        34.481
G29         9.000    23907557.421 6 125635047.86306      2764.612 6        40.701                                    23907563.260 4  97897480.61704      2154.231 4        25.805    23907564.891 5  97897484.60705      2154.522 5        34.186
E10        11.000    26599408.506 5 139780863.99005      1761.697 5        30.445                                                                    26599418.574 6 104381826.77506      1316.091 6        37.282    26599443.257 3                      1348.713 3        21.714
G24        12.000    21971134.921 6 115459681.91506     -3884.028 6        40.753                                    21971136.808 5  89968222.28505     -3026.512 5        34.586    21971138.465 5  89968115.26805     -3026.596 5        35.143
E12        13.000                                                                                                                                    26349593.895 4                       612.551 4        29.991
E33        14.000    27147567.053 4 142661489.02504     -1914.014 4        26.120                                                                    27147608.435 4                     -1429.379 4        26.958    27147578.123 4                     -1466.426 4        26.958
G12        15.000    20316111.088 8 106761858.24208     -1382.095 8        49.577                                    20316109.717 8  83191065.60808     -1076.954 8        49.461    20316109.479 7  83191083.61007     -1076.888 7        46.946
E24        16.000    24369833.901 7 128064303.30607     -2124.373 7        44.989                                                                    24369836.565 8  95632499.52008     -1586.400 8        51.329    24369835.481 8  98127286.33708     -1627.788 8        50.008
G32        17.000    22957706.501 7 120643992.46307      -550.011 7        43.718                                    22957717.753 5  94007955.44205      -428.575 5        30.075    22957715.414 5  94008108.36205      -428.453 5        35.410
E05        18.000                                                                                                                                    24880480.827 6  97636343.68006     -2839.586 6        36.299    24880479.294 6 100183401.51806     -2913.524 6        40.362
E08        20.000    27148969.405 5 142668783.55205       861.086 5        34.000                                                                    27148977.249 6 106538487.80506       643.074 6        38.006    27148977.392 6 109317761.58706       659.763 6        40.212
E02        21.000    27707014.167 4                      1563.675 4        26.647                                                                    27707049.333 3                      1172.310 3        20.381    27706988.952 5 111564565.03605      1198.095 5        33.635
S23        22.000    38255824.546 5 201035783.56905      -864.044 5        34.638
R14        23.000    20050351.947 7 106879636.73607     -2367.740 7        47.445                                                                    20050355.972 7  83128553.20607     -1841.570 7        43.435
R06        24.000    22906106.611 5 122231395.80105       376.125 5        33.389
E03        26.000    25121182.981 6 132012899.66506     -1725.646 6        39.237                                                                    25121190.003 6  98581014.60006     -1288.693 6        40.298    25121193.355 6 101152673.18906     -1322.255 6        40.744
S21        27.000    38543932.914 5 202549700.96405      -859.113 5        32.671
R15        30.000    20098056.318 8 107398181.21208       959.834 8        52.153                                                                    20098060.675 8  83531743.09308       746.549 8        49.438
S36        31.000    38315052.113 5 201346964.76905      -859.326 5        35.429
C07        32.000                                                                                                                                                                                                    40659393.992 3                     -1381.636 3        19.821
C10        33.000                                                                                                                                    39598245.031 4                     -1579.129 4        29.687    39598242.297 5 159445724.02805     -1220.789 5        31.283    39598224.213 3                     -1281.557 3        22.305
R16        34.000    24039361.323 5                      2603.707 5        35.905                                                                    24039369.031 4                      2024.827 4        25.820
C44        35.000                                                                                                                                    25168509.224 5 131059231.28205      2613.667 5        34.114                                                                    25168515.946 5 106496238.59705      2123.659 5        33.000
R17        36.000    21819637.141 6 116761645.47806      3239.301 6        41.118                                                                    21819635.583 5  90814429.52705      2519.525 5        33.976
C45        37.000                                                                                                                                    24025389.957 6 125106634.17706     -3303.200 6        40.174                                                                    24025385.770 6 101659260.14306     -2684.078 6        41.235
R24        38.000    20192980.555 7 107981499.38407      -380.019 7        42.233                                                                    20192983.131 6  83985181.95906      -295.645 6        41.988
C33        39.000                                                                                                                                    25943515.964 6 135094773.21006     -2001.589 6        37.346                                                                    25943538.210 5 109775646.95305     -1626.655 5        33.455
C35        42.000                                                                                                                                    22611224.637 8 117742620.28908      1031.588 8        49.509                                                                    22611226.003 7  95675528.34707       838.243 7        46.098
R05        44.000    22143121.781 5 118367638.77405     -3734.209 5        34.948                                                                    22143114.315 5  92063892.37805     -2904.169 5        30.249
C42        45.000                                                                                                                                    26519494.956 4                     -3697.016 4        26.635
C29        46.000                                                                                                                                    23536873.897 7 122562667.41607     -2493.677 7        46.608                                                                    23536875.690 7  99592199.07707     -2026.299 7        44.907
C41        47.000                                                                                                                                    27089857.645 5 141064013.35905       308.140 5        32.365                                                                    27089859.288 5                       249.732 5        30.332
C26        48.000                                                                                                                                    21733689.753 8 113173054.27008      -688.147 8        48.565                                                                    21733692.972 7  91962387.87307      -559.210 7        46.406
C24        51.000                                                                                                                                    23718419.993 5 123508254.98205      1651.113 5        35.262                                                                    23718422.083 6 100360453.36806      1341.774 6        38.138
C14        53.000                                                                                                                                    25948097.140 4 135118483.00104     -3053.922 4        27.509    25948069.688 3                     -2362.568 3        22.343    25948087.592 5 109794849.23105     -2481.989 5        32.575
I06        58.000    38612358.207 6 151523196.39706      -742.782 6        37.868
I02        59.000    37186104.135 6 145926257.15706      -852.229 6        36.098
> 2025 01 02 13 16 35.0000000  0 42
G06         1.000    23020833.662 6 120975256.46206      -849.482 6        36.665                                    23020825.965 3  94266364.78003      -661.926 3        22.857    23020828.000 5  94266442.75615      -661.713 5        34.071
G25         3.000    20813780.489 7 109377361.03507      1113.795 7        42.686                                    20813780.789 5  85229047.92805       867.883 5        35.681    20813782.715 6  85228982.90806       867.979 6        38.790
G19         4.000    23556081.801 5 123788110.39505     -4114.417 5        32.048
E25         6.000    23909090.507 6 125643175.46006       227.111 6        40.715                                                                    23909095.557 7  93824547.49107       169.594 7        45.178    23909093.960 7  96272039.88707       174.108 7        44.029
G11         7.000    23285789.470 6 122367680.52206      1342.937 6        37.898                                    23285784.875 2  95351441.87902      1046.453 2        12.727    23285787.765 5  95351421.86905      1046.461 5        35.333
G28         8.000    24844025.850 5 130556355.90105      2674.041 5        31.577                                    24844047.719 1 101732240.16301      2083.699 1         7.125    24844037.227 5 101732254.22905      2083.646 5        33.108
G29         9.000    23904927.829 6 125621227.27506      2763.734 6        39.667                                    23904933.544 4  97886711.36204      2153.548 4        25.654    23904934.218 5  97886715.40505      2153.254 5        32.737
E10        11.000    26597733.843 5 139772055.49205      1761.330 5        31.660                                                                    26597742.145 6 104375249.09406      1315.367 6        36.930
G24        12.000    21974832.009 6 115479107.52406     -3885.911 6        41.077                                    21974832.738 5  89983359.09005     -3027.973 5        33.347    21974834.721 5  89983252.08905     -3028.048 5        34.329
E12        13.000    26348793.768 3                       818.669 3        19.791                                                                    26348818.185 4                       610.877 4        28.464
E33        14.000    27149382.600 4 142671063.50804     -1916.268 4        27.257                                                                    27149419.840 4                     -1430.884 4        25.895    27149404.343 3                     -1467.662 3        23.752
G12        15.000    20317426.816 8 106768774.11808     -1384.194 8        49.510                                    20317425.506 8  83196454.59608     -1078.591 8        49.877    20317425.355 7  83196472.60207     -1078.596 7        47.028
E24        16.000    24371855.752 7 128074927.78207     -2125.186 7        46.296                                                                    24371858.429 8  95640433.38508     -1586.986 8        51.594    24371857.345 8  98135427.17308     -1628.438 8        50.017
G32        17.000    22958231.092 7 120646750.63107      -553.250 7        44.840                                    22958243.326 5  94010104.65905      -431.101 5        31.019    22958242.131 6  94010257.58106      -430.911 6        36.715
E05        18.000                                                                                                                                    24884099.374 6  97650542.88706     -2840.012 6        36.862    24884097.767 6 100197971.14206     -2914.156 6        40.167
E08        20.000    27148151.170 5 142664483.59905       858.915 5        34.933                                                                    27148159.042 6 106535276.80206       641.554 6        37.947    27148159.062 6 109314466.82506       658.269 6        40.119
E02        21.000    27705517.899 4                      1563.656 4        29.772                                                                                                                                    27705500.838 5 111558574.82705      1197.920 5        33.377
S23        22.000    38256643.484 5 201040103.51905      -863.793 5        33.539
R14        23.000    20052574.833 8 106891481.01208     -2369.833 8        48.276                                                                    20052577.694 7  83137765.40907     -1843.242 7        43.065
R06        24.000    22905757.164 5 122229526.09305       371.932 5        33.132
R23        25.000    22913358.999 5                     -4409.786 5        32.599
E03        26.000    25122826.328 6 132021534.27706     -1728.055 6        38.216                                                                    25122833.430 6  98587462.52906     -1290.324 6        40.903    25122835.851 6 101159289.32406     -1324.169 6        40.758
S21        27.000    38544748.761 5 202553996.34805      -858.758 5        34.071
R15        30.000    20097158.968 8 107393386.44608       958.197 8        52.092                                                                    20097163.080 8  83528013.83508       745.286 8        48.732
S36        31.000    38315864.928 6 201351261.37606      -859.287 6        36.163
C07        32.000                                                                                                                                                                                                    40661109.651 3                     -1383.662 3        19.791
C10        33.000                                                                                                                                    39599761.309 4                     -1579.277 4        29.156    39599760.224 4 159451829.36304     -1220.930 4        29.081    39599741.765 3                     -1282.836 3        20.833
R16        34.000    24036927.153 6 128401019.33216      2603.772 6        36.964                                                                    24036929.935 4                      2025.573 4        26.024
C44        35.000                                                                                                                                    25166003.405 5 131046163.76905      2613.286 5        34.243                                                                    25166006.583 5 106485620.22205      2123.247 5        33.533
R17        36.000    21816610.496 6 116745453.91806      3237.457 6        41.642                                                                    21816610.147 5  90801836.16405      2517.779 5        33.395
C45        37.000                                                                                                                                    24028561.584 6 125123152.29006     -3304.021 6        40.622                                                                    24028558.010 6 101672682.44606     -2684.928 6        41.507
R24        38.000    20193341.506 7 107983411.82607      -384.658 7        43.725                                                                    20193341.138 6  83986669.40806      -299.270 6        41.955
C33        39.000                                                                                                                                    25945437.645 6 135104788.00006     -2004.154 6        37.456                                                                    25945461.836 5 109783784.75405     -1628.766 5        33.234
C35        42.000                                                                                                                                    22610235.680 8 117737468.51008      1029.273 8        49.555                                                                    22610236.655 7  95671342.10207       836.283 7        46.055
R05        44.000    22146622.275 4 118386318.27604     -3737.688 4        29.839                                                                    22146608.720 3  92078420.74603     -2906.949 3        23.600
C29        46.000                                                                                                                                    23539269.489 7 122575141.61507     -2495.899 7        46.253                                                                    23539271.429 7  99602335.40107     -2028.231 7        44.781
C41        47.000                                                                                                                                    27089566.808 4 141062480.81704       305.261 4        29.659                                                                    27089564.273 5                       248.063 5        30.174
C26        48.000                                                                                                                                    21734351.659 8 113176499.85908      -689.894 8        48.322                                                                    21734354.673 7  91965187.70307      -560.686 7        46.862
C24        51.000                                                                                                                                    23716835.194 5 123500001.06005      1650.383 5        35.605                                                                    23716837.543 6 100353746.42506      1341.100 6        39.123
C14        53.000                                                                                                                                    25951034.444 4 135133756.50504     -3055.228 4        25.504    25951005.469 3                     -2360.121 3        21.333    25951018.894 5 109807260.13505     -2482.999 5        33.449
I06        58.000    38613304.752 6 151526910.06806      -742.725 6        37.641
I02        59.000    37187190.108 5 145930518.31405      -852.010 5        35.467
> 2025 01 02 13 16 40.0000000  0 41
G06         1.000    23021645.920 6 120979513.31006      -853.001 6        36.170                                    23021636.331 3  94269681.78603      -664.664 3        22.305    23021639.320 5  94269759.82005      -664.796 5        34.590
G25         3.000    20812721.504 6 109371796.76506      1112.058 6        40.796                                    20812721.989 5  85224712.15005       866.535 5        34.795    20812723.923 6  85224647.12606       866.463 6        38.856
G19         4.000    23559994.794 3                     -4115.697 3        22.324
E25         6.000    23908875.226 6 125642042.86706       226.059 6        40.424                                                                    23908880.034 7  93823701.73207       168.850 7        45.049    23908878.536 7  96271172.07407       173.182 7        44.146
G11         7.000    23284512.266 5 122360972.78705      1340.321 5        35.781                                    23284508.392 1  95346215.07401      1044.436 1        11.926    23284512.308 5  95346195.07105      1044.474 5        35.276
G28         8.000    24841481.806 5 130542987.53805      2673.913 5        32.719                                    24841503.321 1 101721823.26701      2083.546 1         6.375    24841492.478 5 101721837.37205      2083.446 5        32.042
G29         9.000    23902299.019 6 125607411.37606      2762.690 6        40.007                                    23902304.574 4  97875945.76204      2152.746 4        24.707    23902302.477 5  97875949.77005      2152.781 5        31.675
E10        11.000    26596060.090 5 139763253.30205      1760.022 5        33.844                                                                    26596067.003 6 104368676.10206      1314.084 6        36.881    26596059.044 5                      1348.400 5        32.054
G24        12.000    21978531.472 6 115498542.32206     -3887.860 6        40.620                                    21978530.649 5  89998503.06605     -3029.502 5        32.263    21978533.496 5  89998396.06605     -3029.423 5        33.503
E12        13.000    26348017.235 3                       816.029 3        22.038                                                                    26348037.229 4                       609.377 4        27.066
E33        14.000    27151207.750 4 142680649.85004     -1918.649 4        29.081                                                                    27151236.638 4                     -1433.178 4        25.173    27151244.626 3                     -1470.420 3        20.119
G12        15.000    20318745.153 8 106775700.75908     -1386.400 8        49.455                                    20318743.391 8  83201851.97808     -1080.311 8        49.871    20318743.146 7  83201869.98107     -1080.299 7        46.925
E24        16.000    24373878.182 7 128085556.64807     -2126.211 7        46.862                                                                    24373881.055 8  95648370.52608     -1587.708 8        51.570    24373880.135 8  98143571.36808     -1629.125 8        50.240
G32        17.000    22958758.998 7 120649525.02007      -556.578 7        44.530                                    22958772.220 5  94012266.51305      -433.696 5        30.838    22958773.335 6  94012419.45006      -433.510 6        36.185
E05        18.000                                                                                                                                    24887718.701 6  97664745.10406     -2840.920 6        36.824    24887716.905 6 100212543.86506     -2914.797 6        40.181
E08        20.000    27147335.176 6 142660193.47506       856.910 6        36.836                                                                    27147342.659 6 106532073.18806       639.744 6        38.186    27147342.451 6 109311179.62106       656.525 6        40.014
E02        21.000    27704024.118 5                      1563.244 5        31.600                                                                    27704034.436 4 108716594.95314      1167.564 4        29.014    27704011.206 5 111552585.56205      1197.667 5        31.683
S23        22.000    38257464.943 5 201044423.51705      -863.879 5        34.205
R14        23.000    20054797.924 8 106903335.92508     -2372.082 8        48.404                                                                    20054802.105 7  83146985.87707     -1845.007 7        43.399
R06        24.000    22905408.853 5 122227677.39405       367.663 5        32.204
R23        25.000    22917480.288 5 122593072.82415     -4412.443 5        34.690
E03        26.000    25124470.846 6 132030180.68306     -1730.330 6        37.739                                                                    25124478.825 6  98593919.28706     -1292.249 6        40.858    25124480.027 6 101165914.49606     -1325.960 6        40.284
S21        27.000    38545561.175 5 202558291.71105      -859.023 5        34.848
R15        30.000    20096263.011 8 107388600.27708       956.371 8        51.928                                                                    20096267.080 8  83524291.29108       743.808 8        48.378
S36        31.000    38316683.665 6 201355557.75506      -859.283 6        36.794
C10        33.000                                                                                                                                    39601278.289 4                     -1579.375 4        25.609    39601272.252 5 159457934.82605     -1221.220 5        31.608    39601261.098 3                     -1284.852 3        20.786
R16        34.000    24034497.778 5 128387999.88715      2604.133 5        34.810                                                                    24034498.428 5                      2025.462 5        30.883
C44        35.000                                                                                                                                    25163494.814 5 131033098.69005      2612.694 5        34.667                                                                    25163497.590 5 106475003.78205      2123.237 5        34.419
R17        36.000    21813585.570 6 116729272.03806      3235.436 6        40.372                                                                    21813587.528 5  90789250.30205      2516.485 5        33.617
C45        37.000                                                                                                                                    24031734.845 6 125139675.59406     -3305.319 6        40.217                                                                    24031731.428 6 101686108.92306     -2685.592 6        41.476
R24        38.000    20193705.499 7 107985347.50807      -389.442 7        45.103                                                                    20193703.640 7  83988174.93807      -302.913 7        43.179
C33        39.000                                                                                                                                    25947365.274 5 135114815.05605     -2006.665 5        34.952                                                                    25947387.153 5 109791932.53505     -1630.375 5        32.976
C35        42.000                                                                                                                                    22609249.275 8 117732328.54708      1026.825 8        49.603                                                                    22609249.590 7  95667165.46107       834.479 7        45.449
R05        44.000    22150119.447 5                     -3740.644 5        32.275
C29        46.000                                                                                                                                    23541667.205 7 122587627.72307     -2498.357 7        46.216                                                                    23541669.318 7  99612481.38107     -2030.100 7        44.593
C41        47.000                                                                                                                                    27089274.423 4 141060960.82804       303.557 4        26.240                                                                    27089271.887 5                       245.942 5        30.189
C26        48.000                                                                                                                                    21735015.308 8 113179954.37008      -691.812 8        48.404                                                                    21735018.165 7  91967994.75707      -562.026 7        47.140
C24        51.000                                                                                                                                    23715256.279 6 123491750.62206      1649.780 6        37.664                                                                    23715253.904 6 100347042.31806      1340.654 6        40.312
C14        53.000                                                                                                                                    25953975.763 4 135149038.24004     -3056.308 4        26.575                                                                    25953952.412 5 109819677.63805     -2484.167 5        35.005
I06        58.000    38614250.708 6 151530623.59806      -742.751 6        37.531
I02        59.000    37188277.170 6 145934780.10106      -852.415 6        36.144
> 2025 01 02 13 16 45.0000000  0 42
G06         1.000    23022460.461 5 120983786.74705      -856.752 5        32.072                                    23022450.162 3  94273011.78203      -667.608 3        21.833    23022451.661 5  94273089.79405      -667.239 5        34.295
G25         3.000    20811663.338 6 109366241.14806      1110.093 6        38.072                                    20811664.674 5  85220383.11905       865.004 5        33.365    20811666.842 6  85220318.11406       865.068 6        39.826
G19         4.000    23563910.111 4                     -4116.588 4        26.922
E25         6.000    23908660.197 6 125640914.98606       224.998 6        41.435                                                                    23908665.340 7  93822859.46407       168.062 7        45.091    23908664.039 7  96270307.85007       172.399 7        44.578
G11         7.000    23283236.740 5 122354276.12005      1338.259 5        34.667                                    23283234.051 1  95340996.88301      1042.778 1        10.444    23283238.356 5  95340976.91305      1042.846 5        34.976
G28         8.000    24838941.589 6 130529621.22906      2673.136 6        36.439                                    24838959.464 1 101711408.16101      2082.916 1         5.857    24838948.433 4 101711422.11004      2082.528 4        28.559
G29         9.000    23899671.176 6 125593599.87906      2761.719 6        39.847                                    23899676.347 4  97865183.57804      2151.980 4        24.406    23899673.097 5  97865187.56605      2152.183 5        30.755
E10        11.000    26594384.808 5 139754457.05605      1758.614 5        34.633                                                                    26594392.699 6 104362107.53906      1313.086 6        36.129    26594390.136 5 107084585.50215      1347.391 5        34.167
G24        12.000    21982231.855 6 115517986.05206     -3889.584 6        41.247                                    21982230.483 5  90013654.01305     -3030.841 5        31.630    21982233.728 5  90013546.98305     -3030.684 5        32.587
E12        13.000    26347244.726 3                       813.619 3        22.724
E33        14.000                                                                                                                                    27153063.904 4                     -1433.933 4        27.832    27153084.403 3                     -1471.321 3        23.790
G12        15.000    20320065.164 8 106782637.91008     -1388.539 8        49.808                                    20320063.356 8  83207257.54208     -1081.978 8        50.132    20320063.200 7  83207275.54607     -1081.945 7        46.787
E24        16.000    24375901.204 7 128096189.65407     -2127.014 7        47.706                                                                    24375904.427 8  95656310.76008     -1588.362 8        51.874    24375903.441 8  98151718.73708     -1629.791 8        50.544
G32        17.000    22959288.974 7 120652315.34607      -559.717 7        44.751                                    22959304.558 5  94014440.77605      -436.140 5        30.355    22959304.621 6  94014593.70106      -435.945 6        36.163
E05        18.000                                                                                                                                    24891338.542 6  97678950.08406     -2841.178 6        37.164    24891337.089 6 100227119.46106     -2915.467 6        40.467
E08        20.000    27146520.353 6 142655912.96906       855.190 6        38.504                                                                    27146528.246 6 106528876.72706       638.483 6        38.306    27146528.233 6 109307899.76006       655.248 6        40.226
E02        21.000                                                                                                                                    27702545.707 5 108710758.71705      1167.295 5        31.064    27702524.433 5 111546597.02905      1197.793 5        30.672
S23        22.000    38258285.678 5 201048743.21405      -864.174 5        34.448
R14        23.000    20057023.919 8 106915201.11008     -2374.102 8        48.413                                                                    20057026.388 7  83156214.33607     -1846.416 7        42.576
R06        24.000    22905067.245 5 122225849.47105       363.262 5        32.473
R23        25.000    22921599.824 5 122615141.41305     -4415.115 5        35.719
E03        26.000    25126117.357 6 132038838.66406     -1732.797 6        38.054                                                                    25126126.369 6  98600384.67406     -1293.942 6        40.939    25126127.344 6 101172548.51706     -1327.687 6        40.360
S21        27.000    38546368.893 5 202562586.56005      -858.841 5        35.243
R15        30.000    20095368.857 8 107383822.41108       954.695 8        52.426                                                                    20095373.406 8  83520575.18308       742.550 8        48.387
S36        31.000    38317495.765 5 201359854.51405      -859.556 5        34.957
C10        33.000                                                                                                                                    39602789.577 4                     -1577.996 4        24.632    39602790.666 5 159464040.25305     -1221.146 5        31.728    39602771.317 3                     -1285.882 3        20.405
R16        34.000    24032061.782 5 128374979.64315      2603.934 5        35.524                                                                    24032063.714 5                      2025.491 5        32.569
C44        35.000                                                                                                                                    25160985.397 5 131020035.79605      2612.399 5        32.964                                                                    25160989.337 5 106464389.14805      2122.726 5        34.310
R17        36.000    21810561.927 6 116713099.56806      3233.382 6        40.386                                                                    21810566.569 5  90776671.71605      2515.202 5        32.407
C45        37.000                                                                                                                                    24034909.586 6 125156203.77906     -3306.200 6        40.083                                                                    24034905.425 6 101699539.44106     -2686.572 6        41.464
R24        38.000    20194071.899 7 107987306.07807      -394.030 7        43.111                                                                    20194070.723 7  83989698.29007      -306.418 7        44.292
C33        39.000                                                                                                                                    25949291.742 5 135124854.21705     -2008.961 5        33.515                                                                    25949313.978 5 109800090.16405     -1632.257 5        32.174
C35        42.000                                                                                                                                    22608264.996 8 117727200.16308      1024.483 8        49.405                                                                    22608264.614 7  95662998.25307       832.411 7        45.881
R05        44.000    22153614.882 6 118423723.12016     -3743.477 6        38.294
C42        45.000                                                                                                                                    26530113.946 3                     -3700.141 3        23.029
C29        46.000                                                                                                                                    23544067.538 7 122600125.46507     -2500.782 7        44.316                                                                    23544069.292 7  99622636.82207     -2032.164 7        44.792
C41        47.000                                                                                                                                                                                                                                                                    27088982.797 5                       243.976 5        31.517
C26        48.000                                                                                                                                    21735680.844 8 113183417.53308      -693.542 8        48.571                                                                    21735683.290 7  91970808.88007      -563.645 7        47.720
C24        51.000                                                                                                                                    23713677.290 6 123483503.47206      1648.971 6        36.904                                                                    23713670.316 6 100340340.91006      1339.856 6        41.139
C14        53.000                                                                                                                                                                                                    25956888.957 4                     -2365.625 4        24.165    25956886.031 6 109832101.51806     -2485.471 6        36.801
I06        58.000    38615197.793 6 151534336.77906      -742.658 6        38.429
I02        59.000    37189362.831 6 145939042.41306      -852.499 6        36.839
> 2025 01 02 13 16 50.0000000  0 42
G06         1.000                                                                                                                                                                    23023269.283 5  94276432.60405      -669.982 5        33.748
G25         3.000    20810609.452 6 109360693.97606      1108.777 6        36.620                                    20810608.968 5  85216060.65905       863.984 5        31.260    20810611.184 6  85215995.65106       863.887 6        40.055
G19         4.000    23567828.169 4                     -4117.695 4        26.084
E25         6.000    23908446.482 7 125639791.55207       224.437 7        42.593                                                                    23908451.449 7  93822020.53507       167.571 7        44.939    23908450.370 7  96269447.02807       171.899 7        44.816
G11         7.000    23281965.371 5 122347590.40705      1336.174 5        35.271                                    23281961.808 1  95335787.27001      1041.164 1        10.222    23281966.801 5  95335767.30205      1040.975 5        35.914
G28         8.000    24836398.125 5 130516256.65405      2673.042 5        34.852                                    24836416.091 1 101700994.26301      2082.931 1         4.286    24836406.892 4 101701008.23504      2082.636 4        27.760
G29         9.000    23897044.084 6 125579792.57206      2761.244 6        39.351                                    23897048.745 4  97854424.66504      2151.623 4        24.135    23897045.064 5  97854428.68205      2151.591 5        30.891
E10        11.000    26592711.535 5 139745666.60205      1757.845 5        34.557                                                                    26592719.637 5 104355543.26705      1312.480 5        35.633    26592717.028 5 107077850.02605      1346.820 5        34.805
G24        12.000    21985934.112 7 115537438.43007     -3891.230 7        43.393                                    21985931.895 5  90028811.71005     -3032.130 5        30.943    21985935.060 5  90028704.71505     -3032.241 5        31.857
E12        13.000    26346465.403 4                       812.612 4        25.113                                                                    26346467.806 5                       606.551 5        33.245
E33        14.000                                                                                                                                    27154888.371 4                     -1434.990 4        26.946
G12        15.000    20321387.469 8 106789585.30808     -1390.300 8        49.790                                    20321385.270 8  83212671.09708     -1083.354 8        50.079    20321385.430 7  83212689.10907     -1083.431 7        46.735
E24        16.000    24377925.262 7 128106826.59307     -2127.582 7        47.847                                                                    24377928.641 8  95664253.93808     -1588.825 8        51.735    24377927.552 8  98159869.11908     -1630.259 8        50.420
G32        17.000    22959823.617 7 120655121.39207      -562.579 7        45.731                                    22959840.115 4  94016627.30404      -438.385 4        29.953    22959839.718 5  94016780.21505      -438.311 5        34.738
E05        18.000    24895094.458 3                     -3805.349 3        22.819                                                                    24894959.133 6  97693157.74106     -2841.855 6        36.718    24894957.789 6 100241697.72906     -2915.880 6        40.112
E08        20.000    27145707.691 6 142651641.87006       853.254 6        36.941                                                                    27145715.143 6 106525687.26106       637.282 6        38.108    27145715.038 6 109304627.11506       653.854 6        39.856
E02        21.000    27701020.609 5                      1562.938 5        30.823                                                                    27701052.805 5 108704922.97905      1167.229 5        30.566    27701039.425 5 111540609.12705      1197.941 5        31.932
S23        22.000    38259123.159 6 201053062.37406      -863.505 6        36.185
R14        23.000    20059252.537 8 106927076.43508     -2375.968 8        48.776                                                                    20059253.905 6  83165450.67706     -1847.888 6        41.678
R06        24.000    22904730.658 5 122224042.21205       359.871 5        31.962
R23        25.000    22925719.332 5 122637222.35905     -4417.323 5        34.167
E03        26.000    25127766.837 6 132047507.97606     -1734.829 6        36.684                                                                    25127775.748 6  98606858.50706     -1295.550 6        41.259    25127775.855 6 101179191.22506     -1329.374 6        40.076
S21        27.000    38547187.790 5 202566880.54205      -858.414 5        34.576
R15        30.000    20094476.475 8 107379052.61708       953.293 8        52.639                                                                    20094480.882 8  83516865.36608       741.413 8        48.315
S36        31.000    38318319.737 5 201364150.71505      -858.986 5        35.957
C10        33.000                                                                                                                                    39604310.018 3                     -1580.013 3        22.609    39604310.539 5 159470145.50405     -1221.030 5        31.374    39604291.592 3                     -1281.485 3        22.210
R16        34.000    24029620.288 5 128361958.21905      2604.507 5        33.114                                                                    24029624.994 5                      2025.727 5        32.551
C44        35.000                                                                                                                                    25158476.025 5 131006974.83005      2612.244 5        32.467                                                                    25158480.954 5 106453776.12605      2122.293 5        35.348
R17        36.000    21807540.318 6 116696936.19206      3231.907 6        38.009                                                                    21807546.735 5  90764100.29905      2513.690 5        33.305
C45        37.000                                                                                                                                    24038084.508 6 125172736.65906     -3306.840 6        39.348                                                                    24038080.385 6 101712973.72506     -2687.165 6        41.359
R24        38.000    20194438.200 6 107989287.37706      -398.411 6        40.634                                                                    20194441.288 7  83991239.33007      -309.873 7        44.635
C33        39.000                                                                                                                                    25951224.918 5 135134905.27705     -2010.831 5        32.695                                                                    25951243.849 5 109808257.42405     -1634.548 5        32.665
C35        42.000                                                                                                                                    22607282.816 8 117722083.12008      1022.463 8        49.867                                                                    22607282.126 7  95658840.25407       830.600 7        45.487
R05        44.000    22157109.212 6 118442447.65506     -3746.221 6        40.043
C42        45.000                                                                                                                                    26533667.674 3                     -3699.495 3        23.276
C29        46.000                                                                                                                                    23546469.762 7 122612634.59607     -2502.897 7        43.645                                                                    23546471.482 7  99632801.52707     -2034.019 7        44.802
C41        47.000                                                                                                                                    27088677.133 4                       298.751 4        24.496                                                                    27088695.209 5                       242.074 5        30.830
C26        48.000                                                                                                                                    21736348.134 8 113186889.13308      -695.009 8        48.673                                                                    21736350.025 7  91973629.84307      -564.941 7        47.920
C24        51.000                                                                                                                                    23712094.929 6 123475259.41106      1648.825 6        36.284                                                                    23712087.448 7 100333641.97007      1339.351 7        42.051
C14        53.000                                                                                                                                                                                                    25959823.335 4                     -2365.822 4        24.526    25959821.531 6 109844531.56006     -2486.620 6        37.293
I06        58.000    38616143.066 6 151538049.53006      -742.298 6        37.849
I02        59.000    37190448.893 5 145943305.05405      -852.331 5        35.710
> 2025 01 02 13 16 55.0000000  0 42
G06         1.000    23024085.883 5                      -863.078 5        32.653                                                                                                    23024087.622 5  94279788.40105      -672.731 5        33.922
G25         3.000    20809555.495 5 109355155.43905      1106.561 5        35.457                                    20809554.770 5  85211744.93605       862.240 5        30.257    20809556.816 6  85211679.94306       862.252 6        39.048
G19         4.000    23571750.207 3                     -4118.870 3        22.781
E25         6.000    23908234.024 7 125638672.81407       223.073 7        42.798                                                                    23908238.646 7  93821185.10807       166.577 7        45.226    23908237.746 7  96268589.81607       170.820 7        45.025
G11         7.000    23280694.933 5 122340915.89305      1333.506 5        35.743                                    23280691.737 1  95330586.38001      1039.009 1        10.815    23280696.096 5  95330566.34805      1039.296 5        35.133
G28         8.000    24833856.258 5 130502894.15605      2672.124 5        35.281                                    24833872.976 1 101690581.91801      2082.177 1         4.143    24833862.025 4 101690595.94204      2082.171 4        25.789
G29         9.000    23894416.775 6 125565989.69606      2759.931 6        40.265                                    23894422.163 4  97843669.20004      2150.587 4        24.045    23894417.827 5  97843673.23705      2150.404 5        30.921
E10        11.000    26591039.104 5 139736882.13005      1756.048 5        34.590                                                                    26591047.882 5 104348983.51005      1311.374 5        35.486    26591045.758 6 107071119.13206      1345.483 6        36.318
G24        12.000    21989637.332 7 115556899.75107     -3893.458 7        44.476                                    21989635.007 5  90043976.38005     -3033.862 5        30.943    21989637.620 5  90043869.37105     -3033.954 5        33.126
E12        13.000    26345696.396 4                       810.427 4        25.865                                                                    26345698.960 5 103386173.71715       604.683 5        34.962
E33        14.000                                                                                                                                                                                                    27156747.574 4                     -1475.114 4        28.768
G12        15.000    20322711.902 8 106796543.21208     -1392.844 8        49.839                                    20322709.193 8  83218092.84308     -1085.336 8        50.216    20322709.529 7  83218110.84807     -1085.314 7        46.636
E24        16.000    24379949.935 7 128117467.67907     -2128.913 7        47.243                                                                    24379953.485 8  95672200.19908     -1589.753 8        51.834    24379952.344 8  98168022.66908     -1631.258 8        50.268
G32        17.000    22960363.216 7 120657943.40007      -566.215 7        45.445                                    22960379.040 4  94018826.25604      -441.202 4        29.261    22960378.261 5  94018979.14605      -440.922 5        35.129
E05        18.000    24898716.428 3                     -3806.551 3        22.914                                                                    24898579.225 6  97707368.15606     -2842.537 6        36.151    24898578.885 6 100256278.86706     -2916.768 6        39.982
E08        20.000    27144896.590 6 142647380.41006       851.141 6        37.932                                                                    27144904.080 6 106522505.04806       635.521 6        38.075    27144903.469 6 109301361.86206       652.107 6        39.670
E02        21.000    27699540.757 5                      1562.546 5        31.366                                                                    27699563.394 5 108699088.08305      1166.659 5        33.234    27699555.971 5 111534621.97805      1197.353 5        31.389
S23        22.000    38259942.924 5 201057381.23605      -864.036 5        34.933
R14        23.000    20061482.589 8 106938961.86908     -2378.346 8        49.036                                                                    20061483.631 6  83174694.92306     -1849.838 6        40.412
R06        24.000    22904394.191 5 122222255.80205       354.857 5        32.054
R23        25.000    22929843.287 5 122659316.16605     -4420.190 5        35.400
E03        26.000    25129420.658 6 132056188.84806     -1737.619 6        36.987                                                                    25129427.327 6  98613340.97506     -1297.482 6        41.604    25129427.462 6 101185842.80506     -1331.451 6        40.153
S21        27.000    38548004.398 5 202571174.00905      -859.143 5        31.736
R15        30.000    20093585.603 8 107374291.17608       951.142 8        52.725                                                                    20093589.508 8  83513162.02708       739.813 8        48.251
S36        31.000    38319135.160 6 201368446.84906      -859.326 6        36.098
C10        33.000                                                                                                                                    39605833.732 4                     -1579.098 4        25.158    39605827.937 5 159476250.69405     -1221.157 5        30.611    39605810.781 3                     -1284.423 3        20.881
R16        34.000    24027180.981 5 128348936.01005      2604.437 5        33.760                                                                    24027183.828 5                      2025.628 5        31.540
C44        35.000                                                                                                                                    25155968.622 5 130993916.08605      2611.153 5        35.495                                                                    25155973.905 5 106443164.84705      2122.004 5        35.752
R17        36.000    21804521.612 5 116680782.27105      3229.651 5        31.962                                                                    21804528.582 5  90751536.17105      2511.844 5        34.648
C45        37.000                                                                                                                                    24041259.371 6 125189274.47306     -3308.195 6        40.210                                                                    24041256.262 6 101726412.01706     -2688.305 6        40.896
R24        38.000    20194813.598 5 107991291.47605      -403.446 5        35.205                                                                    20194815.764 7  83992798.15407      -313.714 7        44.311
C33        39.000                                                                                                                                    25953161.128 5 135144968.37005     -2014.040 5        35.305                                                                    25953176.601 5 109816434.46305     -1636.591 5        32.952
C35        42.000                                                                                                                                    22606303.096 8 117716977.70008      1019.633 8        48.662                                                                    22606301.507 7  95654691.67607       828.572 7        44.907
R05        44.000    22160609.834 6 118461187.20406     -3749.585 6        39.778
C42        45.000                                                                                                                                    26537227.068 4                     -3698.571 4        24.241
C29        46.000                                                                                                                                    23548875.567 7 122625155.36607     -2505.535 7        42.533                                                                    23548875.740 7  99642975.65907     -2036.018 7        44.438
C41        47.000                                                                                                                                    27088396.463 4                       295.490 4        28.095                                                                    27088410.273 4                       239.778 4        29.829
C26        48.000                                                                                                                                    21737016.821 8 113190369.40808      -697.127 8        49.594                                                                    21737018.476 8  91976457.85308      -566.513 8        48.293
C24        51.000                                                                                                                                    23710512.175 6 123467018.63406      1647.598 6        37.505                                                                    23710504.929 7 100326945.67907      1338.772 7        42.544
C14        53.000                                                                                                                                    25962754.575 5 135194929.64305     -3061.758 5        30.883    25962767.366 4                     -2368.062 4        27.653    25962760.337 6 109856967.96506     -2488.294 6        37.743
I06        58.000    38617089.109 6 151541761.95706      -742.627 6        37.176
I02        59.000    37191534.875 6 145947568.13806      -852.754 6        36.053
> 2025 01 02 13 17  0.0000000  0 40
G06         1.000    23024911.152 6 120996710.24216      -866.446 6        39.111                                    23024901.201 3  94283118.90713      -675.152 3        19.194    23024910.222 5  94283157.93005      -675.176 5        33.240
G25         3.000    20808504.002 6 109349626.57606      1104.948 6        36.658                                    20808502.333 5  85207436.74005       860.984 5        30.211    20808504.832 6  85207371.75806       861.129 6        39.213
E25         6.000    23908022.617 7 125637559.70707       222.239 7        44.178                                                                    23908026.888 7  93820353.89207       165.922 7        45.165    23908026.304 7  96267736.90907       170.301 7        45.445
G11         7.000    23279424.902 5 122334253.48305      1331.296 5        34.529                                    23279423.956 1  95325394.88501      1037.418 1        10.667    23279427.863 5  95325374.87205      1037.278 5        35.386
G28         8.000    24831313.176 5 130489534.65705      2671.673 5        35.343                                    24831330.478 1 101680172.03901      2081.770 1         4.571    24831324.911 5 101680185.94505      2081.777 5        30.325
G29         9.000    23891791.982 6 125552192.21806      2759.076 6        40.768                                    23891796.637 4  97832917.92804      2149.941 4        24.075    23891792.781 4  97832921.93404      2150.271 4        28.645
E10        11.000    26589367.891 5 139728104.58505      1754.998 5        34.581                                                                    26589377.723 5 104342428.90305      1310.520 5        35.219    26589375.524 6 107064393.54006      1344.719 6        36.575
G24        12.000    21993342.569 7 115576370.87807     -3895.004 7        45.484                                    21993340.162 5  90059148.69105     -3035.074 5        30.966    21993343.040 5  90059041.67105     -3034.973 5        32.545
E12        13.000    26344927.201 4                       808.979 4        24.301                                                                    26344928.311 6 103383153.29306       603.597 6        36.843
E33        14.000                                                                                                                                    27158531.321 4                     -1439.785 4        26.623    27158581.302 4                     -1477.534 4        24.120
G12        15.000    20324038.061 8 106803512.52008     -1394.804 8        50.023                                    20324035.302 8  83223523.47308     -1086.862 8        50.276    20324035.754 7  83223541.48907     -1086.950 7        46.047
E24        16.000    24381976.059 7 128128113.82707     -2129.652 7        47.004                                                                    24381979.421 8  95680150.24308     -1590.371 8        51.786    24381978.079 8  98176180.10508     -1631.873 8        49.760
G32        17.000    22960902.385 7 120660782.30407      -569.198 7        44.275                                    22960921.036 4  94021038.36204      -443.533 4        28.389    22960921.181 5  94021191.23805      -443.485 5        34.490
E05        18.000    24902336.166 3                     -3809.405 3        20.571                                                                    24902201.683 5  97721582.05905     -2843.009 5        35.905    24902201.181 6 100270863.58506     -2917.244 6        39.847
E08        20.000    27144086.425 6 142643129.55606       849.514 6        38.285                                                                    27144095.150 6 106519330.70706       634.273 6        38.006    27144094.461 6 109298104.72106       650.662 6        39.075
E02        21.000    27698057.229 4                      1562.393 4        28.853                                                                    27698079.452 5 108693254.64905      1166.510 5        34.400    27698071.651 5 111528636.31205      1197.308 5        32.012
S23        22.000    38260768.055 5 201061700.88105      -863.689 5        35.562
R14        23.000    20063714.591 8 106950858.50408     -2380.196 8        48.319                                                                    20063714.746 6  83183947.85606     -1851.334 6        39.045
R06        24.000    22904062.813 5 122220491.03305       351.031 5        31.223
E03        26.000    25131076.675 6 132064882.18206     -1739.855 6        37.093                                                                    25131081.802 6  98619832.77706     -1299.116 6        41.874    25131081.303 6 101192503.95106     -1333.051 6        40.017
S21        27.000    38548827.485 5 202575467.91705      -858.613 5        35.414
R15        30.000    20092696.305 8 107369538.98108       949.709 8        53.281                                                                    20092700.429 8  83509465.89508       738.709 8        48.463
S36        31.000    38319951.920 5 201372742.95505      -859.258 5        34.957
C10        33.000                                                                                                                                    39607358.694 4                     -1578.922 4        25.113    39607342.864 5 159482356.51305     -1220.797 5        30.687    39607325.552 3                     -1284.222 3        18.955
R16        34.000    24024758.239 5 128335914.07605      2604.239 5        30.747                                                                    24024744.325 5                      2025.625 5        30.098
C44        35.000                                                                                                                                    25153463.543 6 130980860.46406      2611.150 6        36.730                                                                    25153466.557 6 106432556.16806      2121.551 6        36.155
R17        36.000    21801503.291 4 116664638.75404      3227.839 4        29.374                                                                    21801511.090 5  90738980.14405      2510.571 5        34.871
C45        37.000                                                                                                                                    24044437.604 6 125205818.12206     -3309.081 6        40.763                                                                    24044433.101 6 101739855.06906     -2689.082 6        40.918
R24        38.000    20195189.362 4 107993319.53304      -407.955 4        29.412                                                                    20195194.904 7  83994375.60207      -317.139 7        43.479
C33        39.000                                                                                                                                    25955096.455 6 135155044.37306     -2016.216 6        36.854                                                                    25955111.012 5 109824622.12305     -1638.482 5        33.317
C35        42.000                                                                                                                                    22605325.753 7 117711884.82007      1017.501 7        47.278                                                                    22605323.263 7  95650553.31907       826.681 7        44.697
R05        44.000    22164118.751 6 118479942.73806     -3752.548 6        39.210
C42        45.000                                                                                                                                    26540784.539 4                     -3699.812 4        28.076
C29        46.000                                                                                                                                    23551283.466 7 122637688.68107     -2507.665 7        42.591                                                                    23551282.424 7  99653160.02007     -2037.937 7        43.985
C41        47.000                                                                                                                                                                                                                                                                    27088129.625 5                       237.721 5        30.619
C26        48.000                                                                                                                                    21737687.407 8 113193859.29508      -698.777 8        49.590                                                                    21737688.929 8  91979293.69308      -567.877 8        48.476
C24        51.000                                                                                                                                    23708928.795 6 123458782.05906      1647.026 6        38.709                                                                    23708922.922 7 100320252.86107      1338.189 7        42.375
C14        53.000                                                                                                                                    25965704.972 5 135210243.21405     -3063.283 5        31.411                                                                    25965700.676 6 109869411.47006     -2489.385 6        38.027
I06        58.000    38618034.664 6 151545474.81706      -742.564 6        37.028
I02        59.000    37192623.029 5 145951832.14305      -852.860 5        35.838
> 2025 01 02 13 17  5.0000000  0 39
G06         1.000    23025734.878 6 121001051.25006      -869.709 6        40.145                                    23025729.833 3  94286501.49503      -677.704 3        22.819    23025736.131 5  94286540.46305      -677.652 5        31.411
G25         3.000    20807452.956 6 109344106.47606      1103.247 6        38.237                                    20807451.717 5  85203135.38305       859.665 5        30.491    20807454.245 6  85203070.39306       859.823 6        39.934
E25         6.000    23907811.822 7 125636451.39207       221.254 7        44.904                                                                    23907815.777 7  93819526.26007       165.217 7        44.686    23907815.492 7  96266887.68407       169.574 7        45.394
G11         7.000    23278159.405 5 122327602.32705      1328.922 5        34.619                                    23278158.277 1  95320212.16601      1035.502 1        11.333    23278161.938 5  95320192.18405      1035.668 5        35.410
G28         8.000    24828771.421 5 130476177.26205      2671.245 5        34.048                                    24828788.509 1 101669763.73801      2081.545 1         2.200    24828783.027 5 101669777.66805      2081.307 5        32.132
G29         9.000    23889166.449 6 125538399.27306      2758.276 6        39.829                                    23889171.606 3  97822170.20203      2149.306 3        23.924    23889168.653 4  97822174.18504      2149.186 4        28.152
E10        11.000    26587698.725 5 139719333.18905      1753.818 5        35.324                                                                    26587708.484 5 104335878.88105      1309.554 5        34.719    26587706.533 6 107057672.64206      1343.766 6        37.679
G24        12.000    21997049.310 7 115595851.01507     -3896.800 7        44.907                                    21997047.003 5  90074328.02705     -3036.464 5        30.928    21997050.017 5  90074221.02205     -3036.402 5        31.630
E12        13.000    26344158.851 4                       805.758 4        24.812                                                                    26344161.786 6 103380140.55306       601.882 6        37.898
E33        14.000                                                                                                                                    27160364.351 4                     -1441.219 4        24.391    27160421.884 3                     -1478.433 3        18.597
G12        15.000    20325366.339 8 106810492.43708     -1396.919 8        49.419                                    20325363.418 8  83228962.37408     -1088.508 8        50.445    20325364.283 7  83228980.37907     -1088.574 7        46.054
E24        16.000    24384002.805 7 128138764.22207     -2130.442 7        46.904                                                                    24384006.218 8  95688103.45508     -1590.871 8        51.399    24384004.563 8  98184340.78708     -1632.408 8        49.350
G32        17.000    22961444.073 7 120663637.27307      -572.405 7        43.462                                    22961465.447 4  94023262.99604      -446.030 4        26.072
E05        18.000                                                                                                                                    24905824.607 5  97735798.81905     -2843.282 5        35.757    24905823.834 6 100285451.21806     -2917.601 6        39.036
E08        20.000    27143280.146 6 142638888.45506       847.157 6        37.792                                                                    27143287.951 6 106516163.67206       632.668 6        37.433    27143286.576 6 109294855.05406       649.110 6        38.471
E02        21.000    27696565.527 4                      1562.135 4        29.156                                                                    27696594.935 5 108687422.00905      1166.268 5        33.898    27696588.866 5 111522651.50505      1197.185 5        30.958
S23        22.000    38261574.995 5 201066020.38205      -863.658 5        34.695
R14        23.000    20065947.139 7 106962765.69607     -2382.362 7        47.175                                                                    20065947.926 6  83193208.97506     -1852.876 6        37.089
R06        24.000    22903732.829 4 122218747.35004       346.980 4        29.090
E03        26.000    25132733.640 6 132073587.16306     -1742.266 6        37.040                                                                    25132738.354 6  98626333.27306     -1300.973 6        41.971    25132737.518 6 101199174.01006     -1334.852 6        39.676
S21        27.000    38549639.835 5 202579761.48305      -858.717 5        33.012
R15        30.000    20091808.801 8 107364795.28508       948.023 8        53.472                                                                    20091812.683 8  83505776.37408       737.361 8        48.686
S36        31.000    38320764.154 5 201377038.51605      -859.151 5        33.647
C10        33.000                                                                                                                                    39608866.365 4                     -1578.935 4        27.952    39608851.052 5 159488462.37905     -1221.355 5        30.445    39608841.571 3                     -1283.784 3        20.500
R16        34.000    24022317.117 4 128322891.23804      2604.742 4        28.948                                                                    24022305.538 5                      2025.566 5        30.808
C44        35.000                                                                                                                                    25150961.546 6 130967807.18706      2610.441 6        37.690                                                                    25150959.783 6 106421949.32906      2121.137 6        36.665
R17        36.000    21798493.277 5 116648504.81105      3225.978 5        30.838                                                                    21798495.525 5  90726431.57505      2509.058 5        34.848
C45        37.000                                                                                                                                    24047618.497 6 125222366.75806     -3310.200 6        41.523                                                                    24047610.967 6 101753302.17206     -2689.885 6        40.851
R24        38.000    20195575.567 5 107995370.57905      -412.379 5        34.381                                                                    20195577.369 6  83995970.93506      -320.741 6        41.831
C33        39.000                                                                                                                                    25957031.180 6 135165132.58806     -2018.759 6        36.681                                                                    25957047.755 5 109832819.58205     -1640.423 5        33.701
C35        42.000                                                                                                                                    22604350.700 7 117706803.65107      1015.128 7        46.164                                                                    22604347.388 7  95646424.43007       824.882 7        44.877
R05        44.000    22167634.439 6 118498713.19316     -3755.527 6        40.269                                                                    22167627.740 3                     -2921.383 3        19.403
C29        46.000                                                                                                                                    23553692.963 7 122650233.67807     -2510.118 7        43.236                                                                    23553691.630 7  99663353.85407     -2039.661 7        43.814
C41        47.000                                                                                                                                                                                                                                                                    27087850.886 5                       236.009 5        31.487
C26        48.000                                                                                                                                    21738359.465 8 113197357.96208      -700.540 8        49.357                                                                    21738360.800 8  91982136.63908      -569.254 8        48.613
C24        51.000                                                                                                                                    23707346.607 6 123450548.89006      1646.319 6        37.516                                                                    23707341.141 7 100313562.76807      1337.712 7        42.381
C14        53.000                                                                                                                                    25968642.721 5 135225564.63105     -3064.860 5        33.377    25968685.098 6 104565139.28816     -2369.934 6        36.405    25968641.799 6 109881861.41906     -2490.519 6        38.024
I06        58.000    38618981.385 6 151549187.38906      -742.275 6        37.115
I02        59.000    37193708.578 5 145956096.72605      -853.160 5        34.862
> 2025 01 02 13 17 10.0000000  0 42
G06         1.000    23026564.415 6 121005409.16606      -873.124 6        41.604                                    23026560.786 4  94289897.27904      -680.357 4        25.113    23026565.217 5  94289936.27505      -680.404 5        30.845
G25         3.000    20806406.834 6 109338595.35206      1101.306 6        39.216                                    20806402.933 5  85198841.03805       858.153 5        30.936    20806405.841 6  85198776.05006       858.264 6        40.477
G19         4.000    23583535.168 4                     -4123.433 4        26.168
E25         6.000    23907601.842 7 125635348.05007       220.315 7        44.813                                                                    23907605.934 7  93818702.32507       164.509 7        44.473    23907605.631 7  96266042.25707       168.793 7        45.807
G11         7.000    23276900.134 5 122320962.59005      1327.030 5        34.152                                    23276894.851 1  95315038.42801      1034.031 1        10.444    23276900.238 6  95315018.43806      1033.984 6        36.329
G28         8.000    24826228.977 5 130462822.18205      2670.651 5        35.233                                                                                                    24826238.770 5 101659371.19105      2081.131 5        31.811
G29         9.000    23886542.069 6 125524611.10406      2757.148 6        38.922                                    23886547.023 3  97811426.19203      2148.422 3        23.238    23886545.602 4  97811430.14304      2148.805 4        28.521
E10        11.000    26586031.754 6 139710568.06706      1752.641 6        37.701                                                                    26586039.470 5 104329333.55105      1308.516 5        34.224    26586038.210 6 107050956.57006      1342.812 6        38.279
G24        12.000    22000757.064 7 115615340.29707     -3898.687 7        44.331                                    22000755.507 5  90089514.48005     -3037.932 5        30.702    22000759.079 5  90089407.47705     -3037.987 5        31.449
E12        13.000    26343388.699 3                       803.389 3        20.976                                                                    26343396.683 6 103377135.59206       600.213 6        38.796
E33        14.000    27162203.626 4                     -1932.606 4        29.573                                                                    27162209.110 4                     -1442.873 4        26.168
G12        15.000    20326696.633 8 106817483.11508     -1399.155 8        49.868                                    20326693.614 8  83234409.66008     -1090.251 8        50.339    20326694.764 7  83234427.65607     -1090.191 7        46.293
E24        16.000    24386030.432 7 128149419.03907     -2131.374 7        47.322                                                                    24386033.735 8  95696059.96308     -1591.534 8        51.219    24386031.826 8  98192504.85108     -1633.046 8        49.022
G32        17.000    22961990.293 7 120666508.46807      -575.689 7        43.261                                    22962012.130 3  94025500.22803      -448.582 3        22.952
E05        18.000                                                                                                                                    24909448.456 6  97750018.58206     -2844.270 6        36.234    24909447.433 6 100300041.93106     -2918.390 6        38.637
E08        20.000    27142477.367 6 142634657.24906       845.367 6        39.150                                                                    27142482.570 6 106513004.01006       631.309 6        37.550    27142481.169 6 109291612.98906       647.764 6        38.138
E02        21.000    27695079.227 4                      1562.267 4        27.401                                                                    27695107.473 5 108681590.35705      1166.255 5        34.800    27695098.978 5 111516667.70205      1196.837 5        31.328
S23        22.000    38262407.472 6 201070339.73806      -863.698 6        36.741
R14        23.000    20068182.239 7 106974683.28107     -2384.522 7        46.612                                                                    20068183.686 5  83202478.22405     -1854.514 5        35.686
R06        24.000    22903410.915 5 122217024.76405       342.539 5        30.355
R23        25.000    22942228.558 4 122725676.74904     -4427.856 4        27.916
E03        26.000    25134392.075 6 132082303.96906     -1744.330 6        36.155                                                                    25134397.380 7  98632842.57907     -1302.530 7        42.508    25134395.888 6 101205853.13206     -1336.628 6        39.171
S21        27.000    38550454.028 5 202584055.00405      -858.469 5        33.437
R15        30.000    20090922.515 8 107360060.20708       946.206 8        53.064                                                                    20090926.825 8  83502093.54008       735.991 8        48.371
S36        31.000    38321589.012 5 201381333.54205      -858.959 5        34.952
C10        33.000                                                                                                                                    39610378.860 4                     -1579.065 4        27.880    39610366.280 5 159494568.44405     -1221.282 5        32.102    39610356.749 3                     -1283.582 3        21.119
R16        34.000    24019873.456 5                      2604.895 5        31.245                                                                    24019870.529 5                      2026.126 5        32.162
C44        35.000                                                                                                                                    25148464.548 6 130954756.42306      2609.965 6        37.928                                                                    25148453.739 6 106411344.52206      2120.919 6        37.278
R17        36.000                                                                                                                                    21795481.639 6  90713890.55206      2507.369 6        36.019
C45        37.000                                                                                                                                    24050797.483 6 125238920.55006     -3311.167 6        40.141                                                                    24050789.958 6 101766753.48206     -2690.613 6        40.682
R24        38.000    20195962.258 6 107997444.85706      -417.089 6        38.153                                                                    20195964.914 6  83997584.23806      -324.377 6        40.348
C33        39.000                                                                                                                                    25958970.874 6 135175233.15006     -2021.306 6        36.994                                                                    25958987.703 5 109841027.05805     -1642.334 5        32.359
C35        42.000                                                                                                                                    22603375.849 7 117701734.36507      1012.708 7        45.052                                                                    22603374.105 7  95642305.21207       822.936 7        45.014
R05        44.000    22171153.075 6 118517498.90206     -3758.655 6        36.284
C42        45.000                                                                                                                                    26547908.692 4                     -3700.787 4        25.910
C29        46.000                                                                                                                                    23556104.095 7 122662790.55307     -2512.486 7        43.973                                                                    23556103.369 7  99673557.33807     -2041.557 7        44.140
C41        47.000                                                                                                                                    27087623.225 4                       287.907 4        25.489                                                                    27087574.079 5                       233.511 5        30.875
C26        48.000                                                                                                                                    21739033.191 8 113200865.58208      -702.345 8        49.697                                                                    21739034.416 8  91984986.86208      -570.736 8        49.028
C24        51.000                                                                                                                                    23705763.402 5 123442319.35405      1645.761 5        35.810                                                                    23705760.048 7 100306875.58607      1337.259 7        42.152
C14        53.000                                                                                                                                    25971580.463 5 135240894.17105     -3066.733 5        35.143    25971626.480 6 104576993.01406     -2371.373 6        37.773    25971583.959 6 109894317.92906     -2491.877 6        36.987
I06        58.000    38619927.036 6 151552899.88106      -742.385 6        37.629
I02        59.000    37194794.028 5 145960362.00805      -853.244 5        33.754
> 2025 01 02 13 17 15.0000000  0 41
G06         1.000    23027397.318 6 121009783.85406      -876.796 6        41.876                                    23027394.381 4  94293306.11704      -683.216 4        26.707    23027398.059 5  94293345.12105      -683.043 5        32.461
G25         3.000    20805361.534 6 109333092.97206      1099.268 6        40.775                                    20805355.755 5  85194553.50205       856.571 5        30.302    20805357.807 6  85194488.52106       856.623 6        39.889
G19         4.000    23587456.025 4                     -4124.605 4        28.929
E25         6.000    23907392.323 7 125634249.48107       218.984 7        44.254                                                                    23907397.085 7  93817881.95607       163.580 7        44.287    23907396.646 7  96265200.48907       167.765 7        45.601
G11         7.000    23275645.896 5 122314334.13605      1324.539 5        34.333                                    23275633.500 1  95309873.46301      1032.132 1        10.593    23275638.240 6  95309853.50306      1031.991 6        37.251
G28         8.000    24823686.536 5 130449469.22205      2670.385 5        31.411                                    24823705.749 1 101648952.29201      2080.660 1         2.000    24823696.870 5 101648966.37305      2080.448 5        33.174
G29         9.000    23883919.695 6 125510827.42506      2756.090 6        39.210                                    23883923.191 3  97800685.69903      2147.603 3        22.648    23883925.109 4  97800689.68004      2146.932 4        27.928
E10        11.000    26584366.220 6 139701809.01106      1750.965 6        39.243                                                                    26584371.888 5 104322792.75805      1307.819 5        32.982    26584370.544 6 107044245.15806      1341.557 6        38.075
G24        12.000    22004467.987 7 115634838.51207     -3900.813 7        43.949                                    22004466.011 5  90104707.89305     -3039.603 5        30.657    22004469.691 5  90104600.87205     -3039.341 5        31.547
E12        13.000    26342627.901 4                       802.324 4        24.286                                                                    26342632.731 6 103374138.25506       598.590 6        38.943
E33        14.000                                                                                                                                    27164054.978 4                     -1445.219 4        25.774    27164058.427 5 109378405.11915     -1482.829 5        31.728
G12        15.000    20328028.853 8 106824484.35308     -1401.541 8        50.275                                    20328025.854 8  83239865.17508     -1092.111 8        50.293    20328026.984 7  83239883.16707     -1092.062 7        46.599
E24        16.000    24388059.149 7 128160078.04307     -2132.411 7        47.670                                                                    24388062.134 8  95704019.60608     -1592.418 8        51.162    24388059.840 8  98200672.13208     -1633.945 8        48.758
G32        17.000    22962540.541 7 120669395.65907      -579.341 7        43.276                                    22962561.084 2  94027749.82902      -451.395 2        16.981    22962543.775 5  94027902.71105      -451.779 5        32.964
E05        18.000                                                                                                                                    24913072.626 5  97764241.12605     -2845.133 5        35.352    24913072.140 6 100314635.49106     -2919.004 6        38.222
E08        20.000    27141673.688 6 142630435.80006       843.106 6        39.477                                                                    27141679.324 6 106509851.66506       629.423 6        37.384    27141677.332 6 109288378.40406       645.850 6        37.637
E02        21.000    27693592.735 4                      1561.700 4        25.895                                                                    27693622.508 5 108675759.54205      1165.852 5        34.295    27693611.563 5 111510684.77305      1196.184 5        30.045
S23        22.000    38263239.382 6 201074658.75406      -864.020 6        38.261
R14        23.000    20070419.863 7 106986611.20407     -2386.902 7        47.076                                                                    20070423.260 6  83211755.48606     -1856.216 6        38.039
R06        24.000    22903096.544 4 122215323.10704       337.871 4        29.109
R23        25.000    22946355.236 4                     -4430.726 4        24.827
E03        26.000    25136054.416 6 132091032.39406     -1747.018 6        36.582                                                                    25136058.311 7  98639360.56807     -1304.585 7        42.525    25136057.116 6 101212541.15006     -1338.721 6        40.276
S21        27.000    38551278.238 5 202588348.35005      -858.817 5        33.407
R15        30.000    20090037.613 8 107355333.50908       944.315 8        53.269                                                                    20090042.039 8  83498417.23808       734.526 8        48.490
S36        31.000    38322405.155 5 201385627.50105      -858.957 5        34.729
C10        33.000                                                                                                                                    39611890.599 4                     -1579.292 4        27.222    39611883.623 5 159500674.47005     -1221.364 5        32.473    39611875.343 3                     -1282.751 3        20.690
R16        34.000                                                                                                                                    24017438.951 5                      2026.021 5        32.784
C44        35.000                                                                                                                                    25145964.363 6 130941707.94906      2609.256 6        38.060                                                                    25145947.635 6 106400741.59806      2120.323 6        36.904
R17        36.000                                                                                                                                    21792470.208 6  90701356.95706      2505.838 6        36.397
C45        37.000                                                                                                                                    24053974.302 6 125255479.30906     -3312.478 6        39.486                                                                    24053969.815 6 101780208.82306     -2691.766 6        40.746
R24        38.000    20196356.912 6 107999542.22006      -421.892 6        41.840                                                                    20196357.295 6  83999215.52206      -328.266 6        38.895
C33        39.000                                                                                                                                    25960911.954 6 135185345.78906     -2023.752 6        36.076                                                                    25960926.039 5 109849244.40305     -1644.550 5        31.894
C35        42.000                                                                                                                                    22602403.441 7 117696676.73607      1010.110 7        44.930                                                                    22602403.033 7  95638195.48007       820.855 7        45.648
C42        45.000                                                                                                                                    26551465.751 4                     -3701.099 4        27.713
C29        46.000                                                                                                                                    23558517.204 7 122675359.09707     -2515.145 7        44.354                                                                    23558517.062 7  99683770.30307     -2043.653 7        44.215
C41        47.000                                                                                                                                    27087344.268 3                       285.445 3        23.562                                                                    27087295.385 4                       231.896 4        28.834
C26        48.000                                                                                                                                    21739708.833 8 113204381.94208      -704.373 8        49.766                                                                    21739709.691 8  91987844.19408      -572.344 8        49.063
C24        51.000                                                                                                                                    23704181.252 6 123434093.14106      1644.694 6        38.045                                                                    23704180.759 7 100300191.16407      1336.334 7        42.154
C14        53.000                                                                                                                                    25974526.444 5 135256231.54705     -3068.572 5        35.933    25974568.716 6 104588852.80606     -2372.750 6        37.214    25974527.813 5 109906780.76005     -2493.423 5        35.810
I06        58.000    38620873.234 6 151556612.14206      -742.614 6        37.622
I02        59.000    37195881.909 5 145964627.86205      -853.242 5        34.652
> 2025 01 02 13 17 20.0000000  0 41
G06         1.000    23028232.512 6 121014175.61206      -879.970 6        40.963                                    23028231.062 4  94296728.27904      -685.693 4        27.078    23028231.372 5  94296767.25405      -685.584 5        31.011
G25         3.000    20804318.023 6 109327599.75306      1097.787 6        38.910                                    20804310.317 4  85190273.08004       855.431 4        28.872    20804312.147 6  85190208.07806       855.459 6        39.682
E25         6.000    23907184.169 7 125633156.00907       218.198 7        44.510                                                                    23907189.238 7  93817065.39907       162.873 7        44.686    23907188.549 7  96264362.63607       167.136 7        45.831
G11         7.000    23274391.301 5 122307717.44705      1322.127 5        30.641                                    23274374.439 1  95304717.68101      1030.192 1         8.381    23274378.349 6  95304697.58906      1030.361 6        37.573
G28         8.000    24821145.805 4 130436118.78304      2670.001 4        28.009                                    24821165.054 1 101638549.38201      2080.567 1         1.778    24821154.989 5 101638563.44605      2080.368 5        33.796
G29         9.000    23881297.768 6 125497048.62606      2755.231 6        37.890                                    23881300.549 3  97789949.00803      2146.927 3        22.533    23881301.358 4  97789953.04804      2146.574 4        29.924
E10        11.000    26582702.174 6 139693056.44006      1749.746 6        40.017                                                                    26582704.882 5 104316256.82105      1306.739 5        32.515    26582705.439 6 107037538.68506      1340.878 6        38.366
G24        12.000    22008180.625 7 115654345.98907     -3902.438 7        43.187                                    22008178.571 5  90119908.52805     -3040.863 5        30.974    22008183.232 5  90119801.53905     -3040.868 5        34.086
E12        13.000    26341868.624 4                       799.479 4        28.161                                                                    26341870.685 6 103371148.84006       597.100 6        39.123
E33        14.000    27165901.103 5 142757769.37815     -1937.469 5        33.695                                                                    27165898.512 3                     -1446.734 3        22.590    27165894.293 5 109385822.83405     -1484.885 5        30.121
G12        15.000    20329362.909 8 106831496.50208     -1403.518 8        50.616                                    20329360.190 8  83245329.19108     -1093.649 8        50.189    20329361.328 7  83245347.17707     -1093.664 7        46.985
E24        16.000    24390088.219 7 128170741.59507     -2133.194 7        47.590                                                                    24390091.151 8  95711982.64208     -1592.966 8        51.039    24390089.051 8  98208842.90408     -1634.572 8        48.574
G32        17.000    22963093.133 7 120672299.22407      -582.342 7        44.050                                    22963111.921 3  94030012.17603      -453.734 3        19.015    22963098.122 5  94030165.18905      -453.691 5        33.653
E05        18.000                                                                                                                                    24916697.806 6  97778466.79006     -2845.758 6        36.045    24916697.475 6 100329232.23606     -2919.631 6        38.009
E08        20.000    27140870.501 6 142626224.46006       841.059 6        38.556                                                                    27140878.318 6 106506706.82006       628.243 6        37.800    27140876.511 6 109285151.52706       644.467 6        38.210
E02        21.000    27692107.114 4                      1561.154 4        28.161                                                                    27692137.634 5 108669929.70205      1165.964 5        31.932    27692129.756 5 111504702.83405      1196.041 5        30.234
S23        22.000    38264058.033 6 201078977.97706      -863.831 6        39.351
R14        23.000    20072660.278 7 106998549.79007     -2388.858 7        47.273                                                                    20072662.338 6  83221041.08706     -1857.982 6        39.045
R06        24.000    22902779.418 4 122213642.74404       334.251 4        27.114
R23        25.000    22950505.072 3                     -4431.369 3        22.419
E03        26.000    25137717.445 6 132099772.80406     -1749.317 6        37.618                                                                    25137721.476 7  98645887.48207     -1306.285 7        42.110    25137721.673 6 101219238.32106     -1340.460 6        40.622
S21        27.000    38552093.120 5 202592641.73405      -858.547 5        32.509
R15        30.000    20089154.803 8 107350615.56808       942.696 8        53.298                                                                    20089159.153 8  83494747.75508       733.165 8        48.711
S36        31.000    38323229.083 5 201389921.32605      -858.636 5        35.557
C10        33.000                                                                                                                                    39613410.441 4                     -1579.396 4        27.449    39613401.210 5 159506780.79405     -1221.577 5        32.317    39613389.399 3                     -1283.667 3        20.190
R16        34.000    24015010.624 5                      2605.028 5        31.102
C44        35.000                                                                                                                                    25143457.687 6 130928662.13006      2608.899 6        37.406                                                                    25143442.043 6 106390140.81206      2119.992 6        37.142
R17        36.000                                                                                                                                    21789459.969 6  90688831.10906      2504.646 6        37.112
C45        37.000                                                                                                                                    24057153.461 6 125272043.42506     -3313.309 6        39.682                                                                    24057151.015 6 101793668.49906     -2692.559 6        40.539
R24        38.000    20196754.978 6 108001662.94206      -426.432 6        39.841                                                                    20196753.738 6  84000864.95606      -331.713 6        37.550
C33        39.000                                                                                                                                    25962860.993 6 135195470.82106     -2026.240 6        36.745                                                                    25962870.343 5 109857471.80505     -1646.226 5        32.210
C35        42.000                                                                                                                                    22601434.074 7 117691631.15307      1007.931 7        45.067                                                                    22601434.384 7  95634095.53207       818.991 7        46.295
R05        44.000    22178166.236 5 118555115.26215     -3764.753 5        34.981                                                                    22178171.075 4                     -2927.699 4        25.444
C42        45.000                                                                                                                                    26555025.530 4                     -3701.520 4        26.934
C29        46.000                                                                                                                                    23560931.726 7 122687939.60107     -2517.372 7        44.164                                                                    23560933.241 7  99693993.00307     -2045.633 7        44.482
C41        47.000                                                                                                                                                                                                                                                                    27087020.850 4                       229.660 4        26.503
C26        48.000                                                                                                                                    21740385.944 8 113207907.42008      -705.972 8        50.055                                                                    21740386.643 8  91990708.92408      -573.688 8        49.066
C24        51.000                                                                                                                                    23702603.400 6 123425870.66406      1643.954 6        40.033                                                                    23702601.761 7 100293509.73207      1336.107 7        42.383
C14        53.000                                                                                                                                    25977474.457 6 135271577.11106     -3070.019 6        36.707    25977506.336 5 104600718.94005     -2373.791 5        35.343    25977474.339 5 109919250.25705     -2494.434 5        34.605
I06        58.000    38621819.315 6 151560324.38106      -742.441 6        37.970
I02        59.000    37196969.212 5 145968894.49105      -853.439 5        34.257
