     3.04           OBSERVATION DATA    M                   RINEX VERSION / TYPE
ssrcrin-15.6.1x                         20250102 134500 UTC PGM / RUN BY / DATE 
(00000000023479385599111004) Septentrio proprietary         COMMENT             
ract                                                        MARKER NAME         
01                                                          MARKER NUMBER       
geodetic                                                    MARKER TYPE         
NFB                 CLIMERS@TUW                             OBSERVER / AGENCY   
3296359             SEPT ASTERX SB3 PROB4.14.4              REC # / TYPE / VERS 
Unknown             Unknown                                 ANT # / TYPE        
  4127447.3832  1206914.5806  4695543.5899                  APPROX POSITION XYZ 
        0.0000        0.0000        0.0000                  ANTENNA: DELTA H/E/N
G   23 X1  C1C L1C D1C S1C C1W S1W C2W L2W D2W S2W C2L L2L  SYS / # / OBS TYPES 
       D2L S2L C5Q L5Q D5Q S5Q C1L L1L D1L S1L              SYS / # / OBS TYPES 
E   21 X1  C1C L1C D1C S1C C6C L6C D6C S6C C5Q L5Q D5Q S5Q  SYS / # / OBS TYPES 
       C7Q L7Q D7Q S7Q C8Q L8Q D8Q S8Q                      SYS / # / OBS TYPES 
S    9 X1  C1C L1C D1C S1C C5I L5I D5I S5I                  SYS / # / OBS TYPES 
R   17 X1  C1C L1C D1C S1C C2P L2P D2P S2P C2C L2C D2C S2C  SYS / # / OBS TYPES 
       C3Q L3Q D3Q S3Q                                      SYS / # / OBS TYPES 
C   25 X1  C1P L1P D1P S1P C5P L5P D5P S5P C2I L2I D2I S2I  SYS / # / OBS TYPES 
       C7I L7I D7I S7I C6I L6I D6I S6I C7D L7D D7D S7D      SYS / # / OBS TYPES 
J   17 X1  C1C L1C D1C S1C C2L L2L D2L S2L C5Q L5Q D5Q S5Q  SYS / # / OBS TYPES 
       C1L L1L D1L S1L                                      SYS / # / OBS TYPES 
I    5 X1  C5A L5A D5A S5A                                  SYS / # / OBS TYPES 
SEPTENTRIO RECEIVERS OUTPUT ALIGNED CARRIER PHASES.         COMMENT             
NO FURTHER PHASE SHIFT APPLIED IN THE RINEX ENCODER.        COMMENT             
G L1C                                                       SYS / PHASE SHIFT   
G L2W                                                       SYS / PHASE SHIFT   
G L2L  0.00000                                              SYS / PHASE SHIFT   
G L5Q  0.00000                                              SYS / PHASE SHIFT   
G L1L  0.00000                                              SYS / PHASE SHIFT   
E L1C  0.00000                                              SYS / PHASE SHIFT   
E L6C  0.00000                                              SYS / PHASE SHIFT   
E L5Q  0.00000                                              SYS / PHASE SHIFT   
E L7Q  0.00000                                              SYS / PHASE SHIFT   
E L8Q  0.00000                                              SYS / PHASE SHIFT   
S L1C                                                       SYS / PHASE SHIFT   
S L5I                                                       SYS / PHASE SHIFT   
R L1C                                                       SYS / PHASE SHIFT   
R L2P  0.00000                                              SYS / PHASE SHIFT   
R L2C                                                       SYS / PHASE SHIFT   
R L3Q  0.00000                                              SYS / PHASE SHIFT   
C L1P  0.00000                                              SYS / PHASE SHIFT   
C L5P  0.00000                                              SYS / PHASE SHIFT   
C L2I                                                       SYS / PHASE SHIFT   
C L7I                                                       SYS / PHASE SHIFT   
C L6I                                                       SYS / PHASE SHIFT   
C L7D                                                       SYS / PHASE SHIFT   
J L1C                                                       SYS / PHASE SHIFT   
J L2L  0.00000                                              SYS / PHASE SHIFT   
J L5Q  0.00000                                              SYS / PHASE SHIFT   
J L1L  0.00000                                              SYS / PHASE SHIFT   
I L5A                                                       SYS / PHASE SHIFT   
  2025     1     2    13    45    0.0000000     GPS         TIME OF FIRST OBS   
 C1C    0.000 C2C    0.000 C2P    0.000                     GLONASS COD/PHS/BIS 
DBHZ                                                        SIGNAL STRENGTH UNIT
    18                                                      LEAP SECONDS        
 24 R01  1 R02 -4 R03  5 R04  6 R05  1 R06 -4 R07  5 R08  6 GLONASS SLOT / FRQ #
    R09 -2 R10 -7 R11  0 R12 -1 R13 -2 R14 -7 R15  0 R16 -1 GLONASS SLOT / FRQ #
    R17  4 R18 -3 R19  3 R20  2 R21  4 R22 -3 R23  3 R24  2 GLONASS SLOT / FRQ #
                                                            END OF HEADER       
> 2025 01 02 13 45  0.0000000  0 39
G06         1.000    23184053.168 4                     -1996.453 4        25.835
G11         2.000    22691377.550 3                       434.138 3        23.048                                                                                                    22691385.402 5  92917461.15105       337.061 5        33.748
G25         3.000    20256726.274 7 106449756.75407       457.576 7        44.730                                    20256727.146 6  82947932.97006       356.550 6        36.711    20256729.221 6  82947922.98806       356.452 6        38.583
E25         6.000    23591223.104 6 123972668.85406      -116.680 6        39.985                                                                    23591226.908 6  92577161.61106       -87.315 6        40.276    23591228.135 5  94992113.93205       -89.931 5        30.619
G28         8.000    23714565.794 6 124620983.29606      2400.232 6        38.589                                    23714568.153 2  97107166.28602      1870.290 2        16.868    23714566.978 5  97107224.34605      1870.355 5        33.808
G29         9.000    22771855.978 4 119667205.61004      2339.191 4        28.616                                    22771806.489 1  93246715.28101      1822.953 1         6.375    22771806.225 4                      1823.121 4        29.744
E11        10.000    26603300.661 5 139801288.20605      2130.605 5        31.683                                                                    26603305.503 5 104397085.60105      1591.564 5        34.052    26603304.359 4 107120492.20404      1632.991 4        29.754
E10        11.000    25807587.685 6 135619806.52206      1227.039 6        39.892                                                                    25807595.641 7 101274584.14207       916.276 7        42.718    25807594.439 6 103916516.46906       940.250 6        41.690
G24        12.000    23026617.176 7 121005686.70007     -4409.188 7        42.087                                    23026625.763 4  94290160.36404     -3435.727 4        29.118    23026627.366 5  94290171.32005     -3435.481 5        34.771
E12        13.000                                                                                                                                    25906637.925 6 101663222.67306        28.106 6        38.480    25906636.018 5 104315315.94205        29.081 5        30.008
E33        14.000                                                                                                                                    27597269.880 3                     -1997.164 3        20.214
G12        15.000    20583195.141 8 108165334.32408     -2091.735 8        51.118                                    20583191.898 8  84284708.95808     -1629.921 8        49.100    20583193.448 7  84284729.95807     -1629.923 7        44.692
E24        16.000    24808842.533 7 130371389.10307     -2410.757 7        46.161                                                                    24808844.856 6  97355260.36406     -1800.154 6        41.211    24808843.786 6  99894988.79406     -1847.151 6        39.000
G32        17.000    23016542.963 7 120953181.55507     -1644.368 7        43.625                                    23016568.430 2  94248905.94202     -1281.305 2        16.075
E05        18.000    25852163.794 6 135854091.41706     -3977.588 6        39.249                                                                    25852174.080 5 101449504.98205     -2970.457 5        32.982    25852173.793 6 104096025.87906     -3047.874 6        40.675
E08        20.000    26686765.938 6 140239922.27206       116.742 6        39.033                                                                    26686774.124 7 104724735.81707        87.202 7        42.438    26686772.839 6 107456693.41006        89.473 6        41.726
E02        21.000    26913742.301 5 141432690.06505      1466.345 5        32.713                                                                    26913742.791 4 105615417.27604      1095.627 4        25.684    26913745.639 5 108370583.09805      1123.629 5        34.876
S23        22.000    38237367.598 5 200938776.56805      -865.275 5        35.543
R14        23.000    20625281.980 6 109944336.65606     -3080.956 6        41.147                                                                    20625287.934 6  85512299.55506     -2396.424 6        39.342
R06        24.000    22723057.712 6 121254601.32206     -1112.652 6        36.643
E03        26.000    25509858.241 6 134055397.52406     -2486.747 6        38.372                                                                    25509865.864 6 100106254.07306     -1857.147 6        39.856    25509864.305 7 102717701.68307     -1905.391 7        43.005
S21        27.000    38523785.052 5 202443933.75905      -860.025 5        34.886
R07        29.000    24317888.862 5 130175773.22505      1849.540 5        31.472
R15        30.000    19594052.333 8 104704945.24108       288.417 8        50.609                                                                    19594054.664 6  81436976.09806       224.261 6        41.950
S36        31.000    38295005.569 5 201241671.60605      -860.389 5        35.162
C10        33.000                                                                                                                                    39818655.131 3                     -1585.447 3        23.429    39818661.826 5 160333264.78805     -1226.527 5        32.251    39818654.640 4                     -1289.395 4        26.659
R16        34.000                                                                                                                                    22905310.387 5  95165791.57205      2013.524 5        34.152
C44        35.000                                                                                                                                    24049894.335 6 125234166.76606      2337.388 6        41.387                                                                    24049897.636 5 101763069.18605      1899.447 5        31.328
R17        36.000    20614141.240 6 110310643.39306      2356.308 6        41.225                                                                    20614143.205 6  85797145.95206      1832.617 6        40.298
C45        37.000                                                                                                                                    24865871.482 5 129483098.95705     -3631.543 5        35.629                                                                    24865865.046 5 105215604.94305     -2950.914 5        33.689
R24        38.000    20268429.140 8 108384680.29708     -1954.344 8        48.880                                                                    20268431.166 6  84298981.27606     -1519.996 6        41.425
C33        39.000                                                                                                                                    26430081.514 5 137628429.51705     -2753.120 5        33.323
C35        42.000                                                                                                                                    22113317.023 7 115149805.23407       156.405 7        47.173                                                                    22113317.821 7  93568729.50707       127.345 7        43.488
C29        46.000                                                                                                                                    24180005.064 6 125911625.65006     -3216.105 6        41.614                                                                    24180002.606 4 102313534.49804     -2612.897 4        28.389
C26        48.000                                                                                                                                    21763844.868 8 113330069.25608     -1330.235 8        50.542                                                                    21763844.676 7  92089976.18207     -1080.758 7        42.609
C41        49.000                                                                                                                                    26835436.247 4                      -594.641 4        25.173                                                                    26835365.081 5 113549282.76205      -483.093 5        30.196
C24        51.000                                                                                                                                                                                                                                                                    22923173.298 6  96995462.24706      1093.057 6        37.516
C14        53.000                                                                                                                                                                                                    26728256.528 4 107623775.92904     -2689.590 4        25.173
I06        58.000    38634949.709 6 151611850.05506      -736.808 6        37.508
> 2025 01 02 13 45  5.0000000  0 38
G11         2.000    22690970.475 4                       429.679 4        27.078                                                                                                    22690976.508 5  92915781.48005       334.962 5        35.862
G25         3.000    20256291.941 7 106447473.32807       455.932 7        44.688                                    20256292.786 6  82946153.68306       355.267 6        37.777    20256295.107 6  82946143.68606       355.272 6        39.189
E25         6.000    23591335.699 6 123973254.61406      -117.361 6        40.539                                                                    23591337.740 6  92577599.03806       -87.674 6        39.868    23591340.741 4  94992562.74904       -89.853 4        29.611
G28         8.000    23712282.565 6 124608984.41206      2399.447 6        38.661                                    23712284.191 2  97097816.52002      1869.691 2        16.830    23712283.592 4  97097874.62704      1869.632 4        29.308
G29         9.000                                                                                                                                                                    22769582.729 4                      1822.190 4        29.374
E11        10.000    26601273.659 5 139790634.51905      2130.295 5        31.034                                                                    26601278.691 5 104389129.95905      1591.119 5        34.938    26601277.184 4 107112329.01904      1632.635 4        29.175
E10        11.000    25806420.987 6 135613675.71906      1225.512 6        39.850                                                                    25806429.146 7 101270005.99007       915.177 7        43.515    25806427.668 7 103911818.88507       939.000 7        42.040
G24        12.000    23030812.696 6 121027734.31806     -4409.937 6        41.862                                    23030822.327 4  94307340.31604     -3436.314 4        28.768    23030824.562 5  94307351.27605     -3436.403 5        34.286
E12        13.000    25906598.022 4 136140097.85814        35.525 4        26.120                                                                    25906602.760 6 101663085.54606        26.826 6        38.814    25906601.316 5 104315175.26705        27.675 5        32.168
E33        14.000    27599854.713 3                     -2673.458 3        23.295                                                                    27599811.291 3                     -1994.550 3        19.373
G12        15.000    20585185.987 8 108175797.09608     -2093.289 8        50.892                                    20585183.183 8  84292861.76008     -1631.134 8        49.360    20585184.324 7  84292882.77307     -1631.099 7        45.023
E24        16.000    24811136.663 7 130383443.87807     -2411.059 7        46.414                                                                    24811138.527 6  97364262.31806     -1800.527 6        40.987    24811138.071 6  99904225.56506     -1847.465 6        39.315
G32        17.000    23018108.830 7 120961409.76707     -1646.855 7        43.238                                    23018135.153 2  94255317.58302     -1283.292 2        14.190    23018211.483 4                     -1283.146 4        24.211
E05        18.000    25855948.855 6 135873979.53906     -3977.441 6        39.183                                                                    25855959.222 5 101464356.44705     -2970.417 5        33.030    25855958.543 6 104111264.76906     -3047.623 6        40.715
E08        20.000    26686656.154 6 140239343.16006       114.975 6        39.658                                                                    26686663.920 7 104724303.37807        85.762 7        42.396    26686662.487 6 107456249.68806        88.049 6        41.609
E02        21.000    26912346.611 5 141425358.31505      1466.864 5        31.185                                                                    26912348.553 4 105609942.30404      1094.504 4        26.826    26912350.262 5 108364965.28505      1123.811 5        34.857
S23        22.000    38238182.354 5 200943101.58605      -864.786 5        34.824
R14        23.000    20628173.387 6 109959745.89306     -3082.665 6        41.399                                                                    20628178.622 6  85524284.52906     -2397.624 6        38.820
R06        24.000    22724104.107 6 121260174.93806     -1116.543 6        36.548
E03        26.000    25512226.037 6 134067835.36006     -2488.153 6        38.468                                                                    25512232.421 6 100115542.03206     -1858.189 6        39.670    25512230.941 7 102727231.94907     -1906.572 7        42.904
S21        27.000    38524606.141 5 202448233.16005      -859.689 5        35.148
R23        28.000    24142194.133 4                     -5077.880 4        25.519
R07        29.000    24316167.916 5 130166532.22705      1847.078 5        33.635
R15        30.000    19593784.178 8 104703507.73908       286.662 8        51.455                                                                    19593785.731 7  81435858.02607       222.975 7        43.283
S36        31.000    38295824.878 5 201245972.59605      -859.922 5        35.033
C10        33.000                                                                                                                                    39820181.367 4                     -1585.043 4        25.203    39820185.652 5 160339396.86605     -1226.203 5        32.240    39820177.456 4                     -1288.103 4        26.096
R16        34.000                                                                                                                                    22902885.827 5  95155722.64205      2013.910 5        33.617
C44        35.000                                                                                                                                    24047651.100 7 125222481.65207      2336.742 7        42.330                                                                    24047653.957 5 101753574.09705      1898.543 5        31.774
R17        36.000    20611937.561 6 110298868.76506      2353.624 6        39.529                                                                    20611942.361 6  85787987.93906      1830.555 6        39.964
C45        37.000                                                                                                                                    24869358.292 5 129501257.28105     -3631.945 5        34.543                                                                    24869351.289 5 105230360.03605     -2951.415 5        32.569
R24        38.000    20270256.632 8 108394461.95108     -1958.302 8        49.372                                                                    20270259.596 6  84306589.24506     -1523.238 6        39.991
C33        39.000                                                                                                                                    26432730.914 5 137642199.61505     -2754.680 5        35.100                                                                    26432791.725 3                     -2238.547 3        23.162
C35        42.000                                                                                                                                    22113168.529 7 115149029.26207       154.132 7        47.150                                                                    22113168.826 7  93568098.98707       125.117 7        43.867
C29        46.000                                                                                                                                    24183092.368 6 125927709.68506     -3217.442 6        41.063                                                                    24183092.056 4 102326604.07304     -2614.294 4        28.825
C26        48.000                                                                                                                                    21765122.672 8 113336724.26708     -1331.724 8        50.610                                                                    21765122.654 7  92095383.91207     -1082.389 7        42.555
C41        49.000                                                                                                                                    26836004.849 4                      -596.398 4        27.521                                                                    26835937.279 5 113551702.07405      -485.435 5        31.766
C24        51.000                                                                                                                                                                                                                                                                    22921882.892 6  96989999.83906      1092.037 6        37.312
I06        58.000    38635887.795 6 151615532.83206      -736.340 6        37.660
> 2025 01 02 13 45 10.0000000  0 40
G11         2.000    22690566.590 5                       426.388 5        32.635                                                                                                    22690569.969 6  92914113.37506       332.475 6        37.565
G25         3.000    20255858.964 7 106445200.05707       453.515 7        45.174                                    20255860.496 6  82944382.30806       353.383 6        38.508    20255862.693 6  82944372.32706       353.378 6        39.538
E25         6.000    23591447.397 6 123973845.35006      -118.714 6        40.701                                                                    23591449.690 6  92578040.18006       -88.785 6        39.327    23591454.608 4  94993015.36904       -91.464 4        29.118
G28         8.000    23709999.109 6 124596991.21906      2397.980 6        39.171                                    23710001.209 2  97088471.23802      1868.475 2        16.528    23709998.732 4  97088529.27804      1868.645 4        26.060
G29         9.000                                                                                                                                                                    22767357.846 5                      1820.912 5        30.106
E11        10.000    26599247.514 5 139779984.65705      2129.395 5        30.249                                                                    26599252.394 5 104381177.19405      1590.105 5        35.724    26599250.761 4 107104168.76204      1631.883 4        28.066
E10        11.000    25805256.418 6 135607554.09706      1223.347 6        40.098                                                                    25805264.248 7 101265434.70207       913.443 7        43.814    25805262.383 7 103907128.33507       937.410 7        42.144
G24        12.000    23035009.182 6 121049787.85706     -4411.382 6        40.913                                    23035019.535 4  94324524.88004     -3437.436 4        27.713    23035022.597 5  94324535.83305     -3437.681 5        32.808
E12        13.000    25906567.986 5 136139926.45905        33.205 5        30.053                                                                    25906570.139 6 101662957.53706        24.597 6        38.694    25906568.319 5 104315043.95805        24.992 5        33.479
E33        14.000                                                                                                                                    27602357.626 3                     -1998.542 3        20.571
G12        15.000    20587178.791 8 108186269.60308     -2095.592 8        50.748                                    20587176.306 8  84301022.14908     -1632.929 8        49.430    20587177.154 7  84301043.16407     -1632.882 7        45.208
E24        16.000    24813431.265 7 130395502.47707     -2412.167 7        46.574                                                                    24813433.125 6  97373267.13006     -1801.374 6        40.887    24813432.739 6  99913465.26606     -1848.287 6        39.826
G32        17.000    23019677.312 7 120969653.24207     -1650.339 7        42.502                                    23019704.388 2  94261741.03802     -1285.963 2        14.667
E05        18.000    25859733.133 6 135893868.55506     -3977.976 6        39.871                                                                    25859744.212 5 101479208.57605     -2970.678 5        33.689    25859743.260 6 104126504.36206     -3048.033 6        40.782
E08        20.000    26686548.057 6 140238775.60006       112.267 6        39.925                                                                    26686555.969 7 104723879.57507        83.900 7        42.345    26686554.398 6 107455814.83806        85.988 6        41.697
E02        21.000    26910955.238 5 141418027.94305      1465.741 5        31.902                                                                    26910954.203 4 105604468.35504      1094.437 4        27.305    26910955.747 5 108359348.57905      1123.133 5        34.948
S23        22.000    38239007.458 5 200947426.46405      -864.955 5        34.981
R14        23.000    20631067.131 7 109975165.26307     -3084.976 7        42.442                                                                    20631072.260 6  85536277.34806     -2399.300 6        38.952
R06        24.000    22725156.699 5 121265770.27205     -1121.309 5        35.538
E03        26.000    25514596.038 6 134080283.26706     -2490.668 6        40.110                                                                    25514601.295 6 100124837.53806     -1859.902 6        39.453    25514599.621 7 102736769.93707     -1908.459 7        42.809
S21        27.000    38525428.423 5 202452532.35805      -859.916 5        35.381
R23        28.000    24146939.329 4                     -5079.945 4        27.760
R07        29.000    24314446.073 5 130157306.36305      1843.594 5        33.413
R15        30.000    19593517.500 8 104702081.30408       284.094 8        51.739                                                                    19593518.777 7  81434748.57407       221.022 7        43.983
S36        31.000    38296640.104 5 201250273.81805      -860.356 5        35.357
C10        33.000                                                                                                                                    39821701.133 3                     -1586.287 3        23.676    39821708.445 5 160345528.86005     -1226.310 5        32.383    39821700.540 4                     -1288.808 4        26.323
R16        34.000                                                                                                                                    22900463.436 5  95145654.46805      2013.621 5        32.994
C44        35.000                                                                                                                                    24045409.027 7 125210802.00607      2335.290 7        43.092                                                                    24045412.096 5 101744083.43205      1897.735 5        33.210
R17        36.000    20609738.230 6 110287109.98606      2350.036 6        38.003                                                                    20609744.095 6  85778842.22906      1827.892 6        38.769
C45        37.000                                                                                                                                    24872844.803 5 129519419.84505     -3633.191 5        33.916                                                                    24872838.504 5 105245118.56205     -2951.816 5        31.623
R24        38.000    20272089.375 8 108404265.71608     -1963.012 8        49.433                                                                    20272091.055 6  84314214.38106     -1526.762 6        39.526
C33        39.000                                                                                                                                    26435380.160 5 137655979.03705     -2757.003 5        34.819
C35        42.000                                                                                                                                    22113022.013 7 115148266.65807       151.100 7        46.773                                                                    22113022.420 7  93567479.30007       122.882 7        44.245
R05        44.000                                                                                                                                    23189124.164 3                     -3536.962 3        23.257
C29        46.000                                                                                                                                    24186182.241 6 125943802.62806     -3219.682 6        40.341                                                                    24186183.983 4 102339680.88504     -2616.080 4        28.616
C26        48.000                                                                                                                                    21766402.374 8 113343388.88908     -1333.974 8        50.595                                                                    21766402.329 7  92100799.44507     -1083.937 7        42.375
C41        49.000                                                                                                                                    26836580.195 4                      -599.406 4        28.265                                                                    26836512.446 5 113554132.28005      -486.959 5        33.401
C24        51.000                                                                                                                                                                                                                                                                    22920593.070 6  96984541.76806      1091.133 6        37.157
C14        53.000                                                                                                                                                                                                    26734931.910 4                     -2690.393 4        25.925
I06        58.000    38636826.063 6 151619215.44806      -736.609 6        37.414
> 2025 01 02 13 45 15.0000000  0 41
G06         1.000    23189745.083 4                     -2006.212 4        28.701
G11         2.000    22690167.180 5 119237614.95615       423.597 5        35.281                                                                                                    22690166.698 6  92912456.91706       330.089 6        39.544
G25         3.000    20255428.727 7 106442936.90507       451.646 7        45.485                                    20255430.246 6  82942618.82006       351.932 6        39.162    20255431.433 6  82942608.82406       351.935 6        39.601
E25         6.000    23591559.035 6 123974441.05706      -119.463 6        39.661                                                                    23591562.535 6  92578485.05406       -89.210 6        38.883    23591571.172 4  94993471.76004       -91.283 4        28.882
G28         8.000    23707719.239 6 124585003.76306      2397.068 6        40.343                                    23707719.429 2  97079130.41602      1867.857 2        17.132    23707720.583 4  97079188.46904      1867.689 4        29.460
G29         9.000    22765119.582 5 119632141.88105      2335.345 5        33.156                                    22765134.037 2  93219392.15602      1819.753 2        15.857    22765134.426 4                      1819.649 4        29.981
E11        10.000    26597220.817 4 139769338.68004      2128.913 4        28.360                                                                    26597226.776 6 104373227.27606      1589.746 6        36.658    26597225.747 4 107096011.46804      1631.084 4        26.790
E10        11.000    25804093.725 6 135601441.65806      1221.710 6        40.377                                                                    25804100.995 7 101260870.26507       912.260 7        44.173    25804098.825 6 103902444.82606       936.088 6        41.905
G24        12.000    23039206.957 6 121071847.30106     -4412.371 6        40.007                                    23039217.593 4  94341714.03704     -3438.191 4        25.684    23039223.067 5  94341724.94905     -3437.992 5        30.445
E12        13.000    25906538.469 5 136139767.18205        30.635 5        31.441                                                                    25906539.569 6 101662838.59906        22.889 6        38.480    25906538.839 5 104314921.92905        23.452 5        34.738
E33        14.000                                                                                                                                    27604904.630 3                     -2002.910 3        20.905
G12        15.000    20589173.243 8 108196751.86908     -2097.296 8        50.708                                    20589171.275 8  84309190.14608     -1634.257 8        49.398    20589171.873 7  84309211.16107     -1634.227 7        45.165
E24        16.000    24815726.518 7 130407564.90807     -2412.787 7        46.332                                                                    24815728.382 6  97382274.78506     -1801.804 6        41.342    24815728.090 6  99922707.90306     -1848.793 6        40.005
G32        17.000    23021249.287 6 120977911.96706     -1653.215 6        40.803                                    23021276.915 2  94268176.35402     -1288.201 2        15.333
E05        18.000    25863517.787 6 135913758.47806     -3977.956 6        39.580                                                                    25863529.308 5 101494061.37905     -2970.712 5        34.138    25863528.325 6 104141744.64506     -3047.998 6        40.358
E08        20.000    26686442.489 6 140238219.63206       110.156 6        40.007                                                                    26686450.131 7 104723464.42407        82.235 7        42.252    26686448.606 6 107455388.84906        84.427 6        41.564
E02        21.000    26909566.314 5 141410698.98205      1465.779 5        31.230                                                                    26909560.212 4 105598995.45504      1095.012 4        28.711    26909560.969 5 108353732.95505      1123.183 5        35.271
S23        22.000    38239827.495 5 200951751.07305      -864.849 5        35.205
R14        23.000    20633962.082 7 109990594.64307     -3086.758 7        42.112                                                                    20633967.734 6  85548277.97106     -2400.747 6        40.548
R06        24.000    22726206.198 5 121271387.35105     -1125.630 5        33.994
E03        26.000    25516966.853 6 134092741.22106     -2492.554 6        40.698                                                                    25516971.817 6 100134140.54006     -1861.084 6        39.444    25516970.272 7 102746315.63207     -1909.715 7        42.756
S21        27.000    38526244.257 5 202456831.65005      -859.557 5        35.929
R23        28.000    24151685.939 4                     -5081.323 4        29.005
R07        29.000    24312726.760 5 130148095.52305      1840.761 5        32.521
R15        30.000    19593251.803 8 104700665.63708       282.104 8        50.938                                                                    19593253.281 7  81433647.51007       219.441 7        43.488
S36        31.000    38297461.541 5 201254574.94605      -860.226 5        35.105
C10        33.000                                                                                                                                    39823226.537 3                     -1584.789 3        22.876    39823231.833 5 160351660.72605     -1226.473 5        32.228    39823223.610 4                     -1288.802 4        26.467
R16        34.000    22898038.465 6 122317569.33316      2588.697 6        40.188                                                                    22898041.486 4  95135587.33304      2013.111 4        28.834
C44        35.000                                                                                                                                    24043167.920 7 125199127.84107      2334.474 7        43.987                                                                    24043170.528 5 101734597.25805      1896.900 5        33.964
R17        36.000    20607544.964 6 110275367.21106      2347.112 6        36.068                                                                    20607549.053 6  85769708.93206      1825.585 6        38.688
C45        37.000                                                                                                                                    24876333.439 5 129537586.55505     -3634.003 5        32.922                                                                    24876327.543 5 105259880.50305     -2952.448 5        32.281
R24        38.000    20273927.192 8 108414091.44208     -1967.218 8        50.051                                                                    20273929.777 6  84321856.63806     -1530.157 6        40.307
C33        39.000                                                                                                                                    26438027.335 5 137669767.73305     -2758.464 5        33.689                                                                    26438063.916 4                     -2241.474 4        28.417
C35        42.000                                                                                                                                    22112879.251 7 115147517.43107       148.642 7        46.789                                                                    22112878.525 7  93566870.51907       120.716 7        44.486
R05        44.000                                                                                                                                    23193379.382 4                     -3538.226 4        25.850
C29        46.000                                                                                                                                    24189274.074 6 125959904.51306     -3221.137 6        39.069                                                                    24189277.174 4 102352764.99904     -2617.798 4        29.270
C26        48.000                                                                                                                                    21767683.727 8 113350063.11708     -1335.662 8        50.640                                                                    21767683.994 7  92106222.82007     -1085.415 7        42.262
C41        49.000                                                                                                                                                                                                                                                                    26837090.056 5 113556573.39105      -489.306 5        34.700
C24        51.000                                                                                                                                                                                                                                                                    22919304.153 6  96979088.03006      1090.265 6        37.002
C14        53.000                                                                                                                                                                                                    26738280.046 4                     -2691.471 4        28.464
I06        58.000    38637764.611 6 151622897.86506      -736.417 6        37.637
> 2025 01 02 13 45 20.0000000  0 40
G06         1.000    23191658.240 5                     -2009.227 5        31.185
G11         2.000    22689764.648 6 119235504.33606       420.577 6        36.798                                    22689775.424 2  92910841.13712       327.711 2        13.758    22689765.727 6  92910812.18506       327.801 6        40.934
G25         3.000    20255000.433 7 106440684.01307       449.649 7        45.594                                    20255002.025 6  82940863.32706       350.371 6        39.787    20255003.225 6  82940853.33306       350.434 6        40.272
E25         6.000    23591674.075 6 123975041.92406      -120.733 6        38.595                                                                    23591676.848 6  92578933.74906       -90.053 6        38.453    23591687.216 5  94993932.15005       -92.828 5        30.257
G28         8.000    23705439.268 6 124573022.20606      2395.708 6        41.170                                    23705438.754 2  97069794.20602      1866.807 2        17.019    23705443.261 5  97069852.21505      1866.811 5        33.856
G29         9.000                                                                                                                                                                    22762912.137 5                      1818.520 5        30.257
E11        10.000    26595195.704 4 139758696.78604      2127.839 4        26.443                                                                    26595201.756 6 104365280.34906      1589.171 6        37.123    26595200.263 4 107087857.19204      1631.504 4        24.120
E10        11.000    25802933.215 6 135595338.59506      1219.770 6        41.347                                                                    25802939.543 7 101256312.84207       910.821 7        44.172    25802937.072 6 103897768.50006       934.519 6        41.750
G24        12.000    23043405.386 6 121093912.80106     -4413.712 6        39.219                                    23043416.263 3  94358907.91203     -3439.243 3        22.419    23043426.480 4  94358918.84504     -3439.034 4        28.445
E12        13.000    25906511.160 5 136139620.26605        27.974 5        32.820                                                                    25906511.319 6 101662728.88706        21.019 6        38.057    25906510.555 5 104314809.35605        21.568 5        35.114
E33        14.000    27607455.658 4                     -2679.978 4        27.257                                                                    27607454.511 3                     -2000.362 3        21.690
G12        15.000    20591170.011 8 108207244.10208     -2099.369 8        50.637                                    20591168.101 8  84317365.90808     -1635.875 8        49.293    20591168.397 7  84317386.92407     -1635.861 7        45.019
E24        16.000    24818022.417 7 130419631.30207     -2413.653 7        45.854                                                                    24818025.121 6  97391285.40006     -1802.336 6        41.204    24818024.204 6  99931953.56906     -1849.267 6        40.315
G32        17.000    23022823.237 6 120986186.08306     -1656.504 6        39.309                                    23022852.777 2  94274623.64702     -1290.734 2        16.113
E05        18.000    25867302.879 6 135933649.45906     -3978.297 6        40.172                                                                    25867315.166 5 101508914.96605     -2970.879 5        34.433    25867313.071 6 104156985.72906     -3048.202 6        39.952
E08        20.000    26686338.779 6 140237675.41106       107.748 6        40.043                                                                    26686346.503 7 104723058.05307        80.365 7        42.053    26686345.084 6 107454971.86306        82.577 6        41.566
E02        21.000    26908171.379 4 141403371.66504      1465.447 4        29.365                                                                    26908166.734 4 105593523.81604      1094.206 4        29.081    26908167.277 5 108348118.52905      1122.845 5        35.314
S23        22.000    38240648.669 5 200956075.84205      -864.998 5        34.786
R14        23.000    20636857.452 6 110006034.15306     -3088.760 6        40.360                                                                    20636863.110 6  85560286.49306     -2402.427 6        41.414
R06        24.000    22727258.203 5 121277026.07405     -1129.752 5        33.449
E03        26.000    25519338.869 6 134105209.40606     -2494.607 6        41.266                                                                    25519344.339 6 100143451.19906     -1862.994 6        39.090    25519343.295 7 102755869.15907     -1911.408 7        42.789
S21        27.000    38527065.949 5 202461131.17805      -859.923 5        35.833
R23        28.000    24156434.015 4                     -5082.604 4        28.730
R07        29.000    24311003.841 5 130138900.06605      1836.950 5        30.106
R15        30.000    19592988.254 8 104699261.18108       279.804 8        50.381                                                                    19592990.598 7  81432555.17507       217.619 7        43.501
S36        31.000    38298284.856 6 201258875.73406      -860.329 6        36.091
C10        33.000                                                                                                                                    39824747.090 3                     -1586.098 3        22.000    39824756.125 5 160357792.58705     -1226.330 5        32.353    39824745.952 4                     -1287.820 4        26.240
C44        35.000                                                                                                                                    24040927.854 7 125187459.34207      2333.288 7        44.558                                                                    24040929.825 5 101725115.66105      1895.969 5        34.786
R17        36.000    20605356.791 5 110263640.47205      2343.691 5        35.281                                                                    20605358.630 6  85760588.17106      1822.918 6        39.958
C45        37.000                                                                                                                                    24879820.377 5 129555757.62405     -3634.541 5        31.162                                                                    24879818.353 5 105274646.03805     -2953.392 5        33.012
R24        38.000    20275769.562 8 108423939.37108     -1971.742 8        50.810                                                                    20275770.881 6  84329516.14606     -1533.516 6        40.386
C33        39.000                                                                                                                                    26440671.581 5 137683565.87105     -2760.638 5        34.238                                                                    26440708.272 5                     -2243.256 5        30.264
C35        42.000                                                                                                                                    22112739.016 7 115146781.74707       145.754 7        46.173                                                                    22112737.420 7  93566272.74807       118.607 7        44.727
R05        44.000                                                                                                                                    23197626.378 3                     -3540.940 3        21.262
C29        46.000                                                                                                                                    24192367.519 6 125976015.46206     -3223.122 6        37.894                                                                    24192371.697 4 102365856.44804     -2618.605 4        29.166
C26        48.000                                                                                                                                    21768967.129 8 113356747.13908     -1337.754 8        50.601                                                                    21768967.554 7  92111654.13207     -1086.926 7        42.343
C41        49.000                                                                                                                                                                                                                                                                    26837669.683 5 113559025.70205      -491.655 5        35.414
C24        51.000                                                                                                                                    22918158.669 3                      1342.992 3        21.833                                                                    22918016.132 6  96973638.78506      1089.629 6        37.119
C14        53.000                                                                                                                                                                                                    26741627.520 4                     -2691.609 4        29.014
I06        58.000    38638702.843 6 151626580.19506      -736.498 6        37.849
> 2025 01 02 13 45 25.0000000  0 40
G06         1.000    23193571.947 5                     -2012.560 5        32.240
G11         2.000    22689367.692 6 119233408.28106       417.632 6        38.129                                    22689374.766 2  92909207.86202       325.428 2        15.762    22689367.221 6  92909178.91706       325.447 6        40.508
G25         3.000    20254573.886 7 106438441.06107       447.427 7        46.134                                    20254575.719 6  82939115.57206       348.647 6        40.250    20254576.779 6  82939105.57006       348.706 6        40.925
E25         6.000    23591789.514 6 123975647.54906      -121.822 6        37.316                                                                    23591792.180 6  92579386.03606       -90.982 6        38.532    23591805.959 5  94994396.16705       -93.262 5        31.555
G28         8.000    23703160.186 6 124561046.16906      2394.467 6        41.807                                    23703159.626 2  97060462.28702      1865.816 2        17.623    23703164.084 6  97060520.28906      1865.663 6        36.367
G29         9.000    22760701.613 6 119608803.93706      2332.139 6        38.255                                    22760693.412 4  93201206.77904      1817.245 4        25.008    22760693.157 5                      1817.428 5        31.343
E11        10.000    26593170.550 4 139748058.40604      2127.213 4        25.534                                                                    26593177.568 6 104357336.16306      1588.347 6        37.728
E10        11.000    25801773.782 6 135589244.54806      1217.836 6        41.931                                                                    25801779.602 7 101251762.13507       909.326 7        44.191    25801776.793 6 103893099.07006       932.980 6        41.425
G24        12.000    23047605.339 6 121115983.94406     -4415.060 6        39.204                                    23047615.376 3  94376106.19203     -3440.313 3        18.716    23047631.607 4  94376117.17304     -3440.106 4        25.308
E12        13.000    25906485.229 5 136139485.31105        25.455 5        33.880                                                                    25906485.336 6 101662628.11806        19.140 6        38.273    25906484.727 5 104314705.94805        19.595 5        35.067
E33        14.000    27610009.317 4                     -2680.572 4        27.317                                                                    27610008.169 3                     -2002.283 3        22.781
G12        15.000    20593168.557 8 108217745.90408     -2101.503 8        50.215                                    20593166.701 8  84325549.13008     -1637.535 8        49.282    20593166.826 7  84325570.13207     -1637.416 7        44.856
E24        16.000    24820318.735 7 130431701.33707     -2414.423 7        44.954                                                                    24820322.009 6  97400298.74706     -1803.124 6        41.802    24820320.918 6  99941202.04506     -1850.047 6        40.486
G32        17.000    23024400.332 6 120994475.19506     -1659.352 6        38.144                                    23024431.872 2  94281082.66902     -1292.981 2        17.057    23024399.413 4                     -1292.742 4        24.391
E05        18.000    25871088.240 6 135953541.10006     -3978.574 6        40.219                                                                    25871100.370 5 101523769.07805     -2971.075 5        34.724    25871097.900 6 104172227.33506     -3048.527 6        39.517
E08        20.000    26686237.671 6 140237142.54006       105.422 6        40.191                                                                    26686245.088 7 104722660.15807        78.649 7        42.169    26686243.844 6 107454563.60206        80.638 6        41.409
E02        21.000    26906775.298 4 141396045.66304      1464.686 4        25.504                                                                    26906772.737 4 105588053.07204      1094.007 4        29.640    26906773.339 5 108342505.10405      1122.252 5        35.667
S23        22.000    38241476.120 5 200960400.41905      -864.813 5        35.329
R14        23.000    20639754.426 6 110021483.50606     -3091.048 6        38.559                                                                    20639760.877 6  85572302.65106     -2404.056 6        41.273
R06        24.000    22728319.515 5 121282686.37005     -1134.295 5        33.742
E03        26.000    25521712.712 6 134117687.45706     -2496.870 6        41.352                                                                    25521718.556 6 100152769.20606     -1864.423 6        38.874    25521718.201 7 102765430.23707     -1913.065 7        43.010
S21        27.000    38527881.823 6 202465430.27006      -859.771 6        36.083
R23        28.000    24161188.378 4                     -5083.590 4        28.237
R15        30.000    19592726.917 8 104697867.47708       277.519 8        49.341                                                                    19592729.974 7  81431471.18607       215.879 7        43.369
S36        31.000    38299100.355 6 201263176.28306      -860.375 6        36.246
C10        33.000                                                                                                                                    39826266.892 3                     -1586.529 3        21.738    39826280.086 5 160363924.17405     -1226.212 5        32.587    39826268.731 4                     -1288.889 4        25.985
R16        34.000                                                                                                                                    22893180.565 5  95115455.36605      2012.776 5        33.671
C44        35.000                                                                                                                                    24038688.722 7 125175796.15207      2331.947 7        45.160                                                                    24038690.206 5 101715638.35805      1894.694 5        35.100
R17        36.000    20603170.559 6 110251929.41906      2340.263 6        36.284                                                                    20603170.399 6  85751479.60106      1820.224 6        39.874
C45        37.000                                                                                                                                    24883308.809 5 129573932.69105     -3635.251 5        31.283                                                                    24883311.511 5 105289414.74305     -2954.401 5        34.305
R24        38.000    20277615.616 8 108433808.97108     -1976.282 8        50.668                                                                    20277616.450 6  84337192.50706     -1537.145 6        39.691
C33        39.000                                                                                                                                    26443323.003 5 137697372.96905     -2762.678 5        35.914                                                                    26443360.324 5                     -2244.664 5        32.731
C35        42.000                                                                                                                                    22112601.078 7 115146059.23307       143.067 7        45.925                                                                    22112598.793 7  93565685.63807       116.147 7        44.825
R05        44.000    23201858.153 5                     -4552.466 5        30.777
C29        46.000                                                                                                                                    24195462.489 6 125992135.09806     -3224.922 6        36.098                                                                    24195470.733 4 102378954.99004     -2620.533 4        29.052
C26        48.000                                                                                                                                    21770252.470 8 113363440.57208     -1339.778 8        50.689                                                                    21770252.914 7  92117093.07807     -1088.842 7        42.434
C41        49.000                                                                                                                                                                                                                                                                    26838251.433 5 113561488.60405      -493.899 5        35.867
C24        51.000                                                                                                                                                                                                                                                                    22916730.505 6  96968193.69706      1088.322 6        36.696
C14        53.000                                                                                                                                                                                                    26744966.208 5                     -2692.663 5        30.392
I06        58.000    38639641.017 6 151630262.18306      -736.433 6        37.459
> 2025 01 02 13 45 30.0000000  0 40
G06         1.000    23195488.029 5                     -2015.729 5        34.133
G11         2.000    22688971.549 6 119231327.16006       414.995 6        37.679                                    22688976.913 2  92907586.23102       323.344 2        17.358    22688969.760 6  92907557.26106       323.453 6        39.486
G25         3.000    20254148.903 7 106436208.24007       445.702 7        45.762                                    20254151.259 6  82937375.71106       347.301 6        40.627    20254150.821 6  82937365.70906       347.322 6        40.806
E25         6.000    23591904.839 6 123976258.12006      -122.451 6        36.295                                                                    23591908.749 6  92579841.99806       -91.479 6        38.628    23591927.551 5  94994864.02305       -93.830 5        33.084
G28         8.000    23700882.224 7 124549075.87707      2393.678 7        42.100                                    23700881.679 3  97051134.82703      1865.192 3        19.164    23700885.044 6  97051192.82906      1865.156 6        38.138
G29         9.000    22758483.153 6 119597146.17506      2331.035 6        38.607                                    22758475.304 4  93192122.82404      1816.379 4        26.731    22758475.196 5                      1816.165 5        31.064
E11        10.000    26591146.135 4 139737423.92104      2126.930 4        25.594                                                                    26591153.963 6 104349394.84906      1588.289 6        38.300    26591168.505 3                      1628.942 3        21.071
E10        11.000    25800615.404 7 135583159.70007      1216.200 7        42.193                                                                    25800621.512 7 101247218.29907       908.207 7        44.095    25800618.208 6 103888436.66406       931.931 6        41.128
G24        12.000    23051806.845 6 121138060.95406     -4415.796 6        40.114                                    23051815.249 2  94393308.97402     -3440.826 2        13.636    23051834.683 3  94393320.15303     -3440.329 3        23.352
E12        13.000    25906461.679 5 136139362.49105        23.503 5        33.898                                                                    25906461.699 6 101662536.43006        17.572 6        37.883    25906461.288 5 104314611.86305        17.949 5        35.038
E33        14.000    27612569.173 4                     -2682.998 4        27.904                                                                    27612567.905 3                     -2002.658 3        23.581
G12        15.000    20595168.644 8 108228257.46908     -2103.141 8        50.149                                    20595167.122 8  84333739.95308     -1638.811 8        49.468    20595167.316 7  84333760.97007     -1638.854 7        44.883
E24        16.000    24822615.911 7 130443775.16807     -2414.933 7        43.778                                                                    24822620.421 6  97409314.91106     -1803.392 6        41.995    24822618.683 6  99950453.39906     -1850.379 6        40.796
G32        17.000    23025980.838 6 121002779.52706     -1662.144 6        37.822                                    23026014.134 2  94287553.51502     -1295.172 2        17.208    23025982.148 4                     -1295.412 4        29.166
E05        18.000    25874873.581 6 135973433.61006     -3978.516 6        40.324                                                                    25874885.549 5 101538623.79705     -2970.892 5        35.081    25874883.153 6 104187469.59306     -3048.317 6        38.973
E08        20.000    26686138.677 6 140236621.25606       103.389 6        40.822                                                                    26686146.013 7 104722270.89807        77.002 7        42.118    26686144.856 6 107454164.17806        79.187 6        41.385
E02        21.000    26905377.792 3                      1463.182 3        20.905                                                                    26905379.803 5 105582583.36905      1093.589 5        30.408    26905379.782 6 108336892.66306      1122.558 6        36.696
S23        22.000    38242302.140 5 200964724.88905      -864.724 5        35.419
R14        23.000    20642653.173 6 110036942.91506     -3092.595 6        37.187                                                                    20642660.616 6  85584326.66106     -2405.524 6        40.963
R06        24.000    22729383.676 5 121288368.28105     -1138.188 5        31.434
E03        26.000    25524088.932 6 134130175.50006     -2498.490 6        40.749                                                                    25524094.973 6 100162094.69506     -1865.807 6        39.069    25524095.186 7 102774998.99007     -1914.451 7        43.255
S21        27.000    38528697.818 5 202469729.13205      -859.589 5        35.733
R23        28.000    24165934.666 4                     -5084.718 4        26.838
R07        29.000    24307551.226 4 130120554.07904      1831.698 4        26.623
R15        30.000    19592467.015 7 104696484.65907       275.633 7        47.841                                                                    19592471.343 7  81430395.68207       214.343 7        43.695
S36        31.000    38299919.721 6 201267477.08506      -859.894 6        36.129
C10        33.000                                                                                                                                    39827784.494 3                     -1586.044 3        20.714    39827802.447 5 160370055.62305     -1226.157 5        32.353    39827792.303 4                     -1288.479 4        25.729
R16        34.000    22890748.128 5 122278744.46805      2588.096 5        34.181                                                                    22890764.804 5  95105390.48905      2013.125 5        33.287
C44        35.000                                                                                                                                    24036450.244 7 125164138.44307      2331.130 7        45.124                                                                    24036451.799 5 101706165.53105      1894.398 5        35.562
R17        36.000    20600984.710 6 110240234.41406      2337.724 6        39.613                                                                    20600984.565 6  85742383.47506      1818.115 6        38.781
C45        37.000                                                                                                                                    24886800.348 5 129592111.97905     -3636.372 5        31.411                                                                    24886804.946 5 105304186.88505     -2954.756 5        35.195
R24        38.000    20279464.558 8 108443700.57908     -1980.350 8        50.301                                                                    20279465.895 6  84344885.98206     -1540.369 6        38.835
C33        39.000                                                                                                                                    26445977.543 6 137711189.22706     -2763.875 6        36.949                                                                    26446015.811 5                     -2245.752 5        33.790
C35        42.000                                                                                                                                    22112466.110 7 115145350.09607       140.640 7        44.918                                                                    22112462.655 7  93565109.44207       114.299 7        45.087
C29        46.000                                                                                                                                    24198560.344 5 126008263.61005     -3226.680 5        34.057                                                                    24198573.918 4 102392060.79304     -2621.841 4        29.251
C26        48.000                                                                                                                                    21771539.869 8 113370143.60108     -1341.401 8        50.671                                                                    21771540.108 7  92122539.85707     -1090.031 7        42.417
C41        49.000                                                                                                                                                                                                                                                                    26838835.817 6 113563962.35406      -495.525 6        36.336
C24        51.000                                                                                                                                    22915597.533 3                      1339.970 3        21.095                                                                    22915447.655 6  96962752.95506      1087.872 6        37.361
C14        53.000                                                                                                                                                                                                    26748305.759 5                     -2693.162 5        32.054
I06        58.000    38640579.466 6 151633943.96506      -736.159 6        37.297
> 2025 01 02 13 45 35.0000000  0 40
G06         1.000    23197409.001 5 121903199.37015     -2018.823 5        35.076                                                                                                    23197429.659 3                     -1572.843 3        19.851
G11         2.000    22688575.017 6 119229261.33706       411.775 6        36.015                                    22688581.755 2  92905976.51402       320.869 2        17.887    22688576.557 6  92905947.51306       320.884 6        37.807
G25         3.000    20253725.668 7 106433985.88907       443.521 7        45.658                                    20253728.682 6  82935644.00406       345.601 6        40.417    20253727.623 6  82935634.01906       345.549 6        41.035
E25         6.000    23592020.987 5 123976874.02205      -123.874 5        34.948                                                                    23592026.284 6  92580301.94806       -92.476 6        38.823    23592047.318 5  94995335.95805       -94.686 5        33.048
G28         8.000    23698605.156 6 124537111.70406      2392.306 6        41.816                                    23698605.511 3  97041812.15603      1864.127 3        20.095    23698607.585 6  97041870.14206      1864.046 6        39.192
G29         9.000    22756265.094 6 119585496.34106      2329.210 6        38.066                                    22756258.546 4  93183045.06404      1814.964 4        27.210    22756257.307 5                      1815.055 5        31.736
E11        10.000    26589124.478 4 139726793.70404      2125.386 4        26.898                                                                    26589130.935 6 104341456.70906      1587.447 6        38.435    26589152.259 3                      1629.100 3        19.194
E10        11.000    25799459.379 7 135577084.41607      1214.316 7        42.290                                                                    25799465.453 7 101242681.62007       906.713 7        43.936    25799461.441 6 103883781.61606       930.482 6        40.651
G24        12.000    23056009.640 6 121160144.16206     -4417.094 6        40.827                                    23056017.242 1  94410516.40801     -3441.887 1         9.333
E12        13.000    25906440.114 5 136139252.28605        20.980 5        34.129                                                                    25906440.408 6 101662454.11306        15.516 6        37.467    25906439.154 5 104314527.38005        15.889 5        34.557
E33        14.000    27615123.176 4                     -2685.158 4        28.521                                                                    27615124.014 3                     -2004.913 3        23.733
G12        15.000    20597171.088 8 108238779.15108     -2105.237 8        50.596                                    20597169.439 8  84341938.66708     -1640.446 8        49.519    20597169.732 7  84341959.68907     -1640.498 7        45.383
E24        16.000    24824913.953 7 130455853.17307     -2415.902 7        42.878                                                                    24824918.806 6  97418334.18306     -1804.049 6        41.797    24824917.157 6  99959707.98406     -1851.245 6        41.178
G32        17.000    23027564.965 6 121011099.42306     -1665.484 6        37.664                                    23027599.226 2  94294036.54102     -1297.772 2        17.585    23027567.996 5                     -1297.898 5        32.455
E05        18.000    25878658.885 6 135993327.33806     -3978.857 6        40.369                                                                    25878671.113 5 101553479.43005     -2971.190 5        35.462    25878668.506 6 104202712.76806     -3048.673 6        38.225
E08        20.000    26686041.509 6 140236111.92306       100.833 6        41.635                                                                    26686049.073 7 104721890.55007        75.393 7        42.099    26686048.158 6 107453773.91606        77.256 6        41.266
E02        21.000                                                                                                                                    26903986.418 5 105577114.97205      1093.877 5        30.679    26903986.865 6 108331281.64006      1122.078 6        36.873
S23        22.000    38243123.260 5 200969049.50205      -864.779 5        35.405
R14        23.000    20645555.205 6 110052412.68206     -3094.851 6        36.340                                                                    20645562.247 6  85596358.68406     -2407.045 6        40.791
R06        24.000    22730450.535 5 121294072.20905     -1143.012 5        31.155
E03        26.000    25526467.325 6 134142673.93606     -2500.477 6        40.188                                                                    25526473.143 6 100171427.94006     -1867.453 6        38.619    25526474.233 7 102784575.70207     -1916.127 7        43.517
S21        27.000    38529514.873 5 202474028.32605      -859.532 5        34.829
R07        29.000    24305841.966 3                      1832.649 3        19.373
R15        30.000    19592210.104 7 104695113.29607       273.313 7        46.888                                                                    19592214.221 7  81429329.07707       212.569 7        43.435
S36        31.000    38300741.932 6 201271777.79006      -860.052 6        36.163
C10        33.000                                                                                                                                    39829313.739 3                     -1586.553 3        21.333    39829324.203 5 160376187.18705     -1226.090 5        32.030    39829315.628 4                     -1289.429 4        25.203
R16        34.000    22888329.087 5 122265805.22205      2587.794 5        34.448
C44        35.000                                                                                                                                    24034212.920 7 125152486.60007      2329.885 7        44.468                                                                    24034214.252 5 101696697.47205      1893.078 5        34.886
R17        36.000    20598803.123 7 110228555.82407      2334.347 7        42.482                                                                    20598802.835 6  85733300.12406      1815.619 6        38.273
C45        37.000                                                                                                                                    24890294.751 5 129610295.75205     -3637.104 5        32.395                                                                    24890296.574 5 105318962.69605     -2955.478 5        35.962
R24        38.000    20281317.978 8 108453614.52408     -1984.940 8        49.276                                                                    20281319.059 6  84352596.81706     -1543.727 6        36.938
C33        39.000                                                                                                                                    26448633.672 6 137725015.09506     -2766.077 6        37.497                                                                    26448668.131 5                     -2247.359 5        33.778
C35        42.000                                                                                                                                    22112333.202 7 115144654.69707       137.898 7        44.233                                                                    22112329.080 7  93564544.38107       111.979 7        45.020
R05        44.000                                                                                                                                    23210350.849 5                     -3543.089 5        31.026
C29        46.000                                                                                                                                    24201660.801 5 126024401.31505     -3228.430 5        33.066                                                                    24201678.045 4 102405174.12704     -2623.894 4        28.853
C26        48.000                                                                                                                                    21772828.788 8 113376856.60808     -1343.500 8        50.267                                                                    21772829.275 7  92127994.71607     -1091.696 7        42.284
C41        49.000                                                                                                                                                                                                                                                                    26839423.147 6 113566447.30406      -497.781 6        36.325
C24        51.000                                                                                                                                                                                                                                                                    22914167.994 6  96957316.83506      1086.894 6        37.611
C14        53.000                                                                                                                                                                                                    26751652.930 5                     -2693.842 5        33.036
I06        58.000    38641517.662 6 151637625.81506      -736.110 6        37.096
> 2025 01 02 13 45 40.0000000  0 39
G06         1.000    23199331.976 5 121913303.12905     -2022.161 5        35.157
G11         2.000    22688183.152 6 119227210.90406       408.595 6        36.646                                    22688189.961 2  92904378.75402       318.384 2        16.604    22688186.110 6  92904349.78106       318.559 6        36.215
G25         3.000    20253305.058 7 106431774.15007       441.341 7        44.748                                    20253307.835 6  82933920.56706       343.902 6        39.952    20253306.783 6  82933910.59406       343.850 6        40.634
E25         6.000    23592138.089 5 123977495.36605      -124.717 5        32.473                                                                    23592144.950 6  92580765.96106       -93.114 6        39.447    23592164.714 5  94995812.09205       -95.744 5        32.886
G28         8.000    23696329.491 7 124525153.76407      2391.064 7        42.574                                    23696331.012 3  97032494.33603      1863.154 3        20.762    23696331.762 6  97032552.31406      1863.215 6        39.246
G29         9.000    22754049.262 6 119573854.53106      2327.684 6        38.306                                    22754043.125 4  93173973.57404      1813.780 4        27.245    22754042.709 5                      1813.859 5        32.072
E11        10.000    26587103.028 4 139716167.75104      2125.388 4        28.038                                                                    26587109.044 6 104333521.82206      1586.668 6        38.739
E10        11.000    25798305.273 7 135571018.84907      1212.237 7        42.023                                                                    25798311.170 7 101238152.18407       905.222 7        43.575    25798306.968 6 103879134.02206       928.788 6        40.291
G24        12.000    23060213.488 6 121182233.67006     -4418.384 6        41.130                                    23060220.880 2  94427728.84302     -3442.873 2        12.485
E12        13.000    25906420.180 5 136139154.69105        18.505 5        34.019                                                                    25906421.650 6 101662381.24906        13.510 6        37.437    25906419.541 5 104314452.59805        14.157 5        33.844
E33        14.000    27617678.480 4                     -2686.853 4        29.194                                                                    27617679.283 4                     -2006.888 4        24.346
G12        15.000    20599175.311 8 108249311.09708     -2107.285 8        50.739                                    20599173.696 8  84350145.38008     -1642.039 8        49.637    20599174.032 7  84350166.38807     -1642.013 7        45.862
E24        16.000    24827213.063 7 130467935.46407     -2416.781 7        42.064                                                                    24827216.609 6  97427356.65006     -1804.707 6        41.793    24827216.187 6  99968965.81306     -1851.775 6        41.173
G32        17.000    23029154.404 6 121019434.99506     -1668.606 6        37.917                                    23029186.526 2  94300531.75602     -1300.194 2        16.943    23029154.975 5  94300540.45215     -1300.167 5        34.181
E05        18.000    25882445.008 6 136013222.36906     -3978.999 6        39.973                                                                    25882457.041 6 101568336.06606     -2971.241 6        36.015    25882454.061 6 104217956.96706     -3048.777 6        37.353
E08        20.000    26685946.597 6 140235614.62606        98.349 6        41.731                                                                    26685954.531 7 104721519.20907        73.463 7        42.161    26685953.368 6 107453392.88206        75.353 6        41.099
E02        21.000                                                                                                                                    26902593.716 5 105571648.07405      1092.996 5        30.015    26902594.115 6 108325672.07306      1121.748 6        37.319
S23        22.000    38243950.819 5 200973374.67505      -864.953 5        35.395
R14        23.000    20648459.866 6 110067892.99106     -3097.274 6        36.635                                                                    20648467.021 6  85608398.88506     -2408.747 6        41.240
R06        24.000    22731525.159 4 121299798.21704     -1147.395 4        29.744
E03        26.000    25528847.595 6 134155182.89806     -2502.684 6        39.144                                                                    25528853.678 6 100180769.01706     -1868.917 6        38.805    25528855.016 7 102794160.45907     -1917.667 7        43.649
S21        27.000    38530328.914 5 202478328.01505      -859.661 5        35.067
R15        30.000    19591955.507 7 104693753.35207       270.936 7        46.274                                                                    19591959.853 7  81428271.33907       210.716 7        42.233
S36        31.000    38301564.594 6 201276077.87206      -859.905 6        36.348
C10        33.000                                                                                                                                    39830846.240 3                     -1586.841 3        22.629    39830845.045 5 160382319.04905     -1226.246 5        32.012    39830836.096 4                     -1288.280 4        25.218
R16        34.000    22885909.146 5                      2587.452 5        30.249
C44        35.000                                                                                                                                    24031975.784 7 125140840.73907      2328.636 7        43.426                                                                    24031978.038 5 101687234.24305      1892.163 5        34.233
R17        36.000    20596623.045 7 110216893.65307      2330.836 7        43.263                                                                    20596623.268 6  85724229.56306      1812.977 6        38.177
C45        37.000                                                                                                                                    24893788.476 5 129628484.20705     -3638.283 5        33.455                                                                    24893787.503 6 105333742.28106     -2956.160 6        36.325
R24        38.000    20283176.056 8 108463550.97808     -1989.488 8        48.930                                                                    20283178.975 6  84360325.17806     -1547.404 6        37.497
C33        39.000                                                                                                                                    26451290.083 6 137738850.63406     -2767.945 6        36.643                                                                    26451323.559 5 111924224.47115     -2249.185 5        33.222
C35        42.000                                                                                                                                    22112202.590 7 115143973.14207       135.021 7        43.979                                                                    22112198.295 7  93563990.56407       109.768 7        45.037
R05        44.000    23214591.223 5                     -4557.197 5        31.615
C29        46.000                                                                                                                                    24204763.414 5 126040548.39605     -3230.141 5        34.448                                                                    24204786.592 4 102418294.98504     -2624.445 4        29.725
C26        48.000                                                                                                                                    21774119.526 8 113383579.70808     -1345.514 8        49.813                                                                    21774120.402 7  92133457.76807     -1093.357 7        42.381
C41        49.000                                                                                                                                    26840010.551 5                      -615.530 5        33.156                                                                    26840012.796 6 113568943.45906      -500.493 6        36.363
C24        51.000                                                                                                                                                                                                                                                                    22912889.458 6  96951885.42706      1086.169 6        37.735
C14        53.000                                                                                                                                                                                                    26754998.826 5                     -2694.361 5        33.251
I06        58.000    38642456.709 6 151641307.84106      -736.359 6        37.040
> 2025 01 02 13 45 45.0000000  0 40
G06         1.000    23201257.491 6 121923422.82606     -2025.579 6        37.762
G11         2.000    22687797.675 6 119225175.26506       405.308 6        38.393                                    22687801.100 2  92902792.57502       315.841 2        15.714    22687798.979 5  92902763.55605       316.310 5        34.971
G25         3.000    20252886.021 7 106429572.40107       439.237 7        44.507                                    20252888.634 6  82932204.92206       342.261 6        39.108    20252887.049 6  82932194.95306       342.196 6        39.727
E25         6.000    23592258.583 5 123978121.57205      -125.834 5        32.072                                                                    23592264.542 6  92581233.57306       -94.066 6        39.682    23592283.977 5  94996291.87905       -96.465 5        32.186
G28         8.000    23694055.589 7 124513201.44207      2389.809 7        43.020                                    23694057.451 3  97023180.87703      1862.188 3        21.690    23694056.862 6  97023238.86306      1862.222 6        39.258
G29         9.000    22751836.001 6 119562220.16106      2325.964 6        39.015                                    22751829.041 4  93164907.87504      1812.430 4        26.790    22751829.194 5                      1812.587 5        32.365
E11        10.000    26585081.222 4 139705545.66704      2124.039 4        28.256                                                                    26585087.826 6 104325589.73006      1585.983 6        39.045    26585125.339 4                      1627.555 4        24.812
E10        11.000    25797153.009 6 135564962.37106      1210.134 6        41.976                                                                    25797158.635 7 101233629.53207       903.744 7        43.285    25797154.504 6 103874493.37906       927.321 6        40.400
G24        12.000    23064417.462 6 121204328.87006     -4419.747 6        41.247                                    23064425.766 2  94444945.84202     -3443.933 2        16.604
E12        13.000    25906402.778 5 136139069.09605        15.730 5        33.401                                                                    25906405.628 6 101662317.33906        11.892 6        38.063    25906402.087 5 104314387.03505        11.881 5        33.958
E33        14.000    27620233.225 4                     -2689.054 4        29.261                                                                    27620236.165 4                     -2007.817 4        24.932
G12        15.000    20601181.050 8 108259852.62308     -2109.404 8        50.623                                    20601179.746 8  84358359.55708     -1643.691 8        49.714    20601179.674 7  84358380.55907     -1643.705 7        45.610
E24        16.000    24829512.628 6 130480021.41306     -2417.726 6        41.058                                                                    24829515.358 6  97436381.85206     -1805.424 6        41.297    24829515.953 6  99978226.48206     -1852.621 6        41.650
G32        17.000    23030745.580 6 121027785.61206     -1671.642 6        38.423                                    23030776.076 2  94307038.66302     -1302.575 2        15.476    23030743.826 5  94307047.36005     -1302.721 5        33.796
E05        18.000    25886231.266 6 136033118.09706     -3979.328 6        40.131                                                                    25886242.948 6 101583193.23506     -2971.825 6        36.076    25886239.741 6 104233201.69506     -3049.001 6        37.236
E08        20.000    26685854.219 7 140235128.78107        95.870 7        42.256                                                                    26685862.163 6 104721156.42306        71.570 6        41.948    26685861.182 6 107453020.61806        73.522 6        41.023
E02        21.000                                                                                                                                    26901200.470 4 105566182.06004      1092.446 4        29.431    26901201.267 6 108320063.45806      1121.518 6        37.788
S23        22.000    38244770.516 5 200977699.61405      -865.068 5        35.133
R14        23.000    20651367.972 5 110083382.89005     -3099.227 5        34.457                                                                    20651373.003 6  85620446.60906     -2410.531 6        41.845
R06        24.000    22732604.460 4 121305545.78204     -1152.061 4        29.469
E03        26.000    25531230.254 6 134167701.71206     -2504.884 6        37.841                                                                    25531236.096 6 100190117.46306     -1870.419 6        38.541    25531237.633 7 102803752.76907     -1919.252 7        44.163
S21        27.000    38531151.000 5 202482627.35405      -860.302 5        35.462
R07        29.000    24302457.328 5                      1822.127 5        30.423
R15        30.000    19591702.570 7 104692404.22307       268.557 7        44.936                                                                    19591705.842 6  81427222.01206       208.877 6        41.054
S36        31.000    38302381.797 6 201280378.49806      -860.161 6        36.318
C10        33.000                                                                                                                                    39832374.301 3                     -1585.008 3        23.219    39832366.782 5 160388450.66905     -1226.509 5        31.849    39832358.674 4                     -1288.373 4        24.000
R16        34.000    22883486.068 4 122239930.66014      2587.075 4        26.539
C44        35.000                                                                                                                                    24029740.153 6 125129200.25106      2327.405 6        41.836                                                                    24029743.180 5 101677775.34705      1891.371 5        33.719
R17        36.000    20594445.066 7 110205247.31307      2327.525 7        44.354                                                                    20594446.255 6  85715171.33906      1810.304 6        37.569
C45        37.000                                                                                                                                    24897282.554 5 129646676.66505     -3638.917 5        34.352                                                                    24897280.418 6 105348525.13606     -2957.087 6        36.076
R24        38.000    20285038.915 8 108473509.24008     -1993.979 8        48.446                                                                    20285040.733 6  84368070.49806     -1550.827 6        39.697
C33        39.000                                                                                                                                    26453946.339 5 137752695.23505     -2769.933 5        35.395                                                                    26453980.825 5 111935474.24105     -2250.793 5        32.174
C35        42.000                                                                                                                                    22112073.763 7 115143304.81307       132.225 7        43.446                                                                    22112069.896 7  93563447.48907       107.433 7        44.849
R05        44.000    23218865.567 5                     -4558.904 5        33.653
C29        46.000                                                                                                                                    24207867.803 6 126056704.16906     -3232.333 6        36.302                                                                    24207897.106 5 102431422.91205     -2626.058 5        30.770
C26        48.000                                                                                                                                    21775412.275 8 113390312.25308     -1347.583 8        49.292                                                                    21775413.256 7  92138928.47807     -1094.975 7        42.453
C41        49.000                                                                                                                                    26840599.759 5                      -618.486 5        33.731                                                                    26840605.314 6 113571450.48206      -502.770 6        36.147
C24        51.000                                                                                                                                                                                                                                                                    22911606.690 6  96946458.24206      1084.988 6        37.418
C14        53.000                                                                                                                                                                                                    26758345.598 5 107744765.09215     -2694.807 5        34.529
I06        58.000    38643394.381 6 151644989.54206      -736.385 6        37.516
> 2025 01 02 13 45 50.0000000  0 41
G06         1.000    23203188.753 6 121933559.46506     -2029.059 6        38.324
G11         2.000    22687418.482 6 119223155.38306       402.345 6        38.225                                    22687415.802 2  92901218.63502       313.531 2        14.619    22687415.592 5  92901189.66905       313.274 5        34.290
G25         3.000    20252469.272 7 106427381.62907       437.072 7        44.310                                    20252471.199 6  82930497.83206       340.578 6        38.228    20252470.054 6  82930487.85606       340.363 6        39.024
E25         6.000    23592381.549 5 123978753.57705      -127.014 5        34.181                                                                    23592385.170 6  92581705.51906       -94.794 6        40.262    23592408.875 5  94996776.13005       -97.302 5        31.751
G28         8.000    23691781.872 7 124501255.76107      2388.452 7        43.954                                    23691784.941 3  97013872.59803      1861.147 3        21.905    23691783.580 6  97013930.57506      1861.153 6        38.928
G29         9.000    22749622.985 6 119550594.18606      2324.413 6        40.167                                    22749616.344 4  93155848.73404      1811.214 4        26.168    22749617.064 5                      1811.076 5        32.449
E11        10.000    26583061.469 4 139694928.30504      2122.664 4        29.052                                                                    26583067.433 6 104317661.17906      1585.305 6        39.057    26583105.306 4                      1625.785 4        24.737
E10        11.000    25796001.955 6 135558915.95906      1208.182 6        41.163                                                                    25796007.917 7 101229114.40207       902.248 7        43.056    25796004.012 6 103869860.45206       925.742 6        40.243
G24        12.000    23068622.968 6 121226430.72906     -4421.100 6        41.006                                    23068632.887 3  94462168.01103     -3445.007 3        20.262    23068634.868 4                     -3444.441 4        24.526
E12        13.000    25906388.979 5 136138996.55805        13.391 5        34.700                                                                    25906392.298 6 101662263.19706         9.942 6        37.943    25906387.881 5 104314331.48105        10.137 5        33.892
E33        14.000    27622787.112 4                     -2691.123 4        27.772                                                                    27622797.949 4                     -2009.425 4        24.541
G12        15.000    20603188.802 8 108270404.68108     -2111.506 8        50.446                                    20603187.795 8  84366581.94008     -1645.328 8        49.760    20603187.457 7  84366602.95407     -1645.394 7        45.384
E24        16.000    24831814.267 6 130492111.98706     -2418.662 6        40.629                                                                    24831815.159 6  97445410.53006     -1806.260 6        40.887    24831816.623 7  99987490.68207     -1853.197 7        42.199
G32        17.000    23032337.230 6 121036152.28906     -1675.082 6        39.063                                    23032368.511 2  94313557.97502     -1305.335 2        12.424    23032336.347 5  94313566.82705     -1305.097 5        34.586
E05        18.000    25890018.036 6 136053015.49306     -3979.667 6        40.191                                                                    25890029.208 6 101598051.62006     -2972.125 6        36.136    25890025.781 6 104248447.71406     -3049.375 6        37.422
E08        20.000    26685764.164 7 140234655.36107        93.402 7        42.533                                                                    26685772.016 6 104720802.90606        69.828 6        41.912    26685770.801 6 107452657.88106        71.544 6        41.042
E02        21.000    26899844.204 5                      1463.342 5        30.106                                                                    26899807.633 4 105560717.73904      1092.762 4        29.223    26899808.895 6 108314456.57506      1121.260 6        38.477
S23        22.000    38245592.642 5 200982025.14305      -865.414 5        35.219
R14        23.000    20654276.835 4 110098883.72204     -3100.304 4        26.060                                                                    20654281.672 7  85632502.90907     -2412.176 7        42.859
R06        24.000    22733688.813 5 121311315.80605     -1156.398 5        30.551
E03        26.000    25533614.940 6 134180231.35106     -2507.124 6        36.786                                                                    25533620.839 6 100199474.01606     -1872.271 6        38.754    25533622.358 7 102813353.40507     -1920.991 7        44.710
S21        27.000    38531969.508 5 202486927.15005      -860.237 5        35.367
R23        28.000    24184903.816 3                     -5092.018 3        19.851
R07        29.000    24300751.355 5                      1818.992 5        32.856
R15        30.000    19591452.310 7 104691066.91107       266.221 7        43.718                                                                    19591456.087 6  81426181.89006       207.044 6        40.574
S36        31.000    38303201.181 6 201284679.73806      -860.377 6        36.318
C10        33.000                                                                                                                                    39833895.507 3                     -1585.834 3        23.924    39833890.973 5 160394582.79205     -1226.834 5        31.819    39833882.433 4                     -1289.606 4        24.211
R16        34.000    22881065.145 4 122226995.81704      2585.982 4        26.491
C44        35.000                                                                                                                                    24027506.549 6 125117566.13006      2326.188 6        40.207                                                                    24027510.139 5 101668321.66205      1890.373 5        33.383
R17        36.000    20592272.176 7 110193617.91207      2324.198 7        45.315                                                                    20592273.167 5  85706126.26605      1807.727 5        35.990
C45        37.000                                                                                                                                    24900777.189 6 129664874.13506     -3639.921 6        36.174                                                                    24900774.813 5 105363312.05805     -2957.503 5        35.895
R24        38.000    20286906.245 7 108483490.23307     -1998.497 7        47.873                                                                    20286908.653 6  84375833.52506     -1554.404 6        40.958
C33        39.000                                                                                                                                    26456606.206 5 137766549.81905     -2771.806 5        35.871                                                                    26456640.860 5 111946732.19205     -2251.912 5        32.048
C35        42.000                                                                                                                                    22111947.239 7 115142650.69607       129.369 7        42.214                                                                    22111944.214 7  93562915.99907       105.314 7        44.599
R05        44.000    23223132.535 5                     -4560.879 5        35.481                                                                    23223173.370 4                     -3547.141 4        29.924
C29        46.000                                                                                                                                    24210971.758 6 126072869.59806     -3234.120 6        38.360                                                                    24211000.388 5 102444558.71905     -2627.699 5        31.751
C26        48.000                                                                                                                                    21776706.878 8 113397055.26208     -1349.622 8        49.044                                                                    21776707.945 7  92144407.72807     -1096.553 7        42.610
C41        49.000                                                                                                                                    26841193.093 5                      -621.209 5        34.495                                                                    26841199.796 5 113573969.28305      -504.514 5        35.600
C24        51.000                                                                                                                                                                                                                                                                    22910323.241 6  96941036.16106      1084.062 6        36.726
C14        53.000                                                                                                                                                                                                    26761692.773 5 107758242.27605     -2695.803 5        35.219
I06        58.000    38644332.170 6 151648671.64306      -736.510 6        37.187
> 2025 01 02 13 45 55.0000000  0 41
G06         1.000    23205117.994 5 121943712.18605     -2032.154 5        35.224                                                                                                    23205152.988 4                     -1583.356 4        25.278
G11         2.000    22687041.477 6 119221150.48606       399.573 6        36.284                                    22687033.394 2  92899656.38402       311.377 2        13.879    22687034.289 5  92899627.39605       311.252 5        34.552
G25         3.000    20252054.329 7 106425201.00207       434.993 7        44.384                                    20252055.472 6  82928798.64606       338.957 6        37.191    20252055.023 6  82928788.67206       338.983 6        38.033
E25         6.000    23592503.247 5 123979390.54205      -128.088 5        35.181                                                                    23592506.634 6  92582181.19706       -95.420 6        40.660    23592537.938 5  94997264.16605       -97.811 5        30.732
G28         8.000    23689509.646 7 124489315.88107      2387.316 7        44.021                                    23689513.473 3  97004568.83203      1860.235 3        22.457    23689511.327 6  97004626.80206      1860.263 6        38.610
G29         9.000    22747411.816 6 119538975.83906      2322.922 6        41.600                                    22747404.979 4  93146795.52404      1810.058 4        26.216    22747406.517 5                      1810.005 5        32.940
E11        10.000    26581041.636 4 139684314.84804      2121.801 4        28.521                                                                    26581047.673 6 104309735.55506      1584.648 6        39.390    26581087.142 4                      1626.766 4        25.353
E10        11.000    25794852.558 6 135552878.79606      1206.304 6        39.694                                                                    25794859.049 7 101224606.19407       900.909 7        42.650    25794855.742 6 103865234.62806       924.384 6        40.212
G24        12.000    23072829.772 6 121248538.38806     -4422.110 6        40.884                                    23072841.453 3  94479394.72903     -3445.804 3        22.038    23072840.572 4                     -3446.236 4        26.455
E12        13.000    25906378.628 5 136138936.27105        10.657 5        35.586                                                                    25906381.530 6 101662218.17706         8.138 6        38.441    25906376.080 5 104314285.27805         8.299 5        34.010
E33        14.000    27625343.078 4                     -2693.232 4        26.120                                                                    27625364.754 4                     -2011.439 4        26.455
G12        15.000    20605198.716 8 108280966.48608     -2113.434 8        50.376                                    20605197.709 8  84374811.92108     -1646.832 8        49.734    20605197.636 7  84374832.92607     -1646.882 7        45.455
E24        16.000    24834116.383 6 130504206.38706     -2419.330 6        40.143                                                                    24834116.499 6  97454442.04206     -1806.684 6        40.515    24834117.741 7  99996757.81607     -1853.822 7        42.637
G32        17.000    23033930.608 6 121044534.10106     -1677.924 6        38.501                                    23033963.950 1  94320089.10501     -1307.531 1         8.190    23033930.215 5  94320098.11405     -1307.415 5        34.762
E05        18.000    25893804.363 6 136072913.71406     -3979.785 6        39.976                                                                    25893815.314 6 101612910.63206     -2971.915 6        36.129    25893812.415 6 104263694.35006     -3049.506 6        36.836
E08        20.000    26685676.411 7 140234193.54007        91.031 7        42.876                                                                    26685684.244 6 104720458.05706        68.075 6        41.859    26685682.755 6 107452304.02306        69.923 6        40.923
E02        21.000    26898454.124 5                      1463.141 5        30.815                                                                    26898414.638 4 105555254.47904      1092.650 4        28.303    26898416.452 6 108308850.80106      1120.959 6        38.234
S23        22.000    38246410.448 5 200986350.58205      -865.220 5        34.643
R14        23.000    20657175.694 4                     -3103.488 4        28.019                                                                    20657192.367 7                     -2413.593 7        42.597
R06        24.000    22734772.488 4 121317107.46104     -1161.059 4        29.791
E03        26.000    25536001.833 6 134192770.98406     -2509.119 6        36.310                                                                    25536007.543 6 100208838.04006     -1873.647 6        38.673    25536008.642 7 102822961.70207     -1922.426 7        44.966
S21        27.000    38532788.110 5 202491226.50205      -859.791 5        35.262
R23        28.000    24189668.192 3                     -5090.638 3        20.405
R07        29.000    24299054.477 5 130074738.33815      1815.926 5        34.967
R15        30.000    19591205.829 7 104689740.65707       264.080 7        45.243                                                                    19591208.276 6  81425150.35606       205.401 6        40.541
S36        31.000    38304021.693 6 201288980.39906      -860.370 6        36.098
C10        33.000                                                                                                                                    39835414.615 3                     -1586.482 3        23.752    39835412.443 5 160400714.77205     -1226.563 5        31.728    39835403.326 3                     -1287.427 3        23.924
R16        34.000    22878641.159 4 122214061.97504      2586.364 4        25.444
C44        35.000                                                                                                                                    24025274.355 6 125105937.56606      2325.116 6        38.153                                                                    24025279.002 5 101658872.47005      1889.193 5        33.401
R17        36.000    20590103.496 7 110182004.46707      2320.926 7        46.386                                                                    20590103.337 5  85697093.60605      1805.097 5        34.490
C45        37.000                                                                                                                                    24904272.511 6 129683075.77906     -3640.777 6        37.161                                                                    24904270.077 5 105378102.36205     -2958.599 5        35.486
R24        38.000    20288776.914 7 108493493.06307     -2002.841 7        47.469                                                                    20288779.538 6  84383613.52006     -1557.812 6        41.604
C33        39.000                                                                                                                                    26459271.683 5 137780413.54805     -2773.655 5        35.895                                                                    26459303.376 5 111957997.59805     -2253.959 5        31.555
C35        42.000                                                                                                                                    22111822.678 6 115142010.02706       126.780 6        39.691                                                                    22111820.875 7  93562395.39407       102.903 7        44.530
R05        44.000    23227403.646 5 124163755.54315     -4562.067 5        35.376                                                                    23227437.290 4                     -3548.411 4        29.554
C29        46.000                                                                                                                                    24214076.971 6 126089043.89406     -3235.771 6        39.438                                                                    24214099.766 5 102457701.75005     -2629.297 5        32.647
C26        48.000                                                                                                                                    21778003.402 8 113403807.91208     -1351.523 8        49.065                                                                    21778004.747 7  92149894.79807     -1098.341 7        43.187
C41        49.000                                                                                                                                    26841792.336 5 139772260.52615      -623.855 5        35.329                                                                    26841797.447 5 113576498.82705      -507.170 5        35.357
C24        51.000                                                                                                                                                                                                                                                                    22909039.400 6  96935618.47106      1083.130 6        37.047
C14        53.000                                                                                                                                                                                                    26765042.036 5 107771722.46005     -2696.293 5        35.109
I06        58.000    38645270.331 6 151652353.60006      -736.465 6        37.282
> 2025 01 02 13 46  0.0000000  0 40
G06         1.000    23207049.049 5 121953881.21905     -2035.620 5        32.060                                                                                                    23207085.793 4                     -1585.827 4        25.820
G11         2.000    22686660.801 5 119219160.71605       396.589 5        34.343                                    22686654.379 1  92898105.94101       309.123 1        10.370    22686655.533 5  92898076.94005       308.723 5        35.414
G25         3.000    20251641.155 7 106423030.65707       433.014 7        44.901                                    20251641.615 6  82927107.48506       337.407 6        36.427    20251642.205 6  82927097.54006       337.239 6        37.456
E25         6.000    23592625.004 6 123980032.61906      -129.168 6        36.147                                                                    23592628.975 6  92582660.69406       -96.407 6        40.739    23592661.456 4  94997756.12304       -98.655 4        29.403
G28         8.000    23687238.171 7 124477381.95707      2386.001 7        43.966                                    23687242.774 3  96995269.71603      1859.215 3        22.743    23687240.455 6  96995327.70306      1859.120 6        38.426
G29         9.000    22745201.660 6 119527365.26206      2321.117 6        41.812                                    22745195.260 4  93137748.37204      1808.641 4        26.922    22745196.203 5                      1808.885 5        32.090
E11        10.000    26579022.191 4 139673705.39404      2121.531 4        29.289                                                                    26579028.810 6 104301812.96706      1584.025 6        39.228    26579069.711 4                      1625.573 4        24.932
E10        11.000    25793705.291 6 135546851.06206      1204.573 6        38.069                                                                    25793712.024 7 101220104.99707       899.426 7        42.434    25793709.295 6 103860616.00306       922.825 6        40.260
G24        12.000    23077037.822 6 121270651.99606     -4423.433 6        40.088                                    23077050.806 3  94496626.11603     -3446.834 3        22.705    23077051.329 4                     -3446.600 4        28.190
E12        13.000    25906371.574 6 136138888.30106         8.222 6        36.979                                                                    25906373.052 6 101662182.36306         6.189 6        38.601    25906367.231 5 104314248.53405         6.409 5        33.982
E33        14.000    27627899.854 3                     -2693.106 3        23.390                                                                    27627929.198 4                     -2012.230 4        27.725
G12        15.000    20607210.602 8 108291538.17208     -2115.433 8        50.336                                    20607209.524 8  84383049.60308     -1648.389 8        49.667    20607209.518 7  84383070.60907     -1648.432 7        45.696
E24        16.000    24836418.901 6 130516304.72906     -2420.115 6        40.076                                                                    24836418.960 6  97463476.51206     -1807.228 6        40.150    24836419.900 7 100006027.98407     -1854.396 7        42.984
G32        17.000    23035527.260 6 121052931.25506     -1681.065 6        38.321                                    23035562.470 1  94326632.52801     -1310.063 1         5.429    23035528.653 6  94326641.35206     -1309.920 6        36.026
E05        18.000    25897590.703 6 136092812.90206     -3980.067 6        40.000                                                                    25897601.975 6 101627770.36006     -2972.031 6        36.166    25897599.211 6 104278941.73706     -3049.786 6        37.172
E08        20.000    26685590.294 7 140233743.47207        88.708 7        43.323                                                                    26685598.693 6 104720121.99306        66.163 6        41.509    26685596.853 6 107451959.18506        67.942 6        41.006
E02        21.000    26897060.636 5                      1462.768 5        31.698                                                                    26897021.181 4 105549792.45904      1091.831 4        27.269    26897024.232 6 108303246.23406      1120.673 6        38.183
S23        22.000    38247237.439 5 200990676.18605      -865.252 5        34.957
R14        23.000    20660094.250 5                     -3105.204 5        30.574                                                                    20660104.585 7  85656639.08817     -2415.406 7        42.311
R06        24.000    22735860.974 5 121322920.92705     -1164.681 5        30.702
E03        26.000    25538389.067 6 134205320.76706     -2511.286 6        36.015                                                                    25538395.766 6 100218209.63406     -1875.282 6        38.973    25538396.775 7 102832577.77907     -1924.156 7        45.085
S21        27.000    38533603.604 5 202495525.50805      -859.923 5        35.038
R23        28.000    24194430.671 3                     -5096.860 3        19.642
R07        29.000    24297361.515 6 130065665.81906      1812.871 6        37.164
R15        30.000    19590961.025 7 104688425.57907       261.751 7        47.377                                                                    19590961.188 6  81424127.50306       203.518 6        40.443
S36        31.000    38304830.462 5 201293281.55805      -860.378 5        35.771
C10        33.000                                                                                                                                    39836932.825 4                     -1584.846 4        24.511    39836935.067 5 160406846.70905     -1226.166 5        31.140    39836927.005 3                     -1290.387 3        23.048
R16        34.000    22876222.270 4 122201129.29304      2586.524 4        26.599
C44        35.000                                                                                                                                    24023043.233 5 125094314.72205      2323.990 5        34.500                                                                    24023049.484 5 101649427.88105      1888.353 5        33.802
R17        36.000    20587938.835 7 110170407.22207      2317.663 7        46.436                                                                    20587936.224 5  85688073.54605      1802.429 5        31.464
C45        37.000                                                                                                                                    24907768.634 6 129701281.72506     -3641.693 6        36.813                                                                    24907765.841 5 105392896.19805     -2959.141 5        34.824
R24        38.000    20290651.291 7 108503518.03607     -2007.304 7        46.653                                                                    20290654.731 6  84391410.71406     -1561.146 6        41.776
C33        39.000                                                                                                                                    26461943.380 5 137794286.58105     -2775.515 5        34.781                                                                    26461967.543 5 111969270.53505     -2255.396 5        31.441
C35        42.000                                                                                                                                    22111703.688 5 115141382.92205       124.038 5        35.662                                                                    22111700.178 7  93561885.78307       100.634 7        44.128
R05        44.000    23231672.333 5 124186570.42115     -4563.866 5        32.994                                                                    23231702.350 4                     -3549.725 4        28.834
C29        46.000                                                                                                                                    24217183.858 6 126105227.18206     -3237.632 6        40.024                                                                    24217200.967 5 102470852.06005     -2630.860 5        33.198
C26        48.000                                                                                                                                    21779302.060 8 113410570.31408     -1353.572 8        49.302                                                                    21779303.455 7  92155389.79707     -1099.888 7        43.577
C41        49.000                                                                                                                                    26842395.993 5 139775386.93305      -626.952 5        34.905                                                                    26842397.547 5 113579039.30405      -509.299 5        34.490
C14        53.000                                                                                                                                                                                                    26768393.390 5 107785205.81305     -2696.951 5        34.514
I06        58.000    38646208.986 6 151656035.46206      -736.551 6        37.410
> 2025 01 02 13 46  5.0000000  0 40
G06         1.000    23208988.625 4 121964066.65204     -2038.605 4        28.464                                                                                                    23209025.435 4                     -1588.824 4        25.023
G11         2.000                                                                                                                                                                    22686279.996 6  92896538.47906       306.360 6        36.284
G25         3.000    20251229.976 7 106420870.88307       430.782 7        44.205                                    20251229.845 5  82925424.56205       335.670 5        35.890    20251231.589 6  82925414.59806       335.713 6        37.603
E25         6.000    23592748.773 5 123980680.10405      -130.099 5        35.824                                                                    23592752.041 6  92583144.20406       -97.116 6        41.097    23592779.152 4  94998252.11304      -100.004 4        26.802
G28         8.000    23684968.296 7 124465454.27107      2384.819 7        43.007                                    23684973.296 3  96985975.44403      1858.287 3        22.533    23684970.423 6  96986033.43906      1858.203 6        38.282
G29         9.000    22742992.498 7 119515762.66507      2319.628 7        42.199                                    22742987.074 4  93128707.43904      1807.491 4        27.329    22742986.672 5                      1807.460 5        31.230
E11        10.000    26577003.808 4 139663100.40504      2119.675 4        29.659                                                                    26577010.456 6 104293893.63006      1583.436 6        39.345    26577049.821 3                      1625.176 3        22.514
E10        11.000    25792559.538 5 135540832.98105      1202.618 5        35.867                                                                    25792566.577 6 101215611.02706       897.996 6        41.938    25792564.774 6 103856004.78706       921.539 6        40.367
G24        12.000    23081247.140 6 121292771.79306     -4424.715 6        38.760                                    23081261.103 3  94513862.30803     -3447.827 3        23.448    23081262.234 5                     -3447.802 5        30.249
E12        13.000    25906364.840 6 136138852.92506         5.817 6        37.803                                                                    25906366.711 6 101662155.95206         4.208 6        39.054    25906361.431 5 104314221.45805         4.518 5        34.624
E33        14.000    27630456.897 3                     -2698.172 3        20.643                                                                    27630494.966 4                     -2014.179 4        28.521
G12        15.000    20609224.263 8 108302119.96408     -2117.399 8        50.324                                    20609223.337 8  84391295.15408     -1649.922 8        49.715    20609223.422 7  84391316.16107     -1649.975 7        46.192
E24        16.000    24838721.444 6 130528407.29906     -2420.954 6        40.286                                                                    24838722.585 6  97472514.12206     -1807.845 6        40.246    24838722.986 7 100015301.36907     -1855.101 7        43.266
G32        17.000    23037126.464 6 121061343.96106     -1683.951 6        37.093                                    23037163.709 1  94333187.95101     -1312.212 1        11.037    23037130.000 6  94333196.74506     -1312.377 6        37.263
E05        18.000    25901377.601 6 136112713.29506     -3980.094 6        39.790                                                                    25901388.880 6 101642630.99206     -2972.242 6        36.110    25901386.241 6 104294190.03106     -3049.707 6        37.391
E08        20.000    26685507.317 7 140233305.40307        86.288 7        43.350                                                                    26685515.228 6 104719794.87106        64.447 6        41.421    26685513.382 6 107451623.52806        66.233 6        40.975
E02        21.000    26895663.438 5                      1462.287 5        32.976                                                                    26895629.735 4 105544331.77704      1091.664 4        27.030    26895632.235 6 108297643.05606      1120.427 6        37.989
S23        22.000    38248058.925 5 200995002.07005      -865.296 5        35.262
R14        23.000    20663009.015 5                     -3107.510 5        33.503                                                                    20663017.790 6  85668719.19306     -2416.824 6        41.571
R06        24.000    22736953.598 5 121328756.37905     -1169.520 5        32.317
E03        26.000    25540779.311 5 134217880.96805     -2513.101 5        34.995                                                                    25540786.187 6 100227588.97606     -1876.568 6        39.462    25540786.726 7 102842201.80107     -1925.563 7        45.094
S21        27.000    38534416.746 5 202499824.73705      -859.809 5        34.819
R07        29.000    24295673.468 6 130056608.98106      1809.902 6        38.664
R15        30.000    19590717.413 8 104687121.82408       259.540 8        48.872                                                                    19590716.723 6  81423113.47206       201.886 6        40.203
S36        31.000    38305643.702 5 201297583.13505      -860.512 5        34.910
C10        33.000                                                                                                                                    39838457.031 3                     -1586.217 3        23.657    39838455.510 5 160412978.98405     -1227.101 5        31.343    39838449.565 3                     -1287.701 3        22.286
R16        34.000    22873802.367 4 122188198.19704      2585.942 4        29.763                                                                    22873796.628 5                      2011.346 5        32.952
C44        35.000                                                                                                                                    24020812.753 4 125082697.87704      2322.880 4        29.450                                                                    24020819.981 5 101639988.16705      1887.316 5        35.052
R17        36.000    20585775.645 7 110158826.53507      2314.479 7        44.655                                                                    20585768.272 4  85679066.39304      1799.621 4        27.701
C45        37.000                                                                                                                                    24911264.087 6 129719492.29106     -3642.642 6        36.533                                                                    24911262.395 5 105407693.70205     -2959.559 5        34.681
R24        38.000    20292529.932 7 108513565.36807     -2011.743 7        46.375                                                                    20292532.709 6  84399225.31406     -1564.716 6        41.139
C33        39.000                                                                                                                                    26464621.350 5 137808169.19405     -2777.575 5        32.240                                                                    26464634.445 5 111980551.29205     -2256.998 5        31.547
C35        42.000                                                                                                                                                                                                                                                                    22111582.156 7  93561387.38307        98.566 7        43.901
R05        44.000    23235936.639 4 124209393.50604     -4565.300 4        28.758
C29        46.000                                                                                                                                    24220293.603 6 126121419.70006     -3239.395 6        40.162                                                                    24220309.965 5 102484009.86705     -2632.110 5        33.234
C26        48.000                                                                                                                                    21780602.598 8 113417342.73708     -1355.597 8        49.544                                                                    21780604.254 7  92160892.94507     -1101.461 7        44.123
C41        49.000                                                                                                                                    26842996.304 5 139778527.26905      -629.315 5        35.529                                                                    26843000.137 5 113581591.21605      -511.364 5        34.609
C24        51.000                                                                                                                                                                                                                                                                    22906467.595 6  96924796.79106      1081.142 6        37.860
C14        53.000                                                                                                                                                                                                    26771741.498 5 107798692.48705     -2697.843 5        32.695
I06        58.000    38647146.857 6 151659717.39406      -736.445 6        37.713
> 2025 01 02 13 46 10.0000000  0 41
G06         1.000    23210925.930 4                     -2042.032 4        24.917                                                                                                    23210965.516 3                     -1590.341 3        22.933
G11         2.000    22685898.628 5 119215226.89205       390.570 5        33.832                                    22685905.445 1  92895040.64301       304.429 1         7.375    22685907.105 6  92895011.62306       304.232 6        36.412
G25         3.000    20250820.401 7 106418721.16307       428.852 7        43.678                                    20250820.155 5  82923749.47505       334.162 5        35.548    20250822.534 6  82923739.50706       334.128 6        37.773
E25         6.000    23592874.329 5 123981332.53005      -131.074 5        34.729                                                                    23592876.066 6  92583631.38206       -97.846 6        40.923
G28         8.000    23682699.557 6 124453532.34206      2383.856 6        41.878                                    23682704.457 3  96976685.67603      1857.532 3        22.609    23682703.328 6  96976743.66206      1857.563 6        38.405
G29         9.000    22740785.739 7 119504167.63207      2318.226 7        42.732                                    22740780.655 4  93119672.39704      1806.393 4        27.629    22740781.259 5                      1806.444 5        32.060
E11        10.000    26574986.937 4 139652499.17204      2119.671 4        29.526                                                                    26574992.996 6 104285977.17006      1582.961 6        39.180    26575034.318 3                      1621.915 3        20.143
E10        11.000    25791416.223 5 135534824.12405      1200.845 5        34.086                                                                    25791422.670 6 101211123.93006       896.654 6        41.535    25791421.798 6 103851400.63806       920.018 6        40.899
G24        12.000    23085457.317 6 121314897.31006     -4425.585 6        37.962                                    23085472.249 3  94531102.97203     -3448.512 3        23.162    23085474.458 5                     -3448.693 5        31.298
E12        13.000    25906359.841 6 136138829.69706         3.420 6        37.905                                                                    25906362.606 6 101662138.60806         2.372 6        38.904    25906357.832 5 104314203.66505         2.724 5        35.400
E33        14.000    27633030.347 3                     -2698.460 3        21.833                                                                    27633062.804 4                     -2015.516 4        28.986
G12        15.000    20611239.691 8 108312711.41008     -2119.274 8        50.136                                    20611238.979 8  84399548.22908     -1651.381 8        49.562    20611239.011 7  84399569.22807     -1651.376 7        46.377
E24        16.000    24841024.787 6 130540513.57806     -2421.515 6        40.052                                                                    24841026.924 6  97481554.52506     -1808.473 6        39.979    24841026.682 7 100024577.60207     -1855.544 7        43.744
G32        17.000    23038727.824 6 121069771.81506     -1687.186 6        37.917                                    23038767.573 2  94339755.06402     -1314.691 2        12.970    23038733.526 6  94339763.86306     -1314.641 6        37.970
E05        18.000    25905164.099 6 136132614.41306     -3980.446 6        39.357                                                                    25905175.453 5 101657492.17405     -2972.537 5        35.705    25905173.439 6 104309438.88306     -3049.779 6        37.773
E08        20.000    26685426.284 7 140232878.86607        84.101 7        43.035                                                                    26685433.872 6 104719476.37306        62.786 6        40.923    26685432.137 6 107451296.71606        64.478 6        41.180
E02        21.000    26894256.840 5 141330277.48015      1462.150 5        34.186                                                                    26894236.975 4 105538872.07104      1091.400 4        26.970    26894240.399 6 108292040.93006      1120.182 6        37.936
S23        22.000    38248878.797 5 200999327.57405      -864.762 5        34.919
R14        23.000    20665923.605 5 110161007.04415     -3109.248 5        34.986                                                                    20665931.987 6  85680807.01906     -2418.324 6        39.685
R06        24.000    22738051.653 5 121334613.46005     -1173.484 5        34.305
E03        26.000    25543172.446 5 134230451.07705     -2515.162 5        34.405                                                                    25543178.461 6 100236975.73306     -1878.196 6        40.100    25543178.410 7 102851833.42907     -1927.092 7        44.828
S21        27.000    38535233.712 5 202504123.62605      -859.887 5        35.176
R23        28.000    24203948.613 3                     -5091.152 3        21.429
R07        29.000    24293986.458 6 130047567.50906      1806.681 6        38.868
R15        30.000    19590474.731 8 104685829.06708       257.435 8        48.896                                                                    19590475.893 6  81422108.01806       200.105 6        41.209
S36        31.000    38306464.124 5 201301884.94005      -860.567 5        35.557
C10        33.000                                                                                                                                    39839978.233 4                     -1584.408 4        24.241    39839978.064 5 160419110.93305     -1226.443 5        30.589    39839970.838 3                     -1288.519 3        22.324
R16        34.000    22871381.824 4 122175268.01714      2585.718 4        27.605                                                                    22871386.593 5  95024864.49915      2011.119 5        35.705
C44        35.000                                                                                                                                                                                                                                                                    24018590.638 5 101630552.91305      1886.521 5        35.624
R17        36.000                                                                                                                                    20583607.741 4  85670071.60204      1797.829 4        27.353
C45        37.000                                                                                                                                    24914760.741 6 129737706.88006     -3643.376 6        36.212                                                                    24914759.958 5 105422494.55705     -2960.445 5        33.850
R24        38.000    20294413.211 7 108523634.48907     -2016.111 7        46.565                                                                    20294416.071 6  84407056.86506     -1568.082 6        40.329
C33        39.000                                                                                                                                                                                                                                                                    26467302.685 5 111991839.32505     -2257.965 5        32.192
C35        42.000                                                                                                                                                                                                                                                                    22111466.830 7  93560899.81107        96.486 7        43.865
R05        44.000    23240201.100 3                     -4565.025 3        23.200                                                                    23240214.205 4                     -3552.219 4        28.341
C29        46.000                                                                                                                                    24223404.372 6 126137620.93906     -3241.066 6        39.459                                                                    24223422.968 5 102497174.77105     -2633.929 5        33.138
C26        48.000                                                                                                                                    21781904.978 8 113424124.70808     -1357.344 8        49.500                                                                    21781907.076 7  92166403.85707     -1102.995 7        44.555
C41        49.000                                                                                                                                    26843600.732 5 139781680.82405      -632.073 5        35.767                                                                    26843605.822 5 113584153.84105      -513.640 5        34.062
C24        51.000                                                                                                                                                                                                                                                                    22905193.747 6  96919392.60706      1080.264 6        38.084
C14        53.000                                                                                                                                                                                                    26775088.748 5 107812182.11605     -2698.620 5        30.536
I06        58.000    38648085.327 6 151663399.08206      -736.364 6        37.187
> 2025 01 02 13 46 15.0000000  0 41
G06         1.000    23212873.094 4                     -2044.680 4        25.143                                                                                                    23212910.001 3                     -1590.892 3        18.567
G11         2.000    22685533.336 5 119213282.36205       387.501 5        33.180                                    22685535.507 1  92893525.42701       301.999 1         8.667    22685538.369 6  92893496.41206       301.834 6        36.318
G25         3.000    20250413.640 7 106416581.57807       427.088 7        43.156                                    20250412.585 5  82922082.28205       332.789 5        35.429    20250415.252 6  82922072.27406       332.856 6        38.165
E25         6.000    23592998.999 5 123981989.86105      -131.700 5        33.042                                                                    23593001.136 6  92584122.23006       -98.369 6        40.927    23593004.334 5  94999255.42505      -101.070 5        33.605
G28         8.000    23680432.459 6 124441616.23606      2382.857 6        39.559                                    23680436.549 3  96967400.43003      1856.765 3        21.833    23680435.899 6  96967458.41606      1856.794 6        38.607
G29         9.000    22738581.035 6 119492580.18706      2316.948 6        41.919                                    22738575.854 4  93110643.26604      1805.405 4        26.946    22738578.121 5                      1805.327 5        32.461
E11        10.000    26572970.216 5 139641901.82805      2119.298 5        30.196                                                                    26572976.640 6 104278063.63406      1582.578 6        39.015
E10        11.000    25790276.003 5 135528824.53105      1199.223 5        33.611                                                                    25790280.596 6 101206643.74306       895.438 6        41.161    25790280.498 6 103846803.56406       918.855 6        41.328
G24        12.000    23089669.459 6 121337028.54906     -4426.476 6        37.996                                    23089684.633 3  94548348.08903     -3449.212 3        22.381    23089688.555 5                     -3449.574 5        30.951
E12        13.000    25906357.256 6 136138818.63306         1.313 6        37.735                                                                    25906360.612 6 101662130.34006         0.859 6        38.982    25906356.512 5 104314195.19505         0.717 5        35.419
E33        14.000    27635604.844 3                     -2702.542 3        22.324                                                                    27635632.176 4                     -2017.161 4        29.554
G12        15.000    20613257.292 8 108323312.51308     -2120.992 8        50.008                                    20613256.427 8  84407808.83308     -1652.723 8        49.292    20613255.856 7  84407829.83507     -1652.753 7        46.158
E24        16.000    24843329.121 6 130552623.63906     -2422.195 6        40.036                                                                    24843331.831 6  97490597.71706     -1808.702 6        40.043    24843331.253 7 100033856.73307     -1855.950 7        44.099
G32        17.000    23040334.747 6 121078214.77206     -1689.796 6        40.222                                    23040374.021 2  94346333.99502     -1316.698 2        14.762    23040339.838 6  94346342.77406     -1316.657 6        38.153
E05        18.000    25908951.193 6 136152516.27906     -3980.354 6        38.796                                                                    25908962.355 5 101672353.90605     -2972.477 5        35.667    25908960.882 6 104324688.32606     -3049.801 6        38.381
E08        20.000    26685346.958 7 140232463.90807        82.062 7        43.141                                                                    26685354.548 6 104719166.51406        61.209 6        40.431    26685353.158 6 107450978.76206        62.867 6        40.994
E02        21.000    26892856.014 6 141322967.45906      1462.033 6        36.877                                                                    26892846.544 4 105533413.35104      1091.689 4        26.251    26892848.910 6 108286439.86206      1119.993 6        37.614
S23        22.000    38249708.954 5 201003652.93405      -864.837 5        35.862
R14        23.000    20668843.005 6 110176558.75006     -3111.020 6        38.156                                                                    20668849.478 6  85692902.73406     -2419.667 6        38.586
R06        24.000    22739153.128 5 121340491.96405     -1177.613 5        34.686
E03        26.000    25545565.596 5 134243031.11705     -2516.789 5        33.228                                                                    25545572.648 6 100246369.91106     -1879.386 6        40.863    25545571.935 7 102861472.67107     -1928.420 7        44.457
S21        27.000    38536052.327 5 202508422.27905      -859.608 5        35.000
R23        28.000    24208715.596 3                     -5094.777 3        20.929
R07        29.000    24292298.354 6 130038541.15006      1804.109 6        38.366
R15        30.000    19590233.249 8 104684547.27608       255.521 8        48.512                                                                    19590235.428 7  81421111.08007       198.651 7        42.184
S36        31.000    38307285.861 6 201306186.34606      -860.237 6        36.348
C10        33.000                                                                                                                                    39841500.641 3                     -1585.374 3        22.990    39841501.040 5 160425242.77105     -1225.996 5        30.121    39841494.092 3                     -1285.133 3        22.267
R16        34.000    22868960.294 4 122162338.93404      2585.948 4        29.820                                                                    22868968.999 6  95014808.56306      2011.188 6        37.671
C44        35.000                                                                                                                                                                                                                                                                    24016361.607 6 101621122.17706      1885.653 6        36.000
R17        36.000    20581443.887 6 110135713.11806      2308.197 6        38.736                                                                    20581446.860 4  85661089.36804      1795.201 4        25.940
C45        37.000                                                                                                                                    24918261.904 5 129755925.57505     -3643.862 5        35.148                                                                    24918258.521 5 105437298.75705     -2960.875 5        33.814
R24        38.000    20296299.494 7 108533725.38207     -2020.127 7        44.706                                                                    20296303.960 6  84414905.34906     -1571.287 6        39.778
C33        39.000                                                                                                                                                                                                                                                                    26469972.278 5 112003134.78705     -2259.646 5        32.365
C35        42.000                                                                                                                                    22111386.351 5 115139582.90305       116.005 5        31.223                                                                    22111354.140 7  93560423.10507        94.471 7        44.182
R05        44.000                                                                                                                                    23244488.106 4                     -3553.416 4        28.370
C29        46.000                                                                                                                                    24226514.437 6 126153831.00706     -3242.631 6        38.129                                                                    24226535.933 5 102510346.82005     -2635.326 5        33.419
C26        48.000                                                                                                                                    21783209.277 8 113430916.27908     -1359.045 8        49.163                                                                    21783211.627 7  92171922.56007     -1104.274 7        45.255
C41        49.000                                                                                                                                    26844210.942 5 139784847.75005      -634.395 5        35.357                                                                    26844213.635 5 113586727.30305      -515.615 5        33.880
C24        51.000                                                                                                                                                                                                                                                                    22903918.844 6  96913992.77506      1079.688 6        38.168
C14        53.000                                                                                                                                                                                                    26778440.858 4 107825674.60804     -2698.484 4        27.880
I06        58.000    38649023.628 6 151667080.54906      -736.375 6        36.968
> 2025 01 02 13 46 20.0000000  0 39
G06         1.000    23214827.412 3                     -2050.097 3        20.429                                                                                                    23214800.737 3                     -1596.590 3        21.119
G11         2.000    22685168.000 5 119211353.04205       384.258 5        34.010                                    22685168.441 1  92892022.09301       299.368 1         9.143    22685172.282 5  92891993.06605       299.450 5        35.500
G25         3.000    20250008.397 7 106414452.38707       424.846 7        43.589                                    20250007.330 5  82920423.19705       331.043 5        35.548    20250010.699 6  82920413.21306       331.045 6        39.141
E25         6.000    23593126.520 5 123982652.43905      -133.023 5        32.108                                                                    23593126.629 6  92584616.99406       -99.436 6        40.775    23593137.630 5  94999763.12005      -102.044 5        35.733
G28         8.000    23678163.553 6 124429706.25406      2381.478 6        37.255                                    23678169.722 3  96958119.95803      1855.693 3        22.133    23678169.713 6  96958177.92706      1855.701 6        38.411
G29         9.000    22736375.096 6 119481000.61206      2315.141 6        40.927                                    22736372.708 4  93101620.28104      1803.995 4        25.985    22736375.244 5                      1804.085 5        32.234
E11        10.000    26570955.543 5 139631308.78805      2117.961 5        30.619                                                                    26570960.788 6 104270153.23006      1581.819 6        38.526
E10        11.000                                                                                                                                    25789140.524 6 101202170.65806       893.910 6        40.868    25789141.107 6 103842213.80206       917.221 6        41.635
G24        12.000    23093883.098 6 121359165.79806     -4428.013 6        39.273                                    23093897.635 3  94565597.91303     -3450.389 3        21.690    23093900.206 5                     -3450.473 5        30.325
E12        13.000    25906358.696 6 136138820.02506        -1.508 6        37.633                                                                    25906361.023 6 101662131.38606        -1.184 6        38.676    25906357.541 5 104314196.28105        -1.174 5        35.533
E33        14.000                                                                                                                                    27638204.039 4                     -2018.434 4        29.033
G12        15.000    20615276.176 8 108333923.57208     -2123.166 8        50.017                                    20615275.660 8  84416077.19108     -1654.415 8        49.137    20615274.946 7  84416098.20507     -1654.549 7        45.735
E24        16.000    24845634.211 6 130564737.73206     -2423.127 6        40.482                                                                    24845637.475 6  97499643.95606     -1809.517 6        40.291    24845636.780 7 100043138.95707     -1856.702 7        44.438
G32        17.000    23041946.355 7 121086673.14907     -1693.184 7        42.853                                    23041983.179 2  94352924.90502     -1319.367 2        15.667    23041949.239 6  94352933.68606     -1319.229 6        38.282
E05        18.000    25912738.206 6 136172419.14906     -3980.774 6        38.309                                                                    25912750.090 5 101687216.38905     -2972.469 5        35.048    25912748.675 6 104339938.54106     -3050.092 6        38.904
E08        20.000    26685269.948 7 140232060.81207        79.452 7        43.060                                                                    26685277.457 6 104718865.52506        59.294 6        39.991    26685276.414 6 107450669.90906        60.879 6        41.039
E02        21.000    26891461.738 6 141315659.21506      1461.453 6        38.474                                                                    26891456.114 4 105527955.85404      1092.208 4        26.742    26891457.518 6 108280840.03706      1119.900 6        37.425
S23        22.000    38250529.416 5 201007978.67405      -864.958 5        35.638
R14        23.000    20671768.552 6 110192120.60006     -3113.452 6        39.550                                                                    20671769.441 6  85705006.34806     -2421.421 6        38.183
R06        24.000    22740258.060 5 121346392.46705     -1182.289 5        34.976
E03        26.000    25547960.759 5 134255621.36405     -2518.815 5        32.383                                                                    25547968.860 6 100255771.72006     -1881.232 6        41.390    25547967.587 7 102871119.73707     -1930.235 7        43.949
S21        27.000    38536873.380 5 202512721.18405      -859.731 5        35.186
R07        29.000    24290610.963 6 130029530.50006      1800.651 6        38.144
R15        30.000    19589995.317 8 104683276.69608       253.043 8        49.267                                                                    19589998.271 7  81420122.85607       196.728 7        43.905
S36        31.000    38308103.305 6 201310487.46606      -860.307 6        36.386
C10        33.000                                                                                                                                    39843025.429 3                     -1584.951 3        23.790    39843025.025 5 160431374.68905     -1226.398 5        30.762    39843020.038 3                     -1290.491 3        21.500
R16        34.000    22866540.482 5 122149411.28005      2585.495 5        31.600                                                                    22866549.351 6  95004753.82606      2010.889 6        38.574
C44        35.000                                                                                                                                    24014172.872 5                      2319.536 5        31.789                                                                    24014133.543 5 101611696.16105      1884.692 5        35.919
R17        36.000    20579290.950 6 110124180.86406      2304.636 6        37.130                                                                    20579294.789 4  85652119.86704      1792.820 4        28.464
C45        37.000                                                                                                                                                                                                                                                                    24921757.862 5 105452106.48705     -2961.633 5        32.970
R24        38.000    20298189.520 7 108543838.51107     -2024.791 7        45.822                                                                    20298195.714 6  84422771.14206     -1574.997 6        40.706
C33        39.000                                                                                                                                                                                                                                                                    26472643.165 5 112014437.84305     -2261.112 5        32.275
C35        42.000                                                                                                                                                                                                                                                                    22111244.106 7  93559957.47307        92.017 7        44.733
R05        44.000                                                                                                                                    23248771.817 5                     -3554.604 5        30.000
C29        46.000                                                                                                                                    24229629.436 5 126170050.09805     -3244.736 5        35.910                                                                    24229647.639 5 102523526.17705     -2636.600 5        33.515
C26        48.000                                                                                                                                    21784515.368 8 113437717.71008     -1361.269 8        48.969                                                                    21784518.138 7  92177449.27207     -1106.139 7        45.907
C41        49.000                                                                                                                                    26844824.302 5 139788028.24505      -637.315 5        35.667                                                                    26844824.420 5 113589311.74505      -517.912 5        33.832
C24        51.000                                                                                                                                                                                                                                                                    22902643.781 6  96908597.49706      1078.690 6        38.474
I06        58.000    38649961.892 6 151670761.97606      -736.178 6        37.240
> 2025 01 02 13 46 25.0000000  0 40
G06         1.000    23216768.002 4                     -2052.110 4        25.985
G11         2.000    22684804.086 5 119209438.79805       381.664 5        35.076                                    22684804.308 1  92890530.49701       297.396 1        11.630    22684807.247 5  92890501.46405       297.227 5        34.862
G25         3.000    20249605.842 7 106412333.42707       422.749 7        43.096                                    20249604.236 5  82918772.07105       329.410 5        35.557    20249606.593 6  82918762.06806       329.509 6        39.694
E25         6.000    23593254.166 4 123983320.10904      -134.163 4        29.725                                                                    23593253.425 6  92585115.51206       -99.989 6        40.513    23593266.995 6  95000274.64106      -102.504 6        36.261
G28         8.000    23675899.307 6 124417802.18706      2380.085 6        38.480                                    23675903.889 3  96948844.10603      1854.610 3        21.857    23675904.412 6  96948902.05306      1854.832 6        38.631
G29         9.000    22734173.084 6 119469428.74906      2313.729 6        40.336                                    22734171.074 4  93092603.26904      1802.904 4        24.692    22734172.241 5                      1802.806 5        32.102
E11        10.000    26568939.930 5 139620719.70605      2117.705 5        30.445                                                                    26568945.349 6 104262245.85406      1581.274 6        38.264
E10        11.000    25788018.111 5 135516853.50005      1195.014 5        32.497                                                                    25788002.255 6 101197704.56706       892.607 6        40.772    25788003.313 7 103837631.20907       915.924 7        42.144
G24        12.000    23098096.689 6 121381308.84206     -4428.985 6        40.396                                    23098111.728 3  94582852.24803     -3451.170 3        21.952    23098114.246 4                     -3451.126 4        29.697
E12        13.000    25906361.410 6 136138833.72006        -3.897 6        37.119                                                                    25906363.232 6 101662141.58806        -2.734 6        38.237    25906360.076 5 104314206.75205        -3.009 5        35.624
E33        14.000                                                                                                                                    27640777.118 4                     -2019.875 4        29.043
G12        15.000    20617297.382 8 108344544.47408     -2125.055 8        49.877                                    20617296.659 8  84424353.22208     -1655.890 8        49.044    20617296.231 7  84424374.22307     -1655.829 7        45.828
E24        16.000    24847940.203 6 130576855.69206     -2423.942 6        40.429                                                                    24847943.560 6  97508693.05706     -1810.047 6        40.791    24847943.010 7 100052424.13907     -1857.284 7        45.052
G32        17.000    23043559.388 7 121095146.72307     -1696.151 7        43.058                                    23043595.101 2  94359527.62102     -1321.656 2        13.455    23043562.225 6  94359536.45006     -1321.675 6        39.495
E05        18.000    25916525.820 6 136192322.85406     -3980.766 6        38.126                                                                    25916537.226 5 101702079.49005     -2972.630 5        35.424    25916536.715 6 104355189.39506     -3050.289 6        39.667
E08        20.000    26685195.060 7 140231669.39607        77.167 7        43.240                                                                    26685202.654 6 104718573.23706        57.588 6        39.048    26685201.750 6 107450369.99106        59.202 6        41.201
E02        21.000    26890068.448 6 141308352.43406      1461.169 6        39.066                                                                    26890069.745 4 105522499.64504      1091.197 4        27.281    26890066.722 6 108275241.37206      1119.723 6        36.692
S23        22.000    38251357.677 6 201012304.37906      -864.977 6        36.068
R14        23.000    20674695.877 6 110207692.33006     -3115.243 6        38.541                                                                    20674689.575 6  85717117.68806     -2423.035 6        37.871
R06        24.000    22741368.149 6 121352314.60006     -1186.292 6        36.257
E03        26.000    25550358.174 4 134268221.71204     -2521.176 4        29.441                                                                    25550367.212 6 100265181.00406     -1882.612 6        41.878    25550365.177 7 102880774.48507     -1931.705 7        43.323
S21        27.000    38537689.648 5 202517020.10405      -859.592 5        34.876
R07        29.000    24288928.945 6 130020535.19206      1797.498 6        37.890
R15        30.000    19589760.516 8 104682017.23808       250.888 8        50.083                                                                    19589763.054 7  81419143.28407       195.062 7        44.211
S36        31.000    38308919.117 6 201314788.89206      -859.675 6        36.091
C10        33.000                                                                                                                                    39844551.361 4                     -1587.077 4        24.526    39844546.895 5 160437506.45205     -1225.911 5        31.728    39844544.007 3                     -1289.274 3        22.476
R16        34.000    22864125.561 5 122136484.74405      2585.319 5        34.724                                                                    22864128.370 6  94994699.87006      2010.673 6        38.541
C44        35.000                                                                                                                                                                                                                                                                    24011907.508 5 101602274.75205      1883.774 5        35.457
R17        36.000    20577139.978 6 110112664.84106      2301.625 6        37.868                                                                    20577141.665 5  85643162.99305      1790.007 5        31.449
C45        37.000                                                                                                                                    24925280.136 5 129792376.09305     -3645.853 5        33.198                                                                    24925258.339 5 105466917.66505     -2962.750 5        33.096
R24        38.000    20300086.204 7 108553973.56207     -2029.054 7        45.526                                                                    20300090.860 6  84430653.95406     -1578.264 6        41.833
C33        39.000                                                                                                                                                                                                                                                                    26475316.559 5 112025748.36005     -2262.918 5        31.947
C35        42.000                                                                                                                                    22111118.764 6 115138450.31906       110.660 6        41.564                                                                    22111136.920 7  93559502.75807        89.934 7        45.457
R05        44.000                                                                                                                                    23253043.429 4                     -3555.857 4        27.389
C29        46.000                                                                                                                                    24232747.116 5 126186278.00305     -3246.455 5        33.299                                                                    24232758.292 5 102536712.71805     -2637.979 5        34.510
C26        48.000                                                                                                                                    21785823.499 8 113444528.83508     -1363.114 8        48.997                                                                    21785826.329 7  92182983.86707     -1107.699 7        46.366
C41        49.000                                                                                                                                    26845439.322 6 139791222.17206      -640.181 6        36.461                                                                    26845437.597 5 113591907.12105      -520.479 5        34.033
C24        51.000                                                                                                                                                                                                                                                                    22901369.825 6  96903206.68806      1077.904 6        38.595
C14        53.000                                                                                                                                                                                                    26785136.987 4                     -2699.624 4        24.150
I06        58.000    38650900.673 6 151674443.25706      -735.915 6        37.467
> 2025 01 02 13 46 30.0000000  0 40
G06         1.000    23218723.523 4                     -2054.461 4        24.887                                                                                                    23218735.040 4                     -1600.632 4        26.395
G11         2.000    22684441.433 5 119207539.70205       378.180 5        33.539                                    22684442.969 2  92889050.67102       294.678 2        13.273    22684444.629 5  92889021.63605       294.820 5        33.659
G25         3.000    20249204.993 7 106410224.73507       420.738 7        42.409                                    20249203.283 5  82917128.95005       327.842 5        35.167    20249206.482 6  82917118.95106       327.878 6        39.898
E25         6.000    23593381.579 2                      -134.881 2        16.830                                                                    23593381.056 6  92585617.80906      -100.775 6        40.222    23593392.135 6  95000790.03606      -103.464 6        36.355
G28         8.000    23673638.009 6 124405904.03506      2379.115 6        40.937                                    23673639.115 3  96939572.86103      1853.839 3        21.286    23673640.849 6  96939630.84306      1853.828 6        38.571
G29         9.000    22731973.455 6 119457864.61006      2312.031 6        39.838                                    22731970.610 3  93083592.29003      1801.580 3        23.238    22731972.632 5                      1801.414 5        32.006
E11        10.000    26566927.278 4 139610134.76504      2116.360 4        29.365                                                                    26566930.909 6 104254341.51706      1580.516 6        38.174
E10        11.000                                                                                                                                    25786865.827 6 101193245.50706       891.151 6        40.513    25786867.124 7 103833055.82007       914.340 7        42.438
G24        12.000    23102311.087 6 121403457.73606     -4430.312 6        41.237                                    23102326.693 3  94600111.13803     -3452.187 3        22.267    23102328.258 4                     -3452.272 4        29.261
E12        13.000    25906364.590 5 136138859.74305        -6.272 5        35.443                                                                    25906367.435 6 101662161.01406        -4.687 6        37.784    25906364.611 5 104314226.68605        -4.882 5        35.848
E33        14.000    27643354.617 4                     -2707.392 4        26.778                                                                    27643351.516 4                     -2021.387 4        27.916
G12        15.000    20619320.445 8 108355175.15508     -2127.044 8        50.029                                    20619319.460 8  84432636.87508     -1657.439 8        48.729    20619318.865 7  84432657.87807     -1657.506 7        45.255
E24        16.000    24850246.756 6 130588977.52006     -2424.683 6        40.217                                                                    24850250.522 6  97517745.05406     -1810.522 6        41.194    24850249.909 7 100061712.28907     -1857.887 7        45.350
G32        17.000    23045173.070 7 121103635.51007     -1699.168 7        42.916                                    23045210.501 1  94366142.06201     -1323.944 1         9.238    23045178.302 6  94366151.09806     -1324.146 6        40.145
E05        18.000    25920313.834 6 136212227.41006     -3980.983 6        37.686                                                                    25920325.260 5 101716943.25005     -2972.806 5        35.357    25920324.609 6 104370440.88806     -3050.217 6        39.883
E08        20.000    26685122.827 7 140231289.67207        74.959 7        42.518                                                                    26685129.905 6 104718289.71006        55.762 6        38.432    26685129.414 6 107450079.06006        57.374 6        41.235
E02        21.000    26888675.809 6 141301047.15706      1460.972 6        38.631                                                                                                                                    26888676.439 6 108269643.86906      1119.439 6        36.488
S23        22.000    38252179.566 6 201016629.91606      -865.221 6        36.499
R14        23.000    20677618.424 6 110223274.27306     -3117.400 6        37.754                                                                    20677613.760 6  85729236.93706     -2424.582 6        38.186
R06        24.000    22742483.496 6 121358258.42406     -1190.973 6        37.508
E03        26.000                                                                                                                                    25552767.282 7 100274597.79007     -1884.095 7        42.476    25552764.904 7 102890436.93807     -1933.232 7        42.844
S21        27.000    38538510.249 5 202521319.01905      -859.829 5        35.362
R07        29.000    24287252.824 6 130011555.52606      1794.531 6        37.989
R15        30.000    19589527.403 8 104680768.90908       248.571 8        50.917                                                                    19589528.578 7  81418172.35707       193.426 7        43.970
S36        31.000    38309741.269 6 201319089.92006      -860.036 6        36.110
C10        33.000                                                                                                                                    39846072.647 4                     -1585.134 4        24.391    39846068.957 5 160443638.25405     -1226.518 5        32.317    39846068.276 3                     -1287.846 3        22.095
R16        34.000                                                                                                                                    22861708.564 6  94984646.79706      2010.467 6        37.648
C44        35.000                                                                                                                                                                                                                                                                    24009683.150 5 101592857.98805      1882.721 5        34.943
R17        36.000    20574994.042 6 110101165.12506      2298.351 6        41.564                                                                    20574992.858 5  85634218.81005      1787.409 5        32.826
C45        37.000                                                                                                                                    24928783.209 5 129810607.71405     -3647.158 5        30.891                                                                    24928759.924 5 105481732.27405     -2963.207 5        32.946
R24        38.000    20301985.671 7 108564130.57907     -2033.532 7        44.719                                                                    20301989.965 6  84438553.87606     -1581.664 6        41.900
C33        39.000                                                                                                                                                                                                                                                                    26477991.908 4 112037066.29104     -2264.768 4        29.374
C35        42.000                                                                                                                                                                                                                                                                    22111032.466 7  93559059.03707        87.498 7        46.159
R05        44.000                                                                                                                                    23257317.298 3                     -3557.379 3        22.705
C29        46.000                                                                                                                                    24235867.088 5 126202514.77105     -3248.076 5        32.162                                                                    24235873.525 5 102549906.46805     -2639.474 5        35.233
C26        48.000                                                                                                                                    21787133.525 8 113451349.66408     -1365.081 8        48.999                                                                    21787136.182 7  92188526.37407     -1109.494 7        46.612
C41        49.000                                                                                                                                    26846059.334 6 139794429.57306      -642.564 6        36.136                                                                    26846053.375 5 113594513.43505      -522.594 5        34.276
C24        51.000                                                                                                                                    22900094.168 6 119246874.81116      1325.043 6        37.599                                                                    22900096.785 6  96897820.40106      1076.574 6        38.784
C14        53.000                                                                                                                                                                                                    26788496.866 4                     -2700.455 4        28.474
I06        58.000    38651838.162 6 151678124.41906      -736.170 6        37.550
> 2025 01 02 13 46 35.0000000  0 39
G06         1.000    23220681.405 4                     -2057.805 4        28.057                                                                                                    23220686.134 3                     -1603.417 3        22.648
G11         2.000    22684083.381 5 119205655.45005       375.208 5        34.548                                    22684084.488 2  92887582.41902       292.345 2        13.576    22684085.008 5  92887553.38805       292.464 5        33.192
G25         3.000    20248806.004 6 106408126.08706       418.460 6        41.352                                    20248804.419 5  82915493.65105       326.073 5        34.838    20248807.037 6  82915483.63806       326.120 6        40.515
E25         6.000                                                                                                                                    23593509.581 6  92586123.72606      -101.570 6        39.634    23593516.565 6  95001309.11806      -104.175 6        36.072
G28         8.000    23671376.241 7 124394011.68107      2377.753 7        43.278                                    23671375.485 3  96930306.11703      1852.787 3        21.095    23671378.214 6  96930364.10506      1852.789 6        39.459
G29         9.000    22729773.733 6 119446307.98006      2310.456 6        39.105                                    22729771.704 3  93074587.15003      1800.354 3        22.933    22729774.127 5                      1800.383 5        33.275
E11        10.000    26564912.734 5 139599553.61405      2116.237 5        30.045                                                                    26564917.336 6 104246440.04506      1580.120 6        37.898
E10        11.000    25785724.110 5 135504920.13405      1191.468 5        32.892                                                                    25785731.155 6 101188793.29706       889.609 6        40.570    25785732.725 7 103828487.45607       912.810 7        42.618
G24        12.000    23106526.920 6 121425612.22806     -4431.577 6        41.816                                    23106542.575 3  94617374.38603     -3453.170 3        22.248    23106546.013 4                     -3453.276 4        28.265
E12        13.000    25906371.771 5 136138897.85805        -9.000 5        34.395                                                                    25906374.116 6 101662189.45806        -6.638 6        37.070    25906371.059 5 104314255.88805        -6.887 5        35.238
E33        14.000    27645931.336 4                     -2708.775 4        26.299                                                                    27645927.497 4                     -2023.205 4        27.497
G12        15.000    20621345.149 8 108365815.41208     -2129.158 8        49.915                                    20621344.068 8  84440927.99008     -1659.089 8        48.551    20621343.629 7  84440948.99107     -1659.133 7        45.539
E24        16.000    24852554.027 6 130601103.04906     -2425.525 6        40.613                                                                    24852557.943 6  97526799.82606     -1811.313 6        41.659    24852557.494 7 100071003.28107     -1858.561 7        45.607
G32        17.000    23046791.744 7 121112139.31107     -1702.407 7        43.829                                    23046829.121 1  94372768.15401     -1326.498 1         8.571    23046796.407 6  94372777.42706     -1326.504 6        40.341
E05        18.000    25924101.444 6 136232132.58706     -3981.245 6        37.569                                                                    25924112.972 5 101731807.44905     -2972.737 5        35.024    25924112.508 6 104385692.88306     -3050.578 6        40.238
E08        20.000    26685052.716 7 140230921.46807        72.333 7        42.080                                                                    26685059.621 6 104718014.77506        54.210 6        37.270    26685059.209 6 107449796.93306        55.491 6        41.037
E02        21.000    26887284.282 6 141293743.19906      1460.467 6        38.351                                                                    26887316.502 5 105511590.53505      1090.623 5        33.347    26887286.347 5 108264047.35805      1119.231 5        35.362
S23        22.000    38253004.102 6 201020955.20006      -865.153 6        36.242
R14        23.000                                                                                                                                    20680539.117 6  85741363.93306     -2426.223 6        38.862
R06        24.000    22743601.030 6 121364223.71606     -1195.126 6        38.315
E03        26.000                                                                                                                                    25555168.508 7 100284021.92107     -1885.763 7        42.590    25555166.481 7 102900106.91807     -1934.801 7        42.646
S21        27.000    38539333.765 5 202525617.68905      -859.640 5        35.400
R07        29.000    24285579.413 6 130002590.96906      1791.465 6        38.730
R15        30.000    19589295.850 8 104679531.53008       246.247 8        50.981                                                                    19589297.374 7  81417209.95707       191.573 7        44.772
S36        31.000    38310561.410 6 201323391.09406      -860.123 6        36.556
C10        33.000                                                                                                                                    39847599.957 3                     -1585.642 3        23.981    39847592.539 5 160449769.81205     -1226.359 5        31.811    39847594.364 3                     -1287.684 3        20.762
R16        34.000    22859307.406 5 122110634.83405      2584.858 5        34.024                                                                    22859289.086 6  94974594.56506      2010.399 6        36.204
C44        35.000                                                                                                                                    24007463.084 5 125013268.36115      2315.833 5        35.505                                                                    24007459.788 5 101583445.61205      1881.891 5        35.000
R17        36.000    20572848.915 7 110089681.44207      2295.089 7        43.681                                                                    20572846.171 5  85625287.09605      1784.795 5        32.766
C45        37.000                                                                                                                                    24932282.027 5 129828843.31005     -3647.442 5        30.498                                                                    24932261.818 5 105496550.11405     -2964.047 5        32.988
R24        38.000    20303888.028 7 108574309.35907     -2038.038 7        44.793                                                                    20303892.890 7  84446470.72907     -1585.261 7        42.212
C33        39.000                                                                                                                                                                                                                                                                    26480668.329 4 112048391.53404     -2265.862 4        26.132
C35        42.000                                                                                                                                    22110930.375 7 115137371.37407       105.116 7        44.894                                                                    22110930.491 7  93558626.06907        85.399 7        46.846
R05        44.000    23261746.446 3                     -4575.622 3        23.505                                                                    23261594.879 3                     -3557.971 3        23.105
C29        46.000                                                                                                                                    24238988.724 5 126218760.20605     -3249.814 5        31.698                                                                    24238994.108 5 102563107.18705     -2640.989 5        35.586
C26        48.000                                                                                                                                    21788445.619 8 113458180.00108     -1367.124 8        48.847                                                                    21788447.749 7  92194076.56307     -1110.890 7        46.831
C41        49.000                                                                                                                                    26846680.083 5 139797650.29105      -645.554 5        32.976                                                                    26846671.898 5 113597130.52105      -524.548 5        34.424
C24        51.000                                                                                                                                    22898825.152 6 119240251.43006      1323.888 6        38.835                                                                    22898825.018 6  96892438.35906      1076.094 6        38.937
I06        58.000    38652775.973 6 151681805.28906      -736.280 6        37.448
> 2025 01 02 13 46 40.0000000  0 40
G06         1.000    23222643.057 5                     -2061.385 5        31.260                                                                                                    23222641.132 3                     -1605.581 3        18.090
G11         2.000    22683728.276 5 119203786.31805       372.440 5        35.514                                    22683728.950 2  92886125.97602       290.251 2        13.879    22683730.127 5  92886096.93405       290.303 5        32.090
G25         3.000    20248407.654 6 106406037.64206       416.867 6        39.805                                    20248407.634 5  82913866.29905       324.836 5        34.357    20248409.729 6  82913856.28406       324.737 6        41.142
E25         6.000    23593631.949 4                      -136.775 4        25.910                                                                    23593639.315 6  92586633.43306      -102.160 6        39.291    23593642.663 5  95001832.10205      -104.882 5        35.714
G28         8.000    23669113.818 7 124382125.31507      2376.866 7        44.725                                    23669113.037 3  96921044.03003      1852.099 3        21.929    23669115.844 6  96921102.03006      1852.032 6        39.802
G29         9.000    22727574.676 6 119434759.11306      2309.026 6        38.661                                    22727574.187 3  93065588.06303      1799.247 3        22.629    22727577.340 5  93065629.10715      1799.278 5        34.243
E11        10.000    26562900.111 5 139588976.59605      2115.122 5        30.226                                                                    26562904.318 6 104238541.62106      1579.697 6        37.350
E10        11.000    25784591.905 5 135498967.36805      1189.787 5        33.341                                                                    25784598.606 6 101184348.09506       888.376 6        40.508    25784600.163 7 103823926.28907       911.540 7        42.504
G24        12.000    23110743.920 6 121447772.50906     -4432.419 6        41.569                                    23110759.493 3  94634642.16203     -3453.840 3        22.152    23110760.602 4                     -3453.791 4        27.605
E12        13.000    25906380.904 5 136138948.21705       -10.816 5        33.473                                                                    25906382.791 6 101662227.09606        -8.474 6        36.582    25906380.082 5 104314294.47305        -8.402 5        35.205
E33        14.000    27648511.150 4                     -2710.728 4        27.796                                                                    27648505.727 4                     -2024.289 4        26.754
G12        15.000    20623371.495 8 108376465.44308     -2130.870 8        49.640                                    20623370.567 8  84449226.71708     -1660.420 8        48.372    20623370.411 7  84449247.72007     -1660.453 7        45.464
E24        16.000    24854862.176 6 130613232.42706     -2426.218 6        40.887                                                                    24854866.187 7  97535857.46707     -1811.659 7        42.171    24854865.670 7 100080297.20807     -1858.985 7        45.756
G32        17.000    23048414.140 7 121120658.29707     -1705.256 7        42.988                                    23048450.880 1  94379406.29901     -1328.813 1        10.074    23048417.471 6  94379415.62106     -1328.810 6        40.043
E05        18.000    25927889.326 6 136252038.60706     -3981.367 6        37.614                                                                    25927901.632 5 101746672.27905     -2973.150 5        35.129    25927900.717 6 104400945.48806     -3050.619 6        40.589
E08        20.000    26684984.882 6 140230564.95106        70.230 6        41.900                                                                    26684991.454 6 104717748.56106        52.444 6        36.386    26684991.149 6 107449523.77206        53.831 6        41.089
E02        21.000    26885896.306 6 141286440.71806      1460.511 6        37.803                                                                    26885926.197 5 105506137.44105      1090.466 5        34.886    26885897.018 5 108258452.02205      1119.082 5        35.033
S23        22.000    38253826.594 6 201025280.52806      -864.793 6        36.306
R14        23.000    20683456.961 5 110254468.02405     -3121.235 5        34.519                                                                    20683465.295 6  85753498.75206     -2427.631 6        39.544
R06        24.000    22744721.804 6 121370210.69306     -1199.411 6        37.316
E03        26.000                                                                                                                                    25557571.328 7 100293453.51007     -1886.927 7        42.529    25557569.979 7 102909784.56907     -1936.184 7        42.512
S21        27.000    38540152.403 5 202529916.42805      -859.675 5        35.648
R07        29.000    24283907.117 6 129993641.80206      1788.293 6        37.962
R15        30.000    19589066.054 8 104678305.32108       244.182 8        50.395                                                                    19589068.341 7  81416256.25307       190.035 7        44.468
S36        31.000    38311375.907 6 201327691.24806      -860.361 6        36.435
C10        33.000                                                                                                                                    39849120.094 3                     -1584.397 3        22.743    39849114.242 5 160455901.26905     -1225.991 5        32.323    39849120.882 3                     -1287.423 3        22.457
R16        34.000                                                                                                                                    22856868.473 5  94964543.31305      2010.048 5        33.138
C44        35.000                                                                                                                                    24005231.391 5 125001690.72705      2315.022 5        35.600                                                                    24005236.657 5 101574037.86805      1881.214 5        34.505
R17        36.000    20570705.233 7 110078214.06607      2291.986 7        44.652                                                                    20570702.063 5  85616367.99605      1782.846 5        30.483
C45        37.000                                                                                                                                    24935782.802 4 129847083.21504     -3648.197 4        28.313                                                                    24935764.655 5 105511371.39205     -2964.447 5        32.922
R24        38.000    20305796.214 7 108584510.03007     -2042.147 7        46.037                                                                    20305800.480 7  84454404.58907     -1588.468 7        42.288
C33        39.000                                                                                                                                    26483345.737 5                     -2790.191 5        32.910                                                                    26483349.039 3                     -2268.165 3        23.714
C35        42.000                                                                                                                                    22110830.163 7 115136852.01207       102.623 7        45.044                                                                    22110831.005 7  93558204.05207        83.372 7        47.478
R05        44.000                                                                                                                                    23265875.487 4                     -3558.261 4        25.699
C29        46.000                                                                                                                                    24242109.496 4 126235014.40204     -3251.508 4        29.934                                                                    24242116.818 5 102576315.08405     -2642.339 5        35.233
C26        48.000                                                                                                                                    21789759.600 8 113465020.05208     -1368.856 8        49.145                                                                    21789761.216 7  92199634.65707     -1112.265 7        46.739
C41        49.000                                                                                                                                    26847301.605 4 139800884.37504      -647.788 4        28.692                                                                    26847293.086 5 113599758.50105      -526.588 5        34.533
C24        51.000                                                                                                                                    22897557.649 6 119233633.55906      1323.006 6        39.432                                                                    22897553.852 6  96887060.81206      1075.161 6        38.928
C14        53.000                                                                                                                                                                                                                                                                    26795199.696 5                     -2839.294 5        30.830
I06        58.000    38653713.929 6 151685486.00606      -736.140 6        37.418
> 2025 01 02 13 46 45.0000000  0 40
G06         1.000    23224607.830 5                     -2064.370 5        33.545
G11         2.000    22683377.106 5 119201932.63205       369.000 5        35.657                                    22683376.411 2  92884681.51202       287.555 2        12.303    22683374.595 5  92884652.52105       287.560 5        30.430
G25         3.000    20248010.497 6 106403959.84706       414.412 6        38.532                                    20248012.777 5  82912247.23405       322.919 5        33.287    20248014.904 6  82912237.20306       323.082 6        41.044
E25         6.000    23593768.848 5                      -137.967 5        31.260                                                                    23593770.039 6  92587147.16106      -103.154 6        38.775    23593770.509 6  95002359.20706      -105.735 6        36.034
G28         8.000    23666852.055 7 124370245.29307      2375.348 7        45.014                                    23666852.037 3  96911786.88703      1850.916 3        23.010    23666854.613 6  96911844.88806      1850.974 6        40.303
G29         9.000    22725378.421 6 119423218.33306      2307.258 6        39.210                                    22725378.410 3  93056595.29003      1797.855 3        23.676    22725379.257 5  93056636.30705      1797.902 5        35.062
E11        10.000    26560888.014 5 139578403.95305      2114.403 5        31.781                                                                    26560892.120 6 104230646.52906      1578.629 6        36.692    26560891.399 5 106949704.46915      1619.680 5        34.738
E10        11.000    25783462.665 5 135493024.38605      1187.528 5        34.105                                                                    25783467.819 6 101179910.17006       886.860 6        40.620    25783469.177 7 103819372.59807       909.878 7        42.358
G24        12.000    23114961.406 6 121469938.94106     -4433.873 6        40.417                                    23114977.521 3  94651914.73403     -3454.976 3        22.000    23114971.722 4                     -3454.753 4        26.671
E12        13.000    25906392.143 5 136139011.34805       -13.927 5        32.778                                                                    25906394.456 5 101662274.20705       -10.197 5        35.981    25906392.235 5 104314342.80205       -10.463 5        35.652
E33        14.000    27651093.941 4                     -2713.219 4        26.623                                                                    27651084.490 4                     -2026.132 4        25.744
G12        15.000    20625399.963 8 108387125.58708     -2133.032 8        50.520                                    20625399.007 8  84457533.32408     -1662.103 8        48.243    20625398.773 7  84457554.31907     -1662.148 7        44.939
E24        16.000    24857171.423 6 130625366.02406     -2427.198 6        41.261                                                                    24857175.068 7  97544918.26307     -1812.490 7        42.427    24857174.696 7 100089594.37507     -1859.760 7        45.922
G32        17.000    23050036.941 6 121129192.85606     -1708.454 6        41.287                                    23050075.152 1  94386056.70601     -1331.299 1        10.889    23050041.445 6  94386065.90906     -1331.218 6        40.596
E05        18.000    25931677.467 6 136271945.75106     -3981.568 6        37.705                                                                    25931689.966 5 101761537.97205     -2973.560 5        34.862    25931689.177 6 104416198.97206     -3050.783 6        40.794
E08        20.000    26684919.699 6 140230220.49906        67.759 6        41.445                                                                    26684925.490 5 104717491.34305        50.781 5        35.552    26684925.373 6 107449259.84606        51.806 6        40.877
E02        21.000    26884510.422 6 141279140.09206      1459.886 6        37.936                                                                    26884531.888 6 105500685.71106      1090.256 6        36.204    26884508.219 5 108252858.06705      1118.725 5        34.719
S23        22.000    38254648.509 5 201029606.21505      -865.313 5        35.667
R14        23.000    20686391.945 6 110270080.16806     -3123.586 6        38.264                                                                    20686394.284 6  85765641.55406     -2429.232 6        39.808
R06        24.000    22745847.449 6 121376219.51206     -1203.963 6        36.469
E03        26.000    25559979.197 5 134318584.49315     -2529.157 5        35.643                                                                    25559975.851 7 100302892.84607     -1888.640 7        42.112    25559975.496 7 102919470.16907     -1937.933 7        42.540
S21        27.000    38540968.384 5 202534215.66005      -859.802 5        35.929
R07        29.000    24282237.057 5 129984708.51905      1785.161 5        35.719
R15        30.000    19588838.705 8 104677090.61208       241.779 8        49.674                                                                    19588841.176 7  81415311.49307       188.183 7        43.934
S36        31.000    38312196.517 6 201331991.97406      -860.089 6        36.677
C10        33.000                                                                                                                                    39850647.037 3                     -1585.497 3        21.810    39850637.456 5 160462032.91805     -1226.152 5        32.377
R16        34.000    22854482.859 5 122084789.75405      2584.224 5        33.413                                                                    22854450.157 5  94954493.20305      2009.845 5        33.006
C44        35.000                                                                                                                                    24002995.787 6 124990119.32006      2313.531 6        37.059                                                                    24003012.600 5 101564635.06905      1880.017 5        34.924
R17        36.000    20568563.999 7 110066763.27407      2288.496 7        44.617                                                                    20568564.482 5  85607461.89805      1779.977 5        30.325
C45        37.000                                                                                                                                    24939283.446 4 129865327.74704     -3650.057 4        26.347                                                                    24939268.626 5 105526196.37205     -2965.237 5        33.042
R24        38.000    20307709.592 7 108594732.98007     -2046.811 7        46.880                                                                    20307712.661 7  84462355.77107     -1591.963 7        43.276
C33        39.000                                                                                                                                    26486020.103 5 137919663.89615     -2792.117 5        33.551
C35        42.000                                                                                                                                    22110729.789 7 115136346.52907        99.588 7        44.346                                                                    22110734.093 8  93557793.29408        81.046 8        48.109
R05        44.000    23270133.301 4                     -4577.341 4        26.156
C29        46.000                                                                                                                                    24245232.589 4 126251277.82004     -3253.948 4        28.464                                                                    24245240.197 5 102589530.41905     -2643.773 5        34.333
C26        48.000                                                                                                                                    21791075.697 8 113471870.15008     -1371.029 8        49.809                                                                    21791076.622 7  92205200.92507     -1114.016 7        46.846
C41        49.000                                                                                                                                                                                                                                                                    26847916.802 5 113602397.65205      -528.929 5        34.733
C24        51.000                                                                                                                                    22896285.934 6 119227021.56006      1321.934 6        38.670                                                                    22896284.448 6  96881688.00506      1074.185 6        39.375
C14        53.000                                                                                                                                                                                                                                                                    26798556.977 5                     -2840.137 5        31.638
I06        58.000    38654651.910 6 151689166.83206      -736.368 6        37.486
> 2025 01 02 13 46 50.0000000  0 39
G06         1.000    23226573.455 5 122056469.44115     -2067.765 5        35.381                                    23226566.962 2                     -1611.479 2        14.048
G11         2.000    22683026.151 5 119200093.96805       366.136 5        32.473                                    22683026.525 1  92883248.75201       285.244 1         9.714    22683023.683 5  92883219.79405       285.455 5        30.166
G25         3.000    20247617.285 6 106401892.24806       412.399 6        37.932                                    20247619.793 5  82910636.10905       321.347 5        31.102    20247620.679 6  82910626.08406       321.201 6        41.087
E25         6.000    23593901.628 5 123986792.08715      -139.367 5        34.057                                                                    23593901.862 6  92587664.62006      -103.966 6        38.423    23593900.581 6  95002890.17706      -106.675 6        36.635
G28         8.000    23664590.616 7 124358371.18707      2374.087 7        44.880                                    23664592.186 3  96902534.37403      1849.912 3        23.486    23664593.904 6  96902592.37906      1849.908 6        40.367
G29         9.000    22723184.705 6 119411685.23906      2305.794 6        40.646                                    22723184.413 4  93047608.50504      1796.720 4        25.308    22723184.899 6  93047649.54306      1796.573 6        36.091
E11        10.000    26558876.712 5 139567835.41105      2112.992 5        32.581                                                                    26558880.893 6 104222754.44906      1578.153 6        36.166    26558879.188 5 106941606.48305      1619.105 5        34.943
E10        11.000    25782334.485 5 135487090.75005      1185.549 5        35.848                                                                    25782338.781 6 101175479.22606       885.436 6        40.939    25782339.641 6 103814826.04306       908.679 6        41.933
G24        12.000    23119179.794 6 121492111.04406     -4435.014 6        38.853                                    23119196.591 3  94669191.73703     -3455.851 3        21.357    23119184.607 4                     -3455.994 4        27.665
E12        13.000    25906406.052 5 136139086.62505       -16.287 5        31.887                                                                    25906408.468 5 101662330.42405       -12.214 5        35.357    25906407.250 6 104314400.50206       -12.698 6        36.597
E33        14.000    27653677.559 4                     -2715.278 4        26.503                                                                    27653666.423 4                     -2026.895 4        25.278
G12        15.000    20627430.656 8 108397795.44808     -2135.079 8        50.816                                    20627429.280 8  84465847.50208     -1663.698 8        48.076    20627428.868 7  84465868.48607     -1663.617 7        44.891
E24        16.000    24859481.282 6 130637503.43206     -2427.968 6        41.385                                                                    24859484.503 7  97553981.89407     -1813.114 7        42.815    24859484.501 7 100098894.45707     -1860.393 7        46.243
G32        17.000    23051663.448 6 121137742.55406     -1711.718 6        40.777                                    23051701.808 2  94392718.86002     -1333.842 2        15.905    23051669.070 6  94392727.99306     -1333.748 6        41.509
E05        18.000    25935466.282 6 136291853.64506     -3981.735 6        37.841                                                                    25935478.906 5 101776404.21405     -2973.527 5        35.152    25935477.717 6 104431453.03206     -3050.922 6        41.030
E08        20.000    26684856.418 6 140229887.67506        65.358 6        41.082                                                                    26684861.750 5 104717242.83505        48.849 5        34.633    26684861.837 6 107449004.84006        50.023 6        40.841
E02        21.000    26883122.812 6 141271840.90006      1459.580 6        37.951                                                                    26883139.813 6 105495235.05306      1089.920 6        36.582    26883119.231 5 108247265.25205      1118.469 5        34.152
S23        22.000    38255467.840 5 201033931.62705      -865.080 5        35.681
R14        23.000    20689324.414 6 110285702.39606     -3125.505 6        40.968                                                                    20689324.688 6  85777792.20106     -2431.090 6        39.589
R06        24.000    22746977.085 5 121382250.08905     -1208.301 5        34.662
E03        26.000    25562383.938 6 134331235.10106     -2531.304 6        36.805                                                                    25562382.613 7 100312339.60207     -1890.105 7        42.265    25562382.696 7 102929163.36507     -1939.484 7        42.641
S21        27.000    38541785.037 5 202538514.96605      -859.929 5        35.871
R07        29.000    24280567.742 5 129975790.69005      1782.176 5        33.581
R15        30.000    19588614.211 8 104675887.00208       239.536 8        50.203                                                                    19588616.558 7  81414375.35907       186.217 7        44.342
S36        31.000    38313014.792 6 201336293.06406      -860.255 6        36.378
C10        33.000                                                                                                                                    39852171.672 3                     -1586.011 3        22.133    39852160.196 5 160468164.51705     -1226.236 5        32.617    39852194.886 4                     -1288.776 4        24.376
R16        34.000                                                                                                                                    22852032.570 5  94944444.03705      2009.927 5        33.359
C44        35.000                                                                                                                                    24000775.387 6 124978553.48406      2312.449 6        38.697                                                                    24000788.885 5 101555236.84605      1878.988 5        35.248
R17        36.000    20566426.588 7 110055328.65607      2285.266 7        44.268                                                                    20566430.921 5  85598568.38605      1777.376 5        33.168
C45        37.000                                                                                                                                    24942785.673 4 129883576.30404     -3650.489 4        25.654                                                                    24942773.680 5 105541024.74105     -2965.788 5        33.916
R24        38.000    20309626.662 7 108604977.73807     -2051.279 7        47.194                                                                    20309628.856 7  84470323.92107     -1595.378 7        44.163
C33        39.000                                                                                                                                    26488696.880 5 137933628.87805     -2793.844 5        34.038
C35        42.000                                                                                                                                    22110635.333 7 115135854.45307        96.983 7        43.410                                                                    22110639.681 8  93557393.45708        78.832 8        48.511
C29        46.000                                                                                                                                    24248360.603 5 126267549.94905     -3255.483 5        30.075                                                                    24248364.551 5 102602752.90605     -2645.241 5        32.629
C26        48.000                                                                                                                                    21792393.209 8 113478729.89308     -1373.019 8        50.410                                                                    21792394.029 7  92210775.05307     -1115.648 7        46.924
C41        49.000                                                                                                                                    26848592.621 5 139807393.94305      -653.475 5        30.211                                                                    26848543.146 5 113605047.78305      -531.241 5        35.233
C24        51.000                                                                                                                                    22895011.404 6 119220415.02306      1320.631 6        38.453                                                                    22895015.788 6  96876319.65206      1073.134 6        39.835
C14        53.000                                                                                                                                                                                                    26801965.484 5 107920208.83415     -2703.399 5        33.784    26801915.353 5                     -2840.594 5        32.737
I06        58.000    38655590.020 6 151692847.42606      -736.145 6        37.388
> 2025 01 02 13 46 55.0000000  0 39
G06         1.000    23228542.658 6 122066816.10106     -2071.025 6        36.076                                    23228537.696 2  95116970.99012     -1613.757 2        15.190    23228599.444 4                     -1613.793 4        27.114
G11         2.000    22682682.881 5 119198270.41005       363.318 5        32.754                                    22682679.469 1  92881827.73001       283.154 1         5.143    22682677.900 4  92881798.88204       282.718 4        28.806
G25         3.000    20247224.476 6 106399834.90406       410.151 6        36.798                                    20247228.776 4  82909032.96104       319.618 4        29.090    20247228.570 6  82909022.90506       319.730 6        40.601
E25         6.000    23594032.780 6 123987489.86506      -140.089 6        36.544                                                                    23594034.405 6  92588185.82106      -104.725 6        38.453    23594032.958 6  95003425.00106      -107.638 6        36.620
G28         8.000    23662331.723 7 124346503.05107      2372.868 7        44.155                                    23662333.605 3  96893286.49903      1848.987 3        23.962    23662335.329 6  96893344.51306      1849.013 6        40.319
G29         9.000    22720991.513 6 119400159.91406      2304.158 6        40.820                                    22720991.883 4  93038627.77404      1795.436 4        27.293    22720993.573 6  93038668.78306      1795.528 6        36.473
E11        10.000    26556866.616 5 139557270.90305      2112.224 5        33.245                                                                    26556870.086 5 104214865.40705      1577.403 5        35.243    26556868.478 5 106933511.61905      1618.412 5        35.067
E10        11.000    25781207.285 6 135481166.46306      1183.658 6        37.917                                                                    25781211.906 6 101171055.29106       883.972 6        40.953    25781211.828 6 103810286.70106       906.949 6        41.247
G24        12.000    23123400.215 6 121514288.90506     -4436.318 6        37.584                                    23123416.613 3  94686473.19703     -3456.872 3        21.262    23123406.597 4                     -3456.530 4        27.497
E12        13.000    25906422.119 5 136139174.18405       -18.726 5        30.792                                                                    25906424.220 5 101662395.82405       -14.185 5        34.471    25906425.221 6 104314467.59506       -14.584 6        37.043
E33        14.000    27656261.871 4                     -2717.104 4        24.722                                                                    27656249.943 4                     -2028.600 4        25.293
G12        15.000    20629462.509 8 108408475.07508     -2137.022 8        50.633                                    20629461.400 8  84474169.28908     -1665.212 8        48.148    20629461.513 7  84474190.29207     -1665.260 7        44.963
E24        16.000    24861792.345 6 130649644.64806     -2428.739 6        41.437                                                                    24861794.885 7  97563048.39007     -1813.767 7        43.056    24861794.986 7 100108197.46607     -1860.955 7        46.186
G32        17.000    23053294.001 6 121146307.37806     -1714.595 6        39.787                                    23053329.300 3  94399392.75603     -1336.039 3        20.976    23053299.346 6  94399401.91006     -1336.206 6        41.397
E05        18.000    25939255.057 6 136311762.29006     -3982.061 6        37.985                                                                    25939267.659 5 101791270.98205     -2973.583 5        35.619    25939266.214 6 104446707.67206     -3051.150 6        41.159
E08        20.000    26684794.792 6 140229566.54406        62.878 6        40.698                                                                    26684800.400 5 104717003.04405        46.800 5        33.862    26684800.425 6 107448758.77906        48.366 6        40.508
E02        21.000    26881733.645 6 141264543.21406      1459.089 6        38.520                                                                    26881749.676 6 105489785.49206      1089.738 6        36.892    26881730.698 5 108241673.55805      1117.859 5        33.820
S23        22.000    38256295.305 5 201038256.88205      -865.165 5        35.762
R14        23.000    20692253.255 6 110301334.60506     -3127.601 6        40.372                                                                    20692255.468 6  85789950.60406     -2432.703 6        39.066
R06        24.000    22748109.083 5 121388302.28905     -1212.854 5        34.548
E03        26.000    25564790.436 5 134343895.57905     -2533.288 5        35.952                                                                    25564791.811 7 100321793.80507     -1891.707 7        42.009    25564791.741 7 102938864.21907     -1941.110 7        42.506
S21        27.000    38542607.534 5 202542814.33805      -860.245 5        35.448
R07        29.000    24278908.268 5 129966888.20605      1778.771 5        34.595
R15        30.000    19588391.950 8 104674694.42808       237.253 8        50.791                                                                    19588393.844 7  81413447.81007       184.518 7        45.038
S36        31.000    38313835.371 6 201340593.61606      -860.320 6        36.352
C10        33.000                                                                                                                                    39853691.460 3                     -1586.313 3        22.514    39853683.098 5 160474295.91705     -1226.490 5        32.958    39853712.461 4                     -1289.390 4        24.902
R16        34.000                                                                                                                                    22849612.890 5  94934395.76005      2009.543 5        30.475
C44        35.000                                                                                                                                    23998561.707 6 124966993.35906      2311.182 6        40.017                                                                    23998566.846 6 101545843.25506      1878.116 6        36.287
R17        36.000    20564292.895 7 110043910.35707      2281.823 7        43.939                                                                    20564297.114 5  85589687.52805      1774.783 5        33.527
C45        37.000                                                                                                                                    24946286.721 4 129901829.10304     -3650.335 4        24.211                                                                    24946278.957 5 105555856.46805     -2966.925 5        34.405
R24        38.000    20311545.303 7 108615244.32307     -2055.683 7        46.559                                                                    20311548.799 7  84478309.05807     -1598.800 7        44.700
C33        39.000                                                                                                                                    26491375.027 5 137947602.95305     -2795.593 5        32.545                                                                    26491423.211 4                     -2271.693 4        28.104
C35        42.000                                                                                                                                    22110545.697 7 115135375.81507        94.241 7        43.022                                                                    22110547.736 8  93557004.52208        76.546 8        48.730
C29        46.000                                                                                                                                                                                                                                                                    24251491.059 5 102615982.51205     -2646.814 5        31.298
C26        48.000                                                                                                                                    21793712.628 8 113485599.31608     -1375.033 8        50.491                                                                    21793713.233 7  92216357.02907     -1117.318 7        47.003
C41        49.000                                                                                                                                                                                                                                                                    26849172.128 5 113607708.61505      -533.475 5        35.400
C24        51.000                                                                                                                                    22893743.077 6 119213813.92606      1319.532 6        38.381                                                                    22893748.548 6  96870955.75606      1072.074 6        40.110
C14        53.000                                                                                                                                                                                                                                                                    26805273.604 5                     -2841.078 5        33.216
I06        58.000    38656527.937 6 151696527.92906      -736.028 6        37.301
> 2025 01 02 13 47  0.0000000  0 41
G06         1.000    23230517.700 6 122077178.89406     -2074.130 6        36.136                                    23230512.226 2  95125045.88202     -1616.223 2        15.381    23230576.335 4                     -1616.312 4        28.275
G11         2.000    22682348.462 5 119196462.01805       360.607 5        32.431                                    22682335.427 1  92880418.78701       280.995 1         4.857    22682332.726 4  92880389.82704       280.592 4        24.075
G25         3.000    20246833.945 6 106397787.80506       408.476 6        38.625                                    20246839.553 4  82907437.80604       318.305 4        28.986    20246838.913 6  82907427.77306       318.130 6        39.931
E25         6.000    23594165.163 6 123988192.97006      -140.970 6        37.947                                                                    23594168.103 6  92588710.84306      -105.230 6        38.093    23594166.613 6  95003963.68906      -107.973 6        37.490
G28         8.000    23660074.575 7 124334641.00407      2371.866 7        42.844                                    23660076.232 3  96884043.37703      1848.192 3        23.676    23660078.300 6  96884101.38506      1848.284 6        40.486
G29         9.000    22718799.134 6 119388642.42506      2302.741 6        40.837                                    22718800.600 4  93029653.12104      1794.334 4        28.047    22718801.663 6  93029694.14806      1794.244 6        36.397
E11        10.000    26554857.822 5 139546710.56105      2111.894 5        32.940                                                                    26554859.931 5 104206979.48105      1576.971 5        34.567    26554858.793 5 106925419.95205      1618.127 5        34.943
E10        11.000    25780081.893 6 135475251.66106      1182.012 6        40.093                                                                    25780086.826 6 101166638.44006       882.667 6        41.025    25780085.750 6 103805754.60606       905.676 6        40.889
G24        12.000    23127621.682 6 121536472.57606     -4437.126 6        36.397                                    23127637.597 3  94703759.18303     -3457.495 3        20.714    23127633.948 4                     -3457.572 4        28.483
E12        13.000    25906440.637 5 136139274.15905       -21.207 5        30.551                                                                    25906443.116 5 101662470.46705       -15.835 5        33.359    25906445.019 6 104314544.17706       -16.157 6        37.754
E33        14.000    27658846.880 3                     -2718.366 3        23.048                                                                    27658836.030 4                     -2030.728 4        27.114
G12        15.000    20631496.528 8 108419164.50708     -2138.805 8        50.431                                    20631495.429 8  84482498.71108     -1666.602 8        48.213    20631495.693 7  84482519.71307     -1666.598 7        45.434
E24        16.000    24864104.174 6 130661789.79106     -2429.467 6        41.173                                                                    24864106.041 7  97572117.81007     -1814.091 7        43.528    24864106.135 7 100117503.47607     -1861.400 7        46.341
G32        17.000    23054926.460 6 121154887.45706     -1717.361 6        39.943                                    23054958.334 3  94406078.54703     -1338.217 3        23.752    23054930.894 6  94406087.66506     -1338.448 6        40.896
E05        18.000    25943043.735 6 136331671.76506     -3981.867 6        38.096                                                                    25943056.413 6 101806138.39506     -2973.442 6        36.045    25943054.811 6 104461962.95106     -3051.126 6        41.325
E08        20.000    26684735.920 6 140229257.19106        60.786 6        40.336                                                                    26684741.029 5 104716772.05905        45.255 5        33.683    26684741.195 6 107448521.76106        46.500 6        40.451
E02        21.000    26880345.891 6 141257247.07906      1459.149 6        38.450                                                                    26880359.890 6 105484337.10006      1089.591 6        36.888    26880342.477 5 108236083.01305      1118.042 5        33.958
S23        22.000    38257114.073 5 201042582.31905      -865.218 5        34.967
R14        23.000    20695184.150 6 110316977.09406     -3129.416 6        37.758                                                                    20695190.163 6  85802116.98106     -2434.161 6        39.898
R06        24.000    22749249.616 5 121394376.10905     -1216.863 5        35.414
E03        26.000    25567196.812 5 134356566.09405     -2534.878 5        35.690                                                                    25567202.874 6 100331255.52506     -1893.166 6        41.988    25567202.643 7 102948572.76507     -1942.468 7        42.764
S21        27.000    38543422.590 5 202547113.78805      -859.932 5        35.029
R23        28.000    24251691.153 3                     -5107.579 3        23.067
R07        29.000    24277250.269 5 129958001.42305      1775.626 5        34.167
R15        30.000    19588170.823 8 104673513.11708       235.177 8        51.372                                                                    19588173.080 7  81412529.02107       182.861 7        45.409
S36        31.000    38314649.470 6 201344893.98806      -860.116 6        36.030
C10        33.000                                                                                                                                    39855215.331 3                     -1585.917 3        23.200    39855204.653 5 160480427.31805     -1226.062 5        33.617    39855229.056 4                     -1288.641 4        24.256
R16        34.000    22847190.631 6 122046031.87406      2583.490 6        40.598                                                                    22847197.297 4  94924348.55704      2009.059 4        29.223
C44        35.000                                                                                                                                    23996345.231 6 124955439.00806      2310.444 6        40.629                                                                    23996347.038 6 101536454.39006      1877.258 6        36.718
R17        36.000    20562162.030 7 110032508.49507      2278.859 7        43.501                                                                    20562165.771 5  85580819.45005      1772.446 5        33.892
C45        37.000                                                                                                                                    24949790.787 4 129920085.99004     -3651.198 4        26.311                                                                    24949784.896 5 105570691.64805     -2967.238 5        34.652
R24        38.000    20313467.451 7 108625532.83607     -2059.901 7        46.066                                                                    20313472.941 7  84486311.26307     -1602.112 7        44.336
C33        39.000                                                                                                                                                                                                                                                                    26494105.688 4                     -2272.977 4        28.777
C35        42.000                                                                                                                                    22110457.772 7 115134910.71407        91.772 7        42.830                                                                    22110458.237 8  93556626.60508        74.405 8        48.586
R05        44.000    23282998.888 4                     -4582.191 4        27.365                                                                    23283092.120 4                     -3563.857 4        28.417
C29        46.000                                                                                                                                    24254632.283 5 126300120.53405     -3258.788 5        33.838                                                                    24254619.335 4 102629219.32804     -2648.264 4        28.692
C26        48.000                                                                                                                                    21795033.319 8 113492478.50808     -1376.777 8        50.419                                                                    21795034.385 7  92221946.94507     -1118.894 7        46.819
C41        49.000                                                                                                                                                                                                                                                                    26849803.685 5 113610380.30005      -535.667 5        35.552
C24        51.000                                                                                                                                    22892479.019 6 119207218.42606      1318.494 6        38.267                                                                    22892482.085 6  96865596.37006      1071.471 6        40.093
C14        53.000                                                                                                                                                                                                                                                                    26808633.358 5                     -2841.812 5        32.593
I06        58.000    38657465.529 6 151700208.28406      -736.083 6        37.255
> 2025 01 02 13 47  5.0000000  0 40
G06         1.000    23232494.556 6 122087558.03506     -2077.874 6        36.715                                    23232489.063 2  95133133.46802     -1619.122 2        15.571    23232549.828 4                     -1619.144 4        28.825
G25         3.000    20246449.126 6 106395751.21706       406.019 6        40.443                                    20246452.042 5  82905850.83605       316.391 5        30.898    20246450.963 6  82905840.81306       316.432 6        38.721
E25         6.000    23594299.717 6 123988901.33506      -142.696 6        38.535                                                                    23594302.455 6  92589239.80306      -106.498 6        37.569    23594300.533 6  95004506.47706      -109.204 6        37.879
G28         8.000    23657818.713 6 124322785.20406      2370.190 6        41.881                                    23657820.303 3  96874805.13103      1846.882 3        23.181    23657822.376 6  96874863.13406      1846.966 6        40.191
G29         9.000    22716609.521 6 119377132.92906      2300.782 6        41.278                                    22716610.565 4  93020684.71004      1792.816 4        28.256    22716609.725 5  93020725.74605      1792.575 5        35.600
E11        10.000    26552849.684 5 139536154.59405      2110.168 5        32.006                                                                    26552851.081 5 104199096.80605      1575.756 5        33.784    26552850.012 5 106917331.62905      1616.976 5        35.124
E10        11.000    25778958.489 6 135469346.52006      1179.795 6        41.354                                                                    25778963.099 6 101162228.78806       880.877 6        40.989    25778961.739 6 103801229.89606       904.008 6        40.577
G24        12.000    23131845.376 5 121558662.21805     -4438.791 5        35.990                                    23131859.641 3  94721049.80303     -3458.786 3        20.071    23131855.003 4                     -3458.552 4        29.536
E12        13.000    25906461.688 5 136139386.65705       -23.912 5        30.536                                                                    25906464.865 5 101662554.46205       -17.918 5        32.569    25906467.234 6 104314630.36006       -18.369 6        38.069
E33        14.000    27661434.134 3                     -2719.929 3        21.071                                                                    27661422.591 4                     -2031.880 4        27.162
G12        15.000    20633532.820 8 108429863.94008     -2141.183 8        50.288                                    20633531.453 8  84490835.93508     -1668.456 8        48.239    20633531.926 7  84490856.93407     -1668.430 7        45.824
E24        16.000    24866416.158 6 130673939.00806     -2430.621 6        40.038                                                                    24866418.038 7  97581190.28807     -1815.037 7        44.128    24866418.118 7 100126812.62207     -1862.327 7        46.302
G32        17.000    23056562.162 6 121163482.93306     -1721.022 6        40.229                                    23056590.038 4  94412776.36704     -1341.064 4        25.203    23056566.035 6  94412785.43306     -1340.982 6        40.400
E05        18.000    25946832.929 6 136351582.22906     -3982.563 6        37.656                                                                    25946845.475 6 101821006.55806     -2974.107 6        36.174    25946843.691 6 104477218.96706     -3051.475 6        41.375
E08        20.000    26684679.307 6 140228959.78406        57.983 6        40.095                                                                    26684684.491 5 104716549.98405        43.295 5        33.299    26684684.215 6 107448293.88206        44.355 6        40.198
E02        21.000    26878959.149 6 141249952.69106      1458.521 6        38.258                                                                    26878971.210 6 105478889.99506      1089.160 6        36.991    26878953.976 5 108230493.83705      1117.375 5        33.245
S23        22.000    38257936.189 5 201046907.80105      -865.448 5        35.262
R14        23.000    20698119.496 5 110332629.77305     -3131.724 5        35.933                                                                    20698127.710 6  85814291.28506     -2435.892 6        40.336
R06        24.000    22750392.807 6 121400471.86906     -1221.558 6        36.204
E03        26.000    25569609.951 6 134369246.76506     -2537.514 6        36.110                                                                    25569616.154 7 100340724.85207     -1894.848 7        42.030    25569615.454 7 102958289.11407     -1944.232 7        42.832
S21        27.000    38544234.328 5 202551413.55805      -860.186 5        35.129
R23        28.000    24256459.423 4                     -5109.539 4        25.188
R07        29.000    24275589.520 5 129949130.11605      1772.077 5        33.012
R15        30.000    19587951.640 8 104672343.19208       232.547 8        51.132                                                                    19587953.869 7  81411619.08707       180.866 7        45.475
S36        31.000    38315469.963 5 201349194.70805      -860.513 5        35.810
C10        33.000                                                                                                                                    39856736.774 4                     -1586.625 4        24.842    39856729.098 5 160486558.81305     -1226.300 5        33.281    39856749.761 4                     -1289.091 4        25.113
R16        34.000    22844777.272 7 122033115.20007      2582.848 7        42.171                                                                    22844780.840 5  94914302.26205      2009.041 5        31.585
C44        35.000                                                                                                                                    23994127.677 6 124943890.61806      2308.770 6        40.536                                                                    23994128.661 6 101527070.38906      1876.016 6        36.873
R17        36.000    20560034.493 7 110021123.17407      2275.112 7        44.006                                                                    20560039.171 5  85571964.25505      1769.398 5        34.662
C45        37.000                                                                                                                                    24953298.037 4 129938347.23104     -3652.936 4        27.952                                                                    24953291.704 5 105585530.43705     -2968.211 5        35.048
R24        38.000    20315395.848 7 108635843.44007     -2064.705 7        45.111                                                                    20315400.982 7  84494330.63407     -1605.886 7        43.016
C33        39.000                                                                                                                                    26496730.053 4 137975578.93304     -2800.150 4        26.910                                                                    26496795.745 4                     -2274.949 4        27.581
C35        42.000                                                                                                                                    22110370.644 7 115134459.35607        88.562 7        42.174                                                                    22110371.448 8  93556259.84808        71.949 8        48.658
R05        44.000    23287291.959 4                     -4583.834 4        27.868
C29        46.000                                                                                                                                    24257764.317 5 126316419.30705     -3260.774 5        33.048                                                                    24257750.505 4 102642463.40004     -2650.109 4        27.281
C26        48.000                                                                                                                                    21796356.139 8 113499367.64108     -1379.125 8        50.181                                                                    21796357.348 7  92227544.94707     -1120.650 7        46.995
C41        49.000                                                                                                                                    26850429.281 5 139817258.66905      -661.600 5        31.457                                                                    26850438.138 5 113613063.35405      -537.897 5        35.890
C24        51.000                                                                                                                                    22891214.866 6 119200628.67606      1317.074 6        38.655                                                                    22891216.582 6  96860241.70006      1070.180 6        40.288
C14        53.000                                                                                                                                                                                                    26811995.075 5 107960768.94305     -2704.987 5        35.457    26811993.398 5                     -2842.644 5        32.898
I06        58.000    38658403.881 6 151703888.66006      -736.298 6        37.138
> 2025 01 02 13 47 10.0000000  0 39
G06         1.000    23234474.411 6 122097953.60906     -2080.907 6        36.975                                    23234468.878 2  95141233.85002     -1621.490 2        15.571
G11         2.000    22681648.180 4 119192891.63604       353.396 4        27.293                                    22681655.615 1  92877636.64301       275.247 1         2.400    22681650.580 4                       275.588 4        26.192
G25         3.000    20246064.117 6 106393725.23506       403.995 6        41.225                                    20246066.266 5  82904272.13105       314.807 5        32.976    20246066.675 6  82904262.12006       314.668 6        37.924
E25         6.000    23594434.771 6 123989615.05506      -143.384 6        38.931                                                                    23594437.949 6  92589772.76906      -106.971 6        37.085    23594435.479 6  95005053.37306      -110.106 6        38.303
G28         8.000    23655564.626 6 124310935.76906      2369.261 6        40.219                                    23655565.626 3  96865571.83603      1846.166 3        23.200    23655567.590 6  96865629.85006      1846.119 6        40.169
G29         9.000    22714421.837 6 119365631.57206      2299.457 6        41.847                                    22714421.620 4  93011722.64104      1791.783 4        27.497    22714420.741 5  93011763.65405      1791.956 5        34.743
E11        10.000    26550840.910 5 139525603.05305      2109.671 5        30.060                                                                    26550842.929 5 104191217.43105      1575.675 5        33.114    26550842.040 5 106909246.69505      1616.342 5        34.910
E10        11.000    25777836.650 6 135463451.15306      1178.123 6        41.917                                                                    25777841.429 6 101157826.43706       879.729 6        41.030    25777840.253 6 103796712.68906       902.798 6        40.472
G24        12.000    23136068.794 5 121580857.85205     -4439.661 5        35.838                                    23136082.399 3  94738345.12703     -3459.476 3        19.433    23136077.820 5                     -3459.737 5        30.091
E12        13.000    25906485.902 5 136139511.88105       -26.384 5        30.309                                                                    25906488.900 5 101662647.91605       -19.997 5        30.989    25906490.640 6 104314726.27406       -20.022 6        38.102
E33        14.000    27664022.086 3                     -2724.220 3        20.214                                                                    27664012.268 4                     -2033.272 4        27.545
G12        15.000    20635570.795 8 108440573.47508     -2142.893 8        50.077                                    20635569.497 8  84499181.02808     -1669.786 8        48.088    20635569.655 7  84499202.02907     -1669.774 7        46.146
E24        16.000    24868728.694 6 130686092.41006     -2431.116 6        38.495                                                                    24868731.018 7  97590265.88507     -1815.493 7        44.816    24868730.763 7 100136124.97507     -1862.775 7        46.140
G32        17.000    23058200.142 6 121172093.86906     -1723.772 6        41.669                                    23058224.018 4  94419486.24104     -1343.213 4        26.299    23058204.867 6  94419495.27006     -1343.239 6        40.195
E05        18.000    25950621.931 6 136371493.78606     -3982.418 6        37.176                                                                    25950634.839 6 101835875.51506     -2974.006 6        36.862    25950632.764 6 104492475.83306     -3051.428 6        41.244
E08        20.000    26684624.576 6 140228674.39506        55.829 6        39.727                                                                    26684629.985 5 104716336.88405        41.926 5        33.419    26684629.993 6 107448075.23306        42.680 6        40.193
E02        21.000    26877572.787 6 141242660.11306      1458.322 6        37.577                                                                    26877582.932 6 105473444.28206      1089.001 6        36.938    26877566.243 5 108224906.05205      1117.511 5        33.096
S23        22.000    38258759.035 5 201051233.48505      -865.218 5        35.114
R14        23.000    20701059.689 6 110348292.96406     -3133.808 6        37.055                                                                    20701064.979 6  85826473.72206     -2437.354 6        39.889
R06        24.000    22751539.108 6 121406589.58606     -1225.830 6        37.459
E03        26.000    25572026.036 6 134381937.73006     -2539.143 6        37.395                                                                    25572031.256 7 100350201.87107     -1896.154 7        42.176    25572030.303 7 102968013.37007     -1945.577 7        43.149
S21        27.000    38545060.058 5 202555713.75005      -859.842 5        35.210
R07        29.000    24273938.291 5 129940275.00005      1769.385 5        30.370
R15        30.000    19587734.420 8 104671184.74308       230.564 8        51.576                                                                    19587736.822 7  81410718.07607       179.236 7        45.234
S36        31.000    38316288.387 6 201353496.53406      -860.551 6        36.253
C10        33.000                                                                                                                                    39858260.743 4                     -1586.424 4        25.594    39858251.892 5 160492690.49405     -1226.281 5        33.623    39858272.796 4                     -1288.150 4        25.759
R16        34.000    22842361.386 7 122020200.29907      2582.791 7        42.267                                                                    22842360.297 5  94904257.45205      2008.620 5        34.648
C44        35.000                                                                                                                                    23991911.561 6 124932348.30206      2307.939 6        40.403                                                                    23991910.868 6 101517691.26606      1875.506 6        37.138
R17        36.000    20557910.614 7 110009754.57707      2272.105 7        44.318                                                                    20557918.327 5  85563122.05005      1767.059 5        35.109
C45        37.000                                                                                                                                    24956806.272 5 129956613.06405     -3653.799 5        30.725                                                                    24956799.471 5 105600372.87605     -2968.536 5        35.109
R24        38.000    20317326.686 7 108646176.30207     -2068.823 7        44.497                                                                    20317332.852 6  84502367.31506     -1609.120 6        41.809
C33        39.000                                                                                                                                                                                                                                                                    26499483.498 4                     -2276.202 4        26.862
C35        42.000                                                                                                                                    22110285.875 6 115134021.81806        86.010 6        41.254                                                                    22110287.268 8  93555904.28508        70.086 8        48.672
C29        46.000                                                                                                                                    24260891.771 5 126332727.16005     -3262.339 5        30.362                                                                    24260883.071 4 102655714.89504     -2651.624 4        25.594
C26        48.000                                                                                                                                    21797680.722 8 113506266.80008     -1380.847 8        49.681                                                                    21797682.251 7  92233151.06807     -1121.921 7        47.418
C41        49.000                                                                                                                                    26851070.431 5 139820574.51605      -664.739 5        32.102                                                                    26851075.184 6 113615757.75006      -539.953 6        36.363
C24        51.000                                                                                                                                    22889951.174 6 119194044.79006      1316.122 6        39.198                                                                    22889951.899 6  96854891.73206      1069.718 6        39.955
C14        53.000                                                                                                                                                                                                    26815355.316 5 107974295.27205     -2705.907 5        35.262    26815353.080 5                     -2843.097 5        32.635
I06        58.000    38659341.301 6 151707569.13906      -736.133 6        37.062
> 2025 01 02 13 47 15.0000000  0 40
G06         1.000    23236455.303 6 122108365.44506     -2083.742 6        38.441                                    23236451.703 2  95149346.92902     -1623.696 2        16.075
G11         2.000    22681314.069 4 119191129.53104       350.918 4        27.964                                    22681320.105 1  92876263.58001       273.512 1         5.857    22681318.808 5                       273.518 5        30.294
G25         3.000    20245680.880 7 106391709.73107       402.305 7        42.828                                    20245682.324 5  82902701.60405       313.488 5        34.943    20245683.410 6  82902691.57406       313.576 6        37.705
E25         6.000    23594572.914 6 123990334.07006      -144.000 6        38.513                                                                    23594574.707 6  92590309.70606      -107.647 6        36.786    23594571.568 6  95005604.31906      -110.330 6        38.760
G28         8.000    23653310.892 6 124299092.64406      2368.218 6        38.102                                    23653312.125 3  96856343.46003      1845.365 3        23.200    23653313.810 6  96856401.47306      1845.331 6        40.272
G29         9.000    22712235.071 6 119354138.26106      2298.052 6        41.692                                    22712233.866 4  93002766.83104      1790.684 4        25.744    22712233.530 5  93002807.88005      1790.610 5        33.647
E11        10.000    26548832.758 4 139515055.84704      2109.188 4        27.964                                                                    26548835.578 5 104183341.34105      1575.088 5        33.281    26548834.757 5 106901165.11005      1616.172 5        34.867
E10        11.000    25776716.528 7 135457565.49107      1176.396 7        42.129                                                                    25776721.565 6 101153431.33106       878.444 6        41.025    25776720.695 6 103792202.91806       901.381 6        39.856
G24        12.000    23140293.862 6 121603059.52906     -4440.930 6        36.318                                    23140306.500 3  94755645.13603     -3460.445 3        18.896    23140301.988 5                     -3460.673 5        30.287
E12        13.000    25906511.328 4 136139649.59004       -28.746 4        29.848                                                                    25906515.016 5 101662750.74705       -21.041 5        30.347    25906516.657 6 104314831.79606       -21.838 6        37.698
E33        14.000    27666612.649 3                     -2724.768 3        20.857                                                                    27666603.189 4                     -2034.559 4        28.341
G12        15.000    20637610.921 8 108451293.02608     -2144.685 8        50.524                                    20637609.541 8  84507533.92908     -1671.183 8        48.317    20637609.765 7  84507554.93007     -1671.254 7        45.892
E24        16.000    24871041.606 6 130698249.91706     -2431.738 6        36.881                                                                    24871044.670 7  97599344.55007     -1815.925 7        45.454    24871044.151 7 100145440.47107     -1863.242 7        45.714
G32        17.000    23059842.383 6 121180720.25806     -1726.649 6        41.909                                    23059860.936 4  94426208.12904     -1345.444 4        27.413    23059846.898 6  94426217.14106     -1345.503 6        40.200
E05        18.000    25954411.613 6 136391406.35006     -3982.485 6        36.994                                                                    25954424.381 6 101850745.24706     -2973.907 6        37.618    25954421.845 6 104507733.46706     -3051.434 6        40.982
E08        20.000    26684572.814 6 140228400.98406        53.736 6        38.877                                                                    26684578.208 5 104716132.72805        40.118 5        33.623    26684578.022 6 107447865.75206        41.102 6        40.143
E02        21.000    26876183.348 5 141235369.27305      1458.172 5        35.943                                                                    26876195.222 6 105467999.85306      1089.111 6        37.006    26876178.952 5 108219319.60205      1117.537 5        32.940
S23        22.000    38259585.230 5 201055559.39605      -864.898 5        35.324
R14        23.000    20704002.159 6 110363966.31306     -3135.429 6        40.088                                                                    20704005.696 6  85838664.12406     -2438.661 6        39.306
R06        24.000    22752689.037 6 121412729.26006     -1230.066 6        36.284
E03        26.000    25574444.410 6 134394638.93306     -2540.857 6        38.129                                                                    25574448.492 7 100359686.54307     -1897.536 7        42.436    25574447.229 7 102977745.46107     -1946.981 7        43.236
S21        27.000    38545872.932 5 202560014.13505      -859.838 5        35.257
R23        28.000    24265997.756 4                     -5111.135 4        27.892
R07        29.000    24272287.412 5 129931435.75005      1766.767 5        30.030
R15        30.000    19587519.789 8 104670037.78008       228.487 8        51.233                                                                    19587522.097 7  81409826.00107       177.705 7        44.924
S36        31.000    38317109.041 6 201357798.22806      -860.285 6        36.514
C10        33.000                                                                                                                                    39859782.472 4                     -1585.937 4        25.699    39859774.835 5 160498822.28505     -1226.212 5        34.048    39859797.033 4                     -1288.541 4        26.443
R16        34.000    22839938.479 6 122007286.86106      2582.777 6        40.119                                                                    22839942.985 6  94894213.79706      2008.775 6        37.921
C44        35.000                                                                                                                                    23989696.269 6 124920811.99306      2306.834 6        39.736                                                                    23989694.670 6 101508317.07506      1874.354 6        37.172
R17        36.000    20555789.618 7 109998402.67007      2268.959 7        44.206                                                                    20555798.732 5  85554292.78905      1764.666 5        33.850
C45        37.000                                                                                                                                    24960314.015 5 129974883.31105     -3654.332 5        32.940                                                                    24960308.014 5 105615218.93505     -2969.396 5        35.281
R24        38.000    20319262.905 7 108656531.20707     -2073.056 7        45.676                                                                    20319268.614 6  84510421.11706     -1612.295 6        39.523
C33        39.000                                                                                                                                                                                                                                                                    26502173.957 4                     -2278.173 4        27.545
C35        42.000                                                                                                                                    22110203.401 6 115133598.01806        83.519 6        39.589                                                                    22110205.851 8  93555559.92808        67.725 8        48.505
C29        46.000                                                                                                                                                                                                                                                                    24264018.423 4 102668973.62704     -2651.488 4        24.707
C26        48.000                                                                                                                                    21799007.279 8 113513175.93008     -1382.603 8        49.001                                                                    21799008.996 7  92238765.33307     -1123.759 7        47.719
C41        49.000                                                                                                                                    26851709.737 5 139823903.92505      -667.129 5        32.365                                                                    26851714.714 6 113618463.26406      -542.226 6        36.098
C24        51.000                                                                                                                                    22888689.115 6 119187466.67106      1315.500 6        40.329                                                                    22888688.405 6  96849546.51706      1068.665 6        39.655
C14        53.000                                                                                                                                                                                                    26818715.105 5 107987824.71405     -2706.199 5        34.910    26818713.048 5                     -2843.756 5        31.902
I06        58.000    38660279.148 6 151711249.63906      -735.872 6        37.301
> 2025 01 02 13 47 20.0000000  0 41
G06         1.000    23238439.412 6 122118792.73906     -2087.099 6        39.216                                    23238437.072 2  95157472.08502     -1626.307 2        16.151
G11         2.000    22680986.215 5 119189381.92805       348.081 5        33.754                                    22680987.362 1  92874901.77901       271.257 1         6.875    22680988.789 5                       271.332 5        32.174
G25         3.000    20245299.898 7 106389703.88907       400.241 7        44.778                                    20245300.129 6  82901138.60906       311.876 6        36.306    20245301.389 6  82901128.60706       311.854 6        37.690
E25         6.000    23594710.004 6 123991057.53906      -145.162 6        39.135                                                                    23594712.314 6  92590849.93906      -108.056 6        36.556    23594708.974 6  95006158.67106      -111.054 6        39.402
G28         8.000    23651056.063 5 124287254.97305      2366.868 5        35.390                                    23651059.840 3  96847119.34203      1844.300 3        23.143    23651061.201 6  96847177.34806      1844.298 6        41.073
G29         9.000    22710049.634 6 119342652.10806      2296.574 6        40.184                                    22710047.059 3  92993816.61003      1789.534 3        22.895    22710046.745 5  92993857.64905      1789.527 5        31.449
E11        10.000    26546824.038 4 139504512.21504      2109.267 4        25.248                                                                    26546829.524 5 104175467.90105      1574.171 5        32.838    26546828.770 5 106893086.26605      1615.594 5        34.619
E10        11.000    25775598.408 7 135451688.66207      1174.458 7        42.500                                                                    25775603.278 6 101149042.82606       877.012 6        40.939    25775602.873 6 103787699.91106       899.920 6        39.676
G24        12.000    23144520.037 6 121625266.28606     -4441.878 6        36.620                                    23144530.846 3  94772949.08403     -3461.206 3        18.746    23144525.918 5                     -3461.293 5        30.506
E12        13.000    25906540.465 4 136139799.05304       -30.693 4        29.697                                                                    25906543.018 4 101662862.32904       -22.427 4        29.270    25906545.147 6 104314946.26906       -23.638 6        37.138
E33        14.000                                                                                                                                    27669196.202 4                     -2036.106 4        29.100
G12        15.000    20639652.837 8 108462021.74408     -2146.670 8        50.605                                    20639651.315 8  84515893.97008     -1672.730 8        48.461    20639651.390 7  84515914.96207     -1672.752 7        45.744
E24        16.000    24873355.147 6 130710410.67306     -2432.427 6        36.136                                                                    24873358.922 7  97608425.63407     -1816.415 7        46.132    24873358.254 7 100154758.45507     -1863.817 7        45.463
G32        17.000    23061485.209 6 121189361.19306     -1729.750 6        40.422                                    23061501.333 4  94432941.32104     -1347.854 4        27.629    23061491.419 6  94432950.31406     -1347.644 6        40.522
E05        18.000    25958200.722 6 136411319.02706     -3982.494 6        36.132                                                                    25958213.668 6 101865615.04206     -2973.906 6        38.297    25958211.132 6 104522991.20506     -3051.448 6        40.658
E08        20.000    26684523.537 6 140228138.69606        51.430 6        38.480                                                                    26684528.601 5 104715936.86105        38.673 5        33.737    26684528.282 6 107447664.79506        39.293 6        40.150
E02        21.000    26874788.841 5 141228079.34305      1458.192 5        33.713                                                                    26874807.901 6 105462556.12506      1088.683 6        36.692    26874791.982 5 108213733.85705      1117.023 5        32.593
S23        22.000    38260406.591 5 201059884.80605      -865.197 5        35.086
R14        23.000    20706945.091 7 110379649.22607     -3137.532 7        42.396                                                                    20706949.186 6  85850861.91206     -2440.364 6        39.492
R06        24.000    22753843.575 6 121418889.83806     -1234.195 6        36.318
E03        26.000    25576863.810 6 134407349.51806     -2543.089 6        39.000                                                                    25576867.229 7 100369178.18107     -1898.964 7        42.571    25576865.939 7 102987484.72607     -1948.603 7        43.492
S21        27.000    38546692.540 5 202564313.92405      -860.154 5        35.038
R23        28.000    24270779.056 4                     -5112.277 4        28.512
R07        29.000    24270642.540 4 129922611.43804      1764.058 4        29.867
R15        30.000    19587306.611 8 104668901.38608       226.211 8        50.508                                                                    19587308.803 7  81408942.13407       175.962 7        44.510
S36        31.000    38317924.598 6 201362099.58206      -860.255 6        36.461
C10        33.000                                                                                                                                    39861300.226 4                     -1585.813 4        26.695    39861297.706 5 160504953.50405     -1226.101 5        34.281    39861320.488 4                     -1288.469 4        26.862
R16        34.000    22837515.980 6 121994373.95506      2582.500 6        40.195                                                                    22837525.518 6  94884170.52806      2008.508 6        40.343
C44        35.000                                                                                                                                    23987482.477 6 124909280.84306      2305.750 6        38.360                                                                    23987479.763 6 101498947.02806      1873.514 6        37.074
R17        36.000    20553671.580 7 109987066.47707      2265.616 7        44.634                                                                    20553675.618 5  85545475.69205      1762.067 5        30.906
C45        37.000                                                                                                                                    24963824.778 5 129993157.10105     -3655.064 5        35.024                                                                    24963817.332 5 105630067.87305     -2970.021 5        35.648
R24        38.000    20321204.292 7 108666907.42407     -2077.329 7        46.433                                                                    20321209.360 6  84518491.49106     -1615.461 6        36.507
C33        39.000                                                                                                                                    26504830.448 5                     -2804.721 5        31.426                                                                    26504864.828 4                     -2279.042 4        28.152
C35        42.000                                                                                                                                    22110124.099 6 115133187.10106        80.876 6        38.556                                                                    22110126.956 8  93555225.99808        65.684 8        48.264
R05        44.000    23300169.749 4                     -4588.415 4        26.970
C29        46.000                                                                                                                                    24267175.959 3                     -3266.683 3        22.476                                                                    24267154.975 3                     -2651.881 3        23.543
C26        48.000                                                                                                                                    21800335.934 8 113520094.17608     -1384.556 8        48.245                                                                    21800337.537 8  92244386.94108     -1125.099 8        48.105
C41        49.000                                                                                                                                    26852352.731 5 139827246.26805      -669.919 5        33.114                                                                    26852356.764 6 113621179.19806      -544.331 6        36.250
C24        51.000                                                                                                                                    22887428.408 6 119180893.50106      1314.075 6        41.852                                                                    22887425.566 6  96844205.28206      1067.722 6        39.039
C14        53.000                                                                                                                                                                                                    26822070.652 5 108001356.67905     -2706.841 5        34.609    26822073.504 5                     -2844.405 5        30.174
I06        58.000    38661217.092 6 151714929.55306      -735.938 6        37.357
> 2025 01 02 13 47 25.0000000  0 41
G06         1.000    23240427.173 6 122129236.32306     -2090.211 6        38.610                                    23240425.871 2  95165609.91802     -1628.734 2        15.762    23240424.851 4                     -1628.748 4        27.090
G11         2.000    22680656.946 6 119187649.74906       345.039 6        37.369                                    22680657.647 1  92873552.05301       268.845 1         7.625    22680664.395 5                       268.588 5        33.096
G25         3.000    20244920.988 7 106387708.57307       398.163 7        44.516                                    20244919.983 6  82899583.82006       310.256 6        36.983    20244921.622 6  82899573.81406       310.308 6        37.611
E25         6.000    23594847.961 6 123991786.32006      -146.060 6        39.282                                                                    23594850.990 6  92591394.17406      -109.240 6        36.533    23594847.716 6  95006717.11206      -112.099 6        39.859
G28         8.000    23648803.957 5 124275423.61705      2365.828 5        34.333                                    23648808.745 3  96837900.13803      1843.490 3        23.105    23648809.896 6  96837958.13806      1843.495 6        41.619
G29         9.000    22707866.322 6 119331174.05106      2295.047 6        38.186                                    22707861.929 3  92984872.68203      1788.323 3        20.143    22707862.656 4  92984913.66704      1788.411 4        29.071
E11        10.000    26544814.487 3 139493973.12903      2107.375 3        23.295                                                                    26544823.411 5 104167597.73105      1573.844 5        32.551    26544823.107 5 106885010.78305      1614.912 5        34.443
E10        11.000    25774481.902 6 135445821.55706      1172.499 6        41.917                                                                    25774486.900 6 101144661.57806       875.622 6        40.906    25774486.823 6 103783204.35006       898.479 6        39.234
G24        12.000    23148746.988 6 121647478.99506     -4442.943 6        37.966                                    23148756.154 3  94790257.64703     -3462.014 3        18.149    23148753.059 5                     -3462.268 5        30.936
E12        13.000    25906572.260 5 136139961.10005       -33.522 5        31.215                                                                    25906573.484 4 101662983.34404       -24.781 4        26.970    25906576.148 6 104315070.41406       -25.692 6        36.348
E33        14.000                                                                                                                                    27671790.173 4                     -2037.715 4        29.858
G12        15.000    20641696.101 8 108472760.46008     -2148.567 8        50.488                                    20641694.981 8  84524261.80408     -1674.211 8        48.515    20641694.951 7  84524282.80507     -1674.224 7        45.750
E24        16.000    24875668.799 5 130722575.54205     -2433.397 5        35.676                                                                    24875673.799 7  97617509.77907     -1817.068 7        46.459    24875672.999 7 100164079.57407     -1864.395 7        44.843
G32        17.000    23063130.913 6 121198017.51506     -1732.670 6        37.531                                    23063145.178 4  94439686.51004     -1350.115 4        27.186    23063139.030 6  94439695.47906     -1350.092 6        39.718
E05        18.000    25961989.763 5 136431232.69405     -3982.639 5        35.338                                                                    25962003.293 6 101880485.61106     -2974.114 6        38.619    25962000.542 6 104538249.68906     -3051.619 6        40.167
E08        20.000    26684476.165 6 140227888.41206        48.852 6        37.478                                                                    26684481.073 5 104715749.99905        36.613 5        34.371    26684480.769 6 107447473.01006        37.588 6        40.305
E02        21.000    26873391.372 5 141220791.27405      1457.587 5        32.240                                                                    26873420.843 6 105457113.68906      1088.521 6        36.144    26873406.032 5 108208149.46105      1116.832 5        32.671
S23        22.000    38261235.505 5 201064210.31705      -864.777 5        35.181
R14        23.000    20709889.730 7 110395342.32907     -3139.518 7        43.672                                                                    20709892.592 6  85863067.64806     -2441.656 6        38.907
R06        24.000    22755001.802 6 121425072.34306     -1238.472 6        37.270
E03        26.000    25579283.719 6 134420070.30106     -2545.048 6        39.610                                                                    25579287.940 7 100378677.45307     -1900.520 7        42.895    25579286.567 7 102997231.79907     -1950.083 7        43.714
S21        27.000    38547513.548 5 202568614.11005      -859.990 5        34.919
R23        28.000    24275558.993 4                     -5113.458 4        28.190
R07        29.000    24269002.387 5 129913802.89305      1760.038 5        32.108
R15        30.000    19587096.124 8 104667776.46008       223.982 8        49.645                                                                    19587098.313 7  81408067.21007       174.179 7        44.761
S36        31.000    38318744.922 6 201366401.09306      -859.962 6        36.291
C10        33.000                                                                                                                                    39862824.217 4                     -1585.969 4        27.725    39862820.053 5 160511084.85405     -1226.186 5        34.086    39862841.779 4                     -1288.666 4        26.431
R16        34.000    22835099.430 6 121981462.66806      2582.345 6        37.520                                                                    22835109.692 6  94874128.50506      2008.469 6        40.884
C44        35.000                                                                                                                                    23985268.652 6 124897755.70306      2304.360 6        36.083                                                                    23985266.167 6 101489581.91706      1872.740 6        37.285
R17        36.000    20551556.745 7 109975746.97307      2262.284 7        45.391                                                                    20551555.624 5  85536671.67805      1759.760 5        31.917
C45        37.000                                                                                                                                    24967339.741 5 130011435.36005     -3655.900 5        35.852                                                                    24967327.678 5 105644920.47105     -2970.975 5        35.371
R24        38.000    20323149.560 7 108677305.69907     -2081.731 7        46.803                                                                    20323152.959 5  84526579.00705     -1619.379 5        34.776
C33        39.000                                                                                                                                    26507522.329 5                     -2806.837 5        32.042                                                                    26507556.924 4                     -2280.226 4        26.766
C35        42.000                                                                                                                                    22110046.567 6 115132789.96106        78.262 6        38.069                                                                    22110050.801 7  93554903.30207        63.442 7        47.916
R05        44.000    23304464.599 4                     -4589.920 4        29.014                                                                    23304423.060 4                     -3570.270 4        28.872
C29        46.000                                                                                                                                                                                                                                                                    24270295.561 3                     -2656.097 3        23.543
C26        48.000                                                                                                                                    21801665.822 7 113527022.38407     -1386.491 7        47.451                                                                    21801668.146 8  92250016.70508     -1126.730 8        48.257
C41        49.000                                                                                                                                    26852998.998 5 139830602.29605      -672.331 5        30.634                                                                    26853001.242 5 113623906.24705      -546.494 5        35.938
C24        51.000                                                                                                                                    22886167.270 7 119174326.12007      1313.036 7        42.339                                                                    22886163.764 6  96838868.80006      1066.882 6        38.354
C14        53.000                                                                                                                                                                                                    26825428.786 5 108014891.73705     -2706.929 5        34.371    26825436.092 4                     -2844.146 4        28.019
I06        58.000    38662155.116 6 151718609.48406      -736.014 6        37.425
> 2025 01 02 13 47 30.0000000  0 41
G06         1.000    23242415.500 6 122139695.80906     -2093.156 6        38.553                                    23242417.585 2  95173760.15002     -1631.022 2        16.377    23242422.178 4                     -1631.480 4        28.190
G11         2.000    22680330.446 6 119185932.61006       342.346 6        40.055                                    22680330.713 1  92872214.02901       266.772 1         8.762    22680337.801 5                       266.461 5        32.383
G25         3.000    20244542.169 7 106385723.33307       396.451 7        43.090                                    20244541.894 6  82898036.88906       308.918 6        37.497    20244543.501 6  82898026.89906       308.939 6        37.819
E25         6.000    23594988.307 6 123992519.93406      -146.790 6        40.234                                                                    23594990.748 6  92591941.99306      -109.441 6        36.518    23594987.902 6  95007279.25106      -112.398 6        40.496
G28         8.000    23646554.731 5 124263598.15805      2365.081 5        34.410                                    23646558.696 3  96828685.52803      1842.916 3        23.276    23646559.237 6  96828743.53206      1842.730 6        41.945
G29         9.000    22705682.873 5 119319703.65705      2293.515 5        34.505                                    22705678.369 2  92975934.69002      1787.194 2        17.811    22705676.593 4  92975975.76104      1786.932 4        24.962
E11        10.000    26542811.499 3                      2107.622 3        21.310                                                                    26542818.918 5 104159730.56705      1573.468 5        32.790    26542818.451 5 106876938.35505      1614.609 5        34.424
E10        11.000    25773367.264 6 135439963.74506      1171.004 6        41.085                                                                    25773372.229 6 101140287.27506       874.398 6        40.625    25773373.179 6 103778715.91106       897.197 6        38.778
G24        12.000    23152974.295 6 121669697.22506     -4443.823 6        38.988                                    23152981.712 3  94807570.53103     -3462.718 3        18.687    23152983.080 5                     -3462.842 5        30.898
E12        13.000    25906607.576 5 136140135.25405       -35.452 5        32.036                                                                    25906606.351 4 101663113.40004       -25.771 4        24.436    25906609.310 5 104315203.87405       -27.463 5        35.310
E33        14.000    27674353.873 3                     -2730.270 3        22.400                                                                    27674386.509 4                     -2038.732 4        29.630
G12        15.000    20643741.081 8 108483508.71508     -2150.226 8        50.458                                    20643740.382 8  84532637.06808     -1675.502 8        48.551    20643740.297 7  84532658.06407     -1675.495 7        45.558
E24        16.000    24877984.183 6 130734744.10406     -2433.634 6        36.068                                                                    24877989.435 7  97626596.69207     -1817.431 7        46.701    24877988.587 7 100173403.52507     -1864.699 7        44.241
G32        17.000    23064781.340 6 121206688.79606     -1735.421 6        38.679                                    23064792.184 4  94446443.33604     -1352.274 4        26.407    23064787.268 6  94446452.29806     -1352.152 6        37.474
E05        18.000    25965779.290 5 136451146.92305     -3982.405 5        34.148                                                                    25965792.910 6 101895356.56606     -2974.026 6        38.865    25965789.900 6 104553508.59006     -3051.457 6        39.940
E08        20.000    26684430.206 6 140227649.68406        46.919 6        36.132                                                                    26684436.057 5 104715571.73505        34.931 5        34.867    26684435.497 6 107447290.08306        36.170 6        40.148
E02        21.000    26872006.082 5 141213504.40205      1457.721 5        30.483                                                                    26872033.802 5 105451672.27305      1088.429 5        35.190    26872020.118 5 108202566.06305      1116.982 5        33.365
S23        22.000    38262053.771 5 201068535.63205      -864.765 5        35.243
R14        23.000    20712835.070 7 110411045.21207     -3141.329 7        44.504                                                                    20712837.623 6  85875280.98806     -2443.103 6        38.426
R06        24.000    22756165.714 6 121431276.28206     -1242.432 6        37.176
E03        26.000    25581706.490 6 134432800.84606     -2546.759 6        40.286                                                                    25581710.676 7 100388184.01707     -1901.702 7        43.251    25581708.858 7 103006986.36007     -1951.326 7        43.670
S21        27.000    38548323.667 5 202572914.10305      -859.602 5        35.095
R23        28.000    24280335.660 4                     -5114.719 4        26.850
R07        29.000    24267364.590 5 129905009.73705      1757.545 5        32.467
R15        30.000    19586887.487 8 104666662.59108       222.049 8        49.813                                                                    19586890.156 7  81407200.88007       172.666 7        45.067
S36        31.000    38319560.796 6 201370701.94606      -859.757 6        36.571
C10        33.000                                                                                                                                    39864348.106 4                     -1586.041 4        28.512    39864342.152 5 160517216.01605     -1225.949 5        34.071    39864364.997 4                     -1288.203 4        27.114
R16        34.000    22832684.212 6 121968552.34906      2582.523 6        38.625                                                                    22832691.230 6  94864087.20806      2008.546 6        40.207
C44        35.000                                                                                                                                    23983055.909 5 124886236.15805      2303.658 5        32.102                                                                    23983053.710 6 101480221.36006      1871.883 6        37.875
R17        36.000    20549443.728 7 109964443.66107      2259.396 7        45.783                                                                    20549443.266 5  85527880.25705      1757.531 5        32.455
C45        37.000                                                                                                                                    24970853.978 5 130029717.63205     -3656.413 5        35.667                                                                    24970838.531 5 105659776.26705     -2971.121 5        35.371
R24        38.000    20325097.782 7 108687725.62807     -2085.752 7        46.422                                                                    20325101.939 5  84534683.39605     -1622.372 5        35.952
C33        39.000                                                                                                                                    26510214.599 5                     -2808.443 5        31.743                                                                    26510248.903 3                     -2281.532 3        23.238
C35        42.000                                                                                                                                    22109970.766 6 115132406.12406        75.759 6        39.646                                                                    22109977.224 7  93554591.40607        61.592 7        47.898
R05        44.000    23308752.134 4                     -4591.386 4        28.190
C29        46.000                                                                                                                                    24273411.806 4                     -3269.476 4        27.677                                                                    24273435.262 4                     -2654.727 4        24.496
C26        48.000                                                                                                                                    21802997.831 7 113533960.11807     -1388.141 7        47.331                                                                    21803000.600 8  92255654.19308     -1128.000 8        48.707
C41        49.000                                                                                                                                    26853645.985 4 139833971.69904      -674.306 4        28.777                                                                    26853648.203 5 113626644.18205      -548.301 5        35.986
C24        51.000                                                                                                                                    22884906.704 7 119167764.11607      1312.339 7        42.063                                                                    22884903.217 6  96833536.66306      1066.322 6        37.388
C14        53.000                                                                                                                                    26828812.483 5                     -3501.882 5        30.815    26828793.491 5 108028429.63605     -2707.794 5        34.352    26828800.957 4                     -2845.667 4        25.203
I06        58.000    38663092.274 6 151722289.11606      -735.492 6        37.187
