     3.04           OBSERVATION DATA    M                   RINEX VERSION / TYPE
ssrcrin-15.6.1x                         20250102 201500 UTC PGM / RUN BY / DATE 
(00000000023479385599111004) Septentrio proprietary         COMMENT             
ract                                                        MARKER NAME         
01                                                          MARKER NUMBER       
geodetic                                                    MARKER TYPE         
NFB                 CLIMERS@TUW                             OBSERVER / AGENCY   
3296359             SEPT ASTERX SB3 PROB4.14.4              REC # / TYPE / VERS 
Unknown             Unknown                                 ANT # / TYPE        
  4127446.5825  1206915.9359  4695542.4558                  APPROX POSITION XYZ 
        0.0000        0.0000        0.0000                  ANTENNA: DELTA H/E/N
G   23 X1  C1C L1C D1C S1C C1W S1W C2W L2W D2W S2W C2L L2L  SYS / # / OBS TYPES 
       D2L S2L C5Q L5Q D5Q S5Q C1L L1L D1L S1L              SYS / # / OBS TYPES 
E   21 X1  C1C L1C D1C S1C C6C L6C D6C S6C C5Q L5Q D5Q S5Q  SYS / # / OBS TYPES 
       C7Q L7Q D7Q S7Q C8Q L8Q D8Q S8Q                      SYS / # / OBS TYPES 
S    9 X1  C1C L1C D1C S1C C5I L5I D5I S5I                  SYS / # / OBS TYPES 
R   17 X1  C1C L1C D1C S1C C2P L2P D2P S2P C2C L2C D2C S2C  SYS / # / OBS TYPES 
       C3Q L3Q D3Q S3Q                                      SYS / # / OBS TYPES 
C   25 X1  C1P L1P D1P S1P C5P L5P D5P S5P C2I L2I D2I S2I  SYS / # / OBS TYPES 
       C7I L7I D7I S7I C6I L6I D6I S6I C7D L7D D7D S7D      SYS / # / OBS TYPES 
J   17 X1  C1C L1C D1C S1C C2L L2L D2L S2L C5Q L5Q D5Q S5Q  SYS / # / OBS TYPES 
       C1L L1L D1L S1L                                      SYS / # / OBS TYPES 
I    5 X1  C5A L5A D5A S5A                                  SYS / # / OBS TYPES 
SEPTENTRIO RECEIVERS OUTPUT ALIGNED CARRIER PHASES.         COMMENT             
NO FURTHER PHASE SHIFT APPLIED IN THE RINEX ENCODER.        COMMENT             
G L1C                                                       SYS / PHASE SHIFT   
G L2W                                                       SYS / PHASE SHIFT   
G L2L  0.00000                                              SYS / PHASE SHIFT   
G L5Q  0.00000                                              SYS / PHASE SHIFT   
G L1L  0.00000                                              SYS / PHASE SHIFT   
E L1C  0.00000                                              SYS / PHASE SHIFT   
E L6C  0.00000                                              SYS / PHASE SHIFT   
E L5Q  0.00000                                              SYS / PHASE SHIFT   
E L7Q  0.00000                                              SYS / PHASE SHIFT   
E L8Q  0.00000                                              SYS / PHASE SHIFT   
S L1C                                                       SYS / PHASE SHIFT   
S L5I                                                       SYS / PHASE SHIFT   
R L1C                                                       SYS / PHASE SHIFT   
R L2P  0.00000                                              SYS / PHASE SHIFT   
R L2C                                                       SYS / PHASE SHIFT   
R L3Q  0.00000                                              SYS / PHASE SHIFT   
C L1P  0.00000                                              SYS / PHASE SHIFT   
C L5P  0.00000                                              SYS / PHASE SHIFT   
C L2I                                                       SYS / PHASE SHIFT   
C L7I                                                       SYS / PHASE SHIFT   
C L6I                                                       SYS / PHASE SHIFT   
C L7D                                                       SYS / PHASE SHIFT   
J L1C                                                       SYS / PHASE SHIFT   
J L2L  0.00000                                              SYS / PHASE SHIFT   
J L5Q  0.00000                                              SYS / PHASE SHIFT   
J L1L  0.00000                                              SYS / PHASE SHIFT   
I L5A                                                       SYS / PHASE SHIFT   
  2025     1     2    20    15    0.0000000     GPS         TIME OF FIRST OBS   
 C1C    0.000 C2C    0.000 C2P    0.000                     GLONASS COD/PHS/BIS 
DBHZ                                                        SIGNAL STRENGTH UNIT
    18                                                      LEAP SECONDS        
 24 R01  1 R02 -4 R03  5 R04  6 R05  1 R06 -4 R07  5 R08  6 GLONASS SLOT / FRQ #
    R09 -2 R10 -7 R11  0 R12 -1 R13 -2 R14 -7 R15  0 R16 -1 GLONASS SLOT / FRQ #
    R17  4 R18 -3 R19  3 R20  2 R21  4 R22 -3 R23  3 R24  2 GLONASS SLOT / FRQ #
                                                            END OF HEADER       
> 2025 01 02 20 15  0.0000000  0 45
G10         1.000    21020003.172 8 110461020.81308       475.730 8        53.060                                    21019999.276 8  86073438.80108       370.698 8        50.257    21020000.580 7  86073389.79607       370.630 7        44.032
G23         2.000    21223790.129 7 111531780.03107     -2350.290 7        43.103                                    21223785.193 5  86907864.29505     -1831.395 5        31.321    21223785.744 7  86907924.30807     -1831.359 7        42.705
G15         3.000    23962051.797 4                     -2277.720 4        24.511
G21         4.000    23374165.217 5 122832120.30905      1947.683 5        30.694
G08         5.000    21525469.899 6 113117069.24106      1552.385 6        37.062                                    21525463.051 3  88143308.28503      1209.628 3        19.701
G30         7.000    25743436.600 5                      -828.154 5        31.321
G07         8.000    25414742.769 4                     -2032.755 4        28.749                                                                                                    25414725.135 3                     -1584.215 3        22.190
E09        10.000    27205515.322 5                       167.947 5        30.868                                                                    27205496.400 5 106760238.48405       125.312 5        34.700
G18        12.000    23674806.820 5 124411788.37505     -3860.991 5        33.263                                                                                                    23674821.309 5  96944385.86705     -3008.500 5        34.000
G27        13.000    20104148.433 6 105648008.02906      -517.965 6        41.602                                    20104145.534 6  82323077.62006      -403.611 6        40.029    20104146.501 7  82323155.64507      -403.653 7        44.292
E27        14.000    25516997.655 5 134092706.89905       399.016 5        30.558                                                                    25516981.357 7 100134135.09007       298.136 7        45.517    25516978.772 6 102746371.02006       305.923 6        38.871
R03        15.000    23798715.752 3                     -4347.510 3        21.381
E15        16.000    25367516.738 6 133307206.18906      1104.536 6        40.572                                                                    25367517.781 7  99547603.41107       824.679 7        43.429    25367522.522 6 102144462.46506       846.283 6        40.074
G26        17.000    24375257.676 5                     -4497.250 5        30.913                                                                                                    24375274.412 4                     -3503.032 4        26.240
E06        18.000                                                                                                                                    27521162.221 3                      -691.356 3        20.405
E30        19.000    24659899.687 6 129588648.32306     -2434.178 6        39.877                                                                                                                                    24659933.877 5  99295233.60505     -1864.989 5        33.299
R20        20.000    19614828.729 6 104889290.18006     -1061.464 6        36.291                                                                    19614830.083 6  81580574.40906      -825.621 6        41.247
E02        21.000    27018036.883 4 141980765.80704     -4069.594 4        29.839                                                                    27018035.541 5 106024598.71505     -3039.026 5        35.319    27018034.898 4 108790427.87104     -3118.218 4        26.060
S23        22.000    38194295.386 6 200712389.93906      -861.773 6        40.625
R10        23.000    22153098.330 5                     -4585.500 5        32.317
E36        24.000    25825593.194 5 135714484.11605     -3069.970 5        31.155                                                                    25825608.410 5 101345355.43805     -2292.238 5        34.819    25825595.135 6 103989129.39606     -2352.174 6        39.156
G16        26.000    22102830.171 6 116151151.12006     -3849.273 6        39.976                                    22102825.180 2  90507379.47702     -2999.429 2        14.333
S21        27.000    38467588.383 5 202148844.59005      -861.857 5        31.924
R05        28.000    21295521.255 6 113836790.64606      2311.123 6        41.261
R12        30.000    23922590.723 5                      2476.194 5        35.524                                                                    23922592.523 4                      1925.846 4        29.100
S36        31.000    38236951.902 5 200936473.20005      -860.991 5        35.867
E34        32.000    23342445.915 7 122665368.15807     -1058.721 7        43.708                                                                    23342445.332 8  91600785.06608      -790.626 8        48.637    23342444.771 8  93990430.03708      -811.303 8        48.407
R11        33.000    21142179.243 7 112977498.70207     -1163.853 7        43.018                                                                    21142179.754 6  87871460.70706      -905.153 6        37.263
C08        36.000                                                                                                                                    39043951.627 3                     -2055.260 3        21.905    39043957.570 4 157213808.58504     -1587.946 4        29.147
C11        38.000                                                                                                                                    21796509.075 8 113500129.55408     -1624.383 8        48.692    21796505.700 8  87765554.44608     -1256.090 8        53.023    21796504.093 8  92228123.44708     -1319.947 8        50.407
R21        39.000    21681480.046 6 116021909.30206      1856.471 6        37.550                                                                    21681468.597 5  90239357.00305      1443.795 5        30.506
R04        40.000    21055975.888 7 112753972.46307     -1382.186 7        46.128                                                                    21055971.884 6  87697462.34906     -1075.146 6        38.508
C12        41.000                                                                                                                                    25369856.709 4                     -3492.573 4        25.083    25369849.397 5                     -2700.283 5        34.286
C14        42.000                                                                                                                                    25037053.479 5 130374497.75005      2517.261 5        34.538    25037048.479 7 100813832.61207      1946.557 7        43.663    25037046.062 6 105939987.94306      2045.583 6        40.391
C13        43.000                                                                                                                                    38552724.713 6 200754161.14406     -1818.723 6        40.017    38552722.716 5                     -1406.361 5        32.778    38552722.801 5 163129263.55705     -1477.425 5        31.079
C21        46.000                                                                                                                                    23696318.100 7 123392910.06307     -1188.696 7        44.825                                                                    23696311.872 7 100266830.84907      -965.947 7        47.649
C23        47.000                                                                                                                                                                                                                                                                    25172724.730 6 106514055.83406     -2668.781 6        37.077
C43        48.000                                                                                                                                    21589471.473 8 112422051.81908      -405.052 8        50.989                                                                    21589468.609 7  91352106.15407      -329.151 7        46.436
C42        50.000                                                                                                                                    23655645.775 6 123181411.06806      1627.039 6        41.964                                                                    23655651.030 6 100094814.19106      1322.155 6        38.703
C34        52.000                                                                                                                                    22787687.456 7 118661802.99807     -2793.620 7        44.220                                                                    22787684.579 7  96422145.81407     -2269.968 7        42.267
C37        54.000                                                                                                                                    25259043.482 6 131530549.67806      -980.830 6        37.856                                                                    25259040.921 5 106879310.18905      -796.745 5        31.509
C28        55.000                                                                                                                                    25199478.199 6 131220249.65406      1871.515 6        41.692                                                                    25199466.038 5                      1520.710 5        32.431
C22        57.000                                                                                                                                    26343836.796 3                     -3582.207 3        20.095
I06        58.000    38650477.017 5 151672903.91305      -568.667 5        33.263
I09        60.000    38450841.260 5 150889370.98605        44.395 5        35.500
> 2025 01 02 20 15  5.0000000  0 44
G10         1.000    21019551.791 8 110458649.56008       472.861 8        52.710                                    21019548.272 8  86071591.06708       368.461 8        50.407    21019549.233 7  86071542.05807       368.426 7        44.456
G23         2.000    21226027.860 7 111543538.68207     -2353.071 7        42.967                                    21226022.409 5  86917026.87005     -1833.565 5        30.151    21226023.164 7  86917086.89407     -1833.787 7        42.760
G15         3.000    23964213.080 3                     -2279.888 3        22.419
G21         4.000    23372313.827 4 122822383.30904      1947.432 4        28.787
G08         5.000    21523994.317 6 113109312.28806      1550.524 6        37.289                                    21523988.878 3  88137263.92203      1208.204 3        20.452    21524022.062 4                      1208.511 4        29.962
G30         7.000    25744224.478 5                      -830.833 5        31.781
G07         8.000    25416674.979 5                     -2034.452 5        32.186                                                                                                    25416649.757 4                     -1585.021 4        24.195
E09        10.000    27205355.082 5                       166.051 5        30.325                                                                    27205338.185 5 106759614.83005       123.912 5        34.014
G18        12.000    23678480.704 5 124431094.04605     -3861.383 5        34.062                                                                                                    23678500.699 5  96959429.23305     -3008.722 5        32.347
G27        13.000    20104640.956 6 105650604.91506      -520.827 6        40.205                                    20104639.715 6  82325101.16306      -405.842 6        40.095    20104640.196 7  82325179.15907      -405.728 7        43.736
E27        14.000                                                                                                                                    25516602.464 7 100132648.14607       296.560 7        45.719    25516599.383 6 102744845.26006       304.267 6        38.649
R03        15.000                                                                                                                                    23802754.248 3                     -3380.393 3        22.057
E15        16.000    25366466.739 6 133301685.95106      1103.568 6        41.070                                                                    25366467.342 7  99543481.15307       824.043 7        43.170    25366471.588 6 102140232.66206       845.757 6        38.904
G26        17.000    24379538.566 5                     -4496.141 5        30.445                                                                                                    24379552.789 4                     -3504.070 4        26.240
E30        19.000    24662216.780 6 129600824.31006     -2436.257 6        39.414                                                                                                                                    24662251.005 5  99304563.21205     -1866.228 5        30.664
R20        20.000    19615821.468 5 104894602.93105     -1063.538 5        34.333                                                                    19615823.241 6  81584706.54106      -827.199 6        41.278
E02        21.000    27021908.195 5 142001114.15305     -4069.848 5        30.755                                                                    27021907.622 5 106039793.89505     -3039.208 5        35.367    27021907.631 4 108806019.45104     -3118.873 4        25.519
S23        22.000    38195115.956 6 200716698.97806      -861.772 6        40.443
R10        23.000    22157403.925 5                     -4587.348 5        31.026
E36        24.000    25828514.860 5 135729834.06005     -3070.234 5        32.042                                                                    25828528.737 5 101356818.10005     -2292.812 5        35.267    25828515.803 6 104000891.05306     -2352.479 6        38.976
G16        26.000    22106493.022 6 116170402.29806     -3851.296 6        40.636                                    22106488.543 2  90522380.38902     -3000.997 2        15.238
S21        27.000    38468413.804 5 202153154.49705      -861.678 5        31.743
R05        28.000    21293357.919 6 113825242.64606      2307.903 6        36.442
R12        30.000    23920272.190 5                      2473.977 5        32.485                                                                    23920280.560 4                      1924.249 4        29.062
S36        31.000    38237764.208 5 200940778.69405      -861.038 5        35.833
E34        32.000    23343453.485 7 122670664.93107     -1059.897 7        43.179                                                                    23343453.165 8  91604740.44808      -791.568 8        48.701    23343452.847 8  93994488.60208      -812.200 8        48.836
R11        33.000    21143269.564 7 112983329.31907     -1168.423 7        42.059                                                                    21143275.515 6  87875995.64106      -908.804 6        37.357
C08        36.000                                                                                                                                    39045925.275 3                     -2051.543 3        21.738    39045927.975 4 157221749.04404     -1587.968 4        29.185
C11        38.000                                                                                                                                    21798069.187 8 113508254.97808     -1625.763 8        48.788    21798065.891 8  87771837.53408     -1257.168 8        52.936    21798064.430 8  92234726.02508     -1321.156 8        50.232
R21        39.000    21679748.260 6 116012629.58606      1855.656 6        36.601                                                                    21679735.594 5  90232139.46505      1442.895 5        32.647
R04        40.000    21057268.738 7 112760894.71807     -1386.796 7        46.209                                                                    21057265.294 6  87702846.33506     -1078.609 6        39.922
C12        41.000                                                                                                                                    25373204.300 4                     -3492.608 4        25.744    25373202.497 5 102167373.10915     -2700.910 5        34.248
C14        42.000                                                                                                                                    25034635.414 5 130361912.96305      2516.397 5        33.461    25034630.908 7 100804101.22107      1946.036 7        43.369    25034629.155 6 105929761.75406      2044.782 6        40.567
C13        43.000                                                                                                                                    38554471.127 6 200763255.24206     -1818.935 6        39.799    38554469.019 5                     -1406.466 5        33.060    38554469.233 5 163136653.26905     -1478.227 5        31.396
C21        46.000                                                                                                                                    23697460.721 7 123398861.20107     -1191.732 7        45.350                                                                    23697454.506 7 100271666.64407      -968.443 7        47.338
C23        47.000                                                                                                                                                                                                                                                                    25175879.668 6 106527403.43406     -2670.280 6        37.009
C43        48.000                                                                                                                                    21589861.032 8 112424080.99408      -406.622 8        50.557                                                                    21589858.336 7  91353755.02507      -330.532 7        46.716
C42        50.000                                                                                                                                    23654083.469 6 123173280.78306      1625.110 6        40.808                                                                    23654089.576 6 100088207.68106      1320.248 6        39.072
C34        52.000                                                                                                                                    22790370.249 7 118675773.38407     -2794.646 7        44.447                                                                    22790367.345 6  96433497.91006     -2270.990 6        41.912
C37        54.000                                                                                                                                    25259982.363 6 131535460.31206      -983.455 6        37.233                                                                    25259985.579 5 106883300.47105      -799.212 5        31.819
C28        55.000                                                                                                                                    25197682.674 6 131210892.02506      1871.411 6        41.802                                                                    25197670.162 5                      1520.741 5        32.389
C22        57.000                                                                                                                                    26347276.360 3                     -3586.222 3        20.310
I06        58.000    38651201.577 5 151675746.71205      -568.712 5        33.054
I09        60.000    38450785.575 5 150889150.59605        43.984 5        35.319
> 2025 01 02 20 15 10.0000000  0 44
G10         1.000    21019103.393 8 110456292.91008       470.096 8        52.303                                    21019100.086 8  86069754.71708       366.309 8        50.527    21019100.958 7  86069705.70807       366.411 7        44.746
G23         2.000    21228268.045 7 111555311.75407     -2355.663 7        43.196                                    21228262.459 4  86926200.69004     -1835.579 4        29.128    21228263.605 7  86926260.70807     -1835.617 7        42.201
G15         3.000    23966384.974 3                     -2284.534 3        23.505
G21         4.000    23370461.511 4 122812651.99004      1945.560 4        27.186
G08         5.000    21522520.108 6 113101563.95706      1549.082 6        36.681                                    21522516.677 3  88131226.26403      1207.084 3        20.643
G30         7.000    25745016.769 5                      -833.570 5        31.419
G07         8.000    25418611.934 5                     -2036.701 5        33.713                                                                                                    25418591.197 4                     -1587.141 4        25.744
E09        10.000    27205195.570 4                       163.657 4        29.687                                                                    27205182.941 5 106758999.56805       122.425 5        33.317
G18        12.000    23682153.744 5 124450402.53405     -3861.819 5        33.659                                                                                                    23682182.083 5  96974474.81705     -3009.278 5        30.891
G27        13.000    20105137.821 6 105653215.37206      -523.260 6        39.703                                    20105136.450 6  82327135.29706      -407.726 6        40.005    20105137.190 7  82327213.29407      -407.678 7        43.048
E27        14.000    25516244.706 3                       395.532 3        20.857                                                                    25516225.765 7 100131169.40207       295.144 7        45.800    25516222.288 6 102743327.94206       302.761 6        38.312
R03        15.000                                                                                                                                    23806816.574 4                     -3383.141 4        24.060
E15        16.000    25365417.528 6 133296170.26906      1103.037 6        41.743                                                                    25365417.689 7  99539362.31507       823.569 7        42.880    25365420.248 6 102136006.41206       845.183 6        37.233
G26        17.000    24383820.860 4                     -4496.243 4        29.507                                                                                                    24383832.529 4                     -3503.691 4        26.371
E06        18.000                                                                                                                                    27522940.102 3                      -694.024 3        23.943
E30        19.000    24664535.447 6 129613011.03106     -2438.163 6        38.820                                                                                                                                    24664575.670 4  99313901.25504     -1867.974 4        27.952
R20        20.000    19616816.363 5 104899925.66905     -1065.248 5        34.010                                                                    19616819.623 6  81588846.43406      -828.498 6        41.311
E02        21.000    27025781.081 5 142021464.46905     -4070.182 5        31.623                                                                    27025780.159 5 106054990.53005     -3039.251 5        35.500    27025779.680 4 108821612.51104     -3118.148 4        26.874
S23        22.000    38195934.777 6 200721008.08606      -861.479 6        40.653
R10        23.000    22161711.967 4                     -4589.610 4        28.389
E36        24.000    25831436.481 5 135745186.10105     -3070.241 5        33.102                                                                    25831449.431 5 101368282.31305     -2292.589 5        35.533    25831437.240 6 104012654.30606     -2352.452 6        38.763
G16        26.000    22110157.725 6 116189663.65306     -3852.890 6        40.546                                    22110153.677 2  90537389.22702     -3002.236 2        17.283
S21        27.000    38469228.440 5 202157464.58405      -862.019 5        31.751
R05        28.000    21291198.250 5                      2305.326 5        32.174                                                                    21291261.940 4                      1792.869 4        27.234
R12        30.000    23917958.976 5 127765493.13715      2471.630 5        31.751                                                                    23917966.183 4                      1922.471 4        26.311
S36        31.000    38238589.106 6 200945084.45006      -860.908 6        36.000
E34        32.000    23344462.156 7 122675968.01307     -1060.901 7        42.231                                                                    23344462.294 8  91608700.53808      -792.291 8        48.637    23344462.082 8  93998551.99708      -812.932 8        49.210
R11        33.000    21144365.080 6 112989183.10706     -1172.778 6        40.930
C08        36.000                                                                                                                                    39047897.167 3                     -2055.338 3        19.642    39047903.316 4 157229690.36504     -1588.372 4        29.735
C11        38.000                                                                                                                                    21799630.670 8 113516387.60808     -1626.968 8        48.689    21799627.542 8  87778126.19108     -1258.113 8        52.911    21799626.161 8  92241334.44208     -1322.247 8        50.042
R21        39.000    21678013.351 5 116003354.90605      1854.854 5        35.833                                                                    21678000.560 6  90224925.86606      1442.520 6        36.019
R04        40.000    21058565.396 7 112767840.36107     -1391.159 7        47.143                                                                    21058562.610 6  87708248.47606     -1082.043 6        40.169
C12        41.000                                                                                                                                    25376554.685 4                     -3494.475 4        24.165    25376558.184 5 102180878.01105     -2701.097 5        33.563
C14        42.000                                                                                                                                    25032215.794 5 130349331.97305      2516.366 5        32.359    25032214.831 7 100794372.79307      1945.661 7        42.912    25032213.223 6 105919538.66806      2044.226 6        40.594
C13        43.000                                                                                                                                    38556218.035 6 200772350.74506     -1818.939 6        39.381    38556216.802 5                     -1406.882 5        33.868    38556216.552 5 163144044.11005     -1478.235 5        32.461
C21        46.000                                                                                                                                    23698606.463 7 123404827.30107     -1194.483 7        45.657                                                                    23698600.130 7 100276514.58307      -970.799 7        47.197
C23        47.000                                                                                                                                    25179047.927 5                     -3287.260 5        31.947                                                                    25179035.558 6 106540756.94506     -2671.298 6        36.646
C43        48.000                                                                                                                                    21590251.980 8 112426118.00408      -407.846 8        50.196                                                                    21590249.585 7  91355410.25707      -331.638 7        46.977
C42        50.000                                                                                                                                    23652523.525 6 123165160.43306      1623.218 6        38.724                                                                    23652530.362 6 100081609.20306      1318.824 6        39.096
C34        52.000                                                                                                                                    22793053.896 7 118689749.69707     -2795.491 7        44.626                                                                    22793051.409 6  96444854.80606     -2271.879 6        41.511
C37        54.000                                                                                                                                    25260928.668 6 131540384.70506      -985.963 6        36.000                                                                    25260932.447 5 106887301.92905      -801.175 5        32.479
C28        55.000                                                                                                                                    25195887.244 6 131201535.94006      1871.459 6        40.806                                                                    25195875.244 5                      1520.450 5        31.275
I06        58.000    38651925.833 5 151678589.49505      -568.304 5        33.437
I09        60.000    38450728.313 5 150888931.24805        44.055 5        35.324
> 2025 01 02 20 15 15.0000000  0 42
G10         1.000    21018657.922 8 110453950.53908       467.127 8        52.003                                    21018654.636 8  86067929.49408       363.997 8        50.754    21018655.293 7  86067880.48607       363.976 7        44.978
G23         2.000    21230510.702 7 111567098.92607     -2358.742 7        42.525                                    21230505.376 4  86935385.49704     -1837.980 4        28.711    21230506.522 6  86935445.50006     -1838.013 6        41.738
G21         4.000    23368612.184 4 122802925.99204      1944.323 4        27.186
G08         5.000    21521045.134 5 113093823.87705      1547.245 5        34.700                                    21521046.335 3  88125195.05903      1205.641 3        20.810    21521037.553 4                      1205.418 4        27.245
G30         7.000    25745809.887 5                      -836.312 5        30.400
G07         8.000    25420554.264 5                     -2038.820 5        34.143
E09        10.000    27205040.145 5                       161.372 5        30.596                                                                    27205031.122 5 106758392.45205       120.642 5        32.659
G18        12.000    23685829.077 5 124469713.51405     -3862.484 5        34.338                                                                                                    23685862.608 4  96989522.30904     -3009.405 4        28.720
G27        13.000    20105638.694 6 105655839.14806      -526.161 6        39.850                                    20105635.657 6  82329179.80106      -409.991 6        40.029    20105636.961 7  82329257.80307      -409.964 7        43.547
E27        14.000    25515861.559 4                       392.780 4        27.222                                                                    25515851.120 7 100129698.61207       293.428 7        46.011    25515847.428 6 102741818.76806       301.191 6        38.015
R03        15.000                                                                                                                                    23810880.653 4                     -3384.519 4        26.790
E15        16.000    25364368.763 7 133290658.88207      1101.998 7        42.402                                                                    25364368.752 7  99535246.67507       822.792 7        42.703
G26        17.000    24388102.282 4                     -4496.748 4        28.711                                                                                                    24388111.792 4                     -3503.749 4        27.150
E06        18.000                                                                                                                                    27523820.301 3                      -696.477 3        22.971
E30        19.000    24666856.029 6 129625208.13206     -2440.314 6        37.868                                                                                                                                    24666897.731 4  99323247.20004     -1869.804 4        28.009
R20        20.000    19617812.436 5 104905258.17005     -1067.484 5        34.338                                                                    19617816.994 6  81592993.93906      -830.140 6        41.743
E02        21.000    27029654.084 5 142041816.41105     -4070.411 5        31.887                                                                    27029653.421 5 106070188.39705     -3039.892 5        35.938    27029653.411 4 108837206.89704     -3118.935 4        27.653
S23        22.000    38196754.090 6 200725316.85106      -861.599 6        40.737
E36        24.000    25834357.823 5 135760539.95205     -3070.796 5        34.414                                                                    25834370.899 5 101379747.86305     -2292.958 5        34.981    25834358.601 6 104024418.94806     -2352.969 6        38.162
G16        26.000    22113824.866 6 116208934.89506     -3855.091 6        38.808                                    22113820.855 2  90552405.77202     -3003.942 2        17.358
S21        27.000    38470050.047 5 202161774.52905      -862.117 5        32.329
R05        28.000    21289047.013 5 113802192.54115      2302.116 5        32.623
R12        30.000    23915650.748 5 127753143.38215      2468.809 5        32.497                                                                    23915647.959 4                      1920.634 4        25.338
S36        31.000    38239409.050 6 200949389.58706      -861.069 6        36.087
E34        32.000    23345471.878 6 122681277.08306     -1062.253 6        40.577                                                                    23345472.610 8  91612665.10608      -793.318 8        48.758    23345472.447 8  94002619.98808      -813.996 8        49.531
R11        33.000    21145465.381 6 112995059.70006     -1177.486 6        40.658                                                                    21145497.440 5  87885119.25205      -916.030 5        32.287
C08        36.000                                                                                                                                    39049864.507 3                     -2054.813 3        20.262    39049874.860 5 157237632.24905     -1587.723 5        30.430
C11        38.000                                                                                                                                    21801193.575 8 113524527.04208     -1628.476 8        48.795    21801190.522 8  87784420.11608     -1259.285 8        52.810    21801189.262 8  92247948.41808     -1323.424 8        49.962
R21        39.000    21676282.730 5 115994085.09005      1853.952 5        32.389                                                                    21676269.621 6  90217715.90306      1441.585 6        37.822
R04        40.000    21059867.392 7 112774808.96307     -1395.951 7        47.568                                                                    21059864.295 6  87713668.50006     -1085.681 6        40.763
C12        41.000                                                                                                                                    25379911.000 3                     -3493.992 3        21.381    25379911.543 5 102194384.65405     -2701.369 5        31.555
C14        42.000                                                                                                                                    25029797.294 4 130336754.53104      2515.360 4        29.744    25029798.961 7 100784647.11807      1944.798 7        42.514    25029797.801 6 105909318.47406      2043.643 6        40.870
C13        43.000                                                                                                                                    38557963.752 6 200781447.41406     -1819.519 6        38.724    38557963.369 5 155256941.00415     -1406.844 5        34.862    38557963.806 5 163151435.84405     -1478.128 5        32.533
C21        46.000                                                                                                                                    23699754.382 7 123410808.04307     -1197.502 7        45.354                                                                    23699748.709 7 100281374.43907      -973.182 7        47.323
C23        47.000                                                                                                                                    25182210.585 5                     -3288.800 5        30.377                                                                    25182192.927 6 106554116.19806     -2672.458 6        36.348
C43        48.000                                                                                                                                    21590644.615 8 112428162.56408      -409.577 8        50.029                                                                    21590642.324 7  91357071.63707      -332.949 7        47.387
C42        50.000                                                                                                                                    23650967.405 6 123157049.71306      1621.265 6        36.019                                                                    23650972.728 6 100075018.54506      1317.345 6        39.003
C34        52.000                                                                                                                                    22795738.209 7 118703731.62007     -2796.826 7        44.497                                                                    22795736.167 6  96456216.24906     -2272.858 6        41.144
C37        54.000                                                                                                                                    25261878.917 5 131545322.58405      -988.821 5        34.819                                                                    25261881.469 5 106891314.41305      -803.743 5        33.383
C28        55.000                                                                                                                                    25194089.088 6 131192181.10306      1871.039 6        39.793                                                                    25194081.752 5                      1520.262 5        30.792
I06        58.000    38652650.429 5 151681432.06905      -568.623 5        33.240
I09        60.000    38450673.640 5 150888712.67805        43.609 5        35.000
> 2025 01 02 20 15 20.0000000  0 43
G10         1.000    21018215.217 8 110451622.73108       464.278 8        52.139                                    21018211.941 8  86066115.62208       361.775 8        50.913    21018211.987 7  86066066.60707       361.781 7        45.202
G23         2.000    21232756.254 6 111578900.43706     -2361.654 6        41.416                                    21232751.168 4  86944581.47104     -1840.247 4        28.275    21232752.684 6  86944641.49606     -1840.433 6        41.690
G21         4.000    23366762.466 4 122793205.73904      1943.428 4        27.557
G08         5.000    21519572.732 5 113086092.33905      1545.636 5        34.895                                    21519577.631 3  88119170.53303      1204.397 3        20.548    21519571.214 3                      1202.823 3        22.171
G30         7.000    25746606.708 5                      -839.069 5        30.475
G07         8.000    25422493.210 5 133596113.57515     -2040.991 5        33.784                                                                                                    25422486.929 4                     -1590.688 4        27.042
E09        10.000    27204886.599 5                       159.262 5        30.966                                                                    27204880.783 5 106757793.75505       119.097 5        31.849
G18        12.000    23689508.534 5 124489027.25805     -3862.790 5        35.029                                                                                                    23689537.003 4  97004572.06904     -3010.659 4        26.766
G27        13.000    20106141.247 7 105658476.47407      -528.688 7        42.764                                    20106137.414 6  82331234.86506      -411.967 6        40.443    20106138.908 7  82331312.87807      -411.897 7        44.283
E27        14.000    25515480.760 5                       390.570 5        31.706                                                                    25515478.525 7 100128235.99007       291.813 7        45.741    25515474.424 6 102740317.97906       299.616 6        37.588
E15        16.000    25363320.960 7 133285152.03407      1101.083 7        42.997                                                                    25363320.763 7  99531134.40707       822.278 7        42.495    25363313.225 5 102127563.87705       843.878 5        35.986
G26        17.000    24392385.426 4                     -4496.749 4        25.940                                                                                                    24392387.991 4                     -3503.517 4        27.581
E06        18.000                                                                                                                                    27524699.583 3                      -697.356 3        23.276
E30        19.000    24669179.117 6 129637415.91406     -2442.589 6        36.268                                                                    24669186.642 5  96807185.37915     -1824.172 5        34.400    24669218.340 4  99332601.25704     -1871.031 4        29.678
R20        20.000    19618812.911 5 104910600.66505     -1069.585 5        34.010                                                                    19618816.194 7  81597149.23507      -831.728 7        42.832
E02        21.000    27033528.346 5 142062170.26105     -4070.883 5        33.024                                                                    27033526.788 5 106085387.66905     -3039.868 5        35.895    27033526.983 4 108852802.66004     -3118.926 4        28.427
S23        22.000    38197575.849 6 200729625.68806      -861.548 6        40.696
R10        23.000    22170337.351 4                     -4594.120 4        26.934
E36        24.000    25837280.177 5 135775895.84105     -3071.229 5        35.367                                                                    25837293.623 5 101391214.94705     -2293.235 5        34.290    25837280.456 6 104036185.14106     -2353.162 6        37.119
G16        26.000    22117493.491 6 116228216.23106     -3857.417 6        36.764                                    22117489.624 2  90567430.15702     -3005.793 2        16.226
S21        27.000    38470868.439 5 202166084.63305      -861.543 5        31.577
R05        28.000                                                                                                                                    21286930.736 3                      1784.399 3        20.667
R12        30.000    23913349.116 5 127740806.38805      2466.264 5        34.524
S36        31.000    38240224.025 5 200953694.58405      -860.959 5        35.957
E34        32.000    23346483.453 6 122686592.40606     -1063.514 6        39.168                                                                    23346484.014 8  91616634.33708      -794.201 8        48.706    23346483.947 8  94006692.76908      -814.960 8        49.871
R11        33.000    21146570.881 7 113000959.40907     -1182.104 7        43.900                                                                    21146604.355 5  87889707.86705      -919.726 5        32.431
C08        36.000                                                                                                                                                                                                    39051847.744 5 157245575.03505     -1588.383 5        30.981
C11        38.000                                                                                                                                    21802758.069 8 113532673.62108     -1629.897 8        49.159    21802754.826 8  87790719.56208     -1260.321 8        52.580    21802753.611 8  92254568.17708     -1324.485 8        49.836
R21        39.000    21674531.689 5 115984819.95005      1852.411 5        33.856                                                                    21674538.137 6  90210509.72806      1441.147 6        38.565
R04        40.000    21061172.584 7 112781800.84307     -1400.531 7        47.303                                                                    21061170.535 6  87719106.63706     -1089.366 6        41.080
C12        41.000                                                                                                                                    25383270.329 3                     -3496.394 3        20.429    25383260.404 4 102207893.30404     -2701.938 4        28.531
C14        42.000                                                                                                                                    25027379.775 4 130324180.86904      2514.272 4        28.787    25027384.669 6 100774924.33806      1944.477 6        41.697    25027383.148 6 105899101.33606      2043.234 6        41.189
C13        43.000                                                                                                                                    38559709.576 6 200790545.42306     -1819.590 6        38.414    38559710.468 5 155263976.18205     -1407.246 5        34.748    38559710.988 5 163158828.74305     -1478.612 5        32.886
C21        46.000                                                                                                                                    23700904.854 7 123416803.69307     -1200.477 7        44.531                                                                    23700900.205 7 100286246.39707      -975.580 7        47.438
C23        47.000                                                                                                                                    25185369.889 4                     -3290.295 4        28.948                                                                    25185351.069 5 106567481.35705     -2673.660 5        35.862
C43        48.000                                                                                                                                    21591038.575 8 112430214.92508      -411.124 8        49.818                                                                    21591036.552 7  91358739.34007      -334.151 7        47.848
C42        50.000                                                                                                                                    23649411.869 5 123148948.89305      1619.313 5        34.643                                                                    23649416.979 6 100068435.92506      1315.779 6        38.832
C34        52.000                                                                                                                                    22798423.884 7 118717719.39507     -2798.027 7        44.454                                                                    22798422.003 6  96467582.45406     -2273.784 6        40.868
C37        54.000                                                                                                                                    25262834.518 5 131550274.14705      -991.173 5        32.970                                                                    25262832.764 5 106895338.03005      -805.939 5        33.629
C28        55.000                                                                                                                                    25192290.751 6 131182827.74206      1870.642 6        38.571
C22        57.000                                                                                                                                    26357571.050 3                     -3581.717 3        20.714
I06        58.000    38653373.661 5 151684274.58005      -568.444 5        33.120
I09        60.000    38450617.835 5 150888495.14505        43.479 5        34.900
> 2025 01 02 20 15 25.0000000  0 42
G10         1.000    21017775.225 8 110449309.68308       461.001 8        52.291                                    21017772.028 8  86064313.25008       359.219 8        51.111    21017771.952 7  86064264.24207       359.212 7        45.023
G23         2.000    21235005.726 6 111590716.48306     -2364.691 6        40.870                                    21234999.844 4  86953788.77204     -1842.615 4        28.427    21235001.375 6  86953848.79406     -1842.627 6        41.356
G21         4.000    23364913.358 4 122783491.31404      1942.489 4        28.313
G08         5.000    21518104.506 6 113078369.60506      1543.627 6        36.405                                    21518110.474 3  88113152.84903      1202.819 3        20.190
G30         7.000    25747407.678 5                      -841.958 5        30.294
G07         8.000    25424433.209 5 133606324.98905     -2043.539 5        33.808                                                                                                    25424427.273 4                     -1592.422 4        27.641
E09        10.000    27204732.073 5                       157.043 5        30.611                                                                    27204730.199 5 106757203.52905       117.266 5        30.687
G18        12.000    23693183.931 5 124508343.96905     -3863.698 5        34.700                                                                                                    23693212.881 3  97019624.09603     -3011.086 3        23.714
G27        13.000    20106646.790 7 105661127.63507      -531.645 7        44.831                                    20106641.804 6  82333300.70806      -414.275 6        41.433    20106642.994 7  82333378.71607      -414.208 7        43.958
E27        14.000    25515112.634 5 134082821.18715       388.094 5        34.229                                                                    25515108.209 7 100126781.68207       289.975 7        45.731    25515103.720 6 102738825.72506       297.614 6        37.588
R03        15.000    23819042.983 4                     -4357.993 4        24.406                                                                    23819028.848 5                     -3388.731 5        30.891
E15        16.000    25362273.579 7 133279649.91907      1099.931 7        43.365                                                                    25362273.692 7  99527025.68907       821.383 7        42.404    25362268.843 5 102123347.98305       842.680 5        35.395
G26        17.000    24396669.746 4                     -4496.759 4        24.346                                                                                                    24396665.362 4                     -3504.096 4        26.898
E30        19.000    24671504.854 5 129649634.51705     -2444.755 5        34.543                                                                    24671514.609 5  96816309.60905     -1825.765 5        35.424    24671541.404 5  99341963.58205     -1873.126 5        30.015
R20        20.000    19619812.747 5 104915953.44505     -1071.381 5        34.224                                                                    19619817.779 7  81601312.49707      -833.469 7        44.254
E02        21.000    27037402.339 5 142082526.19105     -4071.554 5        33.371                                                                    27037400.582 5 106100588.49305     -3040.189 5        35.748    27037401.140 4 108868400.06904     -3119.755 4        29.299
S23        22.000    38198395.390 6 200733934.85006      -861.928 6        40.601
R10        23.000    22174649.306 3                     -4594.414 3        23.352
E36        24.000    25840203.270 6 135791254.00406     -3071.701 6        36.193                                                                    25840220.427 5 101402683.74905     -2293.913 5        33.838    25840202.811 6 104047953.07006     -2353.818 6        36.491
G16        26.000    22121165.258 6 116247507.81206     -3859.368 6        36.261                                    22121160.473 2  90582462.55902     -3007.282 2        16.000
S21        27.000    38471693.994 5 202170395.20505      -862.350 5        31.947
R12        30.000    23911046.739 5 127728482.52005      2463.591 5        35.405                                                                    23911049.991 4                      1915.195 4        24.857
S36        31.000    38241047.175 6 200958000.65806      -861.264 6        36.049
E34        32.000    23347496.578 6 122691914.19606     -1065.110 6        38.240                                                                    23347496.662 8  91620608.39708      -795.289 8        48.504    23347496.718 8  94010770.49708      -816.067 8        50.077
R11        33.000    21147680.016 7 113006882.42607     -1186.963 7        45.258                                                                    21147714.075 4  87894314.73204      -923.120 4        29.905
C08        36.000                                                                                                                                                                                                    39053820.555 5 157253518.76505     -1588.920 5        31.283
C11        38.000                                                                                                                                    21804323.910 8 113540827.51608     -1631.539 8        49.371    21804320.578 8  87797024.66308     -1261.606 8        52.520    21804319.371 8  92261193.84508     -1325.522 8        49.499
R21        39.000    21672806.960 6 115975560.01306      1851.456 6        40.427                                                                    21672806.335 6  90203307.60406      1439.950 6        37.384
R04        40.000    21062482.169 7 112788816.31207     -1405.457 7        46.361                                                                    21062481.338 6  87724563.08706     -1093.114 6        41.366
C12        41.000                                                                                                                                                                                                    25386611.755 3 102221403.97003     -2701.489 3        23.429
C14        42.000                                                                                                                                    25024968.807 5 130311611.20505      2513.570 5        30.619    25024970.809 6 100765204.70606      1943.450 6        40.920    25024969.304 6 105888887.43806      2042.586 6        41.247
C13        43.000                                                                                                                                    38561457.189 6 200799645.06906     -1820.198 6        37.784    38561458.319 5 155271012.57605     -1407.413 5        35.357    38561458.522 5 163166222.89605     -1478.633 5        33.222
C21        46.000                                                                                                                                    23702058.454 7 123422814.47607     -1203.752 7        42.612                                                                    23702054.750 7 100291130.60107      -977.881 7        47.454
C23        47.000                                                                                                                                    25188533.956 4                     -3291.780 4        27.341                                                                    25188510.818 5 106580852.55505     -2674.547 5        35.095
C43        48.000                                                                                                                                    21591433.771 8 112432275.31208      -412.977 8        49.126                                                                    21591432.251 8  91360413.52508      -335.284 8        48.079
C42        50.000                                                                                                                                    23647856.361 5 123140858.14205      1617.152 5        34.586                                                                    23647863.611 6 100061861.48606      1314.199 6        38.348
C34        52.000                                                                                                                                    22801110.794 7 118731713.23907     -2799.394 7        44.536                                                                    22801108.964 6  96478953.53906     -2274.554 6        40.496
C37        54.000                                                                                                                                                                                                                                                                    25263786.992 5 106899372.92105      -807.558 5        33.760
C28        55.000                                                                                                                                    25190496.207 6 131173476.05106      1870.157 6        36.189                                                                    25190509.404 5                      1519.625 5        30.241
C22        57.000                                                                                                                                    26361009.817 3                     -3594.294 3        19.045
I06        58.000    38654098.820 5 151687117.20905      -568.576 5        33.425
I09        60.000    38450563.470 5 150888278.71805        43.126 5        34.548
> 2025 01 02 20 15 30.0000000  0 41
G10         1.000    21017337.748 8 110447010.66408       458.421 8        52.333                                    21017334.775 8  86062521.81108       357.210 8        51.289    21017334.509 7  86062472.80007       357.185 7        44.975
G23         2.000    21237257.107 6 111602546.32806     -2367.263 6        41.154                                    21237251.185 4  86963006.82604     -1844.626 4        28.692    21237253.091 6  86963066.85306     -1844.617 6        41.383
G15         3.000    23975212.449 4                     -2297.205 4        25.639
G21         4.000    23363064.624 4 122773782.02104      1941.256 4        28.758
G08         5.000    21516639.258 6 113070654.91406      1542.056 6        38.724                                    21516644.591 3  88107141.40803      1201.610 3        18.925
G30         7.000    25748210.093 4                      -844.365 4        26.647
G07         8.000    25426374.243 5 133616546.79705     -2045.279 5        33.042                                    25426369.934 1 104116733.52111     -1593.759 1         8.857    25426370.631 4                     -1593.444 4        26.707
E09        10.000    27204576.103 4                       154.840 4        29.327                                                                    27204580.861 4 106756621.28404       115.675 4        29.441
G18        12.000    23696857.041 5 124527662.83405     -3863.677 5        33.856                                                                                                    23696883.360 3                     -3009.853 3        22.933
G27        13.000    20107153.915 7 105663791.80407      -533.988 7        45.527                                    20107148.702 7  82335376.69607      -416.095 7        42.495    20107149.799 7  82335454.68907      -416.073 7        43.572
E27        14.000    25514743.126 5 134080883.95305       386.642 5        35.300                                                                    25514739.712 7 100125335.12007       288.566 7        45.732    25514735.234 6 102737341.42506       296.318 6        37.667
R03        15.000    23823119.574 4                     -4358.975 4        28.455
E15        16.000    25361226.682 7 133274151.79107      1099.285 7        43.048                                                                    25361227.506 7  99522919.94307       820.874 7        42.576    25361223.874 5 102119135.12805       842.466 5        35.333
G26        17.000    24400944.760 3                     -4492.228 3        20.762                                                                                                    24400943.658 4                     -3503.639 4        26.982
E30        19.000    24673832.811 5 129661863.24805     -2446.824 5        33.976                                                                    24673843.430 6  96825441.40506     -1826.804 6        36.639    24673867.674 4  99351333.67404     -1874.997 4        28.569
R20        20.000    19620817.787 5 104921315.68105     -1073.273 5        34.433                                                                    19620820.245 7  81605483.09907      -834.814 7        45.065
E02        21.000    27041277.043 5 142102883.45905     -4071.648 5        33.587                                                                    27041274.541 6 106115790.33506     -3040.332 6        36.095    27041275.039 4 108883998.49504     -3119.314 4        29.915
S23        22.000    38199213.979 6 200738243.75106      -861.684 6        40.603
E36        24.000    25843126.571 6 135806613.64606     -3072.047 6        36.389                                                                    25843149.058 5 101414153.65805     -2293.819 5        34.386    25843125.457 5 104059722.13505     -2353.952 5        35.586
G16        26.000    22124838.479 6 116266808.97206     -3861.154 6        37.365                                    22124832.968 2  90597502.40402     -3008.704 2        15.476
S21        27.000    38472507.879 5 202174705.37305      -862.053 5        31.525
R05        28.000    21282676.704 5 113767732.54105      2293.314 5        33.156
R12        30.000    23908746.216 5 127716170.96915      2461.268 5        34.810
S36        31.000    38241864.583 5 200962306.14005      -860.939 5        35.933
E34        32.000    23348510.807 6 122697241.66206     -1065.922 6        36.839                                                                    23348510.411 8  91624586.70908      -796.040 8        48.522    23348510.550 8  94014852.59208      -816.816 8        50.317
R11        33.000    21148791.481 7 113012827.91107     -1191.318 7        44.050
C08        36.000                                                                                                                                                                                                    39055793.024 5 157261462.89605     -1588.843 5        31.223
C11        38.000                                                                                                                                    21805891.331 8 113548987.98808     -1632.676 8        49.737    21805887.704 8  87803334.84608     -1262.466 8        52.661    21805886.362 8  92267824.91408     -1326.646 8        49.284
R21        39.000    21671081.583 7 115966304.68207      1850.763 7        44.390                                                                    21671075.603 6  90196108.93106      1439.307 6        36.113
R04        40.000    21063797.049 7 112795854.38307     -1409.821 7        46.545                                                                    21063795.362 6  87730037.13806     -1096.435 6        41.616
C14        42.000                                                                                                                                    25022558.012 5 130299044.81905      2512.992 5        32.311    25022557.163 6 100755487.58106      1943.293 6        40.598    25022556.252 6 105878676.25106      2042.061 6        41.790
C13        43.000                                                                                                                                    38563204.537 6 200808745.49706     -1820.027 6        36.938    38563206.123 5 155278049.62105     -1407.425 5        35.571    38563206.655 5 163173617.76305     -1478.838 5        33.766
C21        46.000                                                                                                                                    23703214.859 6 123428839.63806     -1206.321 6        38.847                                                                    23703211.811 7 100296026.52907      -980.220 7        47.718
C23        47.000                                                                                                                                    25191704.153 3                     -3291.853 3        23.676                                                                    25191671.688 5 106594229.29105     -2676.158 5        34.433
C43        48.000                                                                                                                                    21591830.549 8 112434342.94508      -414.138 8        48.731                                                                    21591829.434 8  91362093.66408      -336.512 8        48.326
C42        50.000                                                                                                                                    23646304.494 5 123132776.70405      1615.368 5        34.829                                                                    23646311.914 6 100055294.70706      1312.498 6        37.992
C34        52.000                                                                                                                                    22803799.363 7 118745712.38907     -2800.253 7        44.737                                                                    22803796.956 6  96490328.98606     -2275.405 6        40.246
C37        54.000                                                                                                                                                                                                                                                                    25264743.447 5 106903418.61505      -810.105 5        34.000
C28        55.000                                                                                                                                    25188706.570 5 131164125.26705      1870.125 5        35.281                                                                    25188713.283 5                      1519.735 5        30.558
I06        58.000    38654823.432 5 151689959.35405      -568.036 5        33.772
I09        60.000    38450508.361 5 150888062.88205        43.199 5        34.367
> 2025 01 02 20 15 35.0000000  0 41
G10         1.000    21016902.812 8 110444726.28808       455.257 8        52.914                                    21016900.294 8  86060741.78308       354.744 8        51.304    21016899.910 7  86060692.77007       354.754 7        45.248
G23         2.000    21239511.336 7 111614390.57607     -2370.351 7        42.535                                    21239505.263 4  86972236.11304     -1847.029 4        29.185    21239507.421 7  86972296.13807     -1846.917 7        42.286
G21         4.000    23361219.263 4 122764078.48104      1940.062 4        28.995
G08         5.000    21515173.423 6 113062948.88006      1540.323 6        40.000                                    21515179.857 2  88101136.70902      1200.235 2        16.189    21515190.285 3                      1201.150 3        22.914
G30         7.000    25749015.352 4                      -846.970 4        24.541
G07         8.000    25428318.803 4 133626779.67404     -2047.831 4        28.891                                    25428316.386 1 104124707.18701     -1595.746 1         8.476    25428314.070 4                     -1595.452 4        25.248
E09        10.000    27204423.527 4                       152.562 4        28.246                                                                    27204434.564 4 106756047.43404       114.386 4        28.701
G18        12.000    23700530.438 5 124546984.55405     -3864.699 5        32.653
G27        13.000    20107662.482 7 105666469.65607      -536.975 7        45.812                                    20107658.266 7  82337463.34207      -418.423 7        43.333    20107659.557 7  82337541.33707      -418.326 7        43.577
E27        14.000    25514375.898 6 134078957.87506       384.111 6        36.548                                                                    25514373.225 7 100123896.81207       286.765 7        45.559    25514368.558 6 102735865.60406       294.238 6        37.853
R03        15.000                                                                                                                                    23827194.183 4                     -3392.370 4        29.175
E15        16.000    25360181.048 7 133268658.27607      1098.019 7        42.722                                                                    25360182.194 7  99518817.65507       820.025 7        42.808    25360179.477 5 102114925.82105       841.530 5        35.562
G26        17.000                                                                                                                                                                    24405221.999 4                     -3504.445 4        26.671
E06        18.000                                                                                                                                    27527331.808 4                      -703.264 4        28.578
E30        19.000    24676161.221 5 129674102.66905     -2449.121 5        34.276                                                                    24676169.288 6  96834581.24306     -1828.865 6        37.100    24676195.253 3  99360711.93103     -1876.291 3        23.657
R20        20.000    19621823.274 5 104926688.02905     -1075.711 5        33.509                                                                    19621823.671 7  81609661.56207      -836.546 7        44.950
E02        21.000    27045152.108 5 142123242.67005     -4072.039 5        33.593                                                                    27045149.099 6 106130993.62706     -3040.819 6        36.004    27045149.670 5 108899598.44205     -3120.748 5        30.725
S23        22.000    38200033.229 6 200742552.85506      -861.901 6        40.641
E36        24.000    25846049.973 6 135821975.41006     -3072.602 6        36.631                                                                    25846074.788 5 101425625.18005     -2294.609 5        34.790    25846048.088 5 104071492.80305     -2354.404 5        35.005
G16        26.000    22128514.220 6 116286120.35706     -3863.359 6        38.814                                    22128507.313 2  90612550.22402     -3010.408 2        16.453
S21        27.000    38473329.879 5 202179015.76005      -862.387 5        31.404
R05        28.000                                                                                                                                    21280447.424 4                      1780.220 4        26.180
R12        30.000    23906453.252 5 127703872.37615      2458.286 5        32.479                                                                    23906451.352 3                      1913.460 3        22.914
S36        31.000    38242683.597 5 200966611.17005      -861.506 5        35.967
E34        32.000    23349526.789 6 122702575.49406     -1067.600 6        36.646                                                                    23349525.384 8  91628569.74208      -797.110 8        48.474    23349525.535 8  94018939.53108      -817.948 8        50.546
R11        33.000    21149906.349 7 113018796.56507     -1196.245 7        42.976
C08        36.000                                                                                                                                                                                                    39057767.045 5 157269407.91105     -1589.198 5        30.823
C11        38.000                                                                                                                                    21807460.661 8 113557155.64208     -1634.311 8        50.275    21807456.380 8  87809650.59808     -1263.776 8        52.717    21807454.772 8  92274461.82408     -1328.047 8        49.041
R21        39.000    21669354.169 7 115957054.22607      1849.506 7        44.536                                                                    21669347.716 6  90188914.12106      1438.566 6        36.219
R04        40.000    21065116.032 7 112802915.86907     -1414.670 7        46.200                                                                    21065114.153 6  87735529.40606     -1100.327 6        41.225
C14        42.000                                                                                                                                    25020148.103 5 130286482.36205      2511.851 5        33.784    25020145.067 6 100745773.49806      1942.367 6        39.724    25020143.832 7 105868468.25007      2041.096 7        42.082
C13        43.000                                                                                                                                    38564951.696 5 200817847.38305     -1820.329 5        35.705    38564953.583 5 155285087.78005     -1407.828 5        35.586    38564954.756 5 163181013.83105     -1479.018 5        33.731
C21        46.000                                                                                                                                    23704374.617 5 123434879.77205     -1209.583 5        34.695                                                                    23704371.648 7 100300934.64007      -982.946 7        47.553
C23        47.000                                                                                                                                                                                                                                                                    25194834.277 5 106607611.92405     -2677.173 5        34.176
C43        48.000                                                                                                                                    21592229.173 8 112436418.47308      -415.919 8        49.025                                                                    21592228.014 8  91363780.22308      -338.081 8        48.485
C42        50.000                                                                                                                                    23644753.449 5 123124705.30005      1613.018 5        34.786                                                                    23644762.202 6 100048736.04206      1310.738 6        37.153
C34        52.000                                                                                                                                    22806489.684 7 118759717.45807     -2801.781 7        44.897                                                                    22806486.403 6  96501709.27806     -2276.617 6        40.312
C37        54.000                                                                                                                                                                                                                                                                    25265702.684 5 106907475.54005      -812.631 5        34.338
C28        55.000                                                                                                                                                                                                                                                                    25186916.693 5                      1519.368 5        30.355
I06        58.000    38655547.623 5 151692801.50505      -568.450 5        33.826
I09        60.000    38450452.758 5 150887848.19205        42.666 5        34.195
> 2025 01 02 20 15 40.0000000  0 42
G10         1.000    21016470.931 8 110442456.33108       452.386 8        53.028                                    21016468.559 8  86058972.99008       352.508 8        51.523    21016468.297 7  86058923.97607       352.527 7        45.726
G23         2.000    21241767.345 7 111626249.00407     -2373.233 7        44.337                                    21241762.046 5  86981476.44605     -1849.268 5        30.045    21241763.841 7  86981536.48307     -1849.297 7        43.663
G21         4.000    23359371.874 5 122754380.60905      1938.624 5        30.181
G08         5.000    21513706.822 6 113055251.30506      1538.474 6        40.484                                    21513716.497 2  88095138.52602      1198.797 2        13.758    21513719.291 4                      1198.720 4        27.545
G30         7.000    25749828.230 3                      -848.105 3        21.071
G07         8.000                                                                                                                                                                    25430260.867 4                     -1597.692 4        27.245
E09        10.000    27204282.344 4                       150.235 4        28.047                                                                    27204288.204 4 106755481.92004       112.574 4        28.028
G18        12.000    23704209.797 5 124566308.86005     -3865.488 5        32.898                                                                                                    23704216.553 4                     -3011.913 4        27.138
G27        13.000    20108174.035 7 105669160.97207      -539.816 7        46.026                                    20108170.482 7  82339560.48007      -420.639 7        44.027    20108171.980 7  82339638.48507      -420.685 7        43.941
E27        14.000    25514011.478 6 134077042.60506       381.765 6        37.346                                                                    25514008.734 7 100122466.57007       285.160 7        45.500    25514003.800 6 102734398.05806       292.351 6        38.294
R03        15.000                                                                                                                                    23831269.168 4                     -3393.864 4        25.805
E15        16.000    25359136.562 7 133263169.15007      1097.221 7        42.265                                                                    25359137.580 7  99514718.62907       819.379 7        42.999    25359135.487 5 102110719.85605       840.776 5        35.748
G26        17.000                                                                                                                                                                    24409499.003 4                     -3504.481 4        25.368
E06        18.000                                                                                                                                    27528233.542 4                      -704.638 4        28.692
E30        19.000    24678491.857 5 129686352.59305     -2451.033 5        35.362                                                                    24678499.338 6  96843728.93506     -1830.339 6        37.645    24678524.004 3                     -1880.533 3        19.731
R20        20.000    19622827.491 5 104932070.14405     -1077.991 5        32.587                                                                    19622829.809 7  81613847.65807      -838.023 7        45.109
E02        21.000    27049026.585 5 142143603.61305     -4072.576 5        33.742                                                                    27049023.754 6 106146198.19406     -3041.061 6        36.083    27049024.729 5 108915199.65105     -3120.325 5        31.494
S23        22.000    38200856.473 6 200746861.95406      -861.988 6        40.760
E36        24.000    25848973.856 6 135837339.06106     -3072.909 6        36.439                                                                    25848998.807 5 101437098.06605     -2294.717 5        34.886    25848971.311 5 104083264.93605     -2354.702 5        34.614
G16        26.000    22132190.761 6 116305441.70306     -3865.304 6        40.362                                    22132183.604 2  90627605.84402     -3011.914 2        17.736
S21        27.000    38474149.461 5 202183326.10405      -862.157 5        32.222
R05        28.000                                                                                                                                    21278314.934 5                      1778.359 5        32.455
R12        30.000    23904157.410 5 127691586.56505      2455.663 5        31.864                                                                    23904155.639 4                      1908.800 4        24.331
S36        31.000    38243503.840 5 200970916.47505      -861.482 5        35.571
E34        32.000    23350543.251 6 122707915.39806     -1068.896 6        36.420                                                                    23350541.447 8  91632557.33808      -798.080 8        48.323    23350541.742 8  94023031.14708      -818.913 8        50.727
R11        33.000    21151027.360 7 113024788.18907     -1200.775 7        43.754                                                                    21151021.833 5  87908241.45005      -933.658 5        30.634
C08        36.000                                                                                                                                                                                                    39059740.377 5 157277353.60505     -1589.369 5        30.740
C11        38.000                                                                                                                                    21809030.944 8 113565330.26808     -1635.745 8        50.484    21809026.265 8  87815971.73408     -1264.846 8        52.757    21809024.573 8  92281104.38208     -1329.158 8        48.744
R21        39.000    21667625.219 7 115947808.62807      1848.537 7        46.161                                                                    21667620.391 6  90181723.10306      1437.762 6        36.435
R04        40.000    21066438.517 7 112810000.37807     -1419.379 7        44.590                                                                    21066437.242 6  87741039.58206     -1103.892 6        40.591
C12        41.000                                                                                                                                    25396695.701 3                     -3493.286 3        18.328    25396711.608 4                     -2703.688 4        28.076
C14        42.000                                                                                                                                    25017739.281 5 130273923.57805      2511.510 5        35.143    25017733.569 6 100736062.25906      1941.920 6        39.147    25017731.939 7 105858263.22207      2040.738 7        42.476
C13        43.000                                                                                                                                    38566698.905 5 200826950.49505     -1820.967 5        35.190    38566701.990 5 155292126.87305     -1407.963 5        35.452    38566702.853 5 163188410.85405     -1479.877 5        34.062
C21        46.000                                                                                                                                    23705540.901 5 123440934.65305     -1212.180 5        33.946                                                                    23705534.199 7 100305854.72707      -985.319 7        47.457
C23        47.000                                                                                                                                                                                                                                                                    25197998.953 5 106621000.35005     -2678.404 5        33.940
C43        48.000                                                                                                                                    21592629.464 8 112438501.67008      -417.509 8        49.619                                                                    21592628.076 8  91365472.99908      -339.263 8        48.570
C42        50.000                                                                                                                                    23643203.020 5 123116643.65505      1611.149 5        34.186                                                                    23643213.885 6 100042185.30706      1309.301 6        36.011
C34        52.000                                                                                                                                    22809181.281 7 118773728.23107     -2802.813 7        44.922                                                                    22809177.190 6  96513094.18706     -2277.574 6        40.565
C37        54.000                                                                                                                                                                                                                                                                    25266665.694 5 106911543.49305      -815.000 5        34.733
C28        55.000                                                                                                                                    25185138.123 5 131145428.27305      1869.442 5        35.686                                                                    25185122.128 4                      1519.013 4        29.280
I06        58.000    38656270.918 5 151695643.53605      -568.298 5        33.413
I09        60.000    38450398.612 5 150887634.29505        42.698 5        33.725
> 2025 01 02 20 15 45.0000000  0 42
G10         1.000    21016041.515 8 110440201.13108       449.745 8        53.078                                    21016039.591 8  86057215.69508       350.452 8        51.483    21016039.334 7  86057166.67807       350.390 7        45.710
G23         2.000    21244026.144 7 111638121.92107     -2375.850 7        45.374                                    21244021.566 5  86990728.06905     -1851.313 5        30.785    21244022.524 7  86990788.09607     -1851.329 7        43.987
G21         4.000    23357527.512 5 122744688.46005      1938.269 5        31.426
G08         5.000    21512243.622 6 113047562.52606      1537.014 6        40.648                                    21512254.084 2  88089147.20102      1197.683 2        14.238
G07         8.000    25432206.015 4                     -2051.998 4        27.257                                                                                                    25432215.431 4                     -1599.160 4        28.294
E09        10.000    27204139.744 4                       147.882 4        28.389                                                                    27204146.291 4 106754924.82204       111.524 4        28.616
G18        12.000    23707892.128 5 124585636.06305     -3865.591 5        32.802                                                                                                    23707900.558 4                     -3012.126 4        28.152
G27        13.000    20108688.869 7 105671866.04307      -542.235 7        45.016                                    20108685.407 7  82341668.33707      -422.520 7        44.101    20108686.885 7  82341746.33007      -422.510 7        44.241
E27        14.000    25513649.277 6 134075138.48306       379.717 6        38.189                                                                    25513646.356 7 100121044.64207       283.622 7        45.105    25513641.536 6 102732939.02906       291.015 6        38.387
R03        15.000    23835389.196 4                     -4366.919 4        27.581                                                                    23835342.879 4                     -3395.946 4        24.632
E15        16.000    25358092.774 6 133257684.72906      1096.570 6        41.628                                                                    25358094.144 7  99510623.14207       818.780 7        43.117    25358092.280 6 102106517.52306       840.343 6        36.412
G26        17.000    24413732.948 4                     -4497.745 4        26.347                                                                                                    24413772.207 4                     -3504.080 4        25.880
E06        18.000                                                                                                                                    27529133.129 4                      -706.523 4        28.967
E30        19.000    24680825.169 5 129698613.33105     -2452.875 5        35.700                                                                    24680830.461 6  96852884.69406     -1831.843 6        37.716
R20        20.000    19623833.111 5 104937462.43005     -1079.320 5        31.434                                                                    19623838.635 7  81618041.67407      -839.496 7        44.834
E02        21.000    27052902.682 5 142163966.58105     -4072.912 5        33.922                                                                    27052898.559 5 106161404.29105     -3041.341 5        35.452    27052899.792 5 108930802.42905     -3120.564 5        31.932
S23        22.000    38201673.134 6 200751171.37206      -861.818 6        40.422
R10        23.000    22191909.943 4                     -4604.327 4        27.856
E36        24.000    25851898.165 6 135852704.93006     -3073.340 6        36.480                                                                    25851923.751 5 101448572.60505     -2294.794 5        35.071    25851895.101 5 104095038.74405     -2354.679 5        34.295
G16        26.000    22135869.827 6 116324773.31306     -3867.183 6        41.213                                    22135861.934 3  90642669.45203     -3013.379 3        18.209
S21        27.000    38474970.276 5 202187636.58405      -861.746 5        31.426
R05        28.000                                                                                                                                    21276187.546 5  88459313.68915      1776.069 5        33.808
R12        30.000    23901850.776 4 127679314.01314      2453.658 4        24.887                                                                    23901856.438 4                      1908.938 4        25.970
S36        31.000    38244319.312 5 200975221.76505      -861.017 5        35.767
E34        32.000    23351560.573 6 122713261.71506     -1070.033 6        36.507                                                                    23351558.750 8  91636549.71708      -798.801 8        48.023    23351559.134 8  94027127.68208      -819.680 8        50.923
R11        33.000    21152154.796 7 113030803.08907     -1205.161 7        44.780
C08        36.000                                                                                                                                                                                                    39061713.532 5 157285300.20605     -1589.006 5        30.468
C11        38.000                                                                                                                                    21810602.032 8 113573512.20208     -1636.955 8        50.348    21810597.084 8  87822298.52008     -1265.812 8        52.552    21810595.835 8  92287752.85408     -1330.190 8        48.627
R21        39.000    21665898.613 7 115938568.26607      1847.705 7        46.900                                                                    21665894.024 6  90174536.15806      1437.099 6        38.547
R04        40.000    21067765.251 7 112817108.39507     -1423.923 7        42.796                                                                    21067764.556 6  87746568.06806     -1107.525 6        40.787
C12        41.000                                                                                                                                                                                                    25400068.809 5                     -2703.967 5        30.823
C14        42.000                                                                                                                                    25015328.719 5 130261368.85505      2510.555 5        35.429    25015323.159 6 100726354.14606      1941.419 6        38.979    25015321.024 7 105848061.45007      2040.108 7        42.847
C13        43.000                                                                                                                                    38568447.823 5 200836055.13005     -1821.000 5        34.038    38568450.205 5 155299167.14505     -1408.088 5        35.057    38568451.363 5 163195809.11005     -1479.620 5        34.476
C21        46.000                                                                                                                                    23706709.319 5 123447004.66505     -1215.506 5        33.599                                                                    23706699.760 7 100310787.04407      -987.429 7        47.211
C23        47.000                                                                                                                                                                                                                                                                    25201164.757 5 106634394.73705     -2679.224 5        34.476
C43        48.000                                                                                                                                    21593030.667 8 112440592.86408      -418.893 8        50.067                                                                    21593029.619 8  91367172.24108      -340.293 8        48.711
C42        50.000                                                                                                                                    23641654.659 5 123108592.11305      1609.377 5        34.386                                                                    23641668.207 5 100035642.79205      1307.892 5        34.819
C34        52.000                                                                                                                                    22811872.327 7 118787745.03107     -2803.750 7        44.143                                                                    22811869.146 6  96524483.97006     -2278.284 6        41.104
C37        54.000                                                                                                                                                                                                                                                                    25267630.363 5 106915622.70505      -816.546 5        34.871
C28        55.000                                                                                                                                    25183348.199 5 131136082.19905      1869.308 5        34.424                                                                    25183328.430 4                      1518.446 4        26.359
I06        58.000    38656995.843 5 151698485.62205      -568.560 5        33.341
I09        60.000    38450343.984 5 150887421.57005        42.719 5        33.563
> 2025 01 02 20 15 50.0000000  0 42
G10         1.000    21015614.978 8 110437960.11108       446.803 8        53.046                                    21015613.222 8  86055469.44608       348.160 8        51.340    21015612.188 7  86055420.42207       348.106 7        45.220
G23         2.000    21246288.084 7 111650008.72207     -2378.825 7        45.517                                    21246283.648 5  86999990.51905     -1853.625 5        31.525    21246284.126 7  87000050.53807     -1853.576 7        43.471
G21         4.000    23355684.183 5 122735001.59505      1936.779 5        31.864
G08         5.000    21510782.248 6 113039881.95306      1535.332 6        41.004                                    21510792.547 2  88083162.30802      1196.367 2        16.906    21510777.742 5                      1196.196 5        32.030
G07         8.000    25434165.538 5                     -2054.008 5        30.566                                                                                                    25434179.184 4                     -1600.726 4        28.882
E09        10.000    27203997.193 4                       146.037 4        28.057                                                                    27204006.628 4 106754375.88104       108.809 4        28.521
G18        12.000    23711574.232 5 124604965.60105     -3866.049 5        33.533                                                                                                    23711576.392 4                     -3012.472 4        27.485
G27        13.000    20109205.399 7 105674584.33807      -545.067 7        44.081                                    20109202.863 7  82343786.49107      -424.730 7        43.718    20109204.053 7  82343864.47807      -424.716 7        44.190
E27        14.000    25513288.064 6 134073244.90106       377.407 6        38.174                                                                    25513285.689 7 100119630.58307       282.023 7        44.731    25513281.379 6 102731488.09506       289.306 6        38.529
R03        15.000                                                                                                                                    23839423.252 4                     -3397.831 4        26.180
E15        16.000    25357050.163 6 133252204.44706      1095.535 6        41.409                                                                    25357051.319 7  99506530.72107       818.080 7        43.172    25357049.455 6 102102318.35506       839.486 6        36.968
G26        17.000                                                                                                                                                                    24418049.743 4                     -3504.478 4        25.714
E06        18.000                                                                                                                                    27530035.315 4                      -708.412 4        27.641
E30        19.000    24683160.010 6 129710884.34206     -2455.570 6        36.427                                                                    24683163.997 6  96862048.13006     -1833.391 6        37.660
R20        20.000    19624843.931 5 104942864.38605     -1081.249 5        30.091                                                                    19624848.658 7  81622243.22707      -841.171 7        44.689
E02        21.000    27056778.861 5 142184330.96005     -4072.817 5        34.019                                                                    27056773.889 5 106176611.45005     -3041.524 5        35.400    27056775.173 5 108946406.28505     -3120.715 5        32.090
S23        22.000    38202493.199 6 200755480.45406      -861.793 6        40.670
R10        23.000    22196231.234 4                     -4606.252 4        29.128
E36        24.000    25854822.299 6 135868072.41306     -3073.669 6        36.393                                                                    25854848.603 5 101460048.38705     -2295.395 5        34.490    25854819.346 5 104106813.83505     -2355.427 5        34.229
G16        26.000    22139549.579 6 116344114.56206     -3869.243 6        41.788                                    22139542.366 3  90657740.57003     -3014.993 3        18.358
S21        27.000    38475790.390 5 202191946.88905      -862.158 5        31.555
R05        28.000                                                                                                                                    21274056.742 5  88450439.25805      1773.592 5        30.747
R12        30.000                                                                                                                                    23899558.748 4                      1905.785 4        26.814
S36        31.000    38245145.118 6 200979527.31506      -861.126 6        36.261
E34        32.000    23352578.398 6 122718613.86206     -1071.251 6        36.473                                                                    23352577.109 7  91640546.45507      -799.819 7        47.861    23352577.485 8  94031228.68208      -820.664 8        50.930
R11        33.000    21153285.303 7 113036840.63507     -1209.787 7        44.575
C08        36.000                                                                                                                                                                                                    39063687.722 5 157293247.35405     -1589.147 5        30.272
C11        38.000                                                                                                                                    21812174.232 8 113581700.84908     -1638.484 8        50.078    21812169.458 8  87828630.49208     -1266.952 8        52.474    21812168.423 8  92294406.79308     -1331.412 8        48.521
R21        39.000    21664174.489 7 115929332.33607      1846.658 7        47.418                                                                    21664168.357 6  90167352.66206      1436.380 6        39.574
R04        40.000    21069096.749 7 112824239.24407     -1428.498 7        43.712                                                                    21069095.744 6  87752114.27806     -1111.171 6        41.066
C12        41.000                                                                                                                                                                                                    25403422.369 5                     -2704.104 5        32.772
C14        42.000                                                                                                                                    25012915.680 5 130248817.54705      2509.905 5        35.967    25012913.074 6 100716648.69206      1940.896 6        39.120    25012910.754 7 105837862.50107      2039.462 7        43.314
C13        43.000                                                                                                                                    38570195.793 5 200845160.74305     -1821.153 5        33.228    38570199.189 5 155306208.19605     -1408.340 5        34.910    38570199.910 5 163203208.17105     -1479.992 5        34.633
C21        46.000                                                                                                                                    23707875.330 5 123453089.14505     -1218.440 5        32.228                                                                    23707867.899 7 100315731.16807      -990.025 7        46.898
C23        47.000                                                                                                                                    25204335.861 5                     -3298.871 5        32.593                                                                    25204331.384 5 106647794.68305     -2680.605 5        34.452
C43        48.000                                                                                                                                    21593433.718 8 112442691.46908      -420.524 8        50.371                                                                    21593432.568 8  91368877.53908      -341.731 8        48.654
C42        50.000                                                                                                                                    23640110.335 5 123100550.09105      1607.413 5        33.569                                                                    23640124.233 5 100029108.04505      1306.169 5        34.014
C34        52.000                                                                                                                                    22814560.768 7 118801767.29107     -2805.073 7        42.519                                                                    22814562.414 6  96535878.19006     -2279.331 6        41.359
C37        54.000                                                                                                                                                                                                                                                                    25268594.507 5 106919712.79705      -819.005 5        35.162
C28        55.000                                                                                                                                    25181553.159 5 131126737.12405      1869.031 5        32.515                                                                    25181534.599 3                      1517.599 3        23.486
I06        58.000    38657720.160 5 151701327.37405      -568.786 5        33.886
I09        60.000    38450291.043 5 150887209.51605        42.411 5        33.671
> 2025 01 02 20 15 55.0000000  0 43
G10         1.000    21015191.046 8 110435733.36108       444.228 8        52.628                                    21015189.438 8  86053734.31108       346.153 8        51.444    21015188.294 7  86053685.29307       346.149 7        45.391
G23         2.000    21248552.645 7 111661909.49307     -2381.253 7        45.541                                    21248548.386 5  87009263.84805     -1855.522 5        32.269    21248548.915 7  87009323.86707     -1855.522 7        42.912
G15         3.000    23985972.769 4                     -2313.348 4        26.826
G21         4.000    23353839.687 5 122725320.04805      1936.108 5        31.457
G08         5.000    21509322.995 6 113032209.67706      1534.039 6        41.001                                    21509331.208 3  88077183.88603      1195.349 3        20.286    21509323.637 5                      1195.132 5        32.868
G30         7.000    25752289.573 4                      -858.784 4        24.301
G07         8.000    25436121.596 5                     -2056.279 5        30.785                                                                                                    25436132.680 4                     -1602.132 4        27.545
E09        10.000    27203855.631 4                       143.773 4        25.940                                                                    27203867.587 4 106753835.04504       107.543 4        29.128
G18        12.000    23715254.243 5 124624297.54005     -3866.411 5        32.665                                                                                                    23715254.132 4                     -3012.921 4        26.922
G27        13.000    20109725.489 7 105677315.89007      -547.301 7        44.290                                    20109722.850 7  82345914.98207      -426.469 7        43.469    20109723.597 7  82345992.96707      -426.456 7        44.384
E27        14.000    25512928.639 6 134071361.93506       375.822 6        37.285                                                                    25512927.178 7 100118224.48807       280.610 7        44.597    25512923.029 6 102730045.31806       288.002 6        39.069
E15        16.000    25356008.011 6 133246728.36506      1095.088 6        41.380                                                                    25356009.440 7  99502441.44907       817.722 7        43.481    25356007.500 6 102098122.44106       838.963 6        37.512
G26        17.000    24422310.638 5                     -4497.768 5        30.196                                                                                                    24422331.085 4                     -3504.895 4        25.098
E06        18.000                                                                                                                                    27530940.264 4                      -710.226 4        28.910
E30        19.000    24685497.006 6 129723165.60506     -2457.164 6        37.611                                                                    24685500.531 6  96871219.22906     -1834.738 6        38.520
R20        20.000    19625858.292 5 104948276.03705     -1083.266 5        30.098                                                                    19625861.068 7  81626452.25607      -842.326 7        45.234
E02        21.000    27060654.145 5 142204696.91405     -4073.078 5        33.760                                                                    27060649.561 5 106191819.73905     -3041.367 5        35.562    27060650.694 5 108962011.33905     -3120.854 5        32.659
S23        22.000    38203317.068 6 200759789.29306      -861.533 6        40.715
R10        23.000    22200552.727 4                     -4607.946 4        29.223
E36        24.000    25857746.915 5 135883441.62505     -3073.671 5        35.762                                                                    25857773.560 5 101471525.40905     -2295.228 5        34.233    25857743.436 5 104118590.18705     -2355.031 5        34.129
G16        26.000    22143231.079 6 116363465.59306     -3870.828 6        41.764                                    22143224.765 3  90672819.30203     -3016.237 3        19.015
S21        27.000    38476608.290 5 202196256.90305      -861.580 5        31.147
R05        28.000    21271911.651 5 113710605.72705      2277.707 5        35.162
R12        30.000                                                                                                                                    23897267.668 4                      1904.113 4        26.335
S36        31.000    38245960.169 5 200983833.19405      -861.155 5        35.600
E34        32.000    23353597.231 5 122723971.91905     -1072.016 5        35.648                                                                    23353596.515 7  91644547.61007      -800.419 7        47.874    23353597.002 8  94035334.21608      -821.341 8        50.926
R11        33.000    21154418.624 7 113042900.90907     -1214.021 7        45.425                                                                    21154442.651 5  87922329.00905      -944.230 5        33.641
C08        36.000                                                                                                                                    39065662.539 3                     -2055.786 3        21.619    39065662.448 4 157301194.96604     -1589.338 4        29.953
C11        38.000                                                                                                                                    21813748.122 8 113589896.28308     -1639.464 8        49.905    21813743.310 8  87834967.72608     -1267.748 8        52.464    21813742.387 8  92301066.26108     -1332.420 8        48.428
R21        39.000    21662450.236 7 115920101.14307      1846.050 7        47.676                                                                    21662442.781 6  90160172.84206      1435.654 6        39.562
R04        40.000    21070432.930 7 112831393.05007     -1432.831 7        43.462                                                                    21070431.498 6  87757678.30906     -1114.390 6        40.813
C12        41.000                                                                                                                                                                                                    25406779.046 5                     -2704.600 5        33.467
C14        42.000                                                                                                                                    25010506.467 6 130236269.80706      2509.576 6        36.189    25010503.307 6 100706946.00406      1940.513 6        39.249    25010501.062 7 105827666.45007      2038.851 7        43.680
C13        43.000                                                                                                                                    38571945.183 5 200854267.41705     -1821.233 5        32.281    38571947.936 5 155313250.02905     -1408.334 5        35.538    38571948.919 5 163210608.07505     -1480.056 5        34.814
C21        46.000                                                                                                                                    23709043.778 5 123459188.18805     -1220.930 5        31.826                                                                    23709038.885 7 100320687.14407      -992.335 7        46.597
C23        47.000                                                                                                                                    25207506.129 5                     -3300.274 5        31.691                                                                    25207499.556 5 106661200.20105     -2681.478 5        34.429
C43        48.000                                                                                                                                    21593838.322 8 112444797.57508      -421.703 8        50.635                                                                    21593836.953 8  91370588.92708      -342.910 8        48.643
C42        50.000                                                                                                                                    23638566.789 5 123092517.73805      1605.790 5        30.641                                                                    23638583.032 5 100022581.17605      1304.322 5        33.084
C34        52.000                                                                                                                                    22817251.585 6 118815795.11906     -2805.818 6        40.868                                                                    22817256.665 7  96547276.90507     -2280.123 7        42.011
C37        54.000                                                                                                                                    25269561.355 6 131585233.29316     -1010.398 6        38.405                                                                    25269560.091 5 106923813.76405      -820.924 5        35.410
C28        55.000                                                                                                                                                                                                                                                                    25179741.813 3                      1518.365 3        22.248
I06        58.000    38658442.849 5 151704168.83205      -568.113 5        33.629
I09        60.000    38450239.328 5 150886998.24105        42.497 5        33.443
> 2025 01 02 20 16  0.0000000  0 43
G10         1.000    21014769.940 8 110433521.34308       441.160 8        52.593                                    21014768.332 8  86052010.65108       343.761 8        51.373    21014767.499 7  86051961.64607       343.709 7        45.238
G23         2.000    21250820.081 7 111673824.72507     -2384.375 7        46.181                                    21250815.848 5  87018548.44305     -1857.954 5        32.910    21250816.893 7  87018608.45707     -1857.945 7        43.045
G15         3.000    23988181.259 4                     -2316.755 4        25.579
G21         4.000    23351998.914 5 122715644.34805      1934.907 5        32.228
G08         5.000    21507864.532 6 113024546.23706      1531.973 6        40.129                                    21507870.887 3  88071212.34503      1193.756 3        22.876    21507866.188 5                      1193.697 5        32.545
G30         7.000    25753110.021 4                      -861.717 4        24.105
G07         8.000    25438074.814 5                     -2058.387 5        31.404                                                                                                    25438083.662 4                     -1604.100 4        26.000
E09        10.000    27203718.405 3                       141.477 3        22.438                                                                    27203731.311 4 106753302.74604       105.267 4        29.630
G18        12.000    23718932.115 5 124643632.32305     -3866.952 5        33.593                                                                                                    23718929.846 4                     -3013.199 4        27.473
G27        13.000    20110248.771 7 105680061.22307      -550.288 7        44.811                                    20110245.449 7  82348054.20307      -428.792 7        43.280    20110246.588 7  82348132.19107      -428.764 7        44.447
E27        14.000    25512571.078 5 134069490.10505       373.561 5        35.567                                                                    25512570.696 7 100116826.70107       278.924 7        44.284    25512567.061 6 102728611.07006       286.058 6        38.913
E15        16.000    25354966.565 6 133241257.00806      1093.977 6        41.213                                                                    25354968.221 7  99498355.69107       816.949 7        43.706    25354966.266 6 102093930.08306       838.253 6        37.754
G26        17.000    24426587.870 5                     -4497.871 5        30.868                                                                                                    24426606.680 4                     -3504.966 4        26.527
E06        18.000                                                                                                                                    27531848.321 4                      -711.542 4        29.062
E30        19.000    24687835.905 6 129735457.67006     -2459.272 6        38.141                                                                    24687839.670 6  96880398.37606     -1836.525 6        39.748
R20        20.000    19626870.267 5 104953697.78105     -1085.323 5        30.906                                                                    19626875.499 7  81630669.19407      -844.056 7        45.872
E02        21.000    27064530.096 5 142225064.84505     -4073.676 5        33.371                                                                    27064525.383 5 106207029.53505     -3041.818 5        35.895    27064526.912 5 108977617.93005     -3121.681 5        32.988
S23        22.000    38204134.481 6 200764098.64806      -861.700 6        40.784
E36        24.000    25860671.533 5 135898813.03505     -3074.377 5        34.981                                                                    25860698.621 5 101483004.09605     -2295.826 5        33.497    25860668.299 5 104130368.26905     -2356.016 5        34.457
G16        26.000    22146915.032 6 116382826.82706     -3873.159 6        41.683                                    22146909.395 3  90687905.97503     -3018.031 3        18.985
S21        27.000    38477431.386 5 202200567.45705      -862.179 5        31.977
R05        28.000    21269782.369 5 113699226.58805      2274.622 5        30.641                                                                    21269776.974 3                      1770.343 3        23.010
R12        30.000    23894948.056 4                      2445.697 4        27.928
S36        31.000    38246778.185 5 200988139.66605      -861.448 5        35.938
E34        32.000    23354618.036 5 122729336.37805     -1073.433 5        35.148                                                                    23354617.240 7  91648553.54107      -801.524 7        47.950    23354617.757 8  94039444.65308      -822.488 8        50.774
R11        33.000    21155557.760 7 113048984.43907     -1218.855 7        45.928                                                                    21155574.994 5  87927060.64405      -947.558 5        32.323
C08        36.000                                                                                                                                    39067641.312 3                     -2055.594 3        23.219    39067636.446 4 157309143.60904     -1589.973 4        29.308
C11        38.000                                                                                                                                    21815323.264 8 113598098.98208     -1641.086 8        49.662    21815318.846 8  87841310.56708     -1269.001 8        52.444    21815317.652 8  92307731.62208     -1333.625 8        48.500
R21        39.000    21660725.766 7 115910875.12007      1844.854 7        47.457                                                                    21660718.735 6  90152997.05506      1434.831 6        40.255
R04        40.000    21071773.473 7 112838570.29307     -1437.591 7        42.068                                                                    21071772.047 6  87763260.64406     -1118.227 6        41.630
C12        41.000                                                                                                                                                                                                    25410137.557 5 102316095.50015     -2704.537 5        34.352
C14        42.000                                                                                                                                    25008098.214 5 130223726.11505      2508.481 5        35.990    25008094.034 6 100697246.43106      1939.740 6        39.715    25008092.155 7 105817473.67307      2038.254 7        44.166
C13        43.000                                                                                                                                    38573693.196 5 200863375.54705     -1821.651 5        31.245    38573696.906 5 155320292.99905     -1408.551 5        35.233    38573698.497 5 163218009.20505     -1480.183 5        35.062
C21        46.000                                                                                                                                    23710216.068 5 123465302.24205     -1224.123 5        31.532                                                                    23710212.947 7 100325655.35007      -994.850 7        46.433
C23        47.000                                                                                                                                    25210676.720 5                     -3301.588 5        32.521                                                                    25210669.543 5 106674611.69805     -2682.582 5        34.338
C43        48.000                                                                                                                                    21594244.411 8 112446911.66408      -423.437 8        50.871                                                                    21594242.860 8  91372306.79508      -344.131 8        48.713
C42        50.000                                                                                                                                    23637024.465 4 123084495.55804      1603.557 4        28.720                                                                    23637043.702 5 100016062.50005      1302.763 5        33.245
C34        52.000                                                                                                                                    22819948.045 6 118829828.92906     -2807.264 6        39.787                                                                    22819952.379 7  96558680.51607     -2281.136 7        42.478
C37        54.000                                                                                                                                    25270530.561 6 131590294.00806     -1013.407 6        38.772                                                                    25270531.205 5 106927926.07605      -823.444 5        35.733
C28        55.000                                                                                                                                                                                                                                                                    25177946.917 3                      1519.171 3        22.038
C22        57.000                                                                                                                                    26385215.868 3                     -3605.744 3        19.433
I06        58.000    38659167.741 5 151707010.35905      -568.230 5        33.856
I09        60.000    38450186.814 5 150886788.14505        41.685 5        33.108
> 2025 01 02 20 16  5.0000000  0 42
G10         1.000    21014352.003 8 110431324.08808       438.139 8        52.418                                    21014349.935 8  86050298.50108       341.406 8        51.454    21014349.638 7  86050249.49007       341.426 7        45.234
G23         2.000    21253090.840 7 111685754.37407     -2387.240 7        46.597                                    21253086.037 5  87027844.28305     -1860.189 5        33.725    21253087.315 7  87027904.29607     -1860.199 7        43.867
G21         4.000    23350161.397 5 122705974.51205      1933.464 5        34.448
G08         5.000    21506405.513 6 113016891.60006      1530.112 6        40.043                                    21506412.946 4  88065247.69404      1192.296 4        24.150    21506407.603 5                      1192.195 5        33.257
G30         7.000    25753924.183 3                      -864.373 3        22.152
G07         8.000    25440033.541 5                     -2060.673 5        31.834
E09        10.000                                                                                                                                    27203597.161 5 106752778.92205       103.797 5        30.158
G18        12.000    23722613.562 5 124662970.01205     -3867.599 5        33.820                                                                                                    23722605.779 4                     -3013.464 4        26.455
G27        13.000    20110774.417 7 105682820.34707      -553.067 7        44.570                                    20110770.596 7  82350204.17007      -430.958 7        43.465    20110771.580 7  82350282.15307      -430.906 7        44.331
E27        14.000    25512216.500 5 134067629.45305       371.274 5        33.701                                                                    25512216.389 7 100115437.23307       277.153 7        44.092    25512213.248 6 102727185.36406       284.391 6        39.258
E15        16.000    25353925.954 6 133235790.34306      1092.936 6        40.863                                                                    25353928.152 7  99494273.44807       816.227 7        43.596    25353925.812 6 102089741.35406       837.536 6        38.126
G26        17.000    24430867.391 5                     -4498.390 5        31.192                                                                                                    24430882.763 4                     -3505.217 4        26.922
E06        18.000                                                                                                                                    27532758.368 4                      -713.975 4        28.863
E30        19.000    24690177.786 6 129747760.50706     -2461.542 6        37.807                                                                    24690181.469 6  96889585.56906     -1838.309 6        40.656    24690179.059 6  99417117.27516     -1886.243 6        40.722
R20        20.000    19627887.720 5 104959129.71505     -1087.479 5        31.343                                                                    19627891.550 7  81634894.04507      -845.647 7        46.340
E02        21.000    27068406.733 5 142245434.73205     -4073.927 5        32.605                                                                    27068401.530 5 106222240.80305     -3042.430 5        35.729    27068403.175 5 108993226.01905     -3121.389 5        33.024
S23        22.000    38204955.261 6 200768408.39406      -861.741 6        40.622
R10        23.000    22209173.452 4                     -4612.236 4        27.042
E36        24.000    25863597.164 5 135914186.58205     -3074.648 5        34.519                                                                    25863623.486 5 101494484.39705     -2296.148 5        32.862    25863593.514 5 104142147.98205     -2356.096 5        34.724
G16        26.000    22150601.141 6 116402198.21306     -3875.155 6        41.561                                    22150596.082 3  90703000.57503     -3019.593 3        19.313
S21        27.000    38478258.698 5 202204878.36605      -862.177 5        31.691
R05        28.000                                                                                                                                    21267655.977 4                      1766.569 4        28.796
R12        30.000    23892658.044 4                      2443.078 4        28.104                                                                    23892667.321 3                      1900.531 3        23.257
S36        31.000    38247600.056 5 200992446.09605      -861.124 5        35.900
E34        32.000    23355640.440 5 122734707.23805     -1074.755 5        35.505                                                                    23355639.126 7  91652564.25207      -802.561 7        47.666    23355639.839 8  94043559.99008      -823.494 8        50.653
R11        33.000    21156700.445 7 113055091.19407     -1223.536 7        44.698                                                                    21156714.692 5  87931810.46905      -952.058 5        33.904
C08        36.000                                                                                                                                    39069614.161 4                     -2057.178 4        24.511    39069610.239 4 157317093.18304     -1589.852 4        29.100
C11        38.000                                                                                                                                    21816899.506 8 113606308.97508     -1642.594 8        49.568    21816895.728 8  87847659.06108     -1270.240 8        52.232    21816894.258 8  92314402.90008     -1334.708 8        48.233
R21        39.000    21659001.137 7 115901654.22707      1843.742 7        46.467                                                                    21658995.510 6  90145825.23006      1434.149 6        40.398
R04        40.000    21073117.339 7 112845770.88507     -1442.298 7        42.686                                                                    21073116.322 7  87768861.11007     -1121.834 7        42.724
C12        41.000                                                                                                                                                                                                    25413496.563 5 102329621.71705     -2705.779 5        33.395
C14        42.000                                                                                                                                    25005688.647 5 130211186.51905      2507.583 5        35.281    25005685.678 6 100687550.02506      1938.919 6        39.679    25005684.044 7 105807284.21207      2037.667 7        44.394
C13        43.000                                                                                                                                    38575441.560 5 200872485.25405     -1822.322 5        31.147    38575447.152 5 155327337.20005     -1409.011 5        34.910    38575447.875 5 163225411.54405     -1480.491 5        35.052
C21        46.000                                                                                                                                    23711390.508 4 123471431.40304     -1226.536 4        26.886                                                                    23711389.998 7 100330635.76607      -997.198 7        46.188
C23        47.000                                                                                                                                    25213848.196 5                     -3303.209 5        34.324                                                                    25213840.374 5 106688029.14605     -2684.160 5        34.348
C43        48.000                                                                                                                                    21594652.076 8 112449033.74908      -425.069 8        50.952                                                                    21594650.305 8  91374031.15008      -345.391 8        48.556
C42        50.000                                                                                                                                    23635489.196 5 123076483.46105      1601.470 5        30.287                                                                    23635505.493 5 100009552.05205      1301.470 5        33.144
C34        52.000                                                                                                                                    22822646.531 6 118843868.71406     -2808.426 6        39.042                                                                    22822648.965 7  96570088.97907     -2282.041 7        42.948
C37        54.000                                                                                                                                    25271502.470 6 131595368.66706     -1016.272 6        38.652                                                                    25271506.294 6 106932049.64606      -825.748 6        36.000
C28        55.000                                                                                                                                                                                                                                                                    25176162.266 3                      1512.986 3        20.381
I06        58.000    38659891.849 5 151709851.96705      -568.363 5        33.653
I09        60.000    38450134.994 5 150886579.13505        41.523 5        32.796
> 2025 01 02 20 16 10.0000000  0 42
G10         1.000    21013936.899 8 110429141.69908       434.993 8        52.246                                    21013934.352 8  86048597.93108       338.959 8        51.442    21013934.208 7  86048548.92807       338.862 7        45.138
G23         2.000    21255363.787 7 111697698.57607     -2390.295 7        46.637                                    21255359.052 5  87037151.46205     -1862.568 5        34.395    21255359.997 7  87037211.47607     -1862.568 7        44.342
G21         4.000    23348330.384 6 122696310.60006      1932.326 6        36.212
G08         5.000    21504952.458 6 113009245.86506      1528.292 6        40.427                                    21504957.344 4  88059289.97604      1190.872 4        24.135    21504952.595 5                      1190.813 5        33.293
G07         8.000    25441994.652 5                     -2062.888 5        30.415                                                                                                    25441993.859 3                     -1606.591 3        23.200
E09        10.000                                                                                                                                    27203465.133 5 106752263.74805       101.993 5        30.226
G18        12.000    23726293.859 5 124682310.62605     -3868.369 5        32.689                                                                                                    23726279.883 4                     -3014.412 4        25.383
G27        13.000    20111301.494 7 105685593.34907      -555.936 7        44.524                                    20111298.350 7  82352364.95007      -433.192 7        43.852    20111299.044 7  82352442.93607      -433.208 7        44.041
E27        14.000    25511863.509 5 134065780.08205       368.735 5        30.974                                                                    25511864.297 7 100114056.16807       275.474 7        43.625    25511861.732 6 102725768.28006       282.612 6        39.450
R03        15.000    23855738.813 4                     -4378.666 4        27.329
E15        16.000    25352887.195 6 133230328.49206      1091.941 6        40.269                                                                    25352888.851 7  99490194.79407       815.343 7        43.528    25352886.502 6 102085556.29906       836.603 6        38.210
G26        17.000    24435147.736 5                     -4498.265 5        31.577                                                                                                    24435160.688 4                     -3504.935 4        27.557
E06        18.000                                                                                                                                    27533669.769 4                      -715.571 4        29.299
E30        19.000    24692521.223 6 129760074.22906     -2463.931 6        37.860                                                                    24692525.383 6  96898780.87506     -1839.783 6        41.630    24692522.274 6  99426552.46506     -1887.931 6        40.496
R20        20.000    19628902.111 5 104964571.80905     -1089.692 5        30.241                                                                    19628909.158 7  81639126.84407      -847.342 7        46.283
E02        21.000    27072283.663 5 142265806.76005     -4074.459 5        32.545                                                                    27072278.473 5 106237453.63305     -3042.805 5        35.362    27072280.430 5 109008835.73605     -3122.070 5        32.796
S23        22.000    38205773.648 6 200772718.45606      -861.980 6        40.629
R10        23.000    22213503.194 4                     -4614.182 4        29.763
E36        24.000    25866523.180 5 135929562.44705     -3075.383 5        34.119                                                                    25866548.565 5 101505966.45705     -2296.657 5        32.096    25866519.446 5 104153929.46705     -2356.528 5        35.329
G16        26.000    22154288.725 6 116421579.92306     -3877.406 6        40.706                                    22154284.836 3  90718103.21203     -3021.388 3        19.403
S21        27.000    38479067.539 5 202209189.49005      -862.541 5        31.668
R05        28.000    21265552.989 6 113676515.80316      2268.095 6        38.967                                                                    21265536.325 5                      1763.940 5        33.245
R12        30.000    23890372.701 4                      2440.239 4        27.425                                                                    23890384.938 3                      1898.439 3        23.924
S36        31.000    38248418.614 5 200996753.09205      -861.149 5        35.914
E34        32.000    23356663.666 5 122740084.58605     -1076.360 5        35.824                                                                    23356662.381 7  91656579.80807      -803.618 7        47.518    23356663.232 8  94047680.30508      -824.514 8        50.361
R11        33.000    21157845.812 7 113061221.28107     -1228.346 7        43.045                                                                    21157864.000 6  87936578.26206      -955.434 6        36.072
C08        36.000                                                                                                                                    39071584.421 4                     -2056.675 4        24.556    39071584.730 4 157325043.73304     -1589.887 4        28.787
C11        38.000                                                                                                                                    21818477.488 8 113614526.36308     -1644.173 8        49.366    21818473.598 8  87854013.26308     -1271.390 8        51.889    21818472.293 8  92321080.19908     -1336.086 8        48.218
R21        39.000    21657276.349 7 115892438.58607      1842.651 7        45.688                                                                    21657273.183 6  90138657.53606      1433.146 6        40.212
R04        40.000    21074467.060 7 112852994.94307     -1447.134 7        44.193                                                                    21074465.506 7  87774479.80007     -1125.446 7        43.376
C12        41.000                                                                                                                                    25416871.214 3                     -3499.110 3        20.714    25416852.618 5 102343150.00105     -2705.653 5        33.365
C14        42.000                                                                                                                                    25003278.762 5 130198651.08005      2506.724 5        34.500    25003278.284 6 100677856.83106      1938.253 6        39.447    25003276.888 7 105797098.13807      2036.808 7        44.688
C13        43.000                                                                                                                                    38577193.456 5 200881596.54505     -1822.777 5        30.181    38577195.947 5 155334382.67305     -1409.243 5        34.795    38577197.746 5 163232815.24905     -1480.821 5        35.386
C21        46.000                                                                                                                                    23712571.249 4                     -1230.243 4        24.571                                                                    23712569.988 7 100335628.51207      -999.759 7        46.179
C23        47.000                                                                                                                                    25217021.331 5 131311642.16515     -3304.868 5        34.962                                                                    25217012.908 5 106701452.61405     -2685.270 5        34.133
C43        48.000                                                                                                                                    21595061.386 8 112451163.92908      -426.843 8        51.178                                                                    21595059.447 8  91375762.09108      -346.869 8        48.451
C42        50.000                                                                                                                                    23633955.022 4 123068481.70604      1599.245 4        28.455                                                                    23633968.910 5 100003049.92605      1299.604 5        33.617
C34        52.000                                                                                                                                    22825344.872 6 118857914.64606     -2809.644 6        38.150                                                                    22825346.625 7  96581502.43207     -2283.141 7        43.289
C37        54.000                                                                                                                                    25272479.487 6 131600457.31506     -1019.051 6        39.811                                                                    25272483.955 5 106936184.59305      -828.235 5        35.957
C28        55.000                                                                                                                                    25174333.554 6 131089371.99706      1867.579 6        37.081                                                                    25174371.010 3                      1516.789 3        23.486
I06        58.000    38660616.197 5 151712693.74005      -568.413 5        33.635
I09        60.000    38450087.107 5 150886371.35905        41.536 5        32.719
> 2025 01 02 20 16 15.0000000  0 43
G10         1.000    21013524.357 8 110426973.88908       432.017 8        51.897                                    21013521.590 8  86046908.72308       336.638 8        51.658    21013521.583 7  86046859.71907       336.654 7        45.258
G23         2.000    21257639.587 7 111709657.00207     -2393.076 7        46.636                                    21257634.777 5  87046469.72405     -1864.737 5        34.910    21257635.420 7  87046529.73707     -1864.837 7        44.853
G21         4.000    23346499.407 6 122686652.35806      1931.016 6        36.000
G08         5.000    21503500.766 6 113001608.76606      1526.583 6        38.904                                    21503503.668 3  88053338.97903      1189.541 3        22.419    21503502.085 5                      1189.598 5        32.725
G30         7.000    25755563.310 3                      -871.067 3        20.857
G07         8.000    25443956.845 4                     -2065.042 4        27.353                                                                                                    25443961.257 3                     -1608.901 3        22.552
E09        10.000                                                                                                                                    27203334.719 5 106751756.90605       100.267 5        30.634
G18        12.000    23729969.201 5 124701653.90805     -3868.932 5        30.770                                                                                                    23729962.582 3                     -3014.669 3        23.790
G27        13.000    20111832.388 7 105688379.95407      -558.676 7        45.654                                    20111828.658 7  82354536.32307      -435.332 7        44.382    20111829.246 7  82354614.30207      -435.371 7        43.816
E27        14.000    25511512.340 4 134063941.69504       366.744 4        25.519                                                                    25511514.354 7 100112683.29907       273.732 7        43.338    25511512.031 6 102724359.61806       280.923 6        39.937
R03        15.000    23859832.069 4                     -4381.396 4        27.293
E15        16.000    25351849.309 6 133224871.16406      1091.036 6        39.015                                                                    25351850.334 7  99486119.50807       814.716 7        43.560    25351848.306 6 102081374.71206       835.971 6        38.529
G26        17.000    24439427.088 5                     -4498.333 5        31.208                                                                                                    24439439.535 4                     -3505.290 4        28.408
E06        18.000                                                                                                                                    27534584.239 4                      -717.243 4        29.393
E30        19.000    24694866.042 6 129772398.55306     -2466.153 6        37.338                                                                    24694870.705 7  96907984.09307     -1841.394 7        42.205    24694867.642 6  99435995.75806     -1889.445 6        40.291
R20        20.000    19629921.795 5 104970024.06005     -1091.506 5        31.200                                                                    19629928.644 7  81643367.47407      -848.948 7        46.311
E02        21.000    27076160.604 5 142286180.58305     -4075.119 5        31.706                                                                    27076155.323 5 106252667.81605     -3042.922 5        35.176    27076157.521 5 109024446.81305     -3122.388 5        32.772
S23        22.000    38206594.057 6 200777028.63806      -861.939 6        40.355
R10        23.000    22217836.670 5                     -4615.887 5        30.249
E36        24.000    25869449.328 5 135944940.28405     -3075.774 5        33.150                                                                    25869467.621 5 101517450.07705     -2296.533 5        32.222    25869446.096 5 104165712.49205     -2356.828 5        35.576
G16        26.000    22157978.890 6 116440971.57806     -3879.277 6        39.997                                    22157975.740 3  90733213.59303     -3022.826 3        18.985
S21        27.000    38479892.245 5 202213500.70505      -862.177 5        31.698
R05        28.000    21263434.683 6 113665183.75706      2264.944 6        38.120                                                                    21263416.868 6  88406227.50016      1761.456 6        36.015
R12        30.000    23888092.553 4                      2437.332 4        25.910
S36        31.000    38249235.101 5 201001060.60505      -861.307 5        35.990
E34        32.000    23357688.419 6 122745468.13806     -1077.384 6        36.363                                                                    23357686.905 7  91660600.01007      -804.518 7        47.525    23357687.757 8  94051805.37908      -825.520 8        50.315
R11        33.000    21158998.100 7 113067374.43507     -1232.918 7        43.382                                                                    21159018.734 6  87941364.06906      -958.875 6        37.951
C08        36.000                                                                                                                                    39073560.533 4                     -2056.491 4        25.729    39073559.483 4 157332995.02604     -1590.016 4        28.521
C11        38.000                                                                                                                                    21820056.593 8 113622750.84008     -1645.647 8        48.518    21820052.683 8  87860372.94708     -1272.501 8        51.535    21820051.722 8  92327763.22908     -1337.043 8        48.135
R21        39.000    21655553.736 7 115883227.87807      1841.611 7        44.996                                                                    21655552.563 6  90131493.64106      1432.370 6        39.895
R04        40.000    21075820.608 7 112860242.30707     -1451.832 7        44.930                                                                    21075818.257 7  87780116.62607     -1129.212 7        43.105
C12        41.000                                                                                                                                                                                                    25420204.253 5 102356680.35005     -2706.171 5        32.778
C14        42.000                                                                                                                                    25000869.685 5 130186119.48905      2505.929 5        33.054    25000871.476 6 100668166.62706      1937.710 6        39.270    25000870.537 7 105786915.19307      2036.455 7        44.904
C13        43.000                                                                                                                                    38578943.293 4 200890709.19404     -1822.609 4        29.441    38578946.170 5 155341429.15405     -1409.562 5        34.995    38578947.695 5 163240220.00905     -1480.913 5        35.381
C21        46.000                                                                                                                                    23713759.918 5                     -1233.310 5        31.525                                                                    23713752.925 7 100340633.32607     -1001.982 7        46.305
C23        47.000                                                                                                                                    25220194.758 5 131328168.85205     -3305.950 5        34.729                                                                    25220186.704 5 106714881.88005     -2686.342 5        33.096
C43        48.000                                                                                                                                    21595472.136 8 112453301.90608      -428.372 8        51.079                                                                    21595470.028 8  91377499.34408      -347.900 8        48.449
C42        50.000                                                                                                                                    23632418.760 4 123060489.88304      1597.511 4        24.722                                                                    23632434.007 5  99996555.87105      1298.266 5        33.754
C34        52.000                                                                                                                                    22828044.249 6 118871966.36706     -2811.071 6        38.105                                                                    22828045.228 7  96592920.59107     -2283.986 7        43.450
C37        54.000                                                                                                                                    25273460.920 6 131605559.64906     -1021.842 6        40.622                                                                    25273463.955 5 106940330.64705      -829.965 5        35.676
C28        55.000                                                                                                                                    25172545.356 6 131080034.80906      1867.230 6        36.446                                                                    25172577.201 4                      1517.082 4        24.045
I06        58.000    38661340.339 5 151715535.41305      -568.343 5        33.844
I09        60.000    38450040.445 5 150886164.63005        41.209 5        32.617
> 2025 01 02 20 16 20.0000000  0 44
G10         1.000    21013114.428 8 110424820.38908       429.111 8        52.123                                    21013111.645 8  86045230.66308       334.373 8        51.783    21013112.199 7  86045181.66807       334.376 7        45.407
G23         2.000    21259917.916 7 111721629.38607     -2395.989 7        46.875                                    21259913.216 5  87055798.85505     -1867.008 5        35.567    21259913.802 7  87055858.86007     -1866.945 7        45.339
G21         4.000    23344663.134 5 122676999.53705      1929.932 5        33.347
G08         5.000    21502045.625 5 112993980.06905      1524.647 5        35.852                                    21502051.800 3  88047394.54803      1188.028 3        20.976    21502052.309 5                      1188.192 5        32.850
G30         7.000    25756390.524 4                      -872.117 4        26.695
G07         8.000    25445930.109 5                     -2067.049 5        30.234
E09        10.000                                                                                                                                    27203207.031 5 106751258.23605        98.981 5        30.649
G18        12.000    23733645.240 4 124720999.57804     -3869.379 4        29.829                                                                                                    23733639.011 3                     -3015.387 3        21.881
G27        13.000    20112365.706 7 105691179.85907      -561.450 7        46.857                                    20112361.461 7  82356718.06507      -437.497 7        44.742    20112362.287 7  82356796.05907      -437.477 7        43.433
E27        14.000    25511163.892 4 134062113.88204       364.924 4        26.922                                                                    25511166.452 7 100111318.41107       272.055 7        42.758    25511164.513 6 102722959.12006       279.081 6        40.243
R03        15.000    23863927.785 4                     -4383.668 4        28.294
E15        16.000    25350811.315 6 133219418.09006      1089.962 6        38.670                                                                    25350812.830 7  99482047.39407       813.995 7        43.465    25350810.616 6 102077196.34906       835.294 6        38.730
G26        17.000    24443708.577 5                     -4498.754 5        30.732                                                                                                    24443720.635 4                     -3505.589 4        28.919
E06        18.000                                                                                                                                    27535501.122 4                      -719.178 4        29.772
E30        19.000    24697212.789 6 129784733.16406     -2468.072 6        36.968                                                                    24697217.892 7  96917195.01007     -1842.945 7        42.408    24697214.843 6  99445446.95506     -1891.036 6        39.859
R20        20.000    19630946.620 5 104975486.11305     -1093.395 5        31.992                                                                    19630950.798 7  81647615.71407      -850.499 7        46.641
E02        21.000    27080037.798 5 142306555.88005     -4075.232 5        31.366                                                                    27080032.885 5 106267883.10805     -3042.902 5        35.357    27080035.093 5 109040059.06205     -3122.904 5        32.689
S23        22.000    38207414.970 6 200781338.49606      -861.979 6        40.489
R10        23.000    22222169.986 4                     -4618.624 4        28.882
E36        24.000    25872376.217 5 135960319.82505     -3076.491 5        32.132                                                                                                                                    25872372.838 6 104177496.79106     -2357.149 6        36.193
G16        26.000    22161671.083 6 116460372.94306     -3881.397 6        38.189                                    22161668.357 2  90748331.55802     -3024.438 2        17.887
S21        27.000    38480711.884 5 202217811.54505      -862.135 5        31.811
R05        28.000    21261310.175 6 113653867.18206      2261.769 6        40.131                                                                    21261300.422 6  88397425.76906      1759.099 6        38.480
R12        30.000    23885810.997 3                      2436.561 3        23.962                                                                    23885842.744 4                      1893.734 4        28.227
S36        31.000    38250054.445 5 201005367.55605      -861.795 5        35.838
E34        32.000    23358714.036 6 122750857.62606     -1078.596 6        37.327                                                                    23358712.572 7  91664624.62507      -805.522 7        47.568    23358713.432 8  94055934.98708      -826.450 8        50.155
R11        33.000    21160153.889 7 113073550.29507     -1237.513 7        42.409                                                                    21160176.137 6  87946167.56006      -962.493 6        36.972
C08        36.000                                                                                                                                    39075535.421 4                     -2057.278 4        26.623    39075534.955 4 157340946.95604     -1590.500 4        28.749
C11        38.000                                                                                                                                    21821636.200 7 113630982.13007     -1647.081 7        47.794    21821633.414 8  87866737.90608     -1273.609 8        51.329    21821632.435 8  92334451.86708     -1338.411 8        48.183
R21        39.000    21653832.696 7 115874021.99407      1840.496 7        43.685                                                                    21653831.858 6  90124333.49506      1431.669 6        39.339
R04        40.000    21077177.915 7 112867512.57207     -1456.488 7        45.085                                                                    21077176.207 7  87785771.26107     -1132.890 7        43.750
C12        41.000                                                                                                                                                                                                    25423561.155 5 102370212.40305     -2706.309 5        32.371
C14        42.000                                                                                                                                    24998464.340 5 130173591.58605      2505.173 5        33.641    24998465.566 6 100658479.24606      1937.191 6        39.039    24998464.687 7 105776735.27407      2035.603 7        45.183
C13        43.000                                                                                                                                    38580694.081 4 200899822.94604     -1823.038 4        28.607    38580697.135 5 155348476.47905     -1409.694 5        35.167    38580697.630 5 163247625.72505     -1481.336 5        35.776
C21        46.000                                                                                                                                    23714944.491 6                     -1236.291 6        37.331                                                                    23714938.685 7 100345650.05707     -1004.605 7        46.499
C23        47.000                                                                                                                                    25223369.626 5 131344702.32605     -3307.395 5        34.948                                                                    25223362.182 5 106728316.77905     -2687.781 5        32.575
C43        48.000                                                                                                                                    21595884.263 8 112455447.42508      -429.972 8        51.181                                                                    21595882.067 8  91379242.79808      -349.415 8        48.644
C42        50.000                                                                                                                                    23630882.387 4 123052507.83204      1595.488 4        27.006                                                                    23630901.328 5  99990069.78205      1296.077 5        34.333
C34        52.000                                                                                                                                    22830745.048 6 118886023.61006     -2812.069 6        38.766                                                                    22830744.871 7  96604343.32307     -2285.159 7        43.850
C37        54.000                                                                                                                                    25274443.857 6 131610675.41306     -1024.606 6        40.822                                                                    25274446.224 5 106944487.70005      -832.728 5        35.419
C28        55.000                                                                                                                                    25170755.596 5 131070698.86305      1866.953 5        35.919                                                                    25170784.125 4                      1516.574 4        25.383
C22        57.000                                                                                                                                    26399088.308 3                     -3612.483 3        19.373
I06        58.000    38662063.886 5 151718376.85805      -568.254 5        34.071
I09        60.000    38449989.485 5 150885958.63105        41.062 5        33.108
> 2025 01 02 20 16 25.0000000  0 40
G10         1.000    21012707.430 8 110422681.30608       426.413 8        52.310                                    21012704.521 8  86043563.84808       332.270 8        51.970    21012705.281 7  86043514.85607       332.351 7        45.862
G23         2.000    21262198.776 7 111733615.84007     -2398.632 7        47.931                                    21262194.321 5  87065138.95305     -1869.068 5        35.910    21262194.427 7  87065198.95307     -1869.001 7        45.550
G08         5.000    21500590.121 5 112986359.89405      1523.097 5        34.224                                    21500601.523 3  88041456.71803      1186.829 3        20.381    21500603.946 5                      1186.981 5        32.096
G30         7.000    25757224.075 4                      -874.964 4        29.365
E09        10.000                                                                                                                                    27203081.519 5 106750767.87705        97.164 5        30.679
G18        12.000    23737325.098 4 124740347.82704     -3870.167 4        28.227                                                                                                    23737321.214 3                     -3017.131 3        21.548
G27        13.000    20112901.256 7 105693993.24607      -563.956 7        47.289                                    20112896.745 7  82358910.31107      -439.448 7        45.049    20112897.354 7  82358988.31007      -439.498 7        43.086
E27        14.000    25510823.890 5 134060296.85505       362.310 5        32.240                                                                    25510820.737 7 100109961.60607       270.497 7        42.463    25510819.003 6 102721566.92706       277.670 6        40.870
E15        16.000    25349774.359 6 133213969.35006      1089.368 6        39.504                                                                    25349776.133 7  99477978.52807       813.558 7        43.518    25349773.148 6 102073021.34706       834.701 6        39.021
G26        17.000    24447989.216 4                     -4498.752 4        29.972                                                                                                    24448000.742 4                     -3505.599 4        29.204
E06        18.000                                                                                                                                    27536420.600 4                      -720.800 4        29.355
E30        19.000    24699563.204 6 129797078.18306     -2469.958 6        36.662                                                                    24699566.860 7  96926413.70507     -1844.388 7        42.419    24699564.141 6  99454906.13706     -1892.538 6        39.688
R20        20.000    19631972.527 5 104980957.97105     -1095.258 5        32.317                                                                    19631973.397 7  81651871.60807      -851.932 7        46.001
E02        21.000    27083915.117 5 142326932.82105     -4075.280 5        31.502                                                                    27083910.545 5 106283099.64605     -3043.445 5        35.548    27083912.764 5 109055672.51805     -3122.608 5        32.796
S23        22.000    38208234.865 6 200785648.27006      -861.841 6        40.594
R10        23.000    22226499.384 4                     -4620.115 4        28.483
E36        24.000    25875303.057 5 135975701.21105     -3076.459 5        32.635                                                                    25875300.336 6 101540421.03006     -2297.401 6        38.447    25875300.038 6 104189282.53306     -2357.250 6        37.006
G16        26.000    22165365.018 5 116479784.10805     -3883.070 5        34.238                                    22165363.057 2  90763457.15802     -3025.781 2        16.151
S21        27.000    38481533.652 5 202222122.27005      -862.011 5        31.336
R05        28.000    21259193.391 7 113642565.99307      2258.808 7        42.521                                                                    21259187.699 6  88388635.97406      1756.892 6        40.040
R12        30.000    23883535.974 4                      2433.060 4        24.045                                                                    23883564.993 4                      1892.103 4        29.242
S36        31.000    38250876.334 6 201009674.99306      -861.359 6        36.110
E34        32.000    23359740.895 6 122756253.14706     -1079.568 6        38.706                                                                    23359739.436 7  91668653.75207      -806.258 7        47.623    23359740.247 8  94060069.22608      -827.254 8        50.275
R11        33.000    21161312.572 6 113079748.98806     -1241.962 6        39.838
C08        36.000                                                                                                                                    39077511.860 4                     -2057.207 4        27.305    39077510.294 4 157348899.48704     -1590.707 4        28.502
C11        38.000                                                                                                                                    21823217.421 7 113639220.36407     -1648.281 7        47.291    21823215.622 8  87873108.23708     -1274.603 8        51.102    21823214.627 8  92341146.10108     -1339.462 8        48.334
R21        39.000    21652112.231 7 115864820.94807      1839.805 7        42.172                                                                    21652112.975 6  90117177.15006      1430.929 6        39.345
R04        40.000    21078539.820 7 112874805.90607     -1460.885 7        44.311                                                                    21078538.224 7  87791443.84407     -1136.229 7        44.677
C12        41.000                                                                                                                                                                                                    25426923.575 5 102383746.34705     -2706.735 5        31.630
C14        42.000                                                                                                                                    24996062.256 5 130161067.42705      2504.724 5        33.671    24996060.465 6 100648794.76706      1936.595 6        38.381    24996059.583 7 105766558.35607      2035.075 7        45.217
C13        43.000                                                                                                                                    38582442.392 4 200908937.79204     -1822.585 4        28.009    38582447.818 5 155355524.73205     -1409.675 5        35.243    38582448.269 5 163255032.34105     -1481.546 5        35.705
C21        46.000                                                                                                                                    23716137.310 6                     -1239.074 6        40.749                                                                    23716127.321 7 100350678.69907     -1006.966 7        46.807
C23        47.000                                                                                                                                    25226545.974 5 131361242.83605     -3308.766 5        34.443                                                                    25226538.746 5 106741757.24305     -2688.327 5        30.966
C43        48.000                                                                                                                                    21596297.551 8 112457600.60208      -431.332 8        50.977                                                                    21596295.684 8  91380992.41208      -350.548 8        48.757
C42        50.000                                                                                                                                                                                                                                                                    23629370.250 5  99983591.60705      1294.852 5        35.857
C34        52.000                                                                                                                                    22833446.402 6 118900086.55506     -2813.035 6        39.084                                                                    22833445.630 7  96615770.59507     -2285.894 7        44.006
C37        54.000                                                                                                                                    25275428.796 6 131615804.77206     -1027.134 6        41.237                                                                    25275431.837 5 106948655.69805      -834.645 5        35.276
C28        55.000                                                                                                                                    25168965.020 5 131061364.29305      1866.865 5        34.324                                                                    25168989.618 4                      1517.027 4        26.563
I06        58.000    38662788.374 5 151721218.13805      -568.366 5        33.964
I09        60.000    38449933.334 5 150885753.44505        41.155 5        32.341
> 2025 01 02 20 16 30.0000000  0 41
G10         1.000    21012302.974 8 110420556.34408       423.851 8        51.562                                    21012300.148 8  86041908.03708       330.268 8        52.023    21012301.081 7  86041859.05207       330.273 7        45.967
G23         2.000    21264482.374 8 111745616.02308     -2401.125 8        48.054                                    21264478.014 6  87074489.75106     -1871.006 6        36.045    21264477.912 7  87074549.74407     -1870.931 7        45.449
G21         4.000    23340967.115 4 122657710.19904      1928.068 4        29.820
G08         5.000    21499144.046 5 112978747.83005      1521.858 5        34.757                                    21499153.236 3  88035525.24303      1185.870 3        19.224    21499157.108 5                      1185.759 5        30.249
E09        10.000    27202972.120 5 142952601.10515       128.048 5        30.491                                                                    27202958.147 5 106750285.54505        95.815 5        31.502
G18        12.000    23741009.001 4 124759698.16804     -3869.846 4        27.916                                                                                                    23741002.624 3                     -3017.076 3        19.045
G27        13.000    20113437.895 7 105696819.75107      -566.254 7        46.758                                    20113434.547 7  82361112.78507      -441.237 7        45.070    20113435.329 7  82361190.78307      -441.284 7        42.470
E27        14.000                                                                                                                                    25510477.076 7 100108612.62707       269.338 7        42.171    25510475.448 6 102720182.77106       276.236 6        41.271
R03        15.000    23872146.006 3                     -4387.032 3        22.609                                                                    23872118.357 3                     -3411.417 3        19.284
E15        16.000    25348738.571 6 133208524.62706      1088.893 6        40.303                                                                    25348740.108 7  99473912.68407       813.070 7        43.399    25348736.830 6 102068849.43306       834.426 6        38.985
G26        17.000    24452268.121 4                     -4498.285 4        28.663                                                                                                    24452279.665 4                     -3505.221 4        28.663
E06        18.000                                                                                                                                    27537341.025 4                      -722.503 4        29.915
E30        19.000    24701915.568 6 129809433.27306     -2471.593 6        37.006                                                                    24701917.991 7  96935639.92907     -1845.809 7        42.542    24701915.461 6  99464373.04506     -1893.835 6        39.090
R20        20.000    19632991.788 5 104986439.34005     -1096.912 5        31.026                                                                    19632998.083 7  81656134.90007      -853.199 7        45.490
E02        21.000    27087792.603 5 142347311.04205     -4075.780 5        31.894                                                                    27087788.411 5 106298317.11405     -3043.145 5        35.433    27087790.604 5 109071286.99705     -3122.690 5        32.317
S23        22.000    38209055.484 6 200789957.68406      -861.572 6        40.338
R10        23.000    22230825.486 5                     -4621.765 5        30.075
E36        24.000    25878230.086 5 135991084.12805     -3076.670 5        30.845                                                                    25878231.288 6 101551908.23906     -2297.447 6        39.625    25878227.162 6 104201069.42306     -2357.222 6        37.353
G16        26.000    22169060.661 5 116499204.75805     -3884.665 5        30.121                                    22169059.349 2  90778590.17802     -3027.022 2        14.524
S21        27.000    38482355.223 5 202226432.66505      -861.681 5        31.411
R05        28.000    21257083.476 7 113631279.91007      2256.071 7        43.318                                                                    21257076.568 6  88379857.94206      1754.706 6        39.517
R12        30.000    23881258.953 4                      2430.488 4        27.581                                                                    23881286.746 4                      1889.507 4        27.437
S36        31.000    38251693.268 5 201013981.99405      -861.018 5        35.986
E34        32.000    23360768.721 6 122761654.40206     -1080.709 6        39.787                                                                    23360767.249 7  91672687.15107      -806.861 7        47.633    23360768.131 8  94064207.84608      -827.960 8        50.169
R11        33.000    21162476.530 6 113085970.25406     -1246.269 6        39.270
C08        36.000                                                                                                                                    39079487.240 4                     -2056.977 4        27.317    39079484.399 4 157356852.44504     -1590.295 4        27.593
C11        38.000                                                                                                                                    21824801.392 7 113647465.20607     -1649.304 7        47.660    21824799.014 8  87879483.67708     -1275.392 8        50.755    21824798.126 8  92347845.71408     -1340.296 8        48.641
R21        39.000    21650391.869 6 115855624.38506      1839.173 6        40.353                                                                    21650394.301 6  90110024.28006      1430.421 6        39.712
R04        40.000    21079903.009 6 112882121.87506     -1465.123 6        41.201                                                                    21079905.441 7  87797134.07007     -1139.543 7        45.293
C12        41.000                                                                                                                                                                                                    25430286.934 5 102397281.90005     -2706.786 5        31.419
C14        42.000                                                                                                                                    24993659.697 5 130148546.79605      2503.878 5        34.281    24993655.853 6 100639113.01006      1936.220 6        37.380    24993655.229 7 105756384.27907      2034.787 7        45.350
C13        43.000                                                                                                                                    38584192.840 4 200918053.62404     -1822.417 4        26.731    38584197.823 5 155362573.63505     -1409.833 5        35.129    38584198.766 6 163262439.66706     -1481.480 6        36.174
C21        46.000                                                                                                                                    23717327.534 7 123502333.93417     -1241.686 7        42.965                                                                    23717318.692 7 100355719.04007     -1009.027 7        47.566
C23        47.000                                                                                                                                    25229723.427 5 131377789.94605     -3309.593 5        34.471                                                                    25229715.481 5 106755203.15905     -2689.583 5        30.030
C43        48.000                                                                                                                                    21596712.184 8 112459761.12008      -432.462 8        50.873                                                                    21596710.714 8  91382748.01208      -351.452 8        49.165
C42        50.000                                                                                                                                    23627840.062 6 123036572.72506      1591.903 6        36.053                                                                    23627841.230 6  99977121.18706      1293.600 6        37.546
C34        52.000                                                                                                                                    22836148.908 6 118914154.85006     -2813.863 6        39.399                                                                    22836147.283 7  96627202.23407     -2286.576 7        44.056
C37        54.000                                                                                                                                    25276417.502 6 131620947.31606     -1029.513 6        41.452                                                                    25276420.108 5 106952834.47405      -836.692 5        35.767
C28        55.000                                                                                                                                    25167179.329 5 131052030.59605      1866.966 5        34.067                                                                    25167196.877 4                      1516.693 4        27.641
I06        58.000    38663512.457 5 151724058.94705      -568.062 5        34.109
I09        60.000    38449881.916 5 150885548.92805        40.848 5        32.617
> 2025 01 02 20 16 35.0000000  0 43
G10         1.000    21011901.381 8 110418445.70808       420.959 8        51.235                                    21011898.480 8  86040263.39308       328.015 8        51.965    21011899.281 7  86040214.40307       327.995 7        46.233
G23         2.000    21266768.417 8 111757630.16608     -2403.990 8        48.192                                    21266764.364 5  87083851.42305     -1873.234 5        35.757    21266764.198 7  87083911.41507     -1873.277 7        45.466
G21         4.000    23339142.059 4 122648073.53804      1927.068 4        28.995
G08         5.000    21497700.857 5 112971144.24505      1520.289 5        35.200                                    21497706.603 3  88029600.38703      1184.648 3        18.448    21497704.886 4                      1184.201 4        26.431
G30         7.000    25758908.477 4                      -879.980 4        27.341
E09        10.000    27202848.883 5 142951966.14005       126.244 5        31.079                                                                    27202837.157 5 106749811.45605        94.011 5        31.577
G18        12.000    23744693.050 4 124779051.03004     -3870.807 4        28.682
G27        13.000    20113978.026 7 105699659.62407      -569.101 7        46.948                                    20113974.938 7  82363325.67007      -443.456 7        44.757    20113976.094 7  82363403.66807      -443.467 7        42.354
E27        14.000    25510162.465 6 134056694.89906       358.260 6        37.603                                                                    25510135.678 6 100107271.69206       267.543 6        41.957    25510133.503 6 102718806.86306       274.585 6        41.664
R03        15.000                                                                                                                                    23876220.610 3                     -3418.158 3        21.310
E15        16.000    25347704.485 6 133203084.20306      1087.850 6        41.182                                                                    25347704.728 7  99469850.02707       812.413 7        43.420    25347702.343 6 102064680.82006       833.525 6        39.048
G26        17.000    24456549.029 4                     -4498.729 4        28.047                                                                                                    24456561.767 4                     -3505.791 4        28.929
E06        18.000                                                                                                                                    27538264.907 4                      -724.339 4        29.649
E30        19.000    24704269.580 6 129821798.72006     -2473.899 6        37.543                                                                    24704270.897 7  96944873.87607     -1847.387 7        42.354    24704268.662 6  99473847.89006     -1895.718 6        38.366
R20        20.000    19634020.117 5 104991930.33705     -1098.685 5        31.645                                                                    19634025.562 7  81660405.68907      -854.756 7        45.037
E02        21.000    27091669.263 5 142367690.75105     -4075.701 5        32.096                                                                    27091666.743 5 106313535.70805     -3043.663 5        35.652    27091668.833 5 109086902.61605     -3122.815 5        31.879
S23        22.000    38209874.381 6 200794266.90106      -861.539 6        40.355
R10        23.000    22235161.444 5                     -4624.094 5        31.517
E36        24.000    25881158.752 5 136006468.76105     -3076.993 5        30.287                                                                    25881159.239 6 101563396.74706     -2297.618 6        40.398    25881154.680 6 104212857.63406     -2357.379 6        37.524
G16        26.000    22172757.535 5 116518635.13205     -3887.166 5        30.626                                    22172757.220 1  90793730.65801     -3028.966 1        11.630
S21        27.000    38483172.681 5 202230742.93205      -861.980 5        31.509
R05        28.000    21254976.900 7 113620009.37707      2252.805 7        42.978                                                                    21254967.626 6  88371091.95706      1752.073 6        37.410
R12        30.000                                                                                                                                    23879010.185 4                      1887.737 4        28.114
S36        31.000    38252512.384 5 201018288.65605      -861.009 5        35.805
E34        32.000    23361797.687 6 122767061.60006     -1081.736 6        41.025                                                                    23361796.246 7  91676724.99607      -807.860 7        47.757    23361797.074 8  94068351.02508      -828.912 8        50.010
R11        33.000    21163646.476 6 113092214.30506     -1250.757 6        41.256                                                                    21163642.413 6  87960684.02406      -972.851 6        37.168
C08        36.000                                                                                                                                    39081462.025 4                     -2057.502 4        27.341    39081461.647 4 157364805.95104     -1590.557 4        27.713
C11        38.000                                                                                                                                    21826387.808 7 113655716.90207     -1650.735 7        47.784    21826383.824 8  87885864.41808     -1276.477 8        50.736    21826382.865 8  92354550.90808     -1341.568 8        48.673
R21        39.000    21648675.926 6 115846432.47106      1838.157 6        41.795                                                                    21648676.886 6  90102875.01706      1429.636 6        38.886
R04        40.000    21081272.967 6 112889460.80506     -1469.815 6        39.859                                                                    21081276.197 7  87802842.16007     -1143.176 7        45.822
C12        41.000                                                                                                                                    25433649.404 4                     -3501.371 4        26.000    25433649.538 5 102410819.26505     -2707.884 5        31.185
C14        42.000                                                                                                                                    24991254.324 5 130136029.80105      2503.350 5        34.462    24991251.978 6 100629434.10306      1935.716 6        37.376    24991251.529 7 105746213.22307      2033.943 7        45.330
C13        43.000                                                                                                                                    38585940.797 4 200927170.44904     -1823.133 4        26.251    38585949.681 5 155369623.32905     -1409.819 5        35.500    38585949.513 6 163269847.84506     -1481.784 6        36.359
C21        46.000                                                                                                                                    23718520.755 7 123508551.41107     -1244.694 7        44.597                                                                    23718512.937 7 100360771.27607     -1011.655 7        47.934
C23        47.000                                                                                                                                    25232904.653 5 131394343.88705     -3311.153 5        35.371                                                                    25232894.502 4 106768654.66304     -2691.061 4        28.616
C43        48.000                                                                                                                                    21597128.603 8 112461929.20908      -434.130 8        50.699                                                                    21597127.139 8  91384509.77208      -352.937 8        49.279
C42        50.000                                                                                                                                    23626311.277 6 123028619.69706      1589.866 6        37.784                                                                    23626314.305 6  99970658.72506      1291.692 6        39.102
C34        52.000                                                                                                                                    22838853.105 6 118928228.71706     -2815.038 6        40.658                                                                    22838850.035 7  96638638.40907     -2287.646 7        43.881
C37        54.000                                                                                                                                    25277408.453 6 131626103.33106     -1032.301 6        40.973                                                                    25277410.635 5 106957024.17105      -838.767 5        35.786
C28        55.000                                                                                                                                                                                                                                                                    25165407.245 4                      1515.473 4        27.545
C22        57.000                                                                                                                                    26409486.847 3                     -3609.905 3        20.524
I06        58.000    38664236.042 5 151726899.51005      -567.571 5        34.081
I09        60.000    38449831.901 5 150885345.23905        40.661 5        32.156
> 2025 01 02 20 16 40.0000000  0 43
G10         1.000    21011502.646 8 110416349.52208       417.807 8        51.767                                    21011499.504 8  86038630.00708       325.564 8        52.016    21011500.348 7  86038581.01407       325.567 7        46.423
G23         2.000    21269056.984 7 111769658.32807     -2406.968 7        47.928                                    21269053.267 5  87093224.01705     -1875.555 5        35.590    21269053.009 7  87093284.00507     -1875.610 7        45.312
G21         4.000    23337305.965 4 122638442.40904      1926.524 4        25.368                                    23337298.952 1  95562334.69701      1501.082 1         6.625
G08         5.000    21496258.471 5 112963549.12805      1518.291 5        34.833                                    21496261.482 2  88023682.11802      1183.089 2        17.094
G30         7.000    25759746.088 4                      -883.185 4        28.919
G07         8.000                                                                                                                                                                    25453824.136 3                     -1618.019 3        21.238
E09        10.000    27202728.770 5 142951342.38805       123.617 5        30.166                                                                    27202718.217 5 106749345.64405        92.008 5        31.992
G18        12.000    23748375.570 4 124798406.35904     -3870.943 4        28.957
G27        13.000    20114521.475 7 105702512.94607      -572.063 7        47.136                                    20114517.928 7  82365549.03507      -445.762 7        44.370    20114519.061 7  82365627.02707      -445.731 7        42.474
E27        14.000    25509819.880 6 134054910.02106       356.020 6        38.408                                                                    25509796.017 6 100105938.82906       265.724 6        41.511    25509793.961 7 102717439.24007       272.787 7        42.277
R03        15.000                                                                                                                                    23880322.040 3                     -3416.171 3        20.381
E15        16.000    25346669.826 7 133197648.13607      1086.847 7        42.362                                                                    25346670.150 7  99465790.61907       811.604 7        42.995    25346669.153 6 102060515.51206       832.749 6        39.321
G26        17.000    24460828.179 4                     -4499.250 4        27.329                                                                                                    24460840.130 4                     -3505.363 4        28.616
E06        18.000                                                                                                                                    27539190.824 4                      -726.195 4        27.856
E30        19.000    24706624.858 6 129834174.57306     -2476.308 6        36.760                                                                    24706625.682 6  96954115.57206     -1849.061 6        41.933    24706624.138 6  99483330.67906     -1897.457 6        37.682
R20        20.000    19635049.296 5 104997431.15605     -1100.935 5        33.156                                                                    19635053.784 7  81664684.09707      -856.363 7        44.391
E02        21.000    27095547.265 5 142388072.08405     -4076.035 5        32.204                                                                    27095545.636 5 106328755.50905     -3044.069 5        35.376    27095548.239 5 109102519.48305     -3123.618 5        31.094
S23        22.000    38210693.595 6 200798576.02706      -861.767 6        40.462
R10        23.000    22239502.442 5                     -4625.979 5        31.019
E36        24.000    25884087.438 4 136021855.23904     -3077.738 4        28.976                                                                    25884086.756 6 101574886.63206     -2298.123 6        40.486    25884082.655 6 104224647.24706     -2357.995 6        37.970
G16        26.000    22176459.369 5 116538075.02905     -3889.061 5        32.868                                    22176456.764 1  90808878.71001     -3030.436 1         9.238
S21        27.000    38483994.882 5 202235053.06605      -862.005 5        31.924
R05        28.000    21252870.112 6 113608754.23906      2249.565 6        40.574                                                                    21252860.903 5  88362337.92105      1749.484 5        35.048
R12        30.000                                                                                                                                    23876731.835 4                      1886.076 4        29.554
S36        31.000    38253340.354 6 201022595.88106      -861.550 6        36.072
E34        32.000    23362827.223 6 122772474.83806     -1083.240 6        41.921                                                                    23362826.344 7  91680767.33707      -808.893 7        47.711    23362827.162 8  94072498.82108      -830.025 8        50.158
R11        33.000    21164818.822 7 113098481.22207     -1255.545 7        42.000                                                                    21164817.851 6  87965558.27606      -976.642 6        36.113
C08        36.000                                                                                                                                    39083438.196 4                     -2057.576 4        28.284    39083435.658 4 157372760.22004     -1591.740 4        26.527
C11        38.000                                                                                                                                    21827974.046 7 113663975.54807     -1652.465 7        47.408    21827969.965 8  87892250.52508     -1277.756 8        50.887    21827968.886 8  92361261.70708     -1342.804 8        48.641
R21        39.000    21646961.100 7 115837245.40507      1836.911 7        42.154                                                                    21646958.777 6  90095729.50106      1428.843 6        38.456
R04        40.000    21082650.086 6 112896822.85206     -1474.652 6        39.492                                                                    21082650.310 7  87808568.18007     -1146.931 7        45.065
C12        41.000                                                                                                                                    25437014.479 4                     -3502.143 4        27.916    25437011.525 4 102424358.42804     -2708.199 4        29.972
C14        42.000                                                                                                                                    24988850.953 5 130123516.64505      2502.150 5        34.767    24988849.304 6 100619758.11606      1934.825 6        38.138    24988848.523 7 105736045.22507      2033.157 7        45.118
C13        43.000                                                                                                                                    38587691.249 4 200936288.40604     -1823.942 4        26.395    38587700.253 5 155376673.93205     -1410.034 5        35.657    38587700.743 6 163277256.92706     -1482.123 6        36.412
C21        46.000                                                                                                                                    23719717.657 7 123514783.58007     -1247.883 7        45.743                                                                    23719709.988 8 100365835.41908     -1014.157 8        48.253
C23        47.000                                                                                                                                    25236086.342 6 131410904.70506     -3312.688 6        36.382                                                                    25236074.699 4 106782111.69104     -2691.700 4        28.019
C43        48.000                                                                                                                                    21597546.242 8 112464104.95908      -435.913 8        50.194                                                                    21597544.979 8  91386277.73108      -354.339 8        49.382
C42        50.000                                                                                                                                    23624778.337 6 123020676.58406      1587.694 6        39.183                                                                    23624788.809 6  99964204.24006      1289.951 6        40.110
C34        52.000                                                                                                                                    22841559.136 6 118942308.22806     -2816.382 6        41.988                                                                    22841553.751 7  96650079.15107     -2288.820 7        43.672
C37        54.000                                                                                                                                    25278401.317 6 131631272.87206     -1035.283 6        39.946                                                                    25278403.273 5 106961224.87205      -841.468 5        35.948
C28        55.000                                                                                                                                    25163623.106 5 131033367.23205      1865.936 5        34.333                                                                    25163617.455 4                      1516.611 4        26.335
I06        58.000    38664959.878 5 151729739.94805      -567.990 5        34.257
I09        60.000    38449782.738 5 150885142.39105        40.377 5        32.341
> 2025 01 02 20 16 45.0000000  0 42
G10         1.000    21011106.736 8 110414267.84008       414.767 8        52.422                                    21011103.256 8  86037007.92608       323.195 8        52.130    21011104.018 7  86036958.92407       323.170 7        46.240
G23         2.000    21271348.473 7 111781700.58307     -2410.002 7        47.346                                    21271344.745 5  87102607.58305     -1877.919 5        35.319    21271344.447 7  87102667.57107     -1877.964 7        45.047
G21         4.000    23335474.567 3 122628816.93203      1924.182 3        23.467                                    23335468.842 1  95554834.39401      1499.311 1         6.125
G08         5.000    21494813.768 5 112955962.63405      1516.352 5        35.700                                    21494818.655 2  88017770.51702      1181.581 2        15.476
G30         7.000    25760587.581 4                      -886.000 4        28.104
G07         8.000                                                                                                                                                                    25455793.599 3                     -1619.518 3        21.571
E09        10.000    27202612.643 4 142950729.76404       121.209 4        28.806                                                                    27202601.659 5 106748888.09705        90.654 5        31.917
G18        12.000    23752064.754 4 124817764.26204     -3872.160 4        26.982
G27        13.000    20115066.934 7 105705379.78307      -574.855 7        46.679                                    20115063.577 7  82367782.93007      -447.941 7        43.905    20115064.478 7  82367860.92707      -447.928 7        42.322
E27        14.000                                                                                                                                    25509458.699 6 100104614.09906       264.123 6        41.149    25509456.421 7 102716079.97407       270.979 7        42.474
E15        16.000    25345635.656 7 133192216.48807      1085.805 7        43.268                                                                    25345636.309 7  99461734.51807       810.828 7        42.756    25345636.619 6 102056353.61106       831.872 6        39.372
G26        17.000    24465109.454 4                     -4499.346 4        27.269                                                                                                    24465121.360 4                     -3506.127 4        28.246
E06        18.000                                                                                                                                    27540116.776 4                      -728.254 4        27.569
E30        19.000    24708981.274 5 129846560.87305     -2478.469 5        35.743                                                                    24708982.414 6  96963365.08606     -1850.739 6        41.654    24708981.400 6  99492821.46606     -1899.011 6        36.771
R20        20.000    19636084.126 5 105002941.81405     -1103.366 5        35.143                                                                    19636084.585 7  81668970.14807      -858.040 7        44.074
E02        21.000    27099425.898 5 142408455.04405     -4076.736 5        32.353                                                                    27099424.269 5 106343976.51605     -3044.468 5        35.252    27099427.271 5 109118137.54905     -3123.713 5        30.838
S23        22.000    38211513.297 6 200802885.15206      -861.948 6        40.312
R10        23.000    22243842.693 5                     -4628.137 5        32.036
E36        24.000    25887022.973 4 136037243.59804     -3077.789 4        27.389                                                                    25887014.787 6 101586377.89406     -2298.420 6        40.903    25887011.006 6 104236438.31906     -2358.605 6        37.788
G16        26.000    22180160.480 5 116557524.90005     -3890.960 5        33.216                                    22180158.252 1  90824034.44401     -3031.856 1         7.250
S21        27.000    38484815.658 5 202239363.29305      -862.053 5        32.102
R05        28.000                                                                                                                                    21250760.115 5  88353596.13205      1746.898 5        34.495
R12        30.000                                                                                                                                    23874458.091 5                      1884.046 5        30.717
S36        31.000    38254154.713 5 201026903.88005      -861.669 5        35.905
E34        32.000    23363858.341 7 122777894.15807     -1084.595 7        42.294                                                                    23363857.722 8  91684814.23008      -809.948 8        48.124    23363858.427 8  94076651.29008      -831.069 8        50.013
R11        33.000    21165996.685 7 113104771.03907     -1260.400 7        43.852                                                                    21165994.754 5  87970450.31105      -980.242 5        34.290
C08        36.000                                                                                                                                    39085413.888 4                     -2057.699 4        28.540    39085409.092 4 157380715.07304     -1591.267 4        26.754
C11        38.000                                                                                                                                    21829560.263 7 113672241.17607     -1653.875 7        47.066    21829557.410 8  87898642.03708     -1278.958 8        50.766    21829556.223 8  92367978.20808     -1343.990 8        48.615
R21        39.000    21645245.576 6 115828063.36006      1835.881 6        41.518                                                                    21645242.855 6  90088587.94606      1427.870 6        37.939
R04        40.000    21084031.933 6 112904207.90306     -1479.391 6        40.348                                                                    21084029.049 7  87814312.12107     -1150.718 7        44.403
C12        41.000                                                                                                                                    25440382.957 4                     -3502.765 4        26.946    25440373.557 4 102437899.47104     -2708.103 4        28.986
C14        42.000                                                                                                                                    24986448.958 5 130111007.34505      2501.342 5        34.576    24986447.888 6 100610085.12806      1934.198 6        38.823    24986446.093 7 105725880.37007      2032.571 7        44.879
C13        43.000                                                                                                                                    38589443.919 4 200945407.60204     -1823.411 4        26.934    38589452.025 5 155383725.50105     -1410.447 5        35.714    38589451.960 6 163284667.05406     -1482.303 6        36.446
C21        46.000                                                                                                                                    23720917.816 7 123521030.53807     -1251.030 7        46.020                                                                    23720909.820 8 100370911.57908     -1016.523 8        48.545
C23        47.000                                                                                                                                    25239266.576 6 131427472.48806     -3314.397 6        36.726                                                                    25239256.574 4 106795574.43004     -2692.838 4        26.874
C43        48.000                                                                                                                                    21597965.301 8 112466288.42408      -437.592 8        50.014                                                                    21597964.332 8  91388051.96608      -355.516 8        49.686
C42        50.000                                                                                                                                    23623254.330 6 123012743.38306      1585.596 6        40.768                                                                    23623265.266 6  99957757.87506      1288.138 6        40.436
C34        52.000                                                                                                                                    22844264.300 7 118956393.45807     -2817.753 7        42.544                                                                    22844258.377 7  96661524.54107     -2289.527 7        42.900
C37        54.000                                                                                                                                    25279394.882 6 131636456.04306     -1038.043 6        37.902                                                                    25279398.425 5 106965436.62305      -843.592 5        35.810
C28        55.000                                                                                                                                    25161833.841 5 131024037.67205      1865.546 5        35.381                                                                    25161827.425 4                      1516.510 4        25.985
I06        58.000    38665683.155 5 151732580.19305      -568.041 5        33.898
I09        60.000    38449731.336 5 150884940.47605        39.783 5        31.992
> 2025 01 02 20 16 50.0000000  0 43
G10         1.000    21010713.316 8 110412200.69008       411.889 8        52.586                                    21010709.762 8  86035397.16308       320.951 8        52.216    21010710.768 7  86035348.16307       320.923 7        46.386
G23         2.000    21273642.706 7 111793756.93307     -2412.779 7        47.163                                    21273638.822 5  87112002.13405     -1880.086 5        35.005    21273638.532 7  87112062.13307     -1880.094 7        44.996
G15         3.000    24010455.980 4                     -2348.978 4        24.150
G21         4.000    23333648.868 4 122619196.92504      1923.209 4        26.180                                    23333638.978 1  95547338.28401      1498.572 1         4.429
G08         5.000    21493367.748 6 112948384.78906      1514.772 6        38.153                                    21493377.719 2  88011865.63302      1180.274 2        14.143
G30         7.000    25761430.356 5                      -888.775 5        31.404
G07         8.000    25457729.362 4                     -2080.001 4        29.649                                                                                                    25457772.386 3                     -1619.600 3        22.000
E09        10.000    27202497.496 4 142950128.33204       118.894 4        27.593                                                                    27202488.198 5 106748438.96305        88.865 5        32.245
G27        13.000    20115614.510 7 105708260.20707      -577.559 7        45.518                                    20115611.910 7  82370027.40907      -450.043 7        43.363    20115612.762 7  82370105.39207      -449.956 7        42.944
E27        14.000    25509127.502 6 134051372.93706       351.563 6        36.465                                                                    25509123.429 6 100103297.55606       262.361 6        40.958    25509120.810 7 102714729.08707       269.244 7        42.624
R03        15.000    23888537.123 4                     -4397.651 4        27.018
E15        16.000    25344602.652 7 133186789.29507      1084.893 7        43.780                                                                    25344603.202 7  99457681.73307       810.263 7        42.408    25344604.675 6 102052195.10906       831.128 6        38.943
G26        17.000    24469389.946 4                     -4499.430 4        27.377                                                                                                    24469403.730 4                     -3506.125 4        27.353
E06        18.000                                                                                                                                    27541044.767 4                      -730.007 4        25.940
E30        19.000    24711340.350 6 129858957.65306     -2480.479 6        36.246                                                                    24711341.134 6  96972622.42906     -1852.165 6        41.485    24711339.441 5  99502320.30805     -1900.625 5        35.129
R20        20.000    19637117.667 5 105008462.36605     -1105.242 5        35.686                                                                    19637116.302 7  81673263.90307      -859.606 7        43.278
E02        21.000    27103303.902 5 142428839.65405     -4076.676 5        32.575                                                                    27103303.606 5 106359198.78405     -3044.687 5        35.124    27103308.044 4 109133756.94304     -3123.714 4        29.573
S23        22.000    38212333.836 6 200807194.19906      -861.929 6        40.408
R10        23.000    22248186.230 5                     -4629.936 5        33.916
E36        24.000                                                                                                                                    25889943.531 6 101597870.60006     -2298.751 6        41.271    25889939.553 6 104248230.81506     -2358.667 6        37.660
G16        26.000    22183860.055 5 116576984.63705     -3893.147 5        33.581                                    22183861.766 1  90839197.97901     -3033.663 1         6.375
S21        27.000    38485635.239 5 202243673.83805      -862.187 5        31.879
R05        28.000    21248653.052 6 113586290.90206      2243.132 6        36.544                                                                    21248660.545 5  88344866.48305      1744.721 5        32.341
R12        30.000    23872279.367 4                      2419.759 4        29.242                                                                    23872191.055 5                      1881.944 5        30.309
S36        31.000    38254978.072 6 201031212.10806      -861.826 6        36.144
E34        32.000    23364890.492 7 122783319.59207     -1085.746 7        42.415                                                                    23364890.236 8  91688865.69308      -810.850 8        48.224    23364890.752 8  94080808.43708      -831.896 8        49.974
R11        33.000    21167179.165 7 113111083.79707     -1264.945 7        45.223                                                                    21167175.837 5  87975360.29005      -983.861 5        34.671
C08        36.000                                                                                                                                    39087393.131 4                     -2058.057 4        29.024    39087383.702 4 157388670.72204     -1592.112 4        26.503
C11        38.000                                                                                                                                    21831148.332 7 113680513.85507     -1655.296 7        47.071    21831145.831 8  87905038.99508     -1279.999 8        50.318    21831144.883 8  92374700.42608     -1345.052 8        48.520
R21        39.000    21643528.266 6 115818886.09006      1834.874 6        40.770                                                                    21643527.286 6  90081450.10306      1427.057 6        37.043
R04        40.000    21085415.111 7 112911616.15107     -1484.071 7        42.059                                                                    21085412.498 7  87820074.07007     -1154.292 7        43.835
C12        41.000                                                                                                                                    25443742.621 4                     -3502.071 4        24.571    25443734.408 4 102451442.51404     -2709.008 4        28.607
C14        42.000                                                                                                                                    24984047.826 5 130098501.97005      2500.448 5        34.390    24984047.322 6 100600415.14806      1933.628 6        40.083    24984044.344 7 105715718.70707      2032.030 7        44.492
C13        43.000                                                                                                                                    38591197.516 4 200954528.15904     -1824.342 4        27.581    38591203.132 5 155390778.03205     -1410.709 5        35.795    38591203.454 6 163292078.19806     -1482.562 6        36.518
C21        46.000                                                                                                                                    23722120.081 7 123527292.26507     -1253.909 7        45.711                                                                    23722112.510 8 100375999.74608     -1018.964 8        48.631
C23        47.000                                                                                                                                    25242448.525 6 131444047.25706     -3315.702 6        36.590                                                                    25242441.182 4 106809042.79204     -2693.804 4        26.850
C43        48.000                                                                                                                                    21598386.010 8 112468479.65008      -439.106 8        50.234                                                                    21598385.126 8  91389832.51408      -356.805 8        49.739
C42        50.000                                                                                                                                    23621736.324 7 123004820.13907      1583.658 7        42.032                                                                    23621743.641 6  99951319.59506      1286.794 6        40.415
C34        52.000                                                                                                                                    22846969.827 7 118970484.42007     -2818.833 7        43.245                                                                    22846964.163 7  96672974.61707     -2290.548 7        42.245
C37        54.000                                                                                                                                    25280391.191 5 131641652.86805     -1040.795 5        34.571                                                                    25280396.235 5 106969659.42705      -845.789 5        35.024
C28        55.000                                                                                                                                    25160037.341 5 131014709.59805      1865.364 5        34.857                                                                    25160040.314 4                      1515.405 4        24.617
I06        58.000    38666407.723 5 151735420.35905      -568.294 5        34.329
I09        60.000    38449680.085 5 150884739.44805        40.079 5        32.186
> 2025 01 02 20 16 55.0000000  0 41
G10         1.000    21010322.511 8 110410148.14608       409.160 8        52.220                                    21010319.063 8  86033797.78108       318.827 8        52.173    21010320.010 7  86033748.78907       318.734 7        46.393
G23         2.000    21275939.559 7 111805827.48607     -2415.516 7        46.723                                    21275935.537 5  87121407.74905     -1882.219 5        34.462    21275935.735 7  87121467.74907     -1882.311 7        44.272
G21         4.000    23331820.192 4 122609582.68404      1922.564 4        24.602                                    23331810.679 1  95539846.73101      1498.120 1         4.286
G08         5.000    21491929.264 6 112940815.63206      1512.964 6        39.318                                    21491938.465 2  88005967.49802      1178.948 2        14.048
G30         7.000    25762277.192 5                      -891.549 5        30.770
E09        10.000    27202383.502 4 142949538.19904       116.798 4        28.654                                                                    27202377.615 5 106747998.22905        87.584 5        32.216
G18        12.000    23759487.639 3                     -3872.711 3        18.627                                                                                                    23759424.484 3                     -3017.849 3        22.457
G27        13.000    20116165.089 7 105711154.26207      -580.051 7        45.228                                    20116162.877 7  82372282.50107      -451.982 7        42.811    20116163.798 7  82372360.49507      -452.061 7        43.027
E27        14.000    25508797.590 5 134049620.97005       349.386 5        33.677                                                                    25508790.199 6 100101989.22306       260.884 6        40.765    25508787.453 7 102713386.63707       267.715 7        43.154
R03        15.000    23892650.904 5                     -4399.679 5        30.732
E15        16.000    25343570.468 7 133181366.64207      1084.098 7        44.092                                                                    25343571.121 7  99453632.35007       809.498 7        42.174    25343570.081 6 102048040.10006       830.771 6        38.471
G26        17.000    24473669.906 4                     -4498.759 4        26.707                                                                                                    24473684.464 4                     -3506.435 4        26.790
E06        18.000                                                                                                                                    27541972.638 4                      -731.240 4        24.030
E30        19.000    24713700.900 6 129871364.99606     -2482.434 6        37.490                                                                    24713701.879 6  96981887.68206     -1853.905 6        41.240    24713699.591 5  99511827.16205     -1902.199 5        33.539
R20        20.000    19638147.789 6 105013992.92506     -1107.064 6        36.181                                                                    19638149.829 7  81677565.45307      -861.097 7        42.743
E02        21.000    27107182.871 5 142449225.98305     -4076.966 5        32.509                                                                    27107182.821 5 106374422.33905     -3044.935 5        34.929    27107190.129 4 109149377.71804     -3124.657 4        29.763
S23        22.000    38213153.225 6 200811503.49506      -862.087 6        40.236
R10        23.000    22252527.667 5 118618506.85015     -4631.816 5        32.509
E36        24.000    25892884.215 3                     -3077.050 3        20.476                                                                    25892872.754 6 101609364.79006     -2298.881 6        41.535    25892869.119 6 104260024.86206     -2358.848 6        38.072
G16        26.000    22187562.465 5 116596454.16305     -3894.897 5        32.024                                    22187567.181 1  90854369.11401     -3035.011 1         6.000
S21        27.000    38486457.074 5 202247984.56005      -861.893 5        31.328
R05        28.000    21246561.059 6 113575082.79306      2239.975 6        39.513                                                                    21246559.054 4  88336148.92604      1742.435 4        29.185
S36        31.000    38255798.114 5 201035519.88705      -861.822 5        35.433
E34        32.000    23365924.339 7 122788751.23907     -1086.854 7        42.027                                                                    23365923.948 8  91692921.79108      -811.694 8        48.649    23365924.212 8  94084970.35008      -832.877 8        50.008
R11        33.000    21168364.622 7 113117419.59307     -1269.559 7        46.956                                                                    21168362.638 6  87980288.11006      -987.397 6        36.503
C08        36.000                                                                                                                                    39089368.224 4                     -2057.879 4        29.100    39089357.325 4 157396627.16904     -1591.441 4        25.203
C11        38.000                                                                                                                                    21832738.315 7 113688793.63807     -1656.636 7        46.986    21832735.428 8  87911441.45308     -1281.031 8        49.674    21832734.876 8  92381428.46408     -1346.217 8        48.389
R21        39.000    21641812.511 6 115809713.92806      1834.137 6        38.327                                                                    21641811.419 5  90074316.23605      1426.157 5        35.767
R04        40.000    21086804.201 7 112919047.55507     -1488.551 7        43.678                                                                    21086800.667 7  87825854.03307     -1157.895 7        43.860
C12        41.000                                                                                                                                    25447096.861 3                     -3502.469 3        23.867    25447095.913 4 102464987.49504     -2709.537 4        29.545
C14        42.000                                                                                                                                    24981644.432 5 130086000.56405      2499.832 5        34.538    24981646.839 6 100590748.29206      1933.042 6        40.868    24981643.427 7 105705560.33407      2031.299 7        44.090
C13        43.000                                                                                                                                    38592951.206 4 200963649.95804     -1824.288 4        29.611    38592955.578 6 155397831.57506     -1410.625 6        36.087    38592955.116 6 163299490.43106     -1482.733 6        36.499
C21        46.000                                                                                                                                    23723325.031 7 123533568.86607     -1256.740 7        44.974                                                                    23723317.954 8 100381100.04408     -1021.357 8        48.701
C23        47.000                                                                                                                                    25245630.655 6 131460629.10806     -3317.024 6        36.026                                                                    25245626.611 4 106822517.04804     -2695.512 4        26.192
C43        48.000                                                                                                                                    21598808.274 8 112470678.70408      -440.564 8        50.893                                                                    21598807.317 8  91391619.46308      -358.068 8        49.664
C42        50.000                                                                                                                                    23620217.355 7 122996906.96307      1581.605 7        42.787                                                                    23620224.195 6  99944889.53806      1285.056 6        39.964
C34        52.000                                                                                                                                    22849676.908 7 118984581.21907     -2819.934 7        43.879                                                                    22849670.713 6  96684429.45306     -2291.362 6        41.807
C37        54.000                                                                                                                                    25281390.120 5 131646863.42205     -1043.108 5        30.460                                                                    25281397.570 5 106973893.41305      -847.784 5        35.352
C28        55.000                                                                                                                                                                                                                                                                    25158252.465 4                      1516.224 4        24.677
I06        58.000    38667131.163 5 151738260.45005      -568.123 5        34.367
I09        60.000    38449631.012 5 150884539.47705        39.769 5        31.592
> 2025 01 02 20 17  0.0000000  0 42
G10         1.000    21009934.496 8 110408109.77708       406.372 8        52.424                                    21009931.109 8  86032209.44908       316.653 8        51.936    21009932.080 7  86032160.45607       316.617 7        46.463
G23         2.000    21278239.449 7 111817911.75107     -2418.202 7        46.649                                    21278234.814 5  87130824.05005     -1884.313 5        33.862    21278235.172 7  87130884.05507     -1884.339 7        44.038
G21         4.000    23329987.299 4 122599973.87404      1921.745 4        26.707                                    23329983.467 1  95532359.19601      1497.354 1         4.571
G08         5.000    21490494.794 6 112933254.76006      1511.387 6        41.025                                    21490501.102 2  88000075.83002      1177.703 2        15.857    21490510.810 4                      1177.284 4        25.910
G30         7.000    25763123.214 5                      -894.448 5        30.770
G07         8.000                                                                                                                                                                    25461748.736 3                     -1625.364 3        21.167
E09        10.000    27202267.986 4 142948958.86104       115.007 4        29.384                                                                    27202267.466 5 106747565.64105        85.855 5        32.377
G18        12.000                                                                                                                                                                    23763112.102 3                     -3017.973 3        23.581
G27        13.000    20116719.063 7 105714061.50507      -582.671 7        46.225                                    20116716.379 7  82374547.87907      -454.028 7        42.354    20116716.557 7  82374625.88607      -454.087 7        42.296
E27        14.000    25508473.518 5 134047879.58805       347.396 5        30.604                                                                    25508458.807 6 100100688.81006       259.361 6        40.350    25508456.113 7 102712052.30707       266.089 7        43.261
R03        15.000                                                                                                                                    23896743.752 3                     -3424.442 3        23.695
E15        16.000    25342539.205 7 133175948.06607      1083.372 7        44.310                                                                    25342539.860 6  99449586.01406       808.983 6        41.502    25342534.715 6 102043888.21306       830.112 6        38.042
G26        17.000    24477952.611 4                     -4499.053 4        27.210                                                                                                    24477966.512 4                     -3506.645 4        26.695
E06        18.000                                                                                                                                    27542901.600 3                      -734.060 3        23.162
E30        19.000    24716063.702 6 129883782.44906     -2484.438 6        39.159                                                                    24716064.568 6  96991160.45506     -1855.277 6        41.213    24716059.748 5  99521341.73705     -1903.509 5        30.558
R20        20.000    19639183.551 6 105019533.04206     -1108.748 6        36.049                                                                    19639186.573 7  81681874.43507      -862.422 7        42.597
E02        21.000    27111061.642 5 142469613.67005     -4077.553 5        32.521                                                                    27111062.906 5 106389646.85905     -3044.970 5        34.800
S23        22.000    38213975.690 6 200815812.30006      -861.769 6        40.346
R10        23.000    22256873.160 4 118641671.06104     -4633.708 4        29.962
E36        24.000                                                                                                                                    25895801.767 6 101620860.12206     -2299.110 6        41.516    25895798.472 6 104271820.06006     -2359.102 6        37.837
G16        26.000    22191272.109 5 116615933.14405     -3896.802 5        34.067                                    22191274.478 1  90869547.55101     -3036.553 1         5.429
S21        27.000    38487270.449 5 202252294.92005      -861.836 5        31.147
R05        28.000    21244472.444 7 113563889.99807      2237.156 7        42.394                                                                    21244466.731 4  88327443.46804      1740.026 4        28.597
S36        31.000    38256611.140 5 201039826.53805      -861.278 5        35.781
E34        32.000    23366959.343 6 122794188.62406     -1087.868 6        41.793                                                                    23366958.727 8  91696982.17708      -812.428 8        48.787    23366958.768 8  94089136.65608      -833.618 8        49.622
R11        33.000    21169554.714 7 113123777.94007     -1273.884 7        46.712                                                                    21169552.891 6  87985233.46606      -990.745 6        38.595
C08        36.000                                                                                                                                    39091340.921 4                     -2058.280 4        28.796
C11        38.000                                                                                                                                    21834329.463 7 113697080.10107     -1657.858 7        46.814    21834326.687 8  87917849.06808     -1281.967 8        48.857    21834326.129 8  92388161.88408     -1347.362 8        48.272
R21        39.000    21640100.632 6 115800546.37606      1833.290 6        36.684                                                                    21640099.491 5  90067185.93605      1425.764 5        34.067
R04        40.000    21088197.081 7 112926501.77107     -1493.101 7        43.306                                                                    21088193.240 7  87831651.75707     -1161.262 7        44.451
C12        41.000                                                                                                                                    25450456.583 3                     -3509.199 3        21.786    25450458.659 4 102478534.09904     -2709.610 4        29.336
C14        42.000                                                                                                                                    24979244.452 5 130073502.70005      2499.301 5        35.076    24979247.705 6 100581084.18606      1932.639 6        41.707    24979243.267 7 105695404.80507      2030.700 7        43.644
C13        43.000                                                                                                                                    38594705.182 4 200972772.66204     -1824.397 4        29.488    38594707.372 6 155404885.83606     -1410.954 6        36.420    38594707.164 6 163306903.37006     -1482.719 6        36.654
C21        46.000                                                                                                                                    23724532.752 7 123539859.90407     -1259.624 7        42.474                                                                    23724526.122 8 100386212.01508     -1023.668 8        48.740
C23        47.000                                                                                                                                    25248813.018 5 131477217.62305     -3318.751 5        34.690                                                                    25248810.372 4 106835996.59104     -2696.575 4        26.467
C43        48.000                                                                                                                                    21599231.961 8 112472885.15708      -441.951 8        51.166                                                                    21599230.932 8  91393412.38008      -359.269 8        49.699
C42        50.000                                                                                                                                    23618698.257 7 122989003.43407      1579.818 7        42.133                                                                    23618706.653 6  99938467.26006      1283.462 6        38.865
C34        52.000                                                                                                                                    22852385.144 7 118998683.37807     -2820.973 7        43.509                                                                    22852378.611 6  96695888.61906     -2292.361 6        41.390
C37        54.000                                                                                                                                    25282389.953 4 131652087.29004     -1046.129 4        28.768                                                                    25282402.382 5 106978138.15505      -850.261 5        35.867
C28        55.000                                                                                                                                    25156425.935 6 130996057.46906      1865.040 6        36.809                                                                    25156459.541 4                      1515.090 4        25.278
I06        58.000    38667854.548 5 151741100.13505      -567.621 5        34.195
I09        60.000    38449579.224 5 150884340.14405        39.832 5        31.268
> 2025 01 02 20 17  5.0000000  0 44
G10         1.000    21009549.739 8 110406086.37208       403.030 8        52.373                                    21009546.022 8  86030632.77408       314.046 8        52.028    21009546.753 7  86030583.79007       314.064 7        46.160
G23         2.000    21280541.607 7 111830010.48607     -2421.427 7        46.262                                    21280536.917 5  87140251.62805     -1886.831 5        33.443    21280537.661 7  87140311.64307     -1886.827 7        44.036
G15         3.000    24017112.590 3                     -2357.651 3        22.057
G21         4.000    23328158.398 4 122590370.94704      1919.758 4        29.573                                    23328156.867 1  95524876.43501      1495.937 1         5.286
G08         5.000    21489064.676 6 112925702.93306      1509.360 6        41.931                                    21489065.993 2  87994191.24502      1176.131 2        17.509    21489077.074 4                      1176.325 4        28.777
G07         8.000    25463720.853 4                     -2086.301 4        28.768                                                                                                    25463730.023 4                     -1625.941 4        24.060
E09        10.000    27202154.903 5 142948391.22605       112.122 5        30.966                                                                    27202159.073 5 106747141.70805        83.624 5        30.936
G18        12.000    23766804.626 3                     -3874.905 3        23.962                                                                                                    23766799.956 4                     -3018.369 4        25.579
G27        13.000    20117275.091 7 105716982.71907      -585.841 7        45.708                                    20117272.461 7  82376824.14207      -456.500 7        42.375    20117271.500 6  82376902.17706      -456.714 6        40.670
E27        14.000                                                                                                                                    25508129.750 6 100099396.86006       257.456 6        39.964    25508127.052 7 102710726.65507       264.138 7        43.465
R03        15.000    23900900.806 5                     -4404.682 5        33.832                                                                    23900866.852 4                     -3425.800 4        24.150
E15        16.000    25341509.029 7 133170534.33807      1082.074 7        44.686                                                                    25341509.306 6  99445543.30106       807.981 6        41.023    25341504.362 6 102039740.04406       829.015 6        37.448
G26        17.000    24482235.978 4                     -4499.781 4        27.401                                                                                                    24482254.055 4                     -3506.271 4        25.925
E06        18.000                                                                                                                                    27543830.928 3                      -733.753 3        22.609
E30        19.000    24718428.816 6 129896210.77306     -2486.959 6        39.661                                                                    24718429.520 6  97000441.35006     -1857.075 6        40.818    24718419.500 4  99530864.70604     -1905.493 4        29.981
R20        20.000    19640222.043 6 105025083.56006     -1111.169 6        36.423                                                                    19640223.953 7  81686191.49907      -864.416 7        42.419
E02        21.000    27114941.329 5 142490003.36405     -4078.287 5        32.222                                                                    27114943.040 5 106404872.88105     -3045.242 5        34.448    27114963.454 5 109180622.91205     -3125.178 5        30.038
S23        22.000    38214793.022 6 200820121.57706      -861.952 6        40.324
R10        23.000    22261219.890 4 118664845.58504     -4635.630 4        26.216
E36        24.000    25898724.355 4                     -3079.222 4        29.308                                                                    25898731.135 6 101632357.16906     -2299.773 6        41.304    25898728.030 6 104283617.03706     -2359.752 6        37.660
G16        26.000    22194987.929 6 116635422.32206     -3899.040 6        36.998                                    22194983.774 1  90884734.01201     -3038.238 1         8.857
S21        27.000    38488095.977 5 202256605.79805      -862.391 5        31.804
R05        28.000    21242381.992 7 113552713.32907      2233.498 7        43.204
R12        30.000                                                                                                                                    23865435.148 4                      1875.979 4        29.583
S36        31.000    38257435.202 5 201044133.00405      -861.560 5        35.624
E34        32.000    23367995.036 6 122799632.51706     -1089.574 6        41.769                                                                    23367994.887 8  91701047.43008      -813.701 8        48.957    23367994.514 8  94093307.95808      -834.896 8        49.484
R11        33.000    21170748.047 7 113130159.60907     -1278.827 7        46.813                                                                    21170747.315 6  87990196.98806      -994.636 6        38.535
C08        36.000                                                                                                                                    39093317.557 4                     -2058.379 4        29.403    39093308.254 4                     -1592.863 4        25.338
C11        38.000                                                                                                                                    21835922.755 7 113705373.98007     -1659.731 7        46.742    21835919.566 8  87924262.42808     -1283.425 8        48.378    21835918.951 8  92394901.31908     -1348.598 8        48.157
R21        39.000    21638388.443 6 115791383.96506      1831.697 6        37.887                                                                    21638386.578 5  90060059.60505      1424.763 5        33.365
R04        40.000    21089592.218 7 112933979.47207     -1498.117 7        43.007                                                                    21089590.019 7  87837467.79607     -1165.201 7        45.157
C12        41.000                                                                                                                                    25453819.320 3                     -3506.896 3        22.362    25453822.900 4 102492082.93004     -2709.999 4        27.737
C14        42.000                                                                                                                                    24976848.703 5 130061009.15405      2498.239 5        35.790    24976848.821 7 100571423.42107      1931.655 7        42.163    24976843.801 7 105685252.79507      2029.982 7        43.219
C13        43.000                                                                                                                                    38596457.426 5 200981897.01505     -1825.289 5        30.309    38596459.656 6 155411941.32706     -1411.124 6        36.348    38596459.215 6 163314317.60506     -1482.875 6        36.730
C21        46.000                                                                                                                                    23725743.045 6 123546166.10106     -1263.012 6        39.739                                                                    23725737.163 8 100391336.31608     -1026.202 8        48.574
C23        47.000                                                                                                                                    25251998.957 5 131493813.41205     -3320.032 5        33.347                                                                    25251993.940 4 106849482.03104     -2696.682 4        26.910
C43        48.000                                                                                                                                    21599657.280 8 112475099.77908      -443.932 8        51.374                                                                    21599656.163 8  91395211.93208      -360.639 8        49.544
C42        50.000                                                                                                                                    23617181.228 6 122981110.31206      1577.470 6        40.374                                                                    23617191.261 6  99932053.42006      1281.909 6        36.851
C34        52.000                                                                                                                                    22855094.671 7 119012791.67207     -2822.499 7        42.554                                                                    22855088.102 6  96707352.75206     -2293.313 6        40.901
C37        54.000                                                                                                                                    25283392.856 5 131657324.99205     -1048.938 5        31.751                                                                    25283409.927 5 106982394.25305      -852.350 5        35.390
C28        55.000                                                                                                                                    25154635.148 6 130986733.82106      1864.382 6        37.372                                                                    25154665.674 4                      1514.703 4        24.797
C22        57.000                                                                                                                                    26430324.666 3                     -3621.458 3        19.642
I06        58.000    38668578.199 5 151743940.08305      -568.210 5        34.229
I09        60.000    38449529.051 5 150884142.01705        39.826 5        31.087
> 2025 01 02 20 17 10.0000000  0 43
G10         1.000    21009167.439 8 110404077.17408       400.638 8        52.913                                    21009163.631 8  86029067.16908       312.184 8        52.087    21009164.096 7  86029018.18007       312.147 7        45.440
G23         2.000    21282846.443 7 111842122.96307     -2423.708 7        46.289                                    21282841.739 5  87149689.91905     -1888.606 5        33.335    21282842.813 7  87149749.93107     -1888.653 7        44.402
G15         3.000    24019368.590 3                     -2360.205 3        19.731
G21         4.000    23326340.143 5 122580773.32605      1919.365 5        31.042                                    23326330.531 1  95517397.70901      1495.763 1         4.429
G08         5.000    21487631.954 6 112918159.44806      1508.038 6        41.704                                    21487631.975 3  87988313.19503      1175.101 3        19.075    21487642.237 5                      1175.063 5        32.814
G07         8.000    25465694.730 3                     -2088.744 3        23.200                                                                                                    25465713.608 4                     -1627.313 4        25.278
E09        10.000    27202047.232 5 142947834.40305       110.209 5        31.419                                                                    27202052.175 5 106746725.84105        82.237 5        30.845
G18        12.000    23770490.974 4                     -3874.555 4        24.692                                                                                                    23770486.339 4                     -3019.206 4        25.474
G27        13.000    20117833.064 7 105719917.18907      -588.135 7        46.318                                    20117830.926 7  82379110.73607      -458.285 7        42.248    20117830.229 6  82379188.74506      -458.137 6        40.036
E27        14.000    25507834.335 4 134044430.45604       343.709 4        27.497                                                                    25507802.565 6 100098112.82206       256.185 6        38.937    25507800.067 7 102709409.13807       262.862 7        43.515
R03        15.000    23905012.456 5 127965422.90715     -4406.597 5        33.479                                                                    23904986.705 4                     -3427.207 4        26.240
E15        16.000    25340479.515 7 133165124.73807      1081.741 7        44.802                                                                    25340480.105 6  99441503.65206       807.701 6        40.932    25340475.925 6 102035595.02706       828.952 6        36.964
G26        17.000    24486521.563 4                     -4499.916 4        28.919                                                                                                    24486540.906 4                     -3505.649 4        25.504
E30        19.000    24720795.323 6 129908649.23606     -2488.448 6        39.015                                                                    24720796.002 6  97009729.82006     -1858.485 6        40.615    24720786.244 5  99540395.45405     -1906.941 5        30.234
R20        20.000    19641261.873 6 105030643.56606     -1112.647 6        36.155                                                                    19641264.064 7  81690515.92007      -865.450 7        42.218
E02        21.000    27118821.458 5 142510394.32605     -4077.964 5        31.645                                                                    27118823.679 5 106420099.92005     -3045.483 5        34.305    27118842.727 5 109196247.15505     -3124.675 5        30.649
S23        22.000    38215615.175 6 200824430.64406      -861.720 6        40.300
R10        23.000    22265568.191 3 118688029.53603     -4636.735 3        22.457
E36        24.000    25901658.061 5                     -3079.882 5        31.645                                                                    25901660.855 6 101643855.36706     -2299.589 6        41.116    25901658.165 6 104295415.20506     -2359.703 6        37.437
G16        26.000    22198701.321 6 116654920.95506     -3900.459 6        39.336                                    22198694.876 1  90899927.81101     -3039.270 1         9.810
S21        27.000    38488917.991 5 202260916.44305      -861.822 5        31.743
R05        28.000    21240292.237 7 113541552.04207      2230.810 7        43.041
R12        30.000                                                                                                                                    23863177.051 5                      1873.786 5        30.287
S36        31.000    38258251.108 5 201048438.78705      -861.130 5        35.543
E34        32.000    23369032.388 6 122805082.19406     -1090.383 6        41.847                                                                    23369032.110 8  91705116.99208      -814.204 8        49.231    23369031.367 8  94097483.67708      -835.387 8        49.294
R11        33.000    21171947.086 7 113136563.90107     -1282.986 7        47.497                                                                    21171946.255 6  87995178.12206      -997.696 6        36.053
C08        36.000                                                                                                                                    39095295.154 4                     -2058.601 4        27.928    39095285.153 4 157420500.07114     -1591.189 4        24.812
C11        38.000                                                                                                                                    21837517.652 7 113713674.55507     -1660.630 7        46.765    21837513.661 7  87930680.95407     -1284.066 7        47.993    21837512.941 8  92401646.20208     -1349.494 8        48.094
R21        39.000    21636678.610 6 115782226.43206      1831.280 6        41.044                                                                    21636677.377 5  90052937.08105      1424.423 5        34.281
R04        40.000    21090992.821 7 112941479.95207     -1502.186 7        45.407                                                                    21090990.878 7  87843301.51207     -1168.374 7        45.694
C12        41.000                                                                                                                                    25457188.714 3                     -3505.589 3        23.067
C14        42.000                                                                                                                                    24974454.487 6 130048519.25706      2497.694 6        36.234    24974449.243 7 100561765.46307      1931.342 7        42.417    24974444.963 7 105675103.74207      2029.479 7        42.817
C13        43.000                                                                                                                                    38598211.894 5 200991022.28605     -1824.956 5        31.087    38598212.048 6 155418997.60006     -1411.405 6        36.582    38598211.477 6 163321732.65106     -1483.184 6        37.059
C21        46.000                                                                                                                                    23726956.654 6 123552486.73106     -1265.347 6        38.159                                                                    23726950.787 8 100396472.36608     -1028.450 8        48.405
C23        47.000                                                                                                                                    25255186.808 5 131510415.80405     -3320.932 5        31.177                                                                    25255183.939 4 106862972.87704     -2698.702 4        28.777
C43        48.000                                                                                                                                    21600083.857 8 112477321.82808      -444.957 8        51.722                                                                    21600082.847 8  91397017.52808      -361.776 8        49.660
C42        50.000                                                                                                                                    23615667.834 6 122973226.86006      1575.960 6        38.369                                                                    23615679.057 5  99925647.43105      1280.433 5        34.890
C34        52.000                                                                                                                                    22857803.838 6 119026905.36906     -2823.114 6        39.931                                                                    22857798.744 6  96718821.30506     -2294.171 6        40.903
C37        54.000                                                                                                                                                                                                                                                                    25284418.354 5 106986661.17605      -854.470 5        34.667
C28        55.000                                                                                                                                    25152848.049 6 130977411.31006      1864.523 6        37.327                                                                    25152878.331 4                      1515.647 4        25.053
C22        57.000                                                                                                                                    26433805.494 3                     -3627.468 3        21.738
I06        58.000    38669302.142 5 151746779.60505      -567.974 5        34.181
I09        60.000    38449481.586 5 150883944.60705        39.613 5        31.170
> 2025 01 02 20 17 15.0000000  0 43
G10         1.000    21008787.749 8 110402082.71508       397.323 8        53.664                                    21008784.035 8  86027513.05108       309.601 8        52.048    21008784.646 7  86027464.07207       309.598 7        44.841
G23         2.000    21285153.733 7 111854249.67907     -2426.834 7        46.132                                    21285149.489 5  87159139.30805     -1891.039 5        32.868    21285150.723 7  87159199.32207     -1891.069 7        44.928
G15         3.000    24021618.626 3                     -2365.302 3        20.619
G21         4.000    23324517.563 5 122571181.53205      1917.741 5        31.464                                    23324505.264 1  95509923.54901      1494.302 1         2.600
G08         5.000    21486198.893 6 112910624.81106      1506.045 6        41.359                                    21486198.887 3  87982442.01903      1173.545 3        20.357    21486209.650 6  87982428.96916      1173.641 6        36.401
G30         7.000    25765659.899 4                      -902.072 4        24.647
E09        10.000    27201944.930 5 142947289.00005       107.783 5        31.706                                                                    27201947.143 5 106746318.53205        80.147 5        31.034
G18        12.000    23774177.102 4                     -3876.012 4        24.827                                                                                                    23774174.811 4                     -3018.962 4        25.895
G27        13.000    20118394.316 7 105722865.38207      -591.128 7        47.206                                    20118391.842 6  82381408.02306      -460.618 6        41.998    20118390.809 6  82381486.04606      -460.666 6        39.417
E27        14.000    25507500.761 4 134042722.13804       340.616 4        28.976                                                                    25507477.313 6 100096837.13406       254.329 6        38.375    25507475.185 7 102708100.16307       260.905 7        43.361
R03        15.000                                                                                                                                    23909102.284 4                     -3428.496 4        24.917
E15        16.000    25339451.072 7 133159719.76607      1080.479 7        45.100                                                                    25339451.674 6  99437467.45706       807.041 6        40.737    25339448.166 6 102031453.55606       827.793 6        36.907
G26        17.000    24490808.092 4                     -4499.671 4        28.692                                                                                                    24490828.620 4                     -3507.099 4        24.150
E06        18.000                                                                                                                                    27545692.952 3                      -738.963 3        21.500
E30        19.000    24723163.235 6 129921098.34606     -2490.912 6        38.072                                                                    24723164.516 6  97019026.19406     -1859.923 6        40.298    24723156.703 5  99549934.34405     -1908.438 5        31.396
R20        20.000    19642304.234 6 105036213.54806     -1115.094 6        36.087                                                                    19642305.707 7  81694848.11607      -867.292 7        42.097
E02        21.000    27122701.548 5 142530787.11105     -4078.587 5        31.615                                                                    27122703.740 5 106435328.28105     -3045.938 5        33.826    27122722.146 5 109211872.79905     -3125.028 5        30.143
S23        22.000    38216435.669 6 200828739.92806      -861.901 6        40.243
R10        23.000    22269911.572 4                     -4640.429 4        24.301
E36        24.000    25904589.536 5                     -3080.132 5        33.479                                                                    25904590.936 6 101655355.12606     -2300.160 6        40.803    25904588.431 6 104307214.95406     -2360.153 6        37.108
G16        26.000    22202412.369 6 116674429.55106     -3902.679 6        40.758                                    22202407.910 1  90915129.30901     -3041.068 1        11.704
S21        27.000    38489740.439 5 202265227.09305      -862.005 5        31.366
R05        28.000    21238205.906 7 113530406.64217      2227.404 7        43.160
R12        30.000    23860851.098 5                      2406.503 5        31.094                                                                    23860919.516 5                      1871.806 5        31.615
S36        31.000    38259068.887 5 201052744.49805      -861.072 5        35.786
E34        32.000    23370071.438 7 122810538.15207     -1091.930 7        42.497                                                                    23370070.453 8  91709191.24108      -815.341 8        49.385    23370069.478 8  94101664.21708      -836.613 8        49.025
R11        33.000    21173150.454 7 113142991.25807     -1287.835 7        46.485                                                                    21173151.679 5  88000177.26305     -1002.007 5        33.725
C08        36.000                                                                                                                                    39097272.761 4                     -2058.672 4        28.493    39097258.074 3                     -1591.800 3        23.962
C11        38.000                                                                                                                                    21839112.784 7 113721982.32107     -1662.324 7        46.849    21839108.918 7  87937105.05607     -1285.375 7        47.662    21839108.408 7  92408396.93407     -1350.762 7        47.876
R21        39.000    21634974.025 6 115773073.96106      1829.933 6        41.890                                                                    21634968.455 6  90045818.49706      1423.294 6        36.302
R04        40.000    21092399.480 7 112949003.69807     -1507.201 7        47.195                                                                    21092395.810 7  87849153.29407     -1172.225 7        45.466
C12        41.000                                                                                                                                    25460560.604 3                     -3505.472 3        21.952
C14        42.000                                                                                                                                    24972056.132 6 130036033.50006      2496.610 6        36.272    24972050.296 7 100552110.69007      1930.590 7        42.516    24972046.927 7 105664958.04607      2028.736 7        42.461
C13        43.000                                                                                                                                    38599965.843 5 201000148.96005     -1825.819 5        32.838    38599965.288 6 155426054.91606     -1411.602 6        36.870    38599964.125 6 163329148.80806     -1483.315 6        36.809
C21        46.000                                                                                                                                    23728175.352 6 123558822.30006     -1268.660 6        39.105                                                                    23728167.280 8 100401620.55408     -1030.838 8        48.014
C23        47.000                                                                                                                                    25258373.660 4 131527025.31804     -3322.239 4        28.171                                                                    25258376.460 5 106876469.41105     -2699.959 5        30.936
C43        48.000                                                                                                                                    21600512.197 8 112479551.81108      -446.897 8        51.945                                                                    21600511.018 8  91398829.55408      -363.073 8        49.472
C42        50.000                                                                                                                                    23614157.624 5 122965353.61205      1573.567 5        35.976                                                                    23614170.955 5  99919249.68705      1279.065 5        33.665
C34        52.000                                                                                                                                    22860510.197 5 119041024.99405     -2824.562 5        35.852                                                                    22860510.686 6  96730294.64006     -2295.292 6        40.455
C37        54.000                                                                                                                                    25285433.918 5 131667840.99905     -1054.548 5        35.243                                                                    25285428.469 5 106990939.27605      -856.919 5        32.928
C28        55.000                                                                                                                                    25151058.018 6 130968090.48906      1863.997 6        37.350                                                                    25151094.556 3                      1515.244 3        23.333
I06        58.000    38670025.979 5 151749619.14305      -567.739 5        34.133
I09        60.000    38449432.216 5 150883748.29905        39.215 5        30.558
> 2025 01 02 20 17 20.0000000  0 42
G10         1.000    21008411.078 9 110400102.48009       394.550 9        54.269                                    21008407.154 8  86025970.01708       307.441 8        51.975    21008407.973 7  86025921.02507       307.500 7        44.167
G23         2.000    21287463.572 7 111866390.11007     -2429.561 7        46.158                                    21287459.995 5  87168599.38405     -1893.161 5        32.533    21287460.993 7  87168659.41107     -1893.146 7        45.412
G21         4.000    23322686.428 4 122561595.01804      1916.730 4        29.886                                    23322681.696 1  95502453.57501      1493.530 1         3.400
G08         5.000    21484770.250 6 112903098.54806      1504.392 6        38.312                                    21484766.711 3  87976577.35003      1172.285 3        19.194    21484773.871 6  87976564.29906      1172.204 6        37.618
G30         7.000    25766526.803 4                      -905.630 4        25.865
G07         8.000    25469678.324 3                     -2092.207 3        18.716                                                                                                    25469673.552 4                     -1630.699 4        28.332
E09        10.000    27201842.193 5 142946754.43905       105.550 5        30.543                                                                    27201845.426 5 106745919.31005        79.049 5        31.132
G18        12.000    23777862.980 4                     -3874.608 4        24.617                                                                                                    23777866.055 4                     -3019.671 4        25.504
G27        13.000    20118958.139 7 105725826.81707      -593.617 7        47.647                                    20118955.137 6  82383715.63906      -462.556 6        41.430    20118954.905 6  82383793.67706      -462.657 6        39.015
E27        14.000    25507175.091 4 134041024.51004       338.485 4        29.384                                                                    25507154.181 6 100095569.35406       252.905 6        37.399    25507152.304 7 102706799.34207       259.235 7        43.382
R03        15.000                                                                                                                                    23913214.978 3                     -3430.271 3        23.314
E15        16.000    25338423.059 7 133154318.89607      1079.796 7        45.031                                                                    25338424.148 6  99433434.36506       806.244 6        40.574    25338420.644 6 102027315.23006       827.532 6        37.062
G26        17.000                                                                                                                                                                    24495113.878 3                     -3506.959 3        22.533
E06        18.000                                                                                                                                    27546635.794 3                      -739.578 3        20.905
E30        19.000    24725533.067 6 129933557.58606     -2493.053 6        38.535                                                                    24725534.936 6  97028330.17206     -1861.626 6        39.910    24725529.730 5  99559481.02305     -1910.077 5        33.347
R20        20.000    19643347.479 5 105041793.02605     -1116.741 5        35.710                                                                    19643349.041 7  81699187.73907      -868.694 7        42.772
E02        21.000    27126582.310 5 142551181.21605     -4079.012 5        30.740                                                                    27126584.809 5 106450557.60205     -3046.057 5        33.275    27126602.673 5 109227499.48205     -3125.678 5        30.430
S23        22.000    38217253.318 6 200833048.95006      -861.931 6        40.002
E36        24.000    25907519.780 5 136144938.18115     -3080.360 5        34.386                                                                    25907521.180 6 101666856.04606     -2300.426 6        40.358    25907519.165 6 104319015.91306     -2360.484 6        36.847
G16        26.000    22206122.829 6 116693947.59506     -3904.647 6        41.485                                    22206122.639 1  90930338.15301     -3042.468 1         9.333
S21        27.000    38490558.464 5 202269537.21005      -862.187 5        31.298
R05        28.000    21236123.286 7 113519276.73107      2224.374 7        43.031                                                                    21236122.296 4                      1729.598 4        25.158
R12        30.000                                                                                                                                    23858662.219 5                      1869.609 5        31.894
S36        31.000    38259890.901 5 201057050.05105      -861.035 5        35.619
E34        32.000    23371110.411 7 122815999.87107     -1092.944 7        42.999                                                                    23371109.974 8  91713269.80908      -816.149 8        49.339    23371108.726 8  94105849.17808      -837.441 8        48.796
R11        33.000    21174356.869 7 113149441.26207     -1292.393 7        46.001                                                                    21174352.181 5  88005193.83305     -1005.066 5        34.657
C08        36.000                                                                                                                                    39099250.170 4                     -2058.918 4        27.796    39099234.231 3                     -1593.076 3        23.371
C11        38.000                                                                                                                                    21840709.095 7 113730296.77607     -1663.683 7        47.129    21840705.398 7  87943534.32507     -1286.455 7        47.498    21840705.151 7  92415153.12507     -1351.815 7        47.753
R21        39.000    21633274.825 6 115763926.05906      1829.047 6        41.807                                                                    21633259.655 6  90038703.50906      1422.508 6        38.303
R04        40.000    21093807.351 7 112956550.18007     -1511.717 7        46.671                                                                    21093804.085 7  87855022.79507     -1175.752 7        44.807
C12        41.000                                                                                                                                    25463927.395 3                     -3502.549 3        19.761
C14        42.000                                                                                                                                    24969655.641 6 130023551.43506      2495.947 6        36.907    24969652.112 7 100542458.75207      1930.080 7        42.258    24969649.529 7 105654815.36307      2028.293 7        42.011
C13        43.000                                                                                                                                    38601718.599 5 201009276.51905     -1825.927 5        33.024    38601718.563 6 155433112.92206     -1411.741 6        37.112    38601717.238 6 163336565.72206     -1483.502 6        36.597
C21        46.000                                                                                                                                    23729396.530 6 123565172.31106     -1271.539 6        39.447                                                                    23729386.628 7 100406780.52607     -1033.217 7        47.768
C23        47.000                                                                                                                                                                                                                                                                    25261569.922 5 106889971.37305     -2700.851 5        32.874
C43        48.000                                                                                                                                    21600941.880 8 112481789.24608      -448.323 8        51.897                                                                    21600940.658 8  91400647.67608      -364.220 8        49.448
C42        50.000                                                                                                                                    23612647.060 5 122957490.07205      1571.796 5        34.405                                                                    23612664.137 5  99912859.87805      1277.340 5        33.491
C34        52.000                                                                                                                                    22863214.852 5 119055150.06405     -2825.390 5        30.725                                                                    22863223.621 6  96741772.41606     -2296.000 6        40.207
C37        54.000                                                                                                                                    25286442.992 6 131673119.10506     -1057.077 6        37.595                                                                    25286440.412 5 106995228.17205      -858.477 5        30.408
C28        55.000                                                                                                                                    25149266.767 6 130958770.79906      1863.750 6        36.026                                                                    25149310.249 3                      1511.181 3        21.048
I06        58.000    38670749.211 5 151752458.34805      -567.863 5        34.524
I09        60.000    38449380.897 5 150883552.64105        39.173 5        30.362
> 2025 01 02 20 17 25.0000000  0 42
G10         1.000    21008036.825 9 110398136.27409       391.790 9        54.391                                    21008032.973 8  86024437.91508       305.288 8        51.966    21008034.107 7  86024388.93607       305.194 7        44.399
G23         2.000    21289776.462 7 111878544.07307     -2432.216 7        45.300                                    21289773.192 5  87178070.01205     -1895.234 5        32.305    21289773.936 7  87178130.03007     -1895.257 7        46.048
G15         3.000    24026143.841 3                     -2372.339 3        22.248
G21         4.000    23320857.384 4 122552013.64204      1915.753 4        27.928                                    23320859.000 1  95494987.72901      1492.668 1         3.600
G08         5.000                                                                                                                                                                    21483340.106 6  87970706.02206      1171.022 6        38.739
G30         7.000    25767398.059 5                      -907.871 5        30.113
G07         8.000    25471677.967 5                     -2095.088 5        30.408                                                                                                    25471667.399 5                     -1632.166 5        30.068
E09        10.000    27201742.180 4 142946230.56804       103.832 4        29.536                                                                    27201745.783 5 106745528.13705        77.435 5        31.577
G18        12.000    23781549.869 3                     -3875.694 3        23.714                                                                                                    23781555.671 4                     -3020.135 4        24.902
G27        13.000    20119523.546 7 105728801.32707      -596.287 7        47.592                                    20119520.797 6  82386033.43906      -464.643 6        40.956    20119520.440 6  82386111.45706      -464.462 6        38.523
E27        14.000                                                                                                                                    25506833.080 6 100094309.41106       251.133 6        36.348    25506831.569 7 102705506.51207       257.786 7        43.437
R03        15.000    23917336.199 4 128031578.04414     -4413.927 4        27.245                                                                    23917330.937 3                     -3435.510 3        21.619
E15        16.000    25337396.375 7 133148921.96907      1078.995 7        44.665                                                                    25337396.986 6  99429404.19006       805.589 6        40.336    25337394.011 6 102023179.94306       826.638 6        37.788
E06        18.000                                                                                                                                    27547579.087 3                      -741.171 3        20.429
E30        19.000    24727906.984 6 129946026.69406     -2494.933 6        40.241                                                                    24727907.396 6  97037641.54406     -1863.143 6        39.465    24727905.106 5  99569035.28205     -1911.595 5        35.781
R20        20.000    19644391.544 5 105047382.00605     -1118.936 5        34.786                                                                    19644394.113 7  81703534.70407      -870.207 7        43.064
E02        21.000    27130463.557 5 142571576.38505     -4079.310 5        31.200                                                                    27130465.971 5 106465787.73705     -3046.110 5        32.419    27130483.193 5 109243126.96505     -3125.725 5        30.740
S23        22.000    38218075.001 6 200837357.52706      -861.732 6        40.186
R10        23.000    22278646.641 5                     -4643.310 5        33.581
E36        24.000    25910451.278 5 136160340.77505     -3080.582 5        35.081                                                                    25910451.872 6 101678357.96406     -2300.489 6        40.086    25910450.138 6 104330817.90206     -2360.553 6        36.325
G16        26.000    22209837.593 6 116713474.85406     -3906.525 6        41.750                                    22209838.839 1  90945553.90101     -3043.814 1         4.429
S21        27.000    38491378.994 5 202273846.96105      -862.162 5        31.441
R05        28.000    21234042.473 7 113508162.00307      2221.347 7        42.574                                                                    21234042.097 4                      1727.631 4        26.024
R12        30.000    23856375.361 4                      2401.895 4        27.868                                                                    23856404.984 5                      1868.081 5        31.238
S36        31.000    38260707.460 5 201061354.73205      -861.011 5        35.729
E34        32.000    23372149.996 7 122821467.18207     -1094.004 7        43.215                                                                    23372150.462 8  91717352.54308      -816.965 8        49.431    23372149.196 8  94110038.41908      -838.375 8        48.802
R11        33.000    21175568.060 7 113155913.53707     -1296.871 7        44.928                                                                    21175564.787 6  88010227.82706     -1008.640 6        36.828
C08        36.000                                                                                                                                    39101223.395 4                     -2058.973 4        28.265    39101212.110 4                     -1592.019 4        25.053
C11        38.000                                                                                                                                    21842307.423 7 113738617.73507     -1664.917 7        47.268    21842303.257 7  87949968.63407     -1287.429 7        47.665    21842303.133 7  92421914.60507     -1352.837 7        47.570
R21        39.000    21631570.478 6 115754782.58006      1828.170 6        40.415                                                                    21631551.198 6  90031591.93806      1421.945 6        39.132
R04        40.000    21095218.530 7 112964119.28507     -1516.160 7        46.587                                                                    21095217.338 7  87860909.88707     -1179.199 7        44.987
C14        42.000                                                                                                                                    24967257.075 6 130011072.81106      2495.192 6        36.760    24967255.515 7 100532809.47407      1929.644 7        42.011    24967253.116 6 105644675.45506      2027.656 6        41.883
C13        43.000                                                                                                                                    38603471.612 5 201018404.74905     -1825.667 5        34.524    38603470.870 6 155440171.45406     -1411.489 6        37.047    38603469.974 6 163343983.18906     -1483.554 6        36.646
C21        46.000                                                                                                                                    23730616.223 6 123571536.62506     -1274.429 6        39.486                                                                    23730608.827 7 100411952.05607     -1035.490 7        47.543
C23        47.000                                                                                                                                                                                                                                                                    25264764.310 5 106903478.50305     -2701.873 5        34.119
C43        48.000                                                                                                                                    21601372.927 8 112484033.93608      -449.776 8        51.836                                                                    21601371.693 8  91402471.67508      -365.487 8        49.468
C42        50.000                                                                                                                                    23611138.196 5 122949636.04705      1569.527 5        31.781                                                                    23611156.826 5  99906477.81605      1275.549 5        31.774
C34        52.000                                                                                                                                    22865928.037 4 119069280.34304     -2826.607 4        24.707                                                                    22865937.620 6  96753254.40506     -2296.932 6        40.010
C37        54.000                                                                                                                                    25287458.784 6 131678410.24006     -1059.607 6        38.676                                                                    25287454.141 4 106999527.64004      -860.646 4        27.581
C28        55.000                                                                                                                                    25147475.262 5 130949452.05605      1863.687 5        35.538                                                                    25147522.946 3                      1515.898 3        20.095
I06        58.000    38671473.150 5 151755297.02405      -567.722 5        34.252
I09        60.000    38449330.339 5 150883357.60705        38.940 5        30.543
