     3.04           OBSERVATION DATA    M                   RINEX VERSION / TYPE
ssrcrin-15.6.1x                         20250102 061500 UTC PGM / RUN BY / DATE 
(00000000023479385599111004) Septentrio proprietary         COMMENT             
ract                                                        MARKER NAME         
01                                                          MARKER NUMBER       
geodetic                                                    MARKER TYPE         
NFB                 CLIMERS@TUW                             OBSERVER / AGENCY   
3296359             SEPT ASTERX SB3 PROB4.14.4              REC # / TYPE / VERS 
Unknown             Unknown                                 ANT # / TYPE        
  4127445.5520  1206914.2486  4695543.5914                  APPROX POSITION XYZ 
        0.0000        0.0000        0.0000                  ANTENNA: DELTA H/E/N
G   23 X1  C1C L1C D1C S1C C1W S1W C2W L2W D2W S2W C2L L2L  SYS / # / OBS TYPES 
       D2L S2L C5Q L5Q D5Q S5Q C1L L1L D1L S1L              SYS / # / OBS TYPES 
E   21 X1  C1C L1C D1C S1C C6C L6C D6C S6C C5Q L5Q D5Q S5Q  SYS / # / OBS TYPES 
       C7Q L7Q D7Q S7Q C8Q L8Q D8Q S8Q                      SYS / # / OBS TYPES 
S    9 X1  C1C L1C D1C S1C C5I L5I D5I S5I                  SYS / # / OBS TYPES 
R   17 X1  C1C L1C D1C S1C C2P L2P D2P S2P C2C L2C D2C S2C  SYS / # / OBS TYPES 
       C3Q L3Q D3Q S3Q                                      SYS / # / OBS TYPES 
C   25 X1  C1P L1P D1P S1P C5P L5P D5P S5P C2I L2I D2I S2I  SYS / # / OBS TYPES 
       C7I L7I D7I S7I C6I L6I D6I S6I C7D L7D D7D S7D      SYS / # / OBS TYPES 
J   17 X1  C1C L1C D1C S1C C2L L2L D2L S2L C5Q L5Q D5Q S5Q  SYS / # / OBS TYPES 
       C1L L1L D1L S1L                                      SYS / # / OBS TYPES 
I    5 X1  C5A L5A D5A S5A                                  SYS / # / OBS TYPES 
SEPTENTRIO RECEIVERS OUTPUT ALIGNED CARRIER PHASES.         COMMENT             
NO FURTHER PHASE SHIFT APPLIED IN THE RINEX ENCODER.        COMMENT             
G L1C                                                       SYS / PHASE SHIFT   
G L2W                                                       SYS / PHASE SHIFT   
G L2L  0.00000                                              SYS / PHASE SHIFT   
G L5Q  0.00000                                              SYS / PHASE SHIFT   
G L1L  0.00000                                              SYS / PHASE SHIFT   
E L1C  0.00000                                              SYS / PHASE SHIFT   
E L6C  0.00000                                              SYS / PHASE SHIFT   
E L5Q  0.00000                                              SYS / PHASE SHIFT   
E L7Q  0.00000                                              SYS / PHASE SHIFT   
E L8Q  0.00000                                              SYS / PHASE SHIFT   
S L1C                                                       SYS / PHASE SHIFT   
S L5I                                                       SYS / PHASE SHIFT   
R L1C                                                       SYS / PHASE SHIFT   
R L2P  0.00000                                              SYS / PHASE SHIFT   
R L2C                                                       SYS / PHASE SHIFT   
R L3Q  0.00000                                              SYS / PHASE SHIFT   
C L1P  0.00000                                              SYS / PHASE SHIFT   
C L5P  0.00000                                              SYS / PHASE SHIFT   
C L2I                                                       SYS / PHASE SHIFT   
C L7I                                                       SYS / PHASE SHIFT   
C L6I                                                       SYS / PHASE SHIFT   
C L7D                                                       SYS / PHASE SHIFT   
J L1C                                                       SYS / PHASE SHIFT   
J L2L  0.00000                                              SYS / PHASE SHIFT   
J L5Q  0.00000                                              SYS / PHASE SHIFT   
J L1L  0.00000                                              SYS / PHASE SHIFT   
I L5A                                                       SYS / PHASE SHIFT   
  2025     1     2     6    15    0.0000000     GPS         TIME OF FIRST OBS   
 C1C    0.000 C2C    0.000 C2P    0.000                     GLONASS COD/PHS/BIS 
DBHZ                                                        SIGNAL STRENGTH UNIT
    18                                                      LEAP SECONDS        
 24 R01  1 R02 -4 R03  5 R04  6 R05  1 R06 -4 R07  5 R08  6 GLONASS SLOT / FRQ #
    R09 -2 R10 -7 R11  0 R12 -1 R13 -2 R14 -7 R15  0 R16 -1 GLONASS SLOT / FRQ #
    R17  4 R18 -3 R19  3 R20  2 R21  4 R22 -3 R23  3 R24  2 GLONASS SLOT / FRQ #
                                                            END OF HEADER       
> 2025 01 02 06 15  0.0000000  0 37
G13         1.000    23436094.796 6 123157699.95106      2273.250 6        39.420                                    23436089.229 2  95966862.78202      1771.361 2        15.286
G20         4.000    20864099.199 7 109641641.12107      -529.642 7        45.780                                    20864093.759 6  85434998.02406      -412.709 6        36.423
G07         5.000    21259249.576 7 111718131.75407     -2026.760 7        45.220                                    21259244.255 7  87053097.76407     -1579.288 7        44.543    21259243.771 7  87053043.74807     -1579.302 7        45.195
G09         6.000    22646830.768 6 119009985.05906     -3632.119 6        40.334                                    22646832.946 4  92735019.49704     -2830.229 4        26.575    22646829.281 5  92734985.49605     -2830.097 5        35.662
G30         7.000    20819093.618 8 109405091.99508       231.245 8        49.137                                    20819090.089 7  85250642.83707       180.195 7        46.496    20819091.827 7  85250690.80407       180.239 7        43.257
E21        10.000    25991397.360 7 136585755.60207     -1229.728 7        44.501                                                                    25991397.278 6 101995829.16206      -918.334 6        41.766    25991397.077 6 104656606.52806      -942.378 6        38.273
E06        11.000    24162938.119 7 126977086.93007       441.064 7        43.721                                                                    24162944.615 6  94820623.98706       329.366 6        39.577    24162935.975 7  97294146.31707       337.826 7        44.071
G05        14.000    22365509.453 7 117531813.17807      1763.483 7        46.093                                    22365503.817 6  91583206.19206      1374.148 6        39.598    22365503.835 6  91583017.21606      1374.100 6        40.279
E11        16.000                                                                                                                                    26271672.219 5 103095701.87405     -2511.020 5        34.076    26271670.593 5 105785135.24905     -2576.906 5        33.114
E04        17.000    23490892.514 7 123445507.53307      -719.494 7        42.172                                                                    23490890.630 7  92183366.49007      -537.340 7        44.188    23490890.252 6  94588079.96606      -551.369 6        41.445
R08        18.000    21433621.865 5 114775939.06905     -3586.453 5        31.019                                                                    21433604.656 6  89270182.28206     -2789.529 6        41.924
E19        20.000    25632755.671 5 134701034.68705     -2941.788 5        30.581                                                                    25632752.898 5 100588440.86005     -2196.584 5        31.879
E09        21.000    25935887.556 6 136294005.18006      1195.360 6        40.572                                                                    25935883.742 6 101777996.00006       892.803 6        36.601    25935885.856 7 104433084.59707       915.887 7        43.594
E36        22.000    26249799.646 5 137943623.27705     -1044.368 5        33.192                                                                    26249797.540 5 103009846.78305      -779.673 5        33.910    26249797.994 6 105697094.89606      -799.963 6        36.469
S23        24.000    38331134.607 6 201431469.94606      -848.792 6        38.730
G11        25.000                                                                                                                                                                    23755767.559 5  97275941.96605     -2819.920 5        35.609
E34        26.000    28628797.452 4                      1276.069 4        26.323                                                                                                                                    28628745.862 5 115276081.81405       977.562 5        31.879
R17        27.000    22878461.515 6                     -2778.479 6        37.278
R18        28.000    23402443.302 4                       294.593 4        25.910                                                                    23402434.466 3                       229.833 3        18.269
E10        29.000    27619227.729 4 145140011.22904     -3995.471 4        29.005                                                                    27619229.470 6 108383807.09206     -2983.744 6        39.919    27619227.906 6 111211175.81106     -3061.413 6        38.165
R11        30.000    19708392.866 6 105315694.49006       306.136 6        38.126                                                                    19708393.242 6  81912198.19406       237.952 6        39.754
C20        31.000                                                                                                                                    24042075.268 7 125193353.22107     -3332.452 7        42.656                                                                    24042071.946 6 101729865.96706     -2707.967 6        37.123
R10        32.000    21468290.526 6 114438091.73606     -3887.694 6        39.871
C36        34.000                                                                                                                                    24224918.078 5 126145481.42905      2280.305 5        30.800                                                                    24224922.432 6 102503570.75506      1852.787 6        36.110
R02        35.000    22269173.969 7 118832593.71607      2491.383 7        44.758                                                                    22269172.380 7  92425504.32507      1937.750 7        45.857
S36        36.000    38395386.413 5 201769155.75605      -851.862 5        34.790
R12        38.000    22847912.144 7 122049458.52607      3579.150 7        42.282                                                                    22847912.846 5  94927300.84205      2783.694 5        35.876
C37        42.000                                                                                                                                    24591502.184 6 128054522.68106     -3287.855 6        37.614                                                                    24591515.641 6 104054770.89306     -2671.785 6        37.202
R24        43.000    24467939.411 4                     -4739.346 4        24.211
R01        44.000    19487796.154 7 104173451.20007       -33.313 7        43.065                                                                    19487795.299 6  81023777.00606       -25.953 6        37.527
C09        47.000                                                                                                                                    39973766.484 4                     -1637.495 4        29.725    39973758.580 4 160957751.29604     -1265.358 4        27.581
C19        48.000                                                                                                                                    21995781.041 8 114537963.12208      -887.566 8        51.193                                                                    21995775.938 8  93071328.36008      -721.270 8        49.030
C34        49.000                                                                                                                                                                                                                                                                    26906230.437 5                      -696.003 5        31.170
C22        51.000                                                                                                                                    23880881.524 7 124353995.39507      1737.780 7        44.770                                                                    23880872.646 7 101047811.08407      1411.989 7        44.057
C44        52.000                                                                                                                                    26792957.445 3                     -2833.670 3        21.405                                                                    26792978.745 4                     -2305.313 4        28.474
C12        54.000                                                                                                                                    26651061.601 5                     -1872.609 5        32.269    26651053.387 6 107312867.73706     -1447.983 6        40.040    26651050.863 5 112769314.95005     -1521.373 5        31.789
I09        59.000    38874111.867 5 152550387.75805     -1179.000 5        33.479
> 2025 01 02 06 15  5.0000000  0 35
G13         1.000    23433928.567 6 123146335.42506      2272.682 6        37.388                                    23433926.354 2  95958007.30602      1770.924 2        12.545
G20         4.000    20864604.285 7 109644297.96707      -533.084 7        47.956                                    20864599.544 6  85437068.28406      -415.391 6        36.692
G07         5.000    21261178.749 7 111728270.98807     -2028.884 7        46.824                                    21261173.743 7  87060998.44707     -1580.948 7        43.979    21261172.896 7  87060944.45207     -1580.942 7        44.414
G09         6.000    22650289.394 6 119028148.67206     -3633.286 6        37.482                                    22650288.321 4  92749172.93904     -2831.141 4        26.826    22650284.394 5  92749139.00005     -2831.459 5        32.683
G30         7.000    20818874.295 8 109403942.91308       228.544 8        50.037                                    20818871.454 7  85249747.44107       178.093 7        47.656    20818873.132 7  85249795.41207       178.097 7        43.831
E21        10.000    25992569.274 7 136591911.43807     -1232.425 7        45.192                                                                    25992568.563 7 102000426.04907      -920.348 7        42.229    25992568.103 6 104661323.31106      -944.309 6        39.955
E06        11.000    24162517.958 7 126974884.59407       439.908 7        43.537                                                                    24162524.474 6  94818979.39506       328.441 6        37.735    24162517.017 7  97292458.81007       337.081 7        42.787
G05        14.000    22363832.849 7 117523002.14807      1760.986 7        45.747                                    22363826.958 6  91576340.44806      1372.189 6        39.916    22363827.677 6  91576151.48506      1372.234 6        41.709
E11        16.000                                                                                                                                    26274873.667 5 103108260.84305     -2512.586 5        34.000    26274870.107 5 105798021.82505     -2577.578 5        31.170
E04        17.000    23491577.442 7 123449108.28207      -720.781 7        43.357                                                                    23491576.315 7  92186055.36407      -538.250 7        43.475    23491575.313 6  94590838.96306      -552.278 6        41.492
R08        18.000    21436951.628 4                     -3588.254 4        26.802                                                                    21436952.309 6                     -2791.024 6        38.613
E19        20.000    25635555.594 4 134715743.90604     -2942.599 4        26.790                                                                    25635552.780 5 100599424.99805     -2197.058 5        32.623
E09        21.000    25934751.199 6 136288030.12906      1194.828 6        41.030                                                                    25934746.235 6 101773534.12006       892.024 6        36.575    25934748.033 7 104428506.34107       915.455 7        42.849
E36        22.000    26250796.395 5 137948850.76705     -1046.510 5        30.325                                                                    26250791.824 5 103013750.50905      -781.650 5        33.892    26250793.294 6 105701100.41306      -802.091 6        38.057
S23        24.000    38331945.473 6 201435714.73506      -849.105 6        36.972
G11        25.000    23759212.914 5                     -3620.424 5        30.204                                                                                                    23759212.005 5  97290044.47205     -2821.600 5        31.125
E34        26.000                                                                                                                                    28627532.212 4                       951.544 4        28.768    28627532.440 5 115271196.13205       976.329 5        30.845
R17        27.000    22881053.703 6 122441114.92016     -2782.341 6        36.352
E10        29.000    27623030.232 5 145159989.75205     -3995.964 5        32.293                                                                    27623031.704 6 108398726.05206     -2983.965 6        40.069    27623030.109 6 111226483.98006     -3061.791 6        38.538
R11        30.000    19708104.936 5 105314175.61705       301.710 5        34.367                                                                    19708108.869 6  81911016.77906       234.551 6        36.707
C20        31.000                                                                                                                                    24045274.024 7 125210019.37407     -3334.029 7        42.863                                                                    24045271.585 5 101743408.45705     -2709.044 5        35.486
R10        32.000    21471935.419 5 114457539.00405     -3891.275 5        34.109
C36        34.000                                                                                                                                    24222728.333 4                      2278.805 4        29.716                                                                    24222732.625 5 102494309.08205      1851.966 5        35.000
R02        35.000    22266839.108 7 118820138.92607      2490.589 7        42.322                                                                    22266838.791 7  92415817.26707      1937.099 7        45.466
S36        36.000    38396197.775 5 201773415.25005      -852.223 5        34.667
R12        38.000    22844561.057 6 122031566.51706      3577.631 6        41.754                                                                    22844562.533 6  94913384.79606      2782.887 6        36.151
C37        42.000                                                                                                                                    24594660.438 6 128070966.92106     -3289.770 6        36.597                                                                    24594672.336 6 104068133.14706     -2673.064 6        36.280
R01        44.000    19487829.209 7 104173624.66907       -36.095 7        43.477                                                                    19487828.448 6  81023911.93306       -27.996 6        36.125
C09        47.000                                                                                                                                    39975339.256 4                     -1637.353 4        27.677    39975331.304 5 160964081.14105     -1265.712 5        32.287
C19        48.000                                                                                                                                    21996634.224 8 114542406.82608      -889.810 8        50.003                                                                    21996629.156 8  93074939.19908      -723.083 8        49.369
C34        49.000                                                                                                                                    26907056.438 4                      -859.214 4        26.287                                                                    26907053.976 5                      -698.171 5        30.981
C22        51.000                                                                                                                                    23879212.767 7 124345309.64007      1736.632 7        43.043                                                                    23879204.851 7 101040753.17607      1411.203 7        44.811
C44        52.000                                                                                                                                                                                                                                                                    26795701.994 4                     -2306.829 4        25.504
C12        54.000                                                                                                                                    26652860.354 5 138788457.23615     -1875.084 5        34.686    26652854.683 6 107320112.52606     -1449.985 6        40.153    26652848.072 4 112776928.08604     -1523.362 4        28.218
I09        59.000    38875612.818 5 152556283.62405     -1179.303 5        34.852
> 2025 01 02 06 15 10.0000000  0 37
G13         1.000    23431764.089 5 123134974.26005      2272.066 5        33.868                                    23431764.132 1  95949154.37601      1770.445 1        10.741
G20         4.000    20865113.802 7 109646971.37507      -536.160 7        43.443                                    20865108.415 5  85439151.45305      -417.779 5        35.652
G07         5.000    21263110.794 7 111738420.03607     -2030.537 7        47.152                                    21263104.925 7  87068906.79307     -1582.237 7        44.084    21263104.303 7  87068852.80507     -1582.277 7        44.634
G09         6.000    22653744.058 5 119046317.73905     -3633.969 5        34.905                                    22653744.809 4  92763330.64704     -2831.630 4        25.218    22653743.053 5  92763296.69805     -2832.191 5        32.671
G30         7.000    20818658.235 8 109402806.05208       226.335 8        51.602                                    20818655.134 8  85248861.57208       176.365 8        48.733    20818656.603 7  85248909.55607       176.285 7        44.203
E21        10.000    25993743.130 7 136598079.70707     -1234.720 7        44.354                                                                    25993742.389 7 102005032.22807      -921.967 7        42.633    25993741.896 6 104666049.64406      -946.251 6        39.513
E06        11.000    24162098.251 7 126972686.81207       439.263 7        42.082                                                                    24162104.931 5  94817338.18005       328.239 5        34.871    24162098.714 7  97290774.75007       336.631 7        43.244
G05        14.000    22362157.948 7 117514202.55107      1758.998 7        44.802                                    22362152.407 6  91569483.62506      1370.639 6        39.420    22362152.953 6  91569294.67406      1370.640 6        40.534
G06        15.000    25392511.899 3                     -4351.554 3        20.952
E11        16.000    26278113.404 5 138092236.79815     -3365.625 5        33.695                                                                    26278075.471 5 103120825.17505     -2513.398 5        35.319    26278075.463 5 105810913.86305     -2578.866 5        34.319
E04        17.000    23492263.854 7 123452714.66607      -721.703 7        44.367                                                                    23492262.179 7  92188748.38507      -538.901 7        44.375    23492262.170 7  94593602.27807      -552.885 7        43.869
R08        18.000                                                                                                                                    21440299.375 6  89298092.57316     -2792.360 6        39.015
E19        20.000                                                                                                                                    25638351.561 5 100610411.31805     -2197.902 5        30.958
E09        21.000    25933612.339 6 136282057.65506      1194.359 6        39.060                                                                    25933610.916 6 101769074.17006       892.061 6        36.866    25933612.414 7 104423930.06007       915.139 7        44.981
E36        22.000                                                                                                                                    26251790.941 4 103017663.92404      -783.604 4        29.412    26251791.576 6 105705115.96706      -803.865 6        37.539
S23        24.000    38332745.196 6 201439959.66206      -849.015 6        39.655
G11        25.000                                                                                                                                                                    23762658.168 5  97304153.63005     -2822.492 5        30.543
E34        26.000    28626316.962 5                      1272.615 5        30.868                                                                    28626318.185 5                       950.512 5        30.770    28626322.380 4 115266317.16204       974.961 4        25.985
R17        27.000    22883655.808 5 122455035.86405     -2785.596 5        31.691
R18        28.000    23401912.950 4                       286.155 4        27.234                                                                    23401899.687 5                       223.488 5        34.719
E10        29.000    27626833.646 5 145179969.81905     -3996.041 5        35.371                                                                    27626833.948 6 108413646.21506     -2983.976 6        40.541    27626831.952 6 111241793.37006     -3061.989 6        37.796
R11        30.000    19707833.393 6 105312678.81206       297.380 6        37.497                                                                    19707828.972 6  81909852.68306       231.300 6        38.408
C20        31.000                                                                                                                                    24048478.420 7 125226692.16907     -3335.054 7        42.978                                                                    24048473.162 5 101756956.49005     -2710.414 5        34.214
R10        32.000    21475588.147 6 114477001.71606     -3893.728 6        36.560
C36        34.000                                                                                                                                    24220543.127 5                      2277.771 5        32.563                                                                    24220545.307 5 102485052.28005      1850.874 5        35.862
R02        35.000    22264505.112 7 118807687.08107      2490.323 7        44.770                                                                    22264504.713 7  92406132.46007      1936.794 7        44.364
S36        36.000    38397008.959 5 201777675.15805      -852.253 5        34.614
R12        38.000    22841210.982 6 122013680.29506      3576.959 6        39.120                                                                    22841215.116 6  94899473.24806      2781.792 6        36.435
C37        42.000                                                                                                                                    24597819.552 6 128087419.58206     -3291.363 6        37.388                                                                    24597830.876 5 104081502.31205     -2674.380 5        35.957
R01        44.000    19487863.154 6 104173811.24106       -38.499 6        41.690                                                                    19487863.120 6  81024057.05406       -29.888 6        37.580
C09        47.000                                                                                                                                    39976915.601 4                     -1636.903 4        26.287    39976905.766 6 160970410.97706     -1265.555 6        36.268
C19        48.000                                                                                                                                    21997489.544 8 114546860.87808      -891.676 8        51.858                                                                    21997484.488 8  93078558.52608      -724.693 8        48.776
C34        49.000                                                                                                                                                                                                                                                                    26907881.123 5                      -700.328 5        31.691
C22        51.000                                                                                                                                    23877546.333 7 124336628.31307      1736.132 7        45.440                                                                    23877537.230 7 101033698.89807      1410.445 7        43.382
C44        52.000                                                                                                                                    26798404.087 5                     -2839.627 5        32.425                                                                    26798431.831 3                     -2308.308 3        21.786
C12        54.000                                                                                                                                    26654663.764 5 138797838.57305     -1877.693 5        32.114    26654658.518 6 107327366.82106     -1451.590 6        41.788    26654648.175 4 112784551.29004     -1525.712 4        28.474
I09        59.000    38877116.946 5 152562180.07505     -1179.151 5        33.413
> 2025 01 02 06 15 15.0000000  0 35
G13         1.000    23429604.593 6 123123616.04706      2271.016 6        36.563                                    23429602.478 1  95940303.83201      1769.554 1         8.952
G20         4.000    20865623.816 7 109649660.91907      -539.769 7        44.071                                    20865620.237 5  85441247.23005      -420.598 5        34.276
G07         5.000    21265043.248 7 111748578.43407     -2032.799 7        45.688                                    21265037.998 7  87076822.42607     -1583.995 7        43.761    21265037.566 7  87076768.42707     -1583.873 7        44.781
G09         6.000    22657200.019 5 119064491.82005     -3635.114 5        31.585                                    22657202.187 3  92777492.26303     -2832.540 3        21.143    22657199.048 5  92777458.25105     -2833.141 5        30.136
G30         7.000    20818444.197 8 109401681.01008       223.665 8        50.223                                    20818441.194 8  85247984.90908       174.288 8        48.961    20818443.043 7  85248032.88407       174.378 7        43.409
E21        10.000    25994919.106 7 136604260.02407     -1237.454 7        45.201                                                                    25994918.871 7 102009647.34907      -924.042 7        43.278    25994917.027 6 104670785.20406      -948.148 6        40.472
E06        11.000    24161680.543 7 126970493.05907       438.178 7        42.571                                                                    24161686.743 6  94815700.00406       327.109 6        38.517    24161681.144 7  97289093.83207       335.712 7        44.879
G05        14.000    22360485.763 7 117505413.94207      1756.478 7        43.725                                    22360480.007 6  91562635.40106      1368.697 6        39.483    22360480.130 6  91562446.38406      1368.604 6        41.364
G06        15.000    25396661.627 3                     -4354.032 3        20.452
E11        16.000                                                                                                                                    26281277.929 5 103133394.50905     -2514.373 5        35.781    26281277.898 5 105823811.08705     -2580.254 5        35.681
E04        17.000    23492950.761 6 123456326.17506      -722.968 6        39.138                                                                    23492949.752 7  92191445.26707      -539.872 7        45.645    23492949.564 7  94596369.52907      -554.090 7        44.679
R08        18.000    21443652.030 4 114829816.08414     -3592.600 4        29.043                                                                    21443653.925 6  89312058.50006     -2794.088 6        39.267
E19        20.000    25641157.567 5 134745170.52805     -2943.109 5        33.599                                                                    25641153.663 5 100621399.41005     -2198.023 5        33.497
E09        21.000    25932476.947 6 136276087.42706      1193.729 6        38.883                                                                    25932472.291 5 101764615.84505       891.224 5        33.683    25932477.175 7 104419355.41507       914.620 7        45.088
E36        22.000    26252817.247 5 137959345.13005     -1052.358 5        32.431                                                                    26252787.500 5 103021586.77005      -785.706 5        33.689    26252789.918 6 105709141.10506      -806.086 6        37.539
S23        24.000    38333560.507 6 201444204.43606      -848.919 6        39.595
G11        25.000    23766136.600 4                     -3622.114 4        24.586                                                                                                    23766105.131 4  97318268.82604     -2823.499 4        27.581
E34        26.000    28625106.964 5 150425948.64915      1270.713 5        30.574                                                                    28625101.877 3                       949.461 3        22.724    28625106.426 4                       973.639 4        27.581
R17        27.000    22886263.442 5 122468974.88915     -2789.645 5        35.414
R18        28.000    23401650.846 5                       283.322 5        32.090                                                                    23401629.056 4  97159615.04814       219.692 4        28.645
E10        29.000    27630635.635 6 145199951.02306     -3996.409 6        36.068                                                                    27630635.088 6 108428567.26406     -2984.455 6        40.491    27630634.449 6 111257103.64106     -3062.282 6        38.240
R11        30.000    19707557.494 6 105311203.85016       292.595 6        37.750                                                                    19707555.307 6  81908705.56906       227.456 6        38.480
C20        31.000                                                                                                                                    24051681.692 7 125243371.22107     -3336.513 7        44.685                                                                    24051676.325 6 101770509.65906     -2711.604 6        36.760
R10        32.000    21479244.121 5 114496479.35305     -3897.005 5        34.495
C36        34.000                                                                                                                                    24218354.666 6                      2276.752 6        36.624                                                                    24218358.804 6 102475799.90206      1849.945 6        38.099
R02        35.000    22262175.289 7 118795237.66407      2489.623 7        43.852                                                                    22262172.481 7  92396449.58707      1936.175 7        44.090
R12        38.000    22837861.864 6 121995799.31706      3575.330 6        39.330                                                                    22837866.004 5  94885565.81905      2780.819 5        34.938
C37        42.000                                                                                                                                    24600983.843 6 128103880.33306     -3293.110 6        37.671                                                                    24600992.296 5 104094877.88705     -2675.812 5        31.449
R01        44.000    19487899.469 6 104174010.69506       -41.596 6        38.703                                                                    19487900.621 6  81024212.13506       -32.284 6        38.195
C09        47.000                                                                                                                                    39978486.997 5                     -1637.076 5        30.951    39978475.232 5 160976740.39405     -1265.752 5        31.608
C19        48.000                                                                                                                                    21998347.502 8 114551324.91008      -893.999 8        52.168                                                                    21998341.371 8  93082185.91508      -726.453 8        48.245
C34        49.000                                                                                                                                    26908726.822 3                      -864.471 3        23.676                                                                    26908703.741 4                      -702.393 4        29.460
C22        51.000                                                                                                                                    23875880.107 7 124327950.95807      1734.928 7        42.466                                                                    23875871.806 7 101026647.81607      1409.733 7        45.079
C12        54.000                                                                                                                                    26656465.547 5 138807231.83705     -1879.966 5        33.772    26656457.807 6 107334630.25506     -1453.881 6        36.480
I09        59.000    38878620.901 5 152568076.92105     -1179.591 5        32.240
> 2025 01 02 06 15 20.0000000  0 35
G13         1.000    23427446.669 6 123112261.24306      2270.921 6        37.085                                    23427441.513 1  95931455.90101      1769.601 1        10.222
G20         4.000    20866138.343 7 109652367.20207      -542.592 7        42.974                                    20866135.082 5  85443355.99005      -422.788 5        34.919
G07         5.000    21266977.637 7 111758746.81707     -2034.425 7        47.020                                    21266972.619 7  87084745.83507     -1585.274 7        44.223    21266972.363 7  87084691.84007     -1585.220 7        43.160
G09         6.000    22660661.112 6 119082671.60806     -3636.388 6        38.027                                    22660661.381 3  92791658.24803     -2833.536 3        23.924    22660661.815 5  92791624.23005     -2833.493 5        35.029
G30         7.000    20818231.768 8 109400568.29608       221.544 8        50.468                                    20818229.548 8  85247117.84808       172.625 8        48.105    20818230.890 7  85247165.85407       172.579 7        45.028
E21        10.000    25996097.247 7 136610452.90307     -1239.601 7        44.837                                                                    25996096.373 7 102014271.91707      -925.755 7        42.203    25996096.164 7 104675530.34307      -949.811 7        42.423
E06        11.000    24161263.182 6 126968303.98206       437.725 6        38.240                                                                    24161268.548 6  94814065.29906       326.954 6        37.153    24161262.389 6  97287416.52406       335.393 6        40.217
G05        14.000    22358815.523 7 117496636.85507      1754.437 7        44.509                                    22358809.615 6  91555796.11406      1367.105 6        39.138    22358809.314 6  91555607.11206      1367.057 6        41.402
E11        16.000    26284536.107 4                     -3368.159 4        28.114                                                                    26284482.598 6 103145969.23406     -2515.305 6        37.406    26284480.838 5 105836713.87505     -2580.969 5        32.952
E04        17.000    23493638.335 7 123459943.32207      -723.776 7        42.527                                                                    23493638.450 7  92194146.43607      -540.396 7        45.616    23493637.861 7  94599141.13007      -554.494 7        43.854
R08        18.000    21447011.030 5 114847781.02115     -3593.505 5        34.271                                                                    21447008.107 6  89326032.10116     -2795.226 6        39.075
E19        20.000    25643958.217 5 134759888.13805     -2943.814 5        30.974                                                                    25643953.373 5 100632389.75305     -2198.115 5        31.683
E09        21.000    25931341.920 6 136270119.84906      1193.721 6        36.166                                                                    25931338.058 5 101760159.52305       891.243 5        34.690    25931342.608 7 104414782.84607       914.510 7        46.522
E36        22.000    26253801.342 4                     -1053.959 4        29.839                                                                    26253798.249 5 103025519.38305      -787.313 5        33.521    26253792.708 6 105713176.27506      -807.876 6        37.826
S23        24.000    38334371.780 6 201448449.34506      -848.704 6        40.129
G11        25.000                                                                                                                                                                    23769551.983 5  97332390.70405     -2824.562 5        30.883
E34        26.000    28623897.969 5 150419598.67405      1269.100 5        34.500                                                                    28623894.458 4                       947.859 4        27.174    28623908.460 4                       972.268 4        28.559
R17        27.000    22888873.201 6 122482932.38716     -2793.019 6        36.854
R18        28.000    23401382.930 5 124918190.84315       278.620 5        32.443
E10        29.000    27634437.833 6 145219934.02506     -3996.557 6        36.329                                                                    27634438.375 6 108443489.59206     -2984.628 6        39.961    27634436.920 6 111272415.24806     -3062.274 6        38.342
R11        30.000    19707283.625 6 105309751.34706       288.624 6        36.163                                                                    19707284.328 6  81907575.69806       224.711 6        36.204
C20        31.000                                                                                                                                    24054885.317 7 125260057.29107     -3337.760 7        45.275                                                                    24054881.399 5 101784068.38505     -2712.031 5        33.006
R10        32.000    21482896.726 5 114515972.37405     -3900.063 5        34.971
C36        34.000                                                                                                                                    24216167.764 5                      2275.822 5        32.581                                                                    24216172.069 5 102466552.40305      1849.188 5        34.038
R02        35.000    22259841.853 6 118782791.21006      2489.404 6        41.700                                                                    22259840.273 7  92386768.99007      1936.054 7        45.479
R12        38.000    22834514.612 5 121977924.09405      3574.537 5        34.971                                                                    22834519.407 5  94871662.91605      2779.928 5        34.157
C37        42.000                                                                                                                                    24604146.108 5 128120349.44805     -3294.512 5        34.195                                                                    24604152.981 6 104108260.47106     -2677.197 6        36.465
R01        44.000    19487940.373 6 104174223.37706       -43.656 6        40.908                                                                    19487941.358 6  81024377.61406       -33.871 6        38.114
C09        47.000                                                                                                                                    39980055.973 4                     -1636.626 4        28.066    39980045.157 5 160983069.93505     -1266.028 5        33.946
C19        48.000                                                                                                                                    21999206.185 8 114555799.47308      -895.728 8        51.767                                                                    21999200.791 7  93085821.82307      -727.794 7        47.883
C34        49.000                                                                                                                                    26909556.840 4                      -866.775 4        27.150                                                                    26909538.226 5                      -703.913 5        30.468
C22        51.000                                                                                                                                    23874213.210 7 124319278.13907      1734.335 7        43.708                                                                    23874206.682 7 101019600.42907      1409.104 7        44.855
C44        52.000                                                                                                                                    26803869.780 5 139574744.20515     -2842.730 5        30.113
C12        54.000                                                                                                                                    26658274.876 5 138816637.42305     -1882.100 5        34.029    26658262.358 5 107341903.20305     -1455.159 5        34.014
I09        59.000    38880120.457 5 152573974.43605     -1179.615 5        32.066
> 2025 01 02 06 15 25.0000000  0 36
G13         1.000    23425282.615 6 123100908.78706      2270.237 6        36.321                                    23425281.424 1  95922609.86401      1769.059 1         8.000
G20         4.000    20866657.568 7 109655089.12307      -545.958 7        45.502                                    20866652.828 5  85445476.96705      -425.417 5        35.124
G07         5.000    21268914.692 7 111768924.11107     -2036.332 7        47.635                                    21268908.863 7  87092676.17807     -1586.751 7        43.420    21268909.051 7  87092622.16707     -1586.738 7        42.017
G09         6.000    22664122.257 4 119100855.88504     -3638.284 4        27.461                                    22664121.875 3  92805827.81203     -2835.031 3        23.962    22664121.679 5  92805793.72005     -2834.299 5        32.898
G30         7.000    20818022.093 8 109399466.96508       219.138 8        49.758                                    20818020.101 8  85246259.66308       170.758 8        48.327    20818020.701 7  85246307.65207       170.723 7        44.581
E21        10.000    25997278.317 7 136616657.33907     -1242.151 7        44.402                                                                    25997277.498 7 102018905.06007      -927.524 7        43.198    25997276.871 7 104680284.38407      -951.727 7        42.701
E06        11.000    24160849.137 6 126966118.62406       436.801 6        39.036                                                                    24160853.904 6  94812433.34606       326.187 6        37.955    24160847.331 6  97285742.01706       334.516 6        40.863
G05        14.000    22357148.341 7 117487870.34007      1752.214 7        47.812                                    22357141.163 6  91548965.04506      1365.355 6        39.237    22357141.041 6  91548776.08206      1365.338 6        38.982
G06        15.000    25404932.537 3                     -4352.913 3        22.857
E11        16.000    26287736.408 5                     -3369.723 5        30.377                                                                    26287688.386 6 103158548.59406     -2516.486 6        36.987    26287689.610 5 105849621.37205     -2581.954 5        32.383
E04        17.000    23494326.549 6 123463565.23206      -725.039 6        39.051                                                                    23494326.580 7  92196851.11107      -541.372 7        43.084    23494326.965 7  94601916.29907      -555.412 7        43.852
R08        18.000    21450369.831 6 114865755.70506     -3596.048 6        38.393                                                                    21450363.704 5  89340012.35205     -2796.902 5        35.243
E19        20.000    25646758.867 4 134774607.59704     -2943.680 4        29.014                                                                    25646751.975 5 100643381.61905     -2198.243 5        30.460
E09        21.000    25930207.300 6 136264153.96306      1193.103 6        41.418                                                                    25930203.804 6 101755704.48706       890.803 6        36.552    25930205.767 7 104410211.57607       914.082 7        45.427
E36        22.000                                                                                                                                    26254806.566 5 103029461.03605      -789.332 5        33.976    26254797.314 6 105717220.76306      -810.008 6        38.273
S23        24.000    38335173.936 6 201452693.43506      -848.785 6        41.490
G11        25.000                                                                                                                                                                    23773002.288 5                     -2826.075 5        30.702
E34        26.000    28622687.312 5 150413256.42905      1267.739 5        31.185                                                                    28622689.503 4                       946.525 4        29.592    28622698.032 4                       971.191 4        29.886
R18        28.000                                                                                                                                    23401126.185 5                       213.295 5        33.108
E10        29.000    27638241.464 6 145239917.67306     -3996.688 6        36.628                                                                    27638241.257 6 108458412.40506     -2984.621 6        40.329    27638239.985 6 111287727.36606     -3062.432 6        38.901
R11        30.000    19707020.019 6 105308320.13306       283.981 6        41.952                                                                    19707016.945 6  81906462.50406       220.934 6        36.200
C20        31.000                                                                                                                                    24058089.688 7 125276749.20007     -3338.948 7        42.620                                                                    24058089.564 5 101797631.92905     -2713.159 5        34.900
R10        32.000    21486556.102 5 114535479.81005     -3902.979 5        35.276
C36        34.000                                                                                                                                                                                                                                                                    24213988.717 6 102457309.16406      1848.349 6        36.722
R02        35.000    22257506.849 6 118770346.93906      2488.716 6        39.393                                                                    22257507.973 7  92377090.12907      1935.552 7        45.168
R12        38.000    22831168.159 6 121960053.75306      3573.488 6        36.189                                                                    22831175.207 5  94857763.71205      2779.360 5        34.833
C37        42.000                                                                                                                                    24607305.896 5 128136826.35005     -3296.327 5        33.000                                                                    24607318.625 5 104121649.21105     -2678.556 5        35.648
R24        43.000    24490124.928 3                     -4744.217 3        22.133                                                                    24490095.916 3                     -3688.730 3        20.024
R01        44.000    19487983.988 7 104174448.56207       -46.392 7        42.040                                                                    19487982.801 6  81024552.74706       -35.970 6        37.558
C09        47.000                                                                                                                                    39981627.238 4                     -1636.907 4        29.820    39981618.403 5 160989398.68105     -1265.887 5        32.994
C19        48.000                                                                                                                                    22000066.929 8 114560283.54908      -897.794 8        50.958                                                                    22000061.987 7  93089465.50707      -729.501 7        47.895
C34        49.000                                                                                                                                                                                                                                                                    26910371.088 5                      -706.393 5        31.019
C22        51.000                                                                                                                                    23872548.954 7 124310608.84407      1733.536 7        45.087                                                                    23872540.892 7 101012555.95007      1408.579 7        45.121
C44        52.000                                                                                                                                    26806599.051 3                     -2844.491 3        23.143
C12        54.000                                                                                                                                    26660086.069 5 138826054.41005     -1884.518 5        35.667    26660072.283 5 107349185.16505     -1457.093 5        35.848    26660099.655 5                     -1531.068 5        30.626
I09        59.000    38881624.200 5 152579871.97305     -1179.536 5        33.683
> 2025 01 02 06 15 30.0000000  0 36
G13         1.000    23423124.882 4                      2269.068 4        29.327
G20         4.000    20867178.815 7 109657827.49907      -549.304 7        46.296                                    20867173.755 5  85447610.76605      -428.030 5        35.314
G07         5.000    21270854.189 7 111779111.07207     -2038.319 7        47.615                                    21270846.918 7  87100614.03907     -1588.293 7        43.261    21270847.576 6  87100560.04306     -1588.409 6        41.821
G09         6.000    22667583.355 6 119119045.32206     -3638.333 6        38.517                                    22667583.282 3  92820001.40403     -2835.086 3        22.914    22667583.340 5  92819967.40705     -2835.149 5        30.717
G30         7.000    20817814.722 8 109398377.79608       216.612 8        50.111                                    20817813.043 8  85245410.95808       168.796 8        48.687    20817813.108 7  85245458.93807       168.781 7        44.214
E21        10.000    25998460.871 7 136622874.16307     -1244.541 7        44.376                                                                    25998460.655 7 102023547.48007      -929.443 7        42.919    25998459.807 7 104685047.88207      -953.690 7        43.721
E06        11.000    24160431.004 6 126963937.68406       435.695 6        37.108                                                                    24160432.923 5  94810804.75605       325.479 5        35.314    24160432.735 6  97284070.85406       333.895 6        41.144
G05        14.000    22355482.322 7 117479115.25507      1749.857 7        47.548                                    22355474.603 6  91542142.90006      1363.506 6        39.778    22355474.896 6  91541953.95306      1363.641 6        37.508
G06        15.000    25409079.126 3                     -4350.863 3        22.210
E11        16.000    26290946.017 4                     -3371.073 4        27.844                                                                    26290895.964 6 103171133.22606     -2517.523 6        36.718    26290896.288 5 105862534.31905     -2583.337 5        33.491
E04        17.000    23495017.538 6 123467192.64906      -725.900 6        38.526                                                                    23495016.022 7  92199559.90007      -542.191 7        42.118    23495017.200 7  94604695.75307      -556.315 7        42.739
R08        18.000                                                                                                                                    21453723.583 6  89354000.04306     -2798.278 6        37.645
E19        20.000    25649560.170 5 134789329.93105     -2944.737 5        32.796                                                                    25649553.634 4 100654375.58904     -2199.292 4        28.853
E09        21.000    25929072.372 6 136258190.61006      1192.446 6        40.865                                                                    25929069.119 6 101751251.34106       890.507 6        37.319    25929070.354 7 104405642.24207       913.687 7        43.754
E36        22.000                                                                                                                                    26255818.867 5 103033412.35805      -791.138 5        33.353    26255803.909 6 105721275.09806      -811.781 6        37.784
S23        24.000    38335984.784 6 201456937.78706      -848.843 6        41.185
G11        25.000    23776455.160 4                     -3628.755 4        28.246                                                                                                    23776454.116 4                     -2827.859 4        26.527
E34        26.000    28621484.811 5 150406923.04205      1266.010 5        32.245                                                                    28621485.743 5                       945.099 5        31.230    28621494.826 5 115246879.58915       969.925 5        30.604
R18        28.000    23400841.795 5                       269.840 5        30.777                                                                    23400865.017 6                       210.267 6        36.832
E10        29.000    27642044.781 6 145259902.80206     -3997.135 6        36.843                                                                    27642044.380 6 108473336.34306     -2984.911 6        40.610    27642042.679 6 111303040.63306     -3062.807 6        38.009
R11        30.000    19706755.048 6 105306911.09006       279.639 6        41.726                                                                    19706753.354 6  81905366.60006       217.614 6        38.369
C20        31.000                                                                                                                                    24061296.613 7 125293447.71707     -3340.244 7        43.266                                                                    24061296.790 5 101811200.87605     -2714.432 5        32.713
R10        32.000    21490219.206 5 114555002.44905     -3906.046 5        31.834
C36        34.000                                                                                                                                                                                                                                                                    24211805.234 6 102448070.57706      1847.180 6        36.957
R02        35.000    22255171.188 6 118757905.39906      2487.954 6        36.533                                                                    22255175.532 7  92367413.26307      1935.133 7        45.208
R12        38.000    22827824.526 5 121942189.21105      3572.418 5        30.875                                                                    22827830.643 5  94843869.02905      2778.617 5        35.952
C37        42.000                                                                                                                                    24610477.318 6                     -3297.824 6        36.454                                                                    24610485.099 5 104135044.70205     -2679.713 5        34.595
R24        43.000    24494559.793 4                     -4741.231 4        24.451
R01        44.000    19488028.467 7 104174686.85707       -48.966 7        43.530                                                                    19488025.940 6  81024738.05106       -38.079 6        37.671
C09        47.000                                                                                                                                    39983203.932 5                     -1636.816 5        33.006    39983188.636 5 160995727.24605     -1265.633 5        34.971
C19        48.000                                                                                                                                    22000929.886 8 114564777.94708      -899.878 8        50.619                                                                    22000924.940 8  93093117.54808      -731.281 8        48.188
C34        49.000                                                                                                                                    26911202.330 4                      -871.366 4        25.955                                                                    26911206.486 4                      -708.428 4        28.370
C22        51.000                                                                                                                                    23870885.691 7 124301943.93107      1732.508 7        44.545                                                                    23870876.828 7 101005514.99807      1407.835 7        44.989
C44        52.000                                                                                                                                    26809331.176 3                     -2844.775 3        23.790                                                                    26809306.289 5                     -2312.060 5        30.860
C12        54.000                                                                                                                                    26661896.442 5 138835483.58505     -1886.922 5        35.338    26661883.301 6 107356476.33306     -1459.141 6        38.646    26661908.941 5                     -1533.344 5        30.317
I09        59.000    38883127.614 5 152585770.14805     -1179.787 5        34.419
> 2025 01 02 06 15 35.0000000  0 35
G13         1.000    23420967.267 5 123078214.07115      2268.842 5        34.738
G20         4.000    20867702.926 7 109660582.51207      -552.438 7        46.236                                    20867697.976 5  85449757.52705      -430.477 5        35.700
G07         5.000    21272794.185 7 111789307.84507     -2040.150 7        44.351                                    21272786.976 7  87108559.55407     -1589.727 7        42.383    21272787.962 7  87108505.57907     -1589.751 7        42.027
G09         6.000    22671048.029 5 119137240.38905     -3639.643 5        32.090                                    22671045.508 3  92834179.39203     -2836.101 3        22.114    22671043.841 5  92834145.33005     -2835.978 5        31.668
G30         7.000    20817610.135 8 109397300.92408       214.331 8        49.351                                    20817608.328 8  85244571.82908       167.016 8        48.640    20817608.667 7  85244619.82207       166.960 7        44.855
E21        10.000    25999645.611 7 136629103.45407     -1246.925 7        42.658                                                                    25999646.300 7 102028199.21107      -931.104 7        43.530    25999645.876 7 104689820.98207      -955.462 7        43.936
E06        11.000    24160016.934 6 126961761.33406       434.830 6        36.333                                                                    24160015.789 5  94809179.64905       324.862 5        34.557    24160019.009 7  97282403.31807       333.227 7        42.419
G05        14.000    22353818.024 7 117470371.72407      1747.669 7        47.695                                    22353810.180 6  91535329.77106      1361.815 6        39.985    22353811.721 6  91535140.78406      1361.849 6        36.253
E11        16.000    26294156.329 4                     -3372.755 4        28.104                                                                    26294104.100 6 103183723.21206     -2518.377 6        36.643    26294104.020 5 105875452.73905     -2584.250 5        30.958
E04        17.000    23495709.513 6 123470825.65206      -727.065 6        40.012                                                                    23495707.851 6  92202272.86206      -543.043 6        40.291    23495708.852 7  94607479.46507      -557.094 7        44.360
R08        18.000    21457085.240 6 114901733.58406     -3599.341 6        36.998                                                                    21457083.524 5  89367995.25005     -2799.516 5        34.257
E19        20.000    25652360.375 5 134804055.21305     -2945.100 5        33.868                                                                    25652355.331 5 100665371.66405     -2198.942 5        30.491    25652356.910 5 103291417.27815     -2256.684 5        34.690
E09        21.000    25927938.552 6 136252229.93806      1191.963 6        40.729                                                                    25927934.857 6 101746800.18206       890.252 6        37.807    25927936.242 7 104401074.94007       913.374 7        43.257
E36        22.000                                                                                                                                                                                                    26256813.675 6 105725339.45406      -813.809 6        38.622
S23        24.000    38336792.176 6 201461182.47206      -848.727 6        40.486
G11        25.000    23779912.431 5                     -3630.156 5        35.695                                                                                                    23779905.462 4                     -2829.072 4        29.412
E34        26.000    28620280.086 5 150400598.59505      1264.089 5        31.140                                                                    28620285.085 4                       944.051 4        27.353    28620288.572 5 115242033.54905       968.712 5        31.728
R17        27.000    22896705.378 5 122524911.95015     -2804.858 5        30.543
R18        28.000                                                                                                                                    23400601.567 6  97155350.89716       206.963 6        36.760
E10        29.000    27645848.811 5 145279889.56205     -3997.272 5        35.552                                                                    27645847.515 6 108488261.50606     -2985.025 6        40.010    27645845.606 6 111318355.13606     -3062.765 6        37.032
R11        30.000    19706493.785 7 105305524.31907       275.348 7        44.898                                                                    19706493.378 6  81904288.01806       214.217 6        37.403
C20        31.000                                                                                                                                    24064505.305 6 125310153.09206     -3341.700 6        40.963                                                                    24064507.642 4 101824775.26704     -2715.150 4        28.626
R10        32.000    21493885.504 5 114574540.53005     -3909.090 5        32.725
C36        34.000                                                                                                                                    24209631.988 5                      2272.444 5        33.174                                                                    24209624.384 6 102438836.88706      1846.324 6        37.701
R02        35.000    22252846.202 7 118745466.89807      2487.528 7        42.485                                                                    22252844.596 7  92357738.89507      1934.852 7        45.893
R12        38.000    22824484.196 5 121924330.42805      3571.169 5        35.914                                                                    22824486.707 5  94829978.90205      2777.686 5        34.548
C37        42.000                                                                                                                                    24613640.924 5                     -3299.298 5        34.919                                                                    24613651.218 6 104148447.10506     -2681.177 6        36.348
R01        44.000    19488074.265 7 104174938.49107       -51.569 7        43.124                                                                    19488073.256 6  81024933.74906       -40.006 6        37.327
C09        47.000                                                                                                                                    39984781.096 5                     -1636.821 5        30.792    39984760.314 6 161002055.76806     -1265.723 6        36.166
C19        48.000                                                                                                                                    22001794.801 8 114569282.77508      -901.849 8        50.120                                                                    22001789.782 8  93096778.06608      -732.815 8        48.496
C34        49.000                                                                                                                                                                                                                                                                    26912048.170 4                      -710.519 4        29.924
C22        51.000                                                                                                                                    23869222.048 7 124293283.58807      1731.586 7        42.239                                                                    23869213.842 7 100998477.66107      1407.236 7        44.883
C44        52.000                                                                                                                                    26812063.365 4                     -2847.323 4        24.105                                                                    26812036.635 4                     -2313.462 4        28.540
C12        54.000                                                                                                                                    26663708.238 5 138844925.06005     -1889.369 5        34.743    26663697.328 6 107363776.99706     -1460.813 6        36.397
I09        59.000    38884632.052 5 152591669.02605     -1179.630 5        33.479
> 2025 01 02 06 15 40.0000000  0 35
G13         1.000    23119021.271 6 121491448.66506      2268.301 6        36.208
G20         4.000    20568437.732 7 108087933.79307      -555.786 7        45.284                                    20568432.821 5  84224316.96205      -433.087 5        35.619
G07         5.000    20974943.442 7 110224095.54107     -2041.930 7        43.653                                    20974936.825 6  85888913.59606     -1591.111 6        41.204    20974938.281 7  85888859.62607     -1591.325 7        42.620
G09         6.000    22374718.231 6 117580023.60806     -3640.526 6        36.117                                    22374716.617 3  91620763.69103     -2836.782 3        20.500    22374714.073 4  91620729.65004     -2836.941 4        29.754
G30         7.000    20517614.606 8 107820815.22908       211.901 8        49.738                                    20517613.247 8  84016141.41508       165.123 8        48.605    20517612.928 7  84016189.41307       165.053 7        44.971
E21        10.000    25701040.912 6 135059925.56806     -1249.578 6        40.222                                                                    25701041.516 7 100856410.52807      -933.094 7        43.251    25701041.602 7 103487463.89107      -957.329 7        44.275
E06        11.000    23859828.093 5                       434.123 5        31.072                                                                    23859812.382 6  93631106.92306       324.002 6        37.588    23859812.473 7  96073598.25207       332.561 7        42.794
G05        14.000    22052363.307 7 115886217.07507      1745.388 7        47.510                                    22052355.061 6  90300923.57006      1360.038 6        39.634    22052356.626 5  90300734.58005      1360.182 5        35.419
E11        16.000    25997571.103 3                     -3374.554 3        22.571                                                                    25997521.660 6 102019870.35406     -2519.344 6        36.681    25997519.190 5 104681238.49505     -2585.102 5        32.581
E04        17.000    23196609.858 6 121899044.06206      -728.249 6        40.324                                                                    23196608.143 6  91028539.88906      -543.873 6        40.646    23196608.592 7  93403127.36607      -557.810 7        44.116
R08        18.000    21160657.977 6 113314364.78506     -3601.395 6        41.037                                                                    21160650.116 4  88133374.92804     -2801.396 4        28.493
E19        20.000    25355372.966 5 133243365.40505     -2945.550 5        32.024                                                                    25355364.900 4  99499921.46404     -2199.523 4        29.896    25355367.342 5 102095563.99805     -2257.067 5        34.548
E09        21.000    25627011.554 6 134670849.77106      1191.550 6        41.340                                                                    25627008.038 6 100565899.41706       889.548 6        37.546    25627010.199 7 103189368.04807       913.001 7        43.500
E36        22.000                                                                                                                                                                                                    25958033.091 6 104522273.90606      -815.712 6        38.267
S23        24.000    38037807.664 6 199890007.20406      -848.927 6        41.156
G11        25.000                                                                                                                                                                    23483574.760 4                     -2830.810 4        24.842
E34        26.000                                                                                                                                    28319289.890 4                       942.921 4        26.180    28319292.740 5 114030052.67305       967.307 5        33.892
R17        27.000    22599534.270 6                     -2807.607 6        36.590                                                                    22599559.994 4                     -2183.835 4        28.588
R18        28.000    23100556.882 6 123312356.57716       261.814 6        36.197                                                                    23100555.795 5  95909637.04605       203.554 5        35.714
E10        29.000    27349859.101 5 143724460.98605     -3997.765 5        35.057                                                                    27349858.800 6 107326740.14906     -2985.244 6        39.691    27349857.574 6 110126533.22206     -3063.228 6        37.584
R11        30.000    19406445.898 7 103702158.68307       270.810 7        47.137                                                                    19406444.849 6  80657225.89306       210.649 6        36.476
C20        31.000                                                                                                                                    23767922.769 6 123765769.68206     -3342.932 6        41.149                                                                    23767930.627 5 100569837.38705     -2716.463 5        32.982
R10        32.000    21197759.278 5 112996034.38705     -3911.907 5        32.114
C36        34.000                                                                                                                                                                                                                                                                    23907650.770 6 101161085.55206      1845.459 6        38.793
R02        35.000    21950724.378 7 117133278.01207      2486.980 7        43.115                                                                    21950721.458 7  91103814.19007      1934.319 7        45.079
R12        38.000    22521351.031 6 120305035.51606      3570.176 6        38.150                                                                    22521350.550 5  93570527.26405      2776.773 5        33.269
C37        42.000                                                                                                                                    24317018.509 6 126625097.40216     -3301.074 6        36.435                                                                    24317027.364 5 102893338.22205     -2682.111 5        34.871
R01        44.000    19188329.959 7 102572639.87207       -54.168 7        42.609                                                                    19188330.960 6  79778701.50806       -42.239 6        38.060
C09        47.000                                                                                                                                    39686564.934 4                     -1636.297 4        26.611    39686539.455 5 159801244.79205     -1265.403 5        32.994
C19        48.000                                                                                                                                    21702869.201 8 113012700.06108      -903.888 8        50.617                                                                    21702864.494 7  91831927.11307      -734.354 7        47.346
C34        49.000                                                                                                                                                                                                                                                                    26613096.413 5                      -712.566 5        30.098
C22        51.000                                                                                                                                    23567765.982 6 122723527.01306      1730.914 6        41.204                                                                    23567758.890 7  99722921.89407      1406.599 7        45.299
C44        52.000                                                                                                                                                                                                                                                                    26514978.641 4                     -2314.095 4        26.599
C12        54.000                                                                                                                                    26365736.689 5 137293281.74905     -1891.799 5        33.335    26365720.889 6 106163948.03106     -1462.888 6        36.488    26365730.354 3                     -1537.277 3        22.667
I09        59.000    38586341.310 5 151421119.08005     -1179.966 5        31.796
> 2025 01 02 06 15 45.0000000  0 35
G13         1.000    23116862.202 5 121480108.91405      2267.735 5        32.707
G20         4.000    20568968.319 7 108090721.26207      -559.056 7        44.466                                    20568963.164 5  84226489.02305      -435.621 5        35.057
G07         5.000    20976886.719 7 110234311.12607     -2043.944 7        42.385                                    20976880.809 6  85896873.79706     -1592.673 6        39.991    20976882.359 7  85896819.80407     -1592.810 7        43.484
G09         6.000    22378182.730 6 117598228.75106     -3641.614 6        37.214                                    22378180.885 3  91634949.48803     -2837.655 3        20.500    22378181.060 5  91634915.47405     -2837.673 5        30.483
G30         7.000    20517413.993 8 107819762.13708       209.428 8        49.696                                    20517413.057 8  84015320.81908       163.198 8        48.481    20517412.467 7  84015368.81207       163.230 7        44.757
E21        10.000    25702231.821 6 135066179.03306     -1252.058 6        39.544                                                                    25702231.320 7 100861080.30007      -934.835 7        43.348    25702231.582 7 103492255.50507      -959.271 7        44.668
E06        11.000    23859394.686 5                       432.936 5        30.513                                                                    23859398.942 6  93629487.96506       323.416 6        38.901    23859399.196 6  96071937.10806       331.910 6        41.540
G05        14.000    22050703.567 8 115877495.76108      1743.206 8        48.065                                    22050695.212 6  90294127.75406      1358.344 6        39.477    22050699.410 6  90293938.73506      1358.283 6        36.805
E11        16.000    26000788.126 3                     -3374.308 3        20.786                                                                    26000732.544 6 102032470.41406     -2520.404 6        36.382    26000728.568 5 104694167.24105     -2586.219 5        32.533
E04        17.000    23197303.478 6 121902687.50106      -729.098 6        40.689                                                                    23197301.141 7  91031260.62907      -544.490 7        42.125    23197301.748 7  93405919.10707      -558.701 7        44.867
R08        18.000    21164021.621 6 113332376.93106     -3603.267 6        39.862                                                                    21164014.495 5  88147384.38305     -2802.286 5        31.691
E19        20.000    25358177.120 5 133258095.66505     -2946.465 5        32.102                                                                    25358165.726 4  99510921.38904     -2200.281 4        29.848    25358173.805 5 102106850.84105     -2257.719 5        34.381
E09        21.000    25625878.574 6 134664893.57906      1191.021 6        39.739                                                                    25625874.691 6 100561451.56706       889.513 6        37.769    25625877.482 7 103184804.18907       912.671 7        42.935
E36        22.000                                                                                                                                    25959080.542 5 101868874.03305      -797.141 5        32.395    25959047.543 6 104526357.62506      -817.731 6        37.168
S23        24.000    38038614.049 6 199894251.33006      -848.756 6        41.189
G11        25.000    23487034.747 5                     -3633.002 5        33.257
E34        26.000    28318074.403 5 148812553.31005      1260.799 5        30.023                                                                    28318089.063 5                       941.346 5        31.042    28318092.864 5 114025219.66605       965.971 5        31.804
R17        27.000    22602173.941 5                     -2810.997 5        35.524
R18        28.000    23100312.327 6 123311058.46806       257.576 6        36.098
E10        29.000    27353663.907 5 143744450.18405     -3997.778 5        35.595                                                                    27353662.607 6 107341667.09306     -2985.571 6        39.003    27353662.050 6 110141849.55406     -3063.307 6        37.490
R11        30.000    19406195.513 7 103700815.76207       266.405 7        47.506                                                                    19406193.231 6  80656181.39706       207.167 6        37.709
C20        31.000                                                                                                                                    23771130.480 6 123782487.85106     -3344.124 6        39.420                                                                    23771144.710 5                     -2717.666 5        31.011
R10        32.000    21201431.514 5 113015602.27505     -3914.760 5        32.946
C36        34.000                                                                                                                                    23905471.476 6 124482037.61116      2269.833 6        37.558                                                                    23905470.711 6 101151860.99306      1844.517 6        38.204
R02        35.000    21948392.222 7 117120844.67907      2486.581 7        44.128                                                                    21948391.070 7  91094143.88107      1933.869 7        43.482
R12        38.000    22518009.857 6 120287187.67306      3569.258 6        37.448                                                                    22518008.710 5  93556645.52505      2776.200 5        34.448
C37        42.000                                                                                                                                    24320191.060 5 126641607.05305     -3302.919 5        35.767                                                                    24320196.783 5 102906753.65005     -2683.486 5        33.868
R01        44.000    19188382.491 6 102572917.15106       -56.757 6        41.480                                                                    19188381.985 6  79778917.13906       -44.111 6        37.614
C09        47.000                                                                                                                                    39688131.518 4                     -1636.688 4        27.305    39688109.050 5 159807572.72305     -1265.529 5        35.790
C19        48.000                                                                                                                                    21703738.011 8 113017225.00808      -905.932 8        50.765                                                                    21703733.557 7  91835604.00307      -736.080 7        47.148
C34        49.000                                                                                                                                                                                                                                                                    26613937.588 4                      -714.606 4        26.431
C22        51.000                                                                                                                                    23566104.886 7 122714874.80407      1729.920 7        42.085                                                                    23566097.006 7  99715891.26507      1405.889 7        45.208
C44        52.000                                                                                                                                                                                                                                                                    26517715.118 4                     -2315.429 4        26.467
C12        54.000                                                                                                                                    26367560.950 5 137302746.88605     -1894.182 5        33.072    26367541.375 6 106171267.17306     -1464.726 6        38.261    26367553.466 4                     -1539.428 4        28.464
I09        59.000    38587846.758 5 151427018.62705     -1180.200 5        30.566
> 2025 01 02 06 15 50.0000000  0 36
G13         1.000    23114697.444 6 121468771.79306      2266.961 6        36.730
G20         4.000    20569501.737 7 108093524.50707      -562.398 7        44.910                                    20569496.437 5  84228673.36505      -438.234 5        34.852
G07         5.000    20978832.296 6 110244535.61806     -2045.940 6        40.067                                    20978826.609 6  85904840.94906     -1594.228 6        38.643    20978827.581 7  85904786.95307     -1594.255 7        44.384
G09         6.000    22381646.454 5 117616438.54805     -3642.708 5        35.138                                    22381646.357 3  91649138.91303     -2838.479 3        19.433    22381647.253 5  91649104.88905     -2838.368 5        31.208
G30         7.000    20517216.068 8 107818720.53208       207.025 8        49.823                                    20517215.049 8  84014509.18208       161.324 8        48.297    20517214.283 7  84014557.17807       161.322 7        44.008
E21        10.000    25703424.461 6 135072444.12306     -1254.311 6        39.285                                                                    25703423.668 7 100865758.80007      -936.723 7        43.268    25703423.636 7 103497056.02507      -961.161 7        45.151
E06        11.000    23858986.011 5 125379818.35515       431.989 5        34.143                                                                    23858986.508 6  93627871.86806       322.737 6        38.601    23858987.445 6  96070278.84706       331.155 6        41.199
G05        14.000    22049045.733 7 115868785.11407      1740.896 7        47.158                                    22049037.600 6  90287340.23406      1356.543 6        38.862    22049041.311 6  90287151.23506      1356.466 6        37.369
G06        15.000    25125845.019 3                     -4356.481 3        19.493
E11        16.000                                                                                                                                    26003944.274 6 102045075.17206     -2521.577 6        37.875    26003941.951 5 104707100.83505     -2587.159 5        31.713
E04        17.000    23197996.462 6 121906335.78406      -730.387 6        40.453                                                                    23197995.320 7  91033984.95107      -545.339 7        42.423    23197996.275 7  93408714.52607      -559.578 7        46.048
R08        18.000    21167385.437 6 113350397.86806     -3605.075 6        39.183                                                                    21167381.822 5  88161400.73905     -2804.079 5        35.167
E19        20.000    25360977.643 4 133272827.97004     -2946.639 4        29.829                                                                    25360971.060 4  99521922.77504     -2200.325 4        29.479    25360976.978 5 102118139.23705     -2257.798 5        34.529
E09        21.000    25624745.056 6 134658939.18306      1190.785 6        39.333                                                                    25624741.762 6 100557005.11806       889.025 6        38.033    25624744.579 7 103180241.72807       912.245 7        43.611
E36        22.000    25960081.249 5 136421124.71815     -1069.746 5        32.162                                                                    25960089.592 5 101872863.03905      -798.902 5        34.552    25960064.324 6 104530450.65506      -819.497 6        36.911
S23        24.000    38039421.660 6 199898494.95006      -848.789 6        40.379
G11        25.000    23490496.485 6 123443361.74716     -3634.876 6        36.571                                                                                                    23490493.116 4                     -2833.308 4        24.571
E34        26.000    28316877.352 5 148806254.06205      1259.419 5        30.468                                                                    28316889.917 5                       940.061 5        32.946    28316890.297 5 114020392.96305       964.630 5        33.569
R17        27.000    22604810.313 6 120962845.97116     -2815.247 6        36.885
R18        28.000    23100072.796 6 123309780.67206       253.553 6        37.558
E10        29.000    27357468.748 5 143764440.05705     -3998.295 5        33.533                                                                    27357465.898 6 107356594.56706     -2985.785 6        38.784    27357465.919 6 110157166.44306     -3063.423 6        36.749
R11        30.000    19405946.641 7 103699494.29407       261.980 7        45.913                                                                    19405946.604 6  80655153.63006       203.773 6        39.471
C20        31.000                                                                                                                                    23774343.081 6 123799212.06506     -3345.484 6        39.408                                                                    23774357.871 5                     -2718.536 5        32.449
R10        32.000    21205106.090 5 113035184.59305     -3918.026 5        30.415
C36        34.000                                                                                                                                    23903289.813 6 124470690.60206      2268.799 6        40.965                                                                    23903291.578 6 101142640.66406      1843.319 6        37.890
R02        35.000    21946062.079 7 117108413.53707      2485.906 7        43.886                                                                    21946061.813 7  91084475.17607      1933.530 7        44.406
R12        38.000    22514666.924 6 120269344.80706      3567.983 6        39.186                                                                    22514668.501 5  93542767.76705      2774.821 5        32.509
C37        42.000                                                                                                                                    24323359.653 5 126658124.39205     -3304.264 5        33.287                                                                    24323366.733 5 102920175.31105     -2685.105 5        32.066
R01        44.000    19188437.391 6 102573206.91306       -59.368 6        39.943                                                                    19188436.511 6  79779142.52006       -46.144 6        37.263
C09        47.000                                                                                                                                    39689695.222 4                     -1636.365 4        25.564    39689681.740 5 159813899.85505     -1265.553 5        34.676
C19        48.000                                                                                                                                    21704609.454 8 113021759.57608      -908.023 8        51.265                                                                    21704604.254 7  91839288.72207      -737.953 7        47.194
C34        49.000                                                                                                                                                                                                                                                                    26614779.983 4                      -716.794 4        27.150
C22        51.000                                                                                                                                    23564443.129 7 122706226.29107      1729.103 7        42.178                                                                    23564436.233 7  99708863.63107      1405.048 7        44.722
C44        52.000                                                                                                                                                                                                                                                                    26520454.948 4                     -2317.496 4        25.519
C12        54.000                                                                                                                                    26369387.964 5 137312223.57305     -1896.606 5        34.600    26369369.258 6 106178595.16006     -1466.661 6        39.718    26369374.816 5                     -1541.123 5        30.083
I09        59.000    38589350.428 5 151432918.37405     -1180.100 5        33.090
> 2025 01 02 06 15 55.0000000  0 38
G13         1.000    23112544.305 6 121457438.14306      2266.510 6        37.350                                    23112541.938 1  94641996.37111      1766.154 1         6.000
G20         4.000    20570038.171 7 108096344.48007      -565.700 7        43.983                                    20570032.803 5  84230870.74505      -440.803 5        34.343
G07         5.000    20980780.337 6 110254769.96706     -2048.068 6        40.248                                    20980774.265 6  85912815.76606     -1595.913 6        37.622    20980774.675 7  85912761.78007     -1595.757 7        43.532
G09         6.000    22385108.416 5 117634653.89505     -3643.627 5        34.324                                    22385112.602 2  91663332.63102     -2839.192 2        16.792    22385109.273 5  91663298.62005     -2839.236 5        30.136
G30         7.000    20517020.055 8 107817691.29708       204.577 8        49.767                                    20517019.259 8  84013707.17308       159.409 8        48.038    20517018.494 7  84013755.18207       159.354 7        43.875
E21        10.000    25704618.934 6 135078721.78706     -1256.707 6        38.246                                                                    25704618.124 7 100870446.66507      -938.512 7        43.369    25704618.330 7 103501866.18707      -963.134 7        44.941
E06        11.000    23858575.386 6 125377658.69706       431.518 6        36.246                                                                    23858574.534 6  93626259.24606       322.191 6        37.924    23858576.818 6  96068624.15706       330.460 6        40.892
G05        14.000    22047389.485 7 115860086.08107      1738.613 7        47.546                                    22047382.344 6  90280561.76406      1354.768 6        38.480    22047385.514 6  90280372.76806      1354.679 6        39.111
G06        15.000    25129988.510 3                     -4353.508 3        19.045
E11        16.000                                                                                                                                    26007157.639 6 102057685.29006     -2522.571 6        37.108    26007154.987 5 104720039.92105     -2588.431 5        32.425
E04        17.000    23198692.746 6 121909989.72106      -731.309 6        39.550                                                                    23198690.386 7  91036713.57907      -546.206 7        42.489    23198691.995 7  93411514.31107      -560.420 7        45.561
R08        18.000    21170751.057 6 113368428.50806     -3606.951 6        39.354                                                                    21170748.566 6  88175424.55706     -2805.460 6        38.288
E19        20.000    25363782.273 4 133287563.38304     -2947.137 4        26.192                                                                    25363775.254 5  99532926.44205     -2201.089 5        30.136    25363781.186 5 102129429.98705     -2258.586 5        34.329
E09        21.000    25623612.707 6 134652987.52206      1190.033 6        40.877                                                                    25623609.185 6 100552560.66306       888.721 6        36.435    25623611.929 7 103175681.34707       911.886 7        44.873
E36        22.000                                                                                                                                    25961096.758 5 101876861.78305      -800.699 5        34.643    25961083.664 6 104534553.75606      -821.714 6        38.240
S23        24.000    38040219.120 6 199902738.88406      -848.798 6        37.376
G11        25.000    23493960.159 6 123461540.48106     -3636.470 6        37.444                                                                                                    23493952.596 5  96203810.71115     -2833.739 5        33.180
E34        26.000    28315679.063 5 148799963.80205      1257.116 5        31.909                                                                    28315690.789 5                       938.743 5        32.228    28315692.296 5 114015573.08005       963.286 5        33.240
R17        27.000    22607443.476 6 120976930.28406     -2818.819 6        37.883                                                                    22607416.233 4  94093099.55514     -2192.385 4        26.958
R18        28.000    23099838.736 6 123308524.05706       249.109 6        37.259
E10        29.000    27361273.090 5 143784431.58805     -3998.554 5        33.683                                                                    27361269.847 6 107371523.27106     -2985.886 6        38.465    27361270.097 6 110172484.57606     -3063.557 6        36.616
R11        30.000    19405702.968 7 103698195.21407       257.424 7        46.323                                                                    19405704.660 6  80654143.29606       200.424 6        40.386
C20        31.000                                                                                                                                    23777556.055 6 123815943.07706     -3347.116 6        36.537                                                                    23777572.399 5                     -2719.478 5        33.066
R10        32.000    21208781.571 6 113054782.28706     -3921.052 6        37.535
C36        34.000                                                                                                                                    23901109.258 6 124459349.77206      2267.436 6        41.812                                                                    23901112.762 6 101133425.32706      1842.520 6        37.161
R02        35.000    21943733.019 7 117095985.54907      2485.349 7        44.880                                                                    21943733.333 7  91074808.95007      1932.924 7        44.698
S36        36.000    38104517.247 5 200240601.00715      -851.802 5        34.724
R12        38.000    22511327.061 6 120251507.94006      3566.831 6        39.538                                                                    22511329.775 5  93528894.67505      2774.120 5        33.347
C37        42.000                                                                                                                                    24326533.792 4 126674650.09104     -3305.884 4        29.507                                                                    24326540.690 5 102933603.84905     -2686.715 5        31.532
R24        43.000    24216921.551 3                     -4742.924 3        21.571                                                                    24216908.865 3                     -3690.027 3        22.514
R01        44.000    19188496.099 7 102573510.05407       -61.950 7        42.019                                                                    19188492.796 6  79779378.27506       -48.251 6        38.580
C09        47.000                                                                                                                                    39691265.159 5                     -1636.417 5        31.585    39691257.448 5 159820226.96005     -1265.231 5        32.311
C19        48.000                                                                                                                                    21705482.783 8 113026304.70008      -910.105 8        52.056                                                                    21705477.228 7  91842981.99607      -739.522 7        46.491
C34        49.000                                                                                                                                    26615654.349 5                      -884.736 5        31.441                                                                    26615628.590 4                      -718.799 4        27.269
C22        51.000                                                                                                                                    23562783.433 6 122697582.35606      1728.332 6        41.316                                                                    23562776.233 7  99701839.74407      1404.398 7        44.289
C44        52.000                                                                                                                                    26523222.760 4                     -2853.643 4        26.958
C12        54.000                                                                                                                                    26371207.778 5 137321712.57205     -1899.175 5        34.362    26371194.131 6 106185932.57106     -1468.458 6        37.229    26371198.983 5                     -1542.916 5        30.121
I09        59.000    38590852.040 5 151438818.81105     -1180.682 5        30.641
> 2025 01 02 06 16  0.0000000  0 37
G13         1.000    23110389.845 5 121446107.78305      2266.069 5        35.924                                    23110385.252 1  94633167.38401      1765.755 1         5.429
G20         4.000    20570577.435 7 108099181.00207      -568.735 7        43.683                                    20570572.108 5  84233081.02305      -443.179 5        33.311
G07         5.000    20982730.254 6 110265013.98506     -2049.632 6        41.354                                    20982723.543 6  85920798.12806     -1597.128 6        37.558    20982723.914 7  85920744.14907     -1597.144 7        43.608
G09         6.000    22388575.800 5 117652874.60605     -3644.466 5        32.599                                    22388579.577 2  91677530.61502     -2839.831 2        13.333    22388578.588 4                     -2839.552 4        29.005
G30         7.000    20516826.480 8 107816674.26908       202.385 8        48.958                                    20516825.615 8  84012914.68008       157.707 8        48.218    20516824.855 7  84012962.67107       157.634 7        44.290
E21        10.000    25705816.045 6 135085011.89806     -1259.046 6        39.261                                                                    25705815.418 7 100875143.78207      -940.287 7        44.277    25705815.353 7 103506685.83907      -964.736 7        45.169
E06        11.000    23858168.082 5 125375503.64005       430.721 5        33.994                                                                    23858164.061 5  93624650.00405       321.816 5        34.648    23858167.417 6  96066972.90806       329.890 6        40.605
G05        14.000    22045736.634 7 115851398.47307      1736.540 7        46.124                                    22045729.390 6  90273792.19506      1353.151 6        38.018    22045731.474 6  90273603.18706      1353.117 6        36.945
E11        16.000                                                                                                                                    26010371.657 5 102070300.63405     -2523.594 5        35.024    26010370.215 5 104732984.32705     -2589.172 5        32.898
E04        17.000    23199389.728 6 121913649.26306      -732.182 6        40.586                                                                    23199386.756 6  91039446.30106      -546.756 6        41.371    23199388.741 7  93414318.32707      -561.120 7        45.624
R08        18.000    21174117.301 7 113386468.82707     -3608.723 7        42.015                                                                    21174119.463 6  88189455.85806     -2806.804 6        36.783
E19        20.000    25366583.658 4 133302301.51204     -2948.422 4        25.444                                                                    25366579.985 4  99543932.09604     -2201.404 4        29.886    25366586.057 5 102140722.75705     -2258.711 5        34.590
E09        21.000    25622481.623 6 134647038.43006      1189.878 6        39.976                                                                    25622478.090 6 100548118.15906       888.489 6        36.480    25622479.819 7 103171122.95007       911.587 7        43.378
E36        22.000                                                                                                                                    25962115.791 5 101880870.22105      -802.570 5        34.338    25962104.748 6 104538666.75606      -823.340 6        36.442
S23        24.000    38041047.180 6 199906982.83206      -848.619 6        40.617
G11        25.000    23497428.855 6 123479727.45106     -3637.866 6        36.911                                                                                                    23497406.841 5  96217982.43405     -2834.999 5        33.701
E34        26.000    28314491.846 5 148793682.31805      1255.607 5        35.229                                                                    28314495.162 5                       937.565 5        31.494    28314494.897 5 114010759.99705       961.785 5        31.645
R17        27.000                                                                                                                                    22610056.299 4  94104068.28404     -2195.069 4        29.687
R18        28.000    23099604.991 5 123307288.42905       245.255 5        32.389                                                                    23099619.568 4  95905695.10004       190.613 4        27.892
E10        29.000    27365079.734 5 143804424.60105     -3998.668 5        32.245                                                                    27365074.836 6 107386453.08006     -2985.936 6        38.423    27365075.122 6 110187803.87806     -3063.821 6        37.803
R11        30.000    19405465.535 7 103696918.39907       253.240 7        45.201                                                                    19405465.277 6  80653150.20606       196.994 6        39.111
C20        31.000                                                                                                                                    23780770.436 6 123832680.71106     -3348.067 6        39.204                                                                    23780791.529 4                     -2719.461 4        26.802
R10        32.000    21212461.159 6 113074395.17406     -3923.937 6        38.261
C36        34.000                                                                                                                                    23898932.314 6 124448014.91606      2266.458 6        40.944                                                                    23898936.642 5 101124214.76905      1841.719 5        35.914
R02        35.000    21941405.391 7 117083560.43107      2484.760 7        44.265                                                                    21941404.050 7  91065144.91907      1932.766 7        42.032
S36        36.000    38105315.535 6 200244860.59806      -851.924 6        36.457
R12        38.000    22507989.095 6 120233676.93006      3565.649 6        38.342                                                                    22507993.900 5  93515026.12505      2773.529 5        35.343
C37        42.000                                                                                                                                    24329708.636 4 126691184.19704     -3307.118 4        25.654                                                                    24329717.465 4 102947039.04804     -2687.193 4        28.682
R24        43.000                                                                                                                                    24221347.045 3                     -3689.305 3        21.714
R01        44.000    19188553.308 6 102573826.45606       -64.506 6        41.762                                                                    19188553.055 6  79779624.37406       -50.249 6        39.589
C09        47.000                                                                                                                                    39692837.252 5                     -1636.355 5        32.359    39692827.077 5 159826554.16605     -1265.857 5        32.515
C19        48.000                                                                                                                                    21706357.749 8 113030860.17408      -911.978 8        51.775                                                                    21706351.920 7  91846683.68907      -741.037 7        46.524
C34        49.000                                                                                                                                    26616490.968 3                      -886.968 3        23.371
C22        51.000                                                                                                                                    23561124.210 7 122688942.80507      1727.684 7        45.236                                                                    23561116.743 7  99694819.42607      1403.840 7        43.778
C44        52.000                                                                                                                                    26525963.283 5                     -2854.286 5        30.551
C12        54.000                                                                                                                                    26373021.465 5 137331213.65605     -1901.023 5        32.293    26373007.038 5 106193279.45005     -1469.987 5        32.952    26373021.375 5                     -1545.107 5        31.396
I09        59.000    38592354.518 5 151444719.90005     -1180.141 5        30.287
> 2025 01 02 06 16  5.0000000  0 37
G13         1.000    23108233.125 6 121434780.67806      2265.219 6        37.471                                    23108228.740 1  94624341.11801      1765.129 1         2.800
G20         4.000    20571121.236 7 108102033.92607      -572.008 7        42.645                                    20571114.373 5  84235304.08105      -445.717 5        32.293
G07         5.000    20984681.436 7 110275267.61207     -2051.508 7        42.432                                    20984674.825 6  85928787.96606     -1598.578 6        36.809    20984675.347 7  85928733.97707     -1598.517 7        43.520
G09         6.000    22392043.294 5                     -3646.159 5        31.268
G30         7.000    20516635.056 8 107815669.28308       200.020 8        48.022                                    20516634.127 7  84012131.55207       155.852 7        47.617    20516633.507 7  84012179.57207       155.833 7        43.395
E21        10.000    25707015.181 6 135091314.20506     -1261.458 6        39.757                                                                    25707014.105 7 100879850.04407      -941.991 7        44.012    25707014.189 7 103511514.88407      -966.639 7        44.932
E06        11.000    23857759.263 6 125373353.14306       429.817 6        37.384                                                                    23857756.610 6  93623044.07506       321.045 6        38.102    23857757.917 7  96065325.04807       329.346 7        42.154
G05        14.000    22044085.009 7 115842722.16407      1734.337 7        46.777                                    22044078.543 6  90267031.41806      1351.431 6        37.864    22044079.409 6  90266842.44506      1351.269 6        36.915
E11        16.000                                                                                                                                    26013589.110 6 102082921.10006     -2524.488 6        38.228    26013585.263 5 104745934.02305     -2590.388 5        32.030
E04        17.000    23200086.909 7 121917314.14607      -733.300 7        42.681                                                                    23200084.023 6  91042183.06706      -547.606 6        37.913    23200086.817 7  93417126.49307      -561.779 7        45.141
R08        18.000    21177491.107 6 113404518.36206     -3610.656 6        41.809                                                                    21177489.849 6  88203494.33006     -2808.053 6        38.841
E19        20.000    25369392.653 4 133317042.10204     -2948.705 4        28.180                                                                    25369385.393 4  99554939.75504     -2201.584 4        28.711    25369391.273 5 102152017.61805     -2259.075 5        34.329
E09        21.000    25621348.515 6 134641091.77506      1189.115 6        39.538                                                                    25621346.440 6 100543677.43106       888.141 6        39.688    25621347.616 7 103166566.40007       911.236 7        42.565
E36        22.000                                                                                                                                    25963139.325 6 101884888.13906      -804.317 6        36.095    25963128.816 6 104542789.58406      -825.277 6        37.361
S23        24.000    38041857.259 6 199911226.68006      -848.461 6        39.913
G11        25.000    23500891.862 5 123497922.54005     -3639.678 5        31.419                                                                                                    23500867.732 4                     -2835.794 4        26.156
E34        26.000    28313308.110 4 148787409.62704      1253.870 4        27.832                                                                                                                                    28313301.325 4 114005953.67604       960.937 4        28.180
R17        27.000                                                                                                                                    22612692.954 5  94115050.99905     -2197.922 5        31.917
R18        28.000    23099377.099 5 123306073.73405       240.769 5        32.671                                                                    23099390.537 5  95904749.96505       187.872 5        30.808
E10        29.000    27368885.164 4 143824418.93504     -3998.631 4        29.507                                                                    27368878.681 6 107401383.88006     -2986.058 6        38.042    27368879.156 5 110203124.14905     -3064.009 5        35.833
R11        30.000    19405229.015 7 103695663.63407       248.702 7        44.462                                                                    19405230.000 6  80652174.25406       193.507 6        40.837
C20        31.000                                                                                                                                    23783992.217 6 123849424.77306     -3349.208 6        36.488                                                                    23784005.684 4 100637896.32814     -2720.669 4        26.599
R10        32.000    21216145.388 6 113094023.01206     -3927.022 6        38.811
C36        34.000                                                                                                                                    23896756.124 6 124436685.88006      2265.263 6        37.486                                                                    23896759.649 6 101115008.98506      1840.794 6        38.012
R02        35.000    21939078.972 7 117071138.14307      2484.425 7        44.670                                                                    21939076.925 7  91055483.15007      1932.264 7        43.173
S36        36.000    38106105.362 5 200249120.37305      -851.652 5        32.407
R12        38.000    22504654.204 6 120215851.61906      3564.677 6        40.560                                                                    22504655.205 5  93501161.93305      2772.684 5        32.216
C37        42.000                                                                                                                                    24332885.907 5                     -3308.791 5        32.168
R24        43.000    24225785.948 3                     -4744.346 3        22.476
R01        44.000    19188614.990 7 102574155.93707       -67.093 7        43.031                                                                    19188615.079 6  79779880.66706       -52.283 6        39.369
C09        47.000                                                                                                                                    39694407.163 4                     -1636.510 4        28.445    39694398.378 5 159832880.98905     -1265.524 5        33.647
C19        48.000                                                                                                                                    21707234.977 8 113035425.89508      -913.993 8        51.421                                                                    21707229.175 7  91850393.72707      -742.756 7        45.836
C34        49.000                                                                                                                                    26617352.247 4                      -889.872 4        28.000                                                                    26617343.189 4                      -723.127 4        27.341
C22        51.000                                                                                                                                    23559466.076 7 122680307.63207      1726.723 7        46.980                                                                    23559458.175 7  99687802.63707      1403.107 7        42.605
C44        52.000                                                                                                                                    26528707.563 5                     -2856.143 5        30.060
C12        54.000                                                                                                                                                                                                    26374831.276 5 106200635.52705     -1471.973 5        34.448    26374846.611 5                     -1547.031 5        31.449
I09        59.000    38593860.139 5 151450621.45105     -1180.337 5        35.243
> 2025 01 02 06 16 10.0000000  0 37
G13         1.000    23106077.429 5 121423456.79605      2264.288 5        30.574                                    23106073.561 1  94615517.32901      1764.256 1         3.000
G20         4.000    20571667.758 7 108104903.36907      -575.487 7        43.022                                    20571659.768 5  84237540.00605      -448.423 5        32.737
G07         5.000    20986633.758 7 110285530.90107     -2053.771 7        42.434                                    20986627.936 6  85936785.33906     -1600.352 6        36.922    20986628.730 6  85936731.37306     -1600.288 6        41.576
G09         6.000    22395517.399 4                     -3646.510 4        29.185
G30         7.000    20516446.424 8 107814676.59308       197.230 8        48.503                                    20516444.919 7  84011358.03407       153.689 7        47.523    20516444.909 7  84011406.02507       153.704 7        43.572
E21        10.000    25708216.920 6 135097629.00906     -1264.308 6        39.477                                                                    25708215.336 7 100884565.59907      -944.078 7        43.441    25708216.058 7 103516353.44107      -968.687 7        45.114
E06        11.000    23857349.179 6 125371207.07906       428.734 6        39.288                                                                    23857348.436 6  93621441.46906       320.157 6        40.276    23857350.260 7  96063680.67007       328.468 7        42.317
G05        14.000    22042436.176 7 115834057.44607      1731.702 7        43.458                                    22042429.972 6  90260279.68006      1349.379 6        37.180    22042431.924 6  90260090.72806      1349.235 6        37.996
E11        16.000                                                                                                                                    26016805.645 6 102095546.84806     -2525.661 6        36.178    26016803.341 5 104758889.12805     -2591.351 5        32.976
E04        17.000    23200785.665 6 121920984.60306      -734.716 6        40.782                                                                    23200781.790 6  91044924.04806      -548.784 6        40.157    23200785.336 7  93419938.93707      -562.924 7        45.308
R08        18.000    21180866.422 7 113422577.53507     -3613.025 7        42.887                                                                    21180861.534 6  88217540.34606     -2810.146 6        39.450
E19        20.000                                                                                                                                    25372191.883 4  99565949.56304     -2201.931 4        29.185    25372196.537 5 102163314.69205     -2259.640 5        33.569
E09        21.000    25620217.504 6 134635147.61806      1188.442 6        40.746                                                                    25620215.153 6 100539238.66606       887.418 6        38.330    25620216.458 7 103162011.79607       910.651 7        43.098
E36        22.000                                                                                                                                    25964172.689 5 101888915.87805      -806.437 5        34.767    25964154.914 6 104546922.34606      -827.720 6        36.987
S23        24.000    38042663.975 6 199915470.74606      -849.044 6        41.082
G11        25.000    23504349.367 5 123516125.82105     -3641.531 5        33.766                                                                                                    23504328.276 4                     -2837.521 4        28.588
E34        26.000    28312113.375 4 148781145.73304      1251.878 4        28.085                                                                    28312113.710 4                       934.718 4        26.012    28312111.394 4 114001154.15304       958.946 4        28.768
R17        27.000    22615395.527 6 121019292.70906     -2829.891 6        36.994                                                                    22615337.644 6  94126047.98606     -2200.782 6        36.900
R18        28.000    23099160.108 6 123304880.05906       236.398 6        38.402                                                                    23099167.043 5  95903821.57005       184.280 5        32.078
E10        29.000    27372689.857 4 143844414.77604     -3999.300 4        27.581                                                                    27372683.847 6 107416315.75306     -2986.406 6        36.578    27372684.062 6 110218445.60506     -3064.379 6        36.223
R11        30.000    19404998.682 7 103694431.18507       244.128 7        44.912                                                                    19404998.934 6  80651215.70606       189.994 6        39.580
C20        31.000                                                                                                                                    23787203.856 7 123866175.71507     -3350.883 7        42.083                                                                    23787227.232 4                     -2722.156 4        26.970
R10        32.000    21219830.126 6 113113666.02206     -3930.295 6        41.068
C36        34.000                                                                                                                                    23894580.582 6 124425362.82706      2264.074 6        39.150                                                                    23894588.472 6 101105808.08606      1839.896 6        37.788
R02        35.000    21936752.313 7 117058718.95507      2483.443 7        46.980                                                                    21936749.715 7  91045823.78407      1931.629 7        42.851
S36        36.000    38106936.140 5 200253380.35905      -852.047 5        34.081
R12        38.000    22501320.881 7 120198032.12507      3563.285 7        42.199                                                                    22501319.871 5  93487302.36305      2771.457 5        34.914
C37        42.000                                                                                                                                    24336065.744 4 126724264.99614     -3311.158 4        29.630                                                                    24336082.032 5                     -2690.433 5        30.762
R24        43.000    24230225.460 4                     -4743.776 4        27.102
R01        44.000    19188678.920 7 102574498.82307       -70.005 7        43.608                                                                    19188678.856 6  79780147.33306       -54.479 6        39.550
C09        47.000                                                                                                                                    39695980.937 4                     -1636.975 4        24.481    39695967.755 5 159839207.82505     -1265.565 5        33.407
C19        48.000                                                                                                                                    21708113.774 8 113040002.03208      -916.318 8        51.856                                                                    21708107.838 7  91854112.16207      -744.463 7        45.967
C34        49.000                                                                                                                                                                                                                                                                    26618187.575 4                      -725.537 4        26.647
C22        51.000                                                                                                                                    23557808.344 7 122671676.93407      1725.656 7        43.922                                                                    23557799.799 7  99680789.45507      1402.364 7        43.029
C44        52.000                                                                                                                                    26531459.681 4                     -2857.114 4        26.790
C12        54.000                                                                                                                                                                                                    26376661.584 5 106208001.11705     -1474.082 5        34.652    26376677.052 4                     -1549.319 4        29.403
I09        59.000    38595366.217 5 151456523.59205     -1180.236 5        34.957
> 2025 01 02 06 16 15.0000000  0 36
G13         1.000    23103936.673 4 121412136.78304      2263.651 4        29.014                                    23103919.598 1  94606696.55901      1763.874 1         2.200
G20         4.000    20572217.073 7 108107789.64507      -578.884 7        44.420                                    20572208.409 5  84239789.05705      -451.077 5        33.210
G07         5.000    20988587.500 7 110295804.24207     -2055.581 7        42.538                                    20988583.028 6  85944790.54806     -1601.747 6        37.788    20988584.115 6  85944736.55906     -1601.835 6        40.765
G09         6.000    22398980.313 5                     -3647.912 5        30.355                                                                                                    22399001.185 3                     -2841.258 3        21.476
G30         7.000    20516260.614 8 107813696.39708       194.815 8        48.757                                    20516258.050 7  84010594.24207       151.804 7        47.620    20516258.495 7  84010642.25307       151.734 7        44.302
E21        10.000    25709420.138 6 135103956.46506     -1266.752 6        38.694                                                                    25709419.815 7 100889290.64607      -945.952 7        43.348    25709420.088 7 103521201.74307      -970.581 7        44.602
E06        11.000    23856943.861 6 125369065.87206       427.639 6        40.875                                                                    23856941.544 6  93619842.49306       319.486 6        38.832    23856942.844 7  96062039.97007       327.822 7        42.965
G05        14.000    22040789.210 7 115825404.66607      1729.346 7        42.544                                    22040783.763 5  90253537.25505      1347.531 5        35.829    22040786.361 6  90253348.28406      1347.734 6        40.057
E11        16.000                                                                                                                                    26020023.901 5 102108178.04905     -2526.829 5        34.367    26020021.782 5 104771849.83305     -2592.618 5        32.557
E04        17.000    23201485.404 7 121924660.92707      -735.662 7        42.402                                                                    23201480.814 6  91047669.37506      -549.689 6        40.517    23201485.086 7  93422755.88207      -563.748 7        46.132
R08        18.000    21184241.530 6 113440646.52606     -3614.777 6        41.194                                                                    21184237.732 6  88231593.94206     -2811.484 6        40.291
E19        20.000    25375005.541 3                     -2949.834 3        22.876                                                                    25374998.561 5  99576961.85005     -2202.779 5        30.649    25375002.144 5 102174614.21805     -2259.907 5        33.024
E09        21.000    25619087.808 6 134629206.43706      1187.975 6        40.603                                                                    25619084.359 6 100534802.07206       887.040 6        38.655    25619086.414 7 103157459.46607       910.379 7        43.314
E36        22.000                                                                                                                                                                                                    25965184.023 5 104551065.24705      -829.443 5        35.638
S23        24.000    38043469.789 6 199919715.32906      -848.834 6        40.946
G11        25.000    23507812.898 5 123534337.69305     -3643.489 5        30.377                                                                                                    23507796.131 3                     -2840.331 3        20.857
E34        26.000                                                                                                                                    28310923.051 5                       933.594 5        31.343
R17        27.000                                                                                                                                    22617981.195 5  94137059.55005     -2203.701 5        33.880
R18        28.000    23098947.355 6 123303707.69306       232.121 6        38.691                                                                    23098947.585 5  95902909.63705       180.694 5        33.868
E10        29.000    27376498.200 4 143864412.47604     -3999.751 4        27.868                                                                    27376488.578 6 107431248.98406     -2986.696 6        36.333    27376489.213 6 110233768.36606     -3064.777 6        36.329
R11        30.000    19404773.104 7 103693221.33707       239.602 7        42.684                                                                    19404772.217 6  80650274.66606       186.518 6        40.215
C20        31.000                                                                                                                                    23790425.643 6 123882933.73706     -3352.166 6        40.605                                                                    23790448.843 4                     -2723.486 4        24.857
R10        32.000    21223517.792 6 113133324.42806     -3933.270 6        39.649
C36        34.000                                                                                                                                    23892410.043 7 124414046.15307      2262.706 7        42.806                                                                    23892415.143 6 101096612.35106      1838.651 6        37.353
R02        35.000    21934425.017 7 117046302.96107      2482.898 7        46.881                                                                    21934422.667 7  91036166.87107      1931.169 7        42.536
S36        36.000    38107742.343 5 200257640.55905      -852.258 5        30.747
R12        38.000    22497987.764 7 120180218.87007      3562.062 7        42.578                                                                    22497984.604 5  93473447.55005      2770.402 5        32.311
R24        43.000    24234660.339 3                     -4745.336 3        19.791
R01        44.000    19188745.789 7 102574855.18707       -72.587 7        42.171                                                                    19188745.632 6  79780424.50606       -56.411 6        40.617
C09        47.000                                                                                                                                    39697553.821 5                     -1636.308 5        31.381    39697538.510 5 159845534.72505     -1266.106 5        31.555
C19        48.000                                                                                                                                    21708994.580 8 113044588.89408      -918.446 8        51.549                                                                    21708988.647 7  91857839.36807      -746.230 7        46.222
C34        49.000                                                                                                                                    26619049.425 4 138612369.42514      -895.126 4        28.104                                                                    26619044.731 4                      -727.333 4        28.493
C22        51.000                                                                                                                                    23556152.755 7 122663051.00007      1724.712 7        44.128                                                                    23556144.303 7  99673780.18207      1401.633 7        42.337
C44        52.000                                                                                                                                    26534207.895 4                     -2858.851 4        27.102
C12        54.000                                                                                                                                    26378512.213 4                     -1908.695 4        28.645    26378491.856 6 106215376.31906     -1476.196 6        36.760    26378505.834 3                     -1551.208 3        22.686
I09        59.000    38596867.900 5 151462426.80105     -1180.830 5        33.659
> 2025 01 02 06 16 20.0000000  0 35
G20         4.000    20572769.015 7 108110691.85207      -581.986 7        46.246                                    20572760.238 5  84242050.51005      -453.493 5        33.168
G07         5.000    20990545.419 6 110306086.58906     -2057.343 6        40.462                                    20990539.698 6  85952802.78206     -1603.123 6        38.276    20990541.071 7  85952748.79107     -1603.103 7        42.267
G09         6.000    22402454.920 4                     -3649.197 4        27.329                                                                                                    22402476.476 4                     -2843.377 4        28.521
G30         7.000    20516076.828 8 107812727.76108       192.618 8        49.260                                    20516073.435 7  84009839.46007       150.090 7        47.860    20516073.732 7  84009887.45807       150.057 7        44.716
E21        10.000    25710626.743 6 135110295.61506     -1268.883 6        39.477                                                                    25710626.728 7 100894024.45607      -947.610 7        43.767    25710625.985 7 103526059.02007      -972.289 7        44.128
E06        11.000    23856537.710 6 125366928.50806       427.143 6        40.105                                                                    23856535.465 6  93618246.41406       318.903 6        40.033    23856536.225 7  96060402.23507       327.387 7        43.084
G05        14.000    22039144.726 6 115816762.76006      1727.300 6        41.008                                    22039139.838 5  90246803.30605      1345.939 5        34.329    22039141.285 6  90246614.34806      1345.859 6        39.613
E11        16.000    26023254.144 5 136753117.20415     -3384.821 5        32.611                                                                    26023243.383 5 102120813.92505     -2527.540 5        34.505    26023242.239 5 104784815.38105     -2593.838 5        32.030
E04        17.000    23202185.949 6 121928342.19506      -736.647 6        41.549                                                                    23202181.347 6  91050418.28106      -549.987 6        40.777    23202185.734 7  93425576.57707      -564.461 7        46.652
R08        18.000    21187616.918 7 113458724.37907     -3616.476 7        42.694                                                                    21187615.733 6  88245654.50106     -2812.701 6        40.799
E19        20.000    25377824.121 3                     -2949.229 3        20.143                                                                    25377806.964 5  99587975.73805     -2202.931 5        30.460    25377810.195 5 102185915.35405     -2260.112 5        30.906
E09        21.000    25617958.593 6 134623267.18206      1187.696 6        41.685                                                                    25617953.668 6 100530366.90106       886.722 6        38.465    25617956.779 7 103152908.59507       909.997 7        43.062
E36        22.000                                                                                                                                    25966249.935 5 101897000.35405      -810.253 5        34.448    25966216.030 5 104555217.61205      -831.242 5        35.652
S23        24.000    38044269.851 6 199923959.25606      -848.582 6        39.060
G11        25.000    23511278.279 5 123552556.86705     -3644.213 5        34.424                                                                                                    23511263.114 4                     -2839.727 4        25.684
E34        26.000    28309713.759 4 148768644.72904      1248.174 4        28.616                                                                    28309735.938 5                       932.414 5        30.106    28309731.531 5 113991575.42605       956.466 5        31.381
R17        27.000                                                                                                                                    22620629.283 5  94148084.82805     -2206.708 5        31.570
R18        28.000    23098731.549 6 123302555.56206       228.298 6        40.105                                                                    23098733.897 5  95902013.52405       177.482 5        33.563
E10        29.000                                                                                                                                    27380294.041 5 107446182.77205     -2986.738 5        35.300    27380295.319 6 110249091.75806     -3064.727 6        36.068
R11        30.000    19404550.409 7 103692033.02207       235.565 7        42.252                                                                    19404550.906 6  80649350.44206       183.254 6        40.846
C20        31.000                                                                                                                                    23793644.195 6 123899697.70306     -3353.315 6        39.387
R10        32.000    21227207.949 6 113152997.28006     -3936.085 6        39.673
C36        34.000                                                                                                                                    23890237.950 6 124402734.75106      2261.784 6        41.876                                                                    23890243.751 6 101087420.89306      1838.011 6        37.754
R02        35.000    21932098.230 7 117033889.20407      2482.524 7        45.896                                                                    21932096.349 7  91026511.73107      1930.882 7        43.120
S36        36.000    38108526.120 5 200261899.58605      -851.514 5        30.808
R12        38.000    22494652.159 6 120162410.87306      3561.076 6        40.968                                                                    22494651.750 5  93459596.89405      2769.475 5        32.455
C37        42.000                                                                                                                                                                                                                                                                    24342432.385 4                     -2693.014 4        26.371
R24        43.000                                                                                                                                    24239090.761 3                     -3688.964 3        19.821
R01        44.000    19188815.399 6 102575224.14306       -75.026 6        41.373                                                                    19188814.820 6  79780711.47606       -58.361 6        41.032
C09        47.000                                                                                                                                    39699128.530 5                     -1636.041 5        32.000    39699110.543 5 159851860.99605     -1265.330 5        34.019
C19        48.000                                                                                                                                    21709877.135 8 113049185.46408      -920.233 8        51.928                                                                    21709871.285 7  91861574.46607      -747.856 7        46.018
C34        49.000                                                                                                                                    26619911.978 5 138616851.05405      -897.294 5        32.317                                                                    26619909.757 4                      -729.772 4        26.455
C22        51.000                                                                                                                                    23554497.895 7 122654428.89307      1724.092 7        44.421                                                                    23554488.831 7  99666774.01307      1400.870 7        42.144
C12        54.000                                                                                                                                    26380345.914 5                     -1910.889 5        30.241    26380327.806 6 106222760.47906     -1477.748 6        37.361
I09        59.000    38598371.769 5 151468329.98805     -1180.350 5        32.641
> 2025 01 02 06 16 25.0000000  0 35
G13         1.000    23099610.886 4 121389505.33504      2262.325 4        29.014                                    23099612.626 1  94589061.70301      1762.908 1         1.333
G20         4.000    20573324.042 7 108113610.42907      -585.386 7        45.342                                    20573315.305 5  84244324.71505      -456.158 5        32.790
G07         5.000    20992504.283 6 110316378.40906     -2059.419 6        40.610                                    20992498.278 6  85960822.37506     -1604.748 6        38.631    20992499.239 6  85960768.38906     -1604.672 6        41.769
G09         6.000    22405931.137 5 117743960.14715     -3650.059 5        34.552                                                                                                    22405942.583 4                     -2844.032 4        29.896
G30         7.000    20515894.678 8 107811771.15508       190.106 8        49.738                                    20515891.181 8  84009094.06208       148.142 8        48.051    20515891.700 7  84009142.04907       148.150 7        44.536
E21        10.000    25711834.910 6 135116646.99406     -1271.592 6        38.640                                                                    25711835.442 7 100898767.34107      -949.505 7        44.614    25711834.422 7 103530925.65807      -974.371 7        43.427
E06        11.000    23856131.806 6 125364795.45206       426.156 6        39.090                                                                    23856129.946 6  93616653.55606       318.281 6        41.473    23856130.111 7  96058767.83107       326.437 7        43.147
G05        14.000    22037502.657 6 115808132.28106      1724.795 6        38.688                                    22037498.113 5  90240078.25705      1343.985 5        32.072    22037498.273 6  90239889.27106      1344.159 6        40.501
E11        16.000    26026467.077 4 136770045.06304     -3385.889 4        28.493                                                                    26026464.349 5 102133454.81705     -2528.473 5        31.343    26026463.742 5 104797786.08705     -2594.861 5        33.204
E04        17.000    23202887.638 6 121932028.77606      -737.957 6        40.875                                                                    23202882.819 6  91053171.26006      -550.953 6        39.580    23202887.158 7  93428401.34407      -565.445 7        45.204
R08        18.000    21190995.350 7 113476811.49007     -3618.494 7        44.897                                                                    21190992.864 6  88259722.23306     -2814.468 6        41.852
E19        20.000    25380629.863 3                     -2950.578 3        21.976                                                                    25380613.783 4  99598991.53004     -2203.263 4        29.014    25380615.337 5 102197218.54405     -2261.271 5        30.664
E09        21.000    25616829.359 7 134617330.22607      1186.991 7        42.521                                                                    25616823.936 6 100525933.47606       886.594 6        37.981    25616827.736 7 103148359.49807       909.562 7        44.042
E36        22.000    25967258.610 6 136458822.14616     -1087.735 6        38.354                                                                    25967277.891 5 101901056.62405      -812.295 5        35.162    25967247.443 5 104559379.68005      -833.401 5        34.090
S23        24.000    38045079.765 6 199928203.01506      -848.752 6        39.826
G11        25.000    23514747.879 5 123570783.99605     -3646.342 5        32.281                                                                                                    23514726.498 3                     -2839.682 3        20.000
E34        26.000    28308529.814 5 148762407.00505      1246.456 5        30.687                                                                    28308545.690 5                       931.078 5        30.038    28308540.509 5 113986795.86305       954.995 5        30.226
R17        27.000    22623282.221 6 121061818.94506     -2840.728 6        38.547                                                                    22623281.151 4  94159124.12304     -2209.516 4        28.152
R18        28.000                                                                                                                                    23098522.055 4  95901133.61104       174.301 4        28.758
E10        29.000    27384115.642 4                     -3999.855 4        26.515                                                                    27384099.869 5 107461117.48205     -2987.006 5        35.957    27384100.986 6 110264416.07106     -3065.132 6        36.053
R11        30.000    19404331.626 7 103690866.81407       230.813 7        42.591                                                                    19404333.698 6  80648443.41306       179.649 6        41.220
C20        31.000                                                                                                                                    23796864.031 6 123916468.18406     -3354.829 6        41.738                                                                    23796858.239 6                     -2725.948 6        39.943
R10        32.000    21230901.681 6 113172684.91506     -3939.185 6        41.333
C36        34.000                                                                                                                                    23888067.001 7 124391429.17107      2260.431 7        42.417                                                                    23888073.091 6 101078234.13006      1836.861 6        37.304
R02        35.000    21929772.768 7 117021478.33307      2481.817 7        46.503                                                                    21929770.207 7  91016858.82907      1930.366 7        43.391
S36        36.000    38109370.805 5 200266158.13605      -851.506 5        30.106
R12        38.000    22491316.792 6 120144608.54806      3559.871 6        38.057                                                                    22491318.715 5  93445750.66405      2768.861 5        32.180
C37        42.000                                                                                                                                                                                                                                                                    24345620.048 4                     -2694.793 4        27.353
R01        44.000    19188885.238 6 102575606.21506       -77.744 6        40.644                                                                    19188886.644 6  79781008.64306       -60.532 6        41.273
C09        47.000                                                                                                                                    39700706.338 5                     -1636.322 5        31.532    39700683.932 5 159858187.03705     -1265.355 5        32.335
C19        48.000                                                                                                                                    21710761.582 8 113053792.24208      -922.471 8        51.885                                                                    21710755.978 7  91865317.82507      -749.580 7        46.521
C34        49.000                                                                                                                                    26620778.054 6 138621345.51106      -900.397 6        36.306                                                                    26620774.296 4                      -731.185 4        28.787
C22        51.000                                                                                                                                    23552843.431 7 122645811.05507      1723.088 7        44.591                                                                    23552833.963 7  99659771.29207      1400.174 7        42.938
C12        54.000                                                                                                                                    26382178.322 5                     -1913.552 5        31.351
I09        59.000    38599874.582 5 151474233.75505     -1180.820 5        32.802
> 2025 01 02 06 16 30.0000000  0 35
G13         1.000    23097460.237 5 121378194.26005      2261.924 5        31.592                                    23097460.255 1  94580247.69101      1762.650 1         2.000
G20         4.000    20573882.188 7 108116545.42907      -588.720 7        46.045                                    20573873.739 5  84246611.72905      -458.745 5        33.120
G07         5.000    20994463.873 7 110326679.73507     -2061.304 7        42.013                                    20994458.637 6  85968849.38006     -1606.217 6        39.129    20994459.663 7  85968795.39307     -1606.224 7        42.074
G09         6.000    22409402.567 5 117762212.18405     -3651.153 5        34.586                                    22409406.999 1  91762776.20011     -2845.040 1        11.556    22409407.353 5                     -2844.983 5        32.521
G30         7.000    20515714.926 8 107810826.56708       187.639 8        50.552                                    20515711.310 8  84008358.01108       146.219 8        48.333    20515712.004 7  84008405.99907       146.219 7        44.674
E21        10.000    25713046.164 6 135123010.59006     -1273.959 6        39.862                                                                    25713046.204 7 100903519.36607      -951.359 7        44.570    25713045.313 7 103535801.64307      -976.231 7        43.075
E06        11.000    23855726.674 6 125362666.73906       425.133 6        37.580                                                                    23855724.893 7  93615063.95307       317.502 7        42.144    23855725.136 7  96057136.74607       325.754 7        42.535
G05        14.000    22035861.192 5 115799513.15205      1722.660 5        35.976                                    22035858.418 4  90233362.04404      1342.312 4        28.825    22035858.253 6  90233173.11106      1342.279 6        41.054
E11        16.000    26029691.819 4 136786979.74704     -3387.421 4        29.033                                                                    26029685.318 5 102146100.91205     -2530.153 5        31.426    26029686.608 5 104810761.98505     -2595.677 5        33.778
E04        17.000    23203589.949 6 121935720.72306      -738.923 6        39.862                                                                    23203585.845 6  91055928.24906      -552.013 6        39.703    23203589.348 7  93431230.23907      -566.282 7        45.595
R08        18.000    21194376.449 7 113494907.85907     -3620.298 7        43.989                                                                    21194370.941 6  88273797.17906     -2815.898 6        40.017
E19        20.000    25383433.669 4                     -2951.269 4        27.210                                                                    25383422.303 5  99610009.32905     -2204.200 5        30.785    25383423.577 5 102208523.74905     -2261.290 5        30.445
E09        21.000    25615700.632 6 134611395.71606      1186.610 6        41.778                                                                    25615695.950 6 100521501.86406       886.078 6        37.788    25615698.844 7 103143812.28307       909.246 7        44.090
E36        22.000    25968290.461 6 136464266.79506     -1090.300 6        37.743                                                                    25968309.726 5 101905122.40805      -813.988 5        32.766    25968284.364 5 104563551.58505      -835.169 5        33.245
S23        24.000    38045876.005 6 199932446.86406      -848.826 6        39.066
G11        25.000    23518217.077 5 123589018.91805     -3647.780 5        32.377                                                                                                    23518197.867 4                     -2842.531 4        24.887
E34        26.000    28307346.071 5 148756177.93605      1244.708 5        31.849                                                                    28307357.299 4                       929.756 4        28.701    28307352.728 4 113982023.04904       954.203 4        29.223
R17        27.000    22625945.536 6 121076030.22706     -2844.024 6        37.399                                                                    22625936.334 5  94170177.41305     -2212.054 5        31.691
R18        28.000    23098301.045 6                       220.058 6        36.280
E10        29.000    27387925.505 4                     -4000.184 4        25.820                                                                    27387906.190 5 107476053.13005     -2987.360 5        35.786    27387906.495 5 110279741.33005     -3065.111 5        35.995
R11        30.000    19404118.849 7 103689722.68107       226.427 7        42.425                                                                    19404119.222 6  80647553.50606       176.197 6        40.527
C20        31.000                                                                                                                                    23800086.253 7 123933245.20507     -3356.191 7        42.741                                                                    23800080.135 6 100705925.55116     -2727.048 6        41.957
R10        32.000    21234599.796 6 113192387.51506     -3942.016 6        40.219
C36        34.000                                                                                                                                    23885896.110 6 124380129.40206      2259.190 6        40.768                                                                    23885903.357 6 101069052.18706      1835.826 6        36.582
R02        35.000    21927447.668 7 117009070.39307      2481.218 7        46.597                                                                    21927443.528 6  91007208.19506      1929.907 6        40.510
S36        36.000    38110160.225 5 200270416.79305      -851.652 5        30.234
R12        38.000    22487983.624 6 120126812.06706      3558.729 6        40.977                                                                    22487990.478 5  93431908.92505      2767.755 5        34.143
C37        42.000                                                                                                                                    24348799.486 5                     -3317.447 5        30.302                                                                    24348806.607 5                     -2695.805 5        31.721
R01        44.000    19188958.951 6 102576001.35906       -80.382 6        40.827                                                                    19188960.916 6  79781315.95306       -62.632 6        40.651
C09        47.000                                                                                                                                    39702280.295 5                     -1636.244 5        30.128    39702248.531 4 159864512.92904     -1265.239 4        29.517
C19        48.000                                                                                                                                    21711648.334 8 113058409.23808      -924.499 8        51.679                                                                    21711642.570 7  91869069.52107      -751.213 7        46.932
C34        49.000                                                                                                                                    26621642.735 5 138625852.86505      -902.840 5        34.295                                                                    26621640.061 4                      -733.700 4        28.654
C22        51.000                                                                                                                                    23551189.731 7 122637197.49007      1722.246 7        43.473                                                                    23551179.845 7  99652772.10007      1399.374 7        43.518
C12        54.000                                                                                                                                    26384011.888 4                     -1915.781 4        26.575    26384021.193 6 106237556.25306     -1481.572 6        38.024
I09        59.000    38601379.148 5 151480137.95305     -1180.601 5        33.916
> 2025 01 02 06 16 35.0000000  0 37
G13         1.000    23095309.680 4 121366886.88004      2260.840 4        28.095
G20         4.000    20574443.915 7 108119497.40407      -592.108 7        46.049                                    20574435.585 5  84248911.96105      -461.382 5        33.186
G07         5.000    20996426.121 7 110336991.10707     -2063.338 7        43.308                                    20996420.946 6  85976884.21106     -1607.789 6        38.736    20996422.071 7  85976830.21707     -1607.809 7        42.377
G09         6.000    22412877.216 5 117780469.94605     -3652.307 5        34.633                                    22412882.376 2  91777002.98602     -2845.902 2        12.182    22412877.444 4                     -2846.042 4        28.995
G30         7.000    20515537.428 8 107809894.56608       185.056 8        50.689                                    20515533.902 8  84007631.77108       144.202 8        48.559    20515534.203 7  84007679.75607       144.179 7        43.738
E21        10.000    25714259.697 6 135129386.93006     -1276.581 6        40.503                                                                    25714259.820 7 100908280.92907      -953.273 7        45.419    25714258.483 7 103540687.39507      -978.206 7        42.976
E06        11.000    23855322.230 6 125360542.91406       424.182 6        38.384                                                                    23855320.303 6  93613477.97506       316.831 6        41.824    23855321.137 7  96055509.40707       324.965 7        42.916
G05        14.000                                                                                                                                                                    22034220.523 6  90226466.24306      1340.472 6        41.750
E11        16.000    26032913.292 4 136803921.82204     -3389.375 4        28.152                                                                    26032906.988 4 102158752.36404     -2530.696 4        29.043    26032911.529 5 104823743.53405     -2596.861 5        34.933
E04        17.000    23204293.657 6 121939418.55806      -740.151 6        39.219                                                                    23204289.487 6  91058689.62106      -552.746 6        39.153    23204292.888 7  93434063.66007      -567.140 7        45.564
R08        18.000    21197756.040 6 113513014.07306     -3622.322 6        41.299                                                                    21197750.513 6  88287879.78506     -2817.301 6        37.459
E19        20.000    25386242.943 4                     -2951.685 4        26.982                                                                    25386231.226 4  99621029.44704     -2204.203 4        29.507    25386232.843 4 102219831.38904     -2261.943 4        28.398
E09        21.000    25614571.187 6 134605464.17606      1185.955 6        41.528                                                                    25614567.427 6 100517072.44406       885.610 6        38.180    25614569.822 7 103139267.31307       908.772 7        44.667
E36        22.000    25969329.814 5 136469724.74005     -1093.223 5        34.352                                                                    25969349.681 5 101909198.17505      -816.043 5        30.128    25969323.432 5 104567733.64905      -837.522 5        33.006
S23        24.000    38046680.660 6 199936691.11706      -849.069 6        39.228
G11        25.000    23521684.432 4 123607262.41104     -3649.277 4        28.682                                                                                                    23521667.967 4                     -2843.987 4        28.038
E34        26.000    28306163.297 5 148749958.25405      1243.106 5        32.820                                                                    28306174.165 4                       928.308 4        29.697    28306170.164 5 113977257.40705       952.017 5        31.140
R17        27.000                                                                                                                                    22628596.874 6  94181245.22606     -2214.830 6        36.026
R18        28.000    23098098.059 6 123299224.93816       215.877 6        37.146                                                                    23098093.050 4                       167.365 4        29.242
E10        29.000    27391744.780 4                     -4000.208 4        25.835                                                                    27391713.199 5 107490990.07605     -2987.520 5        35.729    27391713.640 6 110295067.93506     -3065.327 6        36.737
R11        30.000    19403909.275 7 103688601.17307       221.952 7        42.787                                                                    19403907.354 5  80646681.20105       172.539 5        35.514
C20        31.000                                                                                                                                    23803309.249 7 123950029.22107     -3357.578 7        42.252                                                                    23803304.601 7 100719563.94207     -2728.342 7        42.184
R10        32.000    21238298.835 6 113212105.65606     -3945.161 6        38.742
C36        34.000                                                                                                                                    23883726.807 6 124368836.05606      2257.883 6        38.318                                                                    23883734.534 6 101059875.38706      1834.861 6        36.427
R02        35.000    21925123.176 7 116996665.72707      2480.521 7        46.845                                                                    21925119.200 6  90997560.14806      1929.254 6        38.426
S36        36.000    38110987.918 5 200274675.84305      -852.321 5        32.222
R12        38.000    22484652.446 6 120109021.78206      3557.124 6        40.145                                                                    22484660.417 5  93418072.01705      2766.975 5        35.305
C37        42.000                                                                                                                                    24351987.789 5                     -3319.023 5        31.079                                                                    24351990.563 4                     -2696.818 4        29.716
R24        43.000                                                                                                                                    24252412.274 3                     -3690.718 3        21.929
R01        44.000    19189036.715 7 102576410.20107       -83.168 7        43.528                                                                    19189036.973 6  79781633.91806       -64.668 6        40.594
C09        47.000                                                                                                                                                                                                    39703825.900 5 159870838.84805     -1265.421 5        31.004
C19        48.000                                                                                                                                    21712536.836 8 113063036.98508      -926.734 8        51.960                                                                    21712531.109 7  91872829.96107      -752.995 7        46.904
C34        49.000                                                                                                                                    26622506.753 5 138630373.59805      -905.339 5        32.353                                                                    26622508.347 4                      -736.390 4        27.102
C22        51.000                                                                                                                                    23549537.117 7 122628588.78507      1721.153 7        44.658                                                                    23549526.630 7  99645776.83007      1398.661 7        43.954
C44        52.000                                                                                                                                    26545175.051 4                     -2864.701 4        28.853
C12        54.000                                                                                                                                    26385850.512 4                     -1918.025 4        28.180    26385857.922 6 106244968.49806     -1483.547 6        37.062
I09        59.000    38602886.048 5 151486043.01805     -1181.148 5        34.376
> 2025 01 02 06 16 40.0000000  0 34
G20         4.000    20575009.196 7 108122466.17807      -595.470 7        43.945                                    20575000.852 5  84251225.30805      -464.012 5        32.898
G07         5.000    20998390.963 6 110347312.44006     -2065.343 6        41.859                                    20998385.164 6  85984926.80706     -1609.341 6        38.715    20998386.151 6  85984872.81206     -1609.333 6        41.585
G09         6.000    22416353.620 6 117798733.26606     -3653.055 6        36.866                                    22416357.752 2  91791234.20402     -2846.520 2        13.151    22416356.008 4                     -2846.222 4        26.647
G30         7.000    20515361.966 8 107808975.06808       182.572 8        49.969                                    20515358.843 8  84006915.26908       142.255 8        48.559    20515359.646 7  84006963.28607       142.302 7        43.587
E21        10.000    25715475.464 6 135135775.93106     -1279.163 6        38.060                                                                    25715475.902 7 100913051.92507      -955.170 7        46.832    25715473.976 7 103545582.87807      -980.072 7        42.083
E06        11.000    23854920.032 6 125358423.90306       423.384 6        39.631                                                                    23854916.695 6  93611895.55106       316.195 6        37.898    23854917.558 6  96053885.72606       324.336 6        41.774
G05        14.000                                                                                                                                                                    22032584.954 6  90219768.67706      1338.494 6        40.989
E11        16.000                                                                                                                                    26036134.228 4 102171409.20404     -2531.762 4        29.554    26036136.245 5 104836730.59505     -2597.859 5        35.262
E04        17.000    23204996.696 6 121943122.21706      -741.341 6        40.064                                                                    23204995.388 6  91061455.37206      -553.675 6        39.676    23204997.009 7  93436901.57407      -568.043 7        45.187
R08        18.000    21201137.338 6 113531130.20206     -3624.062 6        39.132                                                                    21201135.367 6  88301970.04906     -2818.689 6        38.288
E19        20.000    25389045.730 3                     -2951.157 3        18.985                                                                    25389044.644 5  99632051.94605     -2204.574 5        30.996    25389037.793 4 102231141.37704     -2262.160 4        29.678
E09        21.000    25613441.671 7 134599535.42807      1185.498 7        43.560                                                                    25613440.127 6 100512645.12206       885.306 6        38.219    25613441.455 7 103134724.54907       908.327 7        44.388
E36        22.000    25970370.955 6 136475195.94906     -1095.456 6        36.529                                                                    25970387.065 4 101913283.95204      -817.985 4        29.137    25970365.944 5 104571925.83505      -839.480 5        35.305
S23        24.000    38047492.550 6 199940935.68506      -849.159 6        40.205
G11        25.000    23525151.915 6 123625514.29506     -3651.147 6        36.635
E34        26.000    28304979.944 5 148743747.88805      1241.103 5        32.269                                                                                                                                    28304991.015 5 113972498.88605       950.986 5        32.467
R17        27.000                                                                                                                                    22631264.542 6  94192327.46916     -2217.833 6        38.928
R18        28.000    23097899.562 5 123298157.28705       211.804 5        33.150                                                                    23097897.018 4                       164.422 4        29.981
E10        29.000                                                                                                                                    27395519.557 5 107505928.31005     -2988.186 5        35.086    27395520.569 6 110310395.87006     -3065.893 6        37.191
R11        30.000    19403703.378 7 103687502.22307       217.489 7        45.195                                                                    19403699.508 5  80645826.43405       169.021 5        35.786
C20        31.000                                                                                                                                    23806532.756 6 123966820.21706     -3359.136 6        39.063                                                                    23806529.626 7 100733207.97107     -2729.204 7        42.432
R10        32.000    21241997.560 5 113231839.11005     -3948.338 5        33.126
C36        34.000                                                                                                                                    23881558.070 6 124357548.97706      2256.646 6        41.483                                                                    23881567.256 5 101050703.79205      1833.877 5        35.800
R02        35.000    21922799.107 7 116984264.29807      2479.830 7        46.245                                                                    21922796.989 7  90987914.51107      1928.863 7        42.379
S36        36.000    38111794.764 5 200278935.71505      -851.680 5        31.238
R12        38.000    22481323.265 6 120091237.76706      3556.012 6        40.777                                                                    22481331.001 5  93404240.01505      2765.806 5        33.257
C37        42.000                                                                                                                                    24355172.845 6                     -3320.951 6        37.304                                                                    24355182.501 3                     -2696.306 3        21.071
R01        44.000    19189117.378 7 102576832.71107       -85.923 7        45.595                                                                    19189115.628 6  79781962.50506       -66.864 6        39.625
C09        47.000                                                                                                                                    39705402.668 5                     -1636.317 5        30.574    39705396.768 4 159877164.98604     -1265.344 4        29.460
C19        48.000                                                                                                                                    21713427.298 8 113067675.44208      -928.758 8        52.579                                                                    21713421.961 7  91876599.06907      -754.618 7        45.916
C34        49.000                                                                                                                                    26623379.967 5 138634907.64505      -908.323 5        33.018                                                                    26623376.754 4                      -737.730 4        28.190
C22        51.000                                                                                                                                    23547885.447 7 122619984.85107      1720.196 7        47.503                                                                    23547874.271 7  99638785.45107      1397.938 7        44.334
C12        54.000                                                                                                                                    26387694.686 4                     -1920.891 4        27.066
I09        59.000    38604391.612 5 151491948.96805     -1180.837 5        34.176
> 2025 01 02 06 16 45.0000000  0 37
G13         1.000    23091021.748 4 121344282.15304      2260.255 4        29.308
G20         4.000    20575577.528 6 108125450.98406      -598.676 6        37.588                                    20575569.343 5  84253551.15905      -466.496 5        33.449
G07         5.000    21000357.089 7 110357642.77807     -2066.691 7        44.588                                    21000350.984 6  85992976.41206     -1610.409 6        39.099    21000351.910 7  85992922.42807     -1610.598 7        42.902
G09         6.000    22419829.320 6 117817001.33306     -3653.980 6        36.488                                    22419834.018 2  91805468.99402     -2847.357 2        14.524    22419828.031 4                     -2847.453 4        27.150
G30         7.000    20515188.934 8 107808067.29508       180.417 8        52.388                                    20515186.167 8  84006207.90608       140.591 8        50.330    20515188.146 7  84006255.89507       140.514 7        46.455
E21        10.000    25716692.823 6 135142176.73206     -1281.089 6        37.554                                                                    25716694.415 7 100917831.75107      -956.835 7        45.827    25716692.268 6 103550487.41606      -981.790 6        41.793
E06        11.000    23854516.848 6 125356309.09506       422.404 6        36.321                                                                    23854513.383 5  93610316.14205       315.589 5        35.881    23854514.151 6  96052265.10406       323.855 6        39.240
G05        14.000                                                                                                                                                                    22030951.271 6  90213079.73306      1337.034 6        41.268
G06        15.000    25171356.375 3                     -4347.445 3        21.452
E11        16.000    26039372.622 5 136837852.53315     -3391.811 5        34.190                                                                    26039364.972 6 102184070.89006     -2532.749 6        36.431    26039361.947 5 104849722.55505     -2599.028 5        35.857
E04        17.000    23205699.827 5 121946831.00005      -742.531 5        34.976                                                                    23205701.730 7  91064224.77407      -554.323 7        44.707    23205702.834 8  93439743.23808      -568.800 8        49.437
R08        18.000    21204521.397 6 113549255.41506     -3625.888 6        38.054                                                                    21204520.042 5  88316067.28705     -2820.339 5        35.129
E19        20.000    25391861.519 4                     -2952.977 4        24.797                                                                    25391845.669 4                     -2205.107 4        25.609    25391852.537 5 102242453.13605     -2262.569 5        33.078
E09        21.000    25612314.366 7 134593608.71107      1185.081 7        42.929                                                                    25612312.909 6 100508219.33606       884.952 6        40.644    25612310.917 7 103130183.33307       908.066 7        44.381
E36        22.000    25971410.353 5 136480679.62205     -1097.811 5        34.252                                                                    25971420.717 6 101917379.18306      -819.973 6        38.297
S23        24.000    38048311.282 7 199945179.66507      -848.698 7        42.311
G11        25.000    23528629.566 6 123643773.45406     -3652.734 6        38.486                                                                                                    23528667.201 5  96345958.82115     -2846.491 5        32.868
E34        26.000    28303795.125 5 148737545.72305      1239.190 5        30.725                                                                    28303801.098 3                       926.068 3        23.962    28303808.354 5 113967746.61605       949.971 5        31.419
R17        27.000    22633931.785 5 121118723.51515     -2855.384 5        31.932                                                                    22633933.456 5  94203423.39305     -2220.373 5        34.814
R18        28.000    23097697.703 5 123297110.33905       206.914 5        34.052                                                                    23097710.399 5                       161.118 5        34.967
E10        29.000    27399336.589 3                     -3999.938 3        20.381                                                                    27399325.809 5 107520867.09405     -2987.545 5        35.795    27399326.979 6 110325724.40706     -3065.699 6        38.508
R11        30.000    19403503.089 7 103686425.15307       213.185 7        43.666                                                                    19403501.136 6  80644988.57106       165.799 6        39.649
C20        31.000                                                                                                                                    23809755.843 6 123983617.26706     -3360.373 6        36.231                                                                    23809752.897 7 100746856.96607     -2730.287 7        42.654
R10        32.000    21245699.331 5 113251587.00605     -3950.732 5        33.419
C36        34.000                                                                                                                                    23879393.139 6 124346267.43506      2255.476 6        40.465                                                                    23879396.476 5 101041536.59905      1832.848 5        30.377
R02        35.000    21920474.849 7 116971865.47807      2479.417 7        47.411                                                                    21920473.301 7  90978271.06107      1928.569 7        44.179
R12        38.000    22477997.258 7 120073459.23707      3554.862 7        42.047                                                                    22478002.139 5  93390412.27905      2764.768 5        32.940
C05        40.000                                                                                                                                                                                                    39160805.199 6 157684330.12116      -700.680 6        37.293
C37        42.000                                                                                                                                    24358360.665 5 126840380.22615     -3321.847 5        35.148
R01        44.000    19189198.750 7 102577267.85307       -88.329 7        45.360                                                                    19189196.556 6  79782300.90506       -68.719 6        41.514
C09        47.000                                                                                                                                    39706973.196 4                     -1635.781 4        27.353    39706969.106 5 159883490.55105     -1265.390 5        33.778
C19        48.000                                                                                                                                    21714320.117 8 113072323.73708      -930.637 8        52.010                                                                    21714314.324 7  91880376.21107      -756.275 7        46.617
C34        49.000                                                                                                                                    26624256.231 4                      -910.273 4        28.540                                                                    26624253.778 3                      -740.766 3        23.867
C22        51.000                                                                                                                                    23546231.952 7 122611384.90707      1719.635 7        45.278                                                                    23546223.034 7  99631797.26607      1397.243 7        43.316
C44        52.000                                                                                                                                    26550691.039 5                     -2867.885 5        31.351
C12        54.000                                                                                                                                    26389541.112 4                     -1923.052 4        26.551
I09        59.000    38605897.932 5 151497855.15505     -1181.114 5        32.305
> 2025 01 02 06 16 50.0000000  0 37
G13         1.000    23088871.204 4                      2260.387 4        28.502
G20         4.000    20576148.468 7 108128452.05507      -601.920 7        44.304                                    20576140.955 5  84255889.68805      -469.002 5        32.293
G07         5.000    21002323.318 7 110367982.44807     -2069.080 7        44.421                                    21002318.775 6  86001033.26006     -1612.286 6        38.739    21002320.131 6  86000979.30906     -1612.099 6        40.691
G09         6.000    22423307.247 5 117835274.36505     -3655.088 5        35.686                                    22423310.736 3  91819707.72303     -2848.103 3        20.500
G30         7.000    20515019.524 8 107807171.32408       178.076 8        52.290                                    20515015.959 8  84005509.73208       138.754 8        52.295    20515017.431 7  84005557.74807       138.732 7        46.214
E21        10.000    25717912.118 6 135148589.63906     -1283.730 6        37.448                                                                    25717913.695 7 100922620.58607      -958.781 7        45.517    25717913.013 7 103555401.13907      -983.601 7        43.179
E06        11.000    23854126.474 6 125354198.96106       421.724 6        37.735                                                                    23854111.156 6  93608739.88406       314.658 6        37.308    23854114.030 6  96050647.74706       323.115 6        41.428
G05        14.000                                                                                                                                                                    22029319.808 6  90206399.47706      1335.297 6        41.661
G06        15.000    25175503.166 3                     -4343.940 3        20.500
E11        16.000    26042596.621 5 136854814.71805     -3392.991 5        33.156                                                                    26042593.214 5 102196737.47305     -2533.875 5        35.067    26042591.769 5 104862719.57905     -2600.003 5        33.473
E04        17.000    23206406.869 5 121950544.98005      -743.537 5        34.729                                                                    23206408.059 7  91066998.13507      -555.135 7        44.453    23206408.619 8  93442588.94308      -569.542 8        48.448
R08        18.000    21207903.804 5 113567389.48405     -3628.048 5        35.924                                                                    21207902.454 5  88330171.59905     -2820.814 5        31.374
E19        20.000                                                                                                                                    25394661.575 5                     -2205.456 5        32.150    25394665.342 5 102253766.80205     -2262.826 5        31.132
E09        21.000    25611185.036 7 134587684.25407      1184.539 7        45.515                                                                    25611185.698 7 100503795.22707       884.623 7        42.718    25611183.299 7 103125643.77307       907.770 7        44.346
E36        22.000    25972453.890 5 136486175.93605     -1101.187 5        33.689                                                                    25972466.585 5 101921483.31005      -821.737 5        32.072    25972466.674 5 104580338.57805      -843.105 5        30.355
S23        24.000    38049120.095 7 199949423.65407      -848.975 7        42.190
G11        25.000    23532106.643 5 123662040.17305     -3654.013 5        33.245                                                                                                    23532139.905 4  96360192.97004     -2846.284 4        26.491
E34        26.000    28302619.171 5 148731352.02405      1237.808 5        31.826                                                                                                                                    28302625.457 4 113963000.74904       947.977 4        29.175
R17        27.000    22636605.956 5 121133007.42705     -2857.840 5        34.867                                                                    22636599.996 5  94214533.31805     -2223.639 5        34.257
R18        28.000                                                                                                                                    23097517.257 4                       157.831 4        28.104
E10        29.000    27403149.743 4                     -4001.323 4        26.287                                                                    27403132.924 5 107535806.72805     -2988.161 5        34.567    27403134.841 6 110341053.73206     -3066.001 6        37.694
R11        30.000    19403302.543 6 103685369.97806       209.106 6        40.086                                                                    19403303.714 7  80644167.82007       162.236 7        42.444
C20        31.000                                                                                                                                    23812984.269 5 124000420.53805     -3360.766 5        32.257                                                                    23812980.330 6 100760511.08106     -2731.264 6        41.709
R10        32.000    21249410.489 6 113271349.46006     -3953.940 6        36.786
C36        34.000                                                                                                                                    23877228.052 7 124334991.56307      2254.358 7        42.783
R02        35.000    21918151.066 7 116959469.22407      2478.995 7        47.902                                                                    21918149.582 6  90968629.55006      1928.052 6        41.802
R12        38.000    22474669.739 7                      3553.914 7        42.072                                                                    22474669.430 4                      2763.707 4        27.952
C05        40.000                                                                                                                                                                                                    39161671.473 5 157687833.11705      -700.526 5        34.248
C37        42.000                                                                                                                                    24361554.731 6                     -3323.240 6        36.231                                                                    24361583.709 3                     -2700.960 3        23.295
R24        43.000    24265738.460 3                     -4746.319 3        21.024                                                                    24265720.449 3                     -3685.942 3        19.970
R01        44.000    19189280.805 7 102577716.00907       -91.036 7        46.446                                                                    19189281.466 6  79782649.40806       -70.836 6        40.312
C09        47.000                                                                                                                                    39708541.855 4                     -1636.028 4        27.940    39708535.868 4 159889816.00904     -1266.022 4        26.659
C19        48.000                                                                                                                                    21715214.432 8 113076982.10108      -932.809 8        52.740                                                                    21715209.057 7  91884161.50007      -757.717 7        46.989
C34        49.000                                                                                                                                    26625140.454 5                      -913.310 5        30.128                                                                    26625127.104 4                      -741.742 4        28.976
C22        51.000                                                                                                                                    23544579.981 7 122602789.03207      1718.726 7        43.727                                                                    23544572.131 7  99624812.45307      1396.768 7        43.579
C12        54.000                                                                                                                                    26391393.026 4                     -1925.299 4        26.946    26391374.654 6 106267260.99206     -1488.916 6        38.375
I09        59.000    38607400.839 5 151503761.81705     -1181.465 5        30.641
> 2025 01 02 06 16 55.0000000  0 37
G13         1.000    23086723.953 5                      2259.071 5        34.786
G20         4.000    20576723.592 7 108131469.35307      -605.300 7        42.034                                    20576715.657 5  84258240.77205      -471.651 5        33.180
G07         5.000    21004292.807 7 110378331.21007     -2070.683 7        44.555                                    21004288.055 6  86009097.25706     -1613.537 6        38.898    21004289.505 7  86009043.31007     -1613.498 7        42.337
G09         6.000    22426784.999 5 117853552.26805     -3655.128 5        34.505                                    22426788.916 3  91833950.32203     -2848.141 3        20.952    22426789.422 5                     -2848.929 5        30.453
G30         7.000    20514850.857 8 107806287.10208       175.516 8        51.904                                    20514847.880 8  84004820.74808       136.766 8        50.399    20514848.146 7  84004868.75907       136.815 7        44.411
E21        10.000    25719137.638 6 135155014.45706     -1286.150 6        39.096                                                                    25719136.500 7 100927418.31307      -960.408 7        45.997    25719135.932 7 103560324.07307      -985.499 7        44.801
E06        11.000    23853718.071 6 125352092.17806       420.419 6        40.915                                                                    23853712.647 6  93607166.69606       314.311 6        38.423    23853713.352 7  96049033.51507       322.496 7        44.891
G05        14.000                                                                                                                                                                    22027690.261 6  90199728.01506      1333.341 6        41.933
E11        16.000    26045822.495 4 136871783.29304     -3394.886 4        27.018                                                                    26045815.884 5 102209408.90205     -2534.781 5        31.162    26045819.605 5 104875721.61405     -2601.000 5        35.105
E04        17.000    23207117.508 6 121954264.05506      -744.357 6        37.584                                                                    23207115.509 6  91069775.33806      -555.651 6        41.747    23207116.271 7  93445438.63007      -570.248 7        46.559
R08        18.000    21211290.223 6 113585532.65906     -3629.788 6        38.108                                                                    21211289.041 5                     -2823.291 5        30.045
E19        20.000                                                                                                                                    25397472.477 5                     -2205.865 5        30.181    25397472.622 5 102265082.26305     -2263.346 5        34.205
E09        21.000    25610056.462 6 134581761.92906      1184.249 6        38.300                                                                    25610056.192 6 100499372.76906       884.250 6        41.313    25610057.335 7 103121105.84407       907.380 7        44.277
E36        22.000    25973515.708 5 136491684.56505     -1103.448 5        33.701
S23        24.000    38049934.525 7 199953667.27507      -848.673 7        42.819
G11        25.000    23535571.334 6 123680314.00416     -3655.749 6        36.749
E34        26.000    28301445.393 5 148725167.14305      1236.142 5        32.856                                                                    28301453.545 4                       923.202 4        28.768    28301455.617 4                       946.897 4        26.347
R17        27.000    22639283.109 6 121147374.12416     -2862.148 6        39.204                                                                    22639273.064 5  94225656.71115     -2225.689 5        31.555
R18        28.000    23097331.363 5 123295077.72815       199.209 5        32.383                                                                    23097330.763 5  95896211.30115       154.944 5        33.719
E10        29.000    27406958.438 4                     -4001.019 4        24.692                                                                    27406941.589 5 107550747.03205     -2988.216 5        35.109    27406941.601 6 110356383.79806     -3065.982 6        38.165
R11        30.000    19403107.993 7 103684336.47607       204.512 7        42.019                                                                    19403109.220 6  80643364.13306       158.879 6        41.569
C20        31.000                                                                                                                                    23816213.181 6 124017230.31406     -3362.685 6        40.279                                                                    23816208.156 6 100774170.29106     -2732.251 6        39.796
R10        32.000    21253119.914 5 113291126.47805     -3956.740 5        35.614
C36        34.000                                                                                                                                    23875063.466 7 124323721.23607      2253.648 7        44.904                                                                    23875072.921 5                      1831.379 5        32.551
R02        35.000    21915828.514 7 116947075.53207      2478.312 7        47.130                                                                    21915827.233 6  90958990.01506      1927.806 6        39.456
R12        38.000    22471342.938 7 120037918.91917      3552.948 7        42.013                                                                    22471347.246 5  93362769.78915      2763.500 5        33.820
C05        40.000                                                                                                                                                                                                    39162542.384 5 157691335.98705      -700.287 5        34.614
C37        42.000                                                                                                                                    24364747.046 4                     -3324.861 4        29.355                                                                    24364767.893 4                     -2702.771 4        27.892
R24        43.000    24270173.174 3                     -4747.818 3        23.429                                                                    24270148.393 3                     -3691.641 3        20.952
R01        44.000    19189367.715 6 102578177.00506       -93.346 6        41.085                                                                    19189367.585 6  79783008.02006       -72.803 6        39.192
C09        47.000                                                                                                                                    39710116.362 4                     -1635.076 4        28.588    39710103.906 4                     -1265.053 4        29.308
C19        48.000                                                                                                                                    21716110.961 8 113081650.44908      -934.695 8        53.527                                                                    21716105.610 7  91887954.88807      -759.516 7        47.585
C34        49.000                                                                                                                                    26626016.512 4                      -916.003 4        26.826
C22        51.000                                                                                                                                    23542930.213 7 122594197.38007      1717.667 7        45.365                                                                    23542922.113 7  99617830.98807      1396.031 7        45.819
C44        52.000                                                                                                                                    26556171.025 4 138285061.45814     -2870.450 4        29.981
C12        54.000                                                                                                                                                                                                    26393229.673 6 106274709.94606     -1490.696 6        37.422    26393229.782 4                     -1567.911 4        24.707
I09        59.000    38608907.435 5 151509668.54005     -1181.044 5        33.449
> 2025 01 02 06 17  0.0000000  0 37
G13         1.000    23084576.765 3                      2257.351 3        22.629
G20         4.000    20577299.437 7 108134503.59807      -608.532 7        43.598                                    20577293.552 5  84260605.10205      -474.174 5        32.245
G07         5.000    21006264.741 7 110388690.02807     -2072.694 7        42.425                                    21006259.137 6  86017169.08706     -1615.031 6        38.829    21006259.998 6  86017115.07406     -1615.003 6        40.546
G09         6.000    22430263.732 6 117871836.04306     -3657.029 6        36.968                                    22430268.299 3  91848197.39403     -2849.607 3        19.284    22430270.396 5                     -2849.837 5        33.317
G30         7.000    20514684.687 8 107805415.50108       173.120 8        51.212                                    20514682.130 8  84004141.57908       134.902 8        50.284    20514682.896 7  84004189.57607       134.965 7        44.581
E21        10.000    25720362.128 6 135161452.01306     -1288.999 6        37.580                                                                    25720361.704 7 100932225.58407      -962.419 7        47.289    25720360.231 7 103565256.74107      -987.475 7        42.408
E06        11.000    23853311.182 6 125349990.51606       419.949 6        41.073                                                                    23853313.491 7  93605597.14007       313.636 7        43.549    23853313.274 7  96047423.04307       321.718 7        45.074
G05        14.000                                                                                                                                                                    22026063.505 6  90193065.91106      1331.633 6        40.591
E11        16.000    26049053.973 5 136888759.57205     -3395.965 5        32.204                                                                    26049049.913 5 102222085.68205     -2535.544 5        30.506    26049049.201 5 104888729.10505     -2601.865 5        34.824
E04        17.000    23207825.828 6 121957990.01806      -745.603 6        36.677                                                                    23207824.551 7  91072557.00707      -556.678 7        42.150    23207825.319 7  93448292.83607      -571.046 7        44.597
R08        18.000    21214682.435 7 113603685.63607     -3631.590 7        42.675                                                                    21214682.823 5  88358399.17115     -2824.343 5        33.599
E19        20.000    25400294.812 4                     -2954.469 4        26.347                                                                                                                                    25400282.326 4 102276400.12804     -2264.350 4        25.023
E09        21.000    25608929.406 5 134575842.62905      1183.782 5        33.754                                                                    25608930.812 6 100494952.42806       883.602 6        38.586    25608934.195 7 103116570.26207       906.925 7        42.298
E36        22.000    25974563.121 4 136497207.33204     -1106.252 4        28.000                                                                    25974588.400 5 101929720.66805      -826.100 5        30.800    25974560.844 5 104588766.81315      -847.197 5        31.162
S23        24.000    38050733.917 6 199957911.18606      -849.115 6        41.058
G11        25.000    23539050.401 6 123698598.26606     -3657.321 6        36.571                                                                                                    23539082.478 5  96388623.46815     -2850.501 5        32.162
E34        26.000    28300268.811 5 148718991.59105      1234.332 5        30.981                                                                                                                                    28300283.595 4                       945.247 4        25.188
R17        27.000                                                                                                                                    22641944.712 6                     -2228.820 6        36.197
R18        28.000    23097150.841 5 123294093.94015       193.271 5        35.052
E10        29.000    27410771.436 4                     -4001.926 4        28.294                                                                    27410748.736 5 107565688.61805     -2988.413 5        35.414    27410748.660 6 110371715.16506     -3066.502 6        37.433
R11        30.000    19402920.587 6 103683325.73506       200.222 6        41.189                                                                    19402918.614 6  80642578.06106       155.414 6        38.577
C20        31.000                                                                                                                                    23819440.440 6 124034047.00606     -3364.358 6        36.813                                                                    23819437.151 6 100787835.19506     -2733.427 6        41.778
R10        32.000    21256834.676 6 113310918.77406     -3959.770 6        36.590
C36        34.000                                                                                                                                    23872898.424 7 124312457.38007      2252.218 7        44.048                                                                    23872908.340 4 101014118.97814      1829.887 4        29.270
R02        35.000    21913504.213 7 116934685.28207      2477.587 7        44.342                                                                    21913505.658 6  90949353.24706      1927.155 6        37.856
R12        38.000    22468016.601 7 120020157.90807      3551.513 7        42.730                                                                    22468019.229 5                      2762.452 5        31.049
C05        40.000                                                                                                                                                                                                    39163411.015 5 157694839.14105      -700.238 5        34.052
C37        42.000                                                                                                                                    24367936.440 6                     -3327.486 6        36.495                                                                    24367952.753 4                     -2704.651 4        29.090
R24        43.000    24274616.371 3                     -4747.499 3        23.638
R01        44.000    19189457.427 7 102578651.73707       -96.231 7        42.864                                                                    19189456.384 6  79783377.27106       -74.823 6        40.613
C09        47.000                                                                                                                                    39711686.098 5                     -1635.826 5        31.879    39711673.826 4                     -1265.775 4        28.303
C19        48.000                                                                                                                                    21717009.562 8 113086329.59608      -936.793 8        52.842                                                                    21717004.001 7  91891757.06707      -761.232 7        47.194
C34        49.000                                                                                                                                    26626903.490 4                      -917.976 4        25.218                                                                    26626900.411 5                      -745.785 5        30.038
C22        51.000                                                                                                                                    23541281.776 7 122585610.61107      1716.703 7        43.981                                                                    23541273.072 7  99610853.49707      1395.227 7        45.828
C44        52.000                                                                                                                                    26558933.201 5 138299417.94105     -2871.896 5        35.586
C12        54.000                                                                                                                                    26395113.318 5                     -1930.209 5        32.455    26395085.372 6 106282168.36306     -1492.521 6        38.345    26395084.987 4                     -1567.939 4        24.977
I09        59.000    38610416.169 5 151515576.30105     -1181.474 5        35.067
> 2025 01 02 06 17  5.0000000  0 35
G13         1.000    23082427.641 4                      2256.895 4        27.365
G20         4.000    20577880.356 7 108137554.42007      -611.766 7        45.243                                    20577874.536 5  84262982.33905      -476.678 5        33.970
G07         5.000    21008238.002 7 110399058.36007     -2074.941 7        42.411                                    21008232.017 6  86025248.31406     -1616.829 6        38.790    21008233.263 6  86025194.30306     -1616.724 6        41.454
G09         6.000    22433746.546 6 117890124.93906     -3658.608 6        36.446                                    22433748.773 3  91862448.49703     -2850.825 3        19.761    22433751.210 5  91862460.48215     -2850.404 5        30.008
G30         7.000    20514521.015 8 107804556.07108       170.470 8        49.877                                    20514518.773 8  84003471.88408       132.830 8        49.863    20514519.472 7  84003519.89307       132.858 7        45.827
E21        10.000    25721589.497 6 135167901.89706     -1291.260 6        41.344                                                                    25721589.130 7 100937042.02507      -964.267 7        46.516    25721588.444 7 103570198.81607      -989.452 7        44.415
E06        11.000    23852914.317 6 125347893.17806       418.800 6        39.946                                                                    23852914.122 7  93604030.91107       312.950 7        43.820    23852913.758 7  96045815.96507       320.997 7        44.596
G05        14.000    22024443.369 6 115739504.02306      1706.264 6        36.174                                    22024437.460 5  90186602.67205      1329.484 5        30.008    22024438.612 6  90186412.80406      1329.778 6        38.574
E11        16.000    26052287.978 4                     -3397.311 4        28.427                                                                    26052278.833 4 102234767.67404     -2536.864 4        29.450    26052282.190 5 104901741.93705     -2603.229 5        35.805
E04        17.000    23208535.935 6 121961720.53006      -747.113 6        36.922                                                                    23208534.128 7  91075342.73207      -557.518 7        42.265    23208535.569 7  93451151.21707      -572.155 7        44.694
R08        18.000    21218077.025 7 113621848.09007     -3633.448 7        43.319                                                                    21218074.120 5  88372525.31705     -2825.684 5        32.371
E19        20.000    25403110.615 4                     -2955.520 4        24.962                                                                                                                                    25403093.883 5 102287720.07605     -2264.210 5        32.725
E09        21.000    25607800.385 5 134569925.78705      1183.418 5        34.057                                                                    25607802.624 6 100490534.08806       883.287 6        36.957    25607807.211 6 103112036.61506       906.560 6        40.939
E36        22.000    25975612.147 5                     -1108.098 5        33.623                                                                                                                                    25975607.861 4 104593007.53804      -849.419 4        28.806
S23        24.000    38051538.765 7 199962155.18307      -848.790 7        42.076
G11        25.000    23542536.043 6 123716889.11906     -3659.147 6        40.291                                                                                                    23542555.842 4  96402875.99304     -2851.642 4        29.981
E34        26.000                                                                                                                                    28299110.647 4                       920.202 4        26.910    28299103.995 5                       944.588 5        33.377
R17        27.000                                                                                                                                    22644623.592 6  94247946.52916     -2231.552 6        36.635
R18        28.000                                                                                                                                    23096960.956 5  95894642.17415       148.063 5        31.691
E10        29.000    27414574.327 4                     -4002.121 4        27.162                                                                    27414555.390 5 107580631.16505     -2988.798 5        34.743    27414557.224 6 110387047.52906     -3066.589 6        38.192
R11        30.000    19402735.845 7 103682337.36007       195.390 7        43.615                                                                    19402735.010 6  80641809.13906       151.881 6        40.145
C20        31.000                                                                                                                                    23822671.195 5 124050870.18505     -3364.380 5        33.808                                                                    23822668.077 6 100801505.43606     -2734.481 6        40.958
R10        32.000    21260547.571 5 113330725.91305     -3963.106 5        31.238
C36        34.000                                                                                                                                    23870737.516 7 124301199.56207      2250.988 7        44.108
R02        35.000    21911182.958 5 116922298.40805      2474.444 5        30.415                                                                    21911183.629 5  90939718.75305      1926.215 5        33.479
R12        38.000    22464693.138 7 120002402.87417      3550.263 7        44.039                                                                    22464695.284 5                      2761.642 5        31.306
C05        40.000                                                                                                                                                                                                    39164279.024 5 157698342.34705      -700.447 5        32.293
C37        42.000                                                                                                                                    24371144.551 5                     -3328.543 5        31.592
R01        44.000    19189548.137 7 102579139.78407       -98.941 7        43.126                                                                    19189547.025 6  79783756.82406       -77.067 6        39.459
C09        47.000                                                                                                                                    39713262.895 4                     -1635.801 4        29.441    39713249.231 5 159908774.14815     -1264.961 5        34.067
C19        48.000                                                                                                                                    21717910.683 8 113091019.06408      -939.005 8        52.666                                                                    21717905.182 8  91895567.65208      -762.954 8        48.431
C22        51.000                                                                                                                                    23539632.380 7 122577028.17107      1716.247 7        44.688                                                                    23539626.032 7  99603879.61307      1394.490 7        44.474
C44        52.000                                                                                                                                    26561698.442 5 138313781.93705     -2873.684 5        35.519
C12        54.000                                                                                                                                    26396961.305 4                     -1932.753 4        25.188    26396946.720 6 106289636.22306     -1494.754 6        36.495
I09        59.000    38611921.139 5 151521484.64305     -1181.704 5        32.156
> 2025 01 02 06 17 10.0000000  0 38
G13         1.000    23080274.183 3                      2255.739 3        22.095
G20         4.000    20578464.078 7 108140621.64707      -614.913 7        46.251                                    20578458.508 5  84265372.37305      -479.158 5        33.108
G07         5.000    21010213.057 7 110409436.20607     -2076.369 7        45.738                                    21010206.686 6  86033334.95906     -1617.939 6        39.060    21010207.795 6  86033280.95406     -1618.022 6        40.777
G09         6.000    22437227.086 5 117908419.10805     -3659.778 5        34.752                                    22437229.471 3  91876703.66803     -2851.793 3        20.452    22437227.714 5  91876715.67205     -2851.532 5        32.563
G30         7.000    20514360.038 8 107803708.70108       168.377 8        50.522                                    20514357.651 8  84002811.59208       131.186 8        49.654    20514357.709 7  84002859.60207       131.335 7        44.953
E21        10.000    25722818.091 6 135174363.94206     -1293.466 6        39.513                                                                    25722818.577 7 100941867.62207      -965.918 7        45.657    25722817.658 7 103575150.29107      -991.096 7        44.379
E06        11.000    23852517.237 6 125345800.21906       418.168 6        40.288                                                                    23852515.968 7  93602468.01307       312.378 7        45.970    23852515.201 7  96044212.29607       320.602 7        44.373
G05        14.000    22022818.779 5 115730977.52605      1704.539 5        31.902                                    22022815.160 5  90179958.63105      1328.217 5        30.279    22022816.392 6  90179768.58606      1327.867 6        37.909
G06        15.000    25192025.351 3                     -4343.084 3        21.000
E11        16.000    26055519.512 4                     -3398.792 4        29.213                                                                                                                                    26055516.335 5 104914759.91505     -2604.023 5        35.181
E04        17.000    23209249.151 5 121965456.32205      -748.630 5        33.353                                                                    23209245.237 7  91078132.45807      -558.188 7        44.051    23209246.513 7  93454013.77707      -572.785 7        45.442
R08        18.000    21221472.480 7 113640019.90807     -3634.971 7        42.482                                                                    21221468.674 5  88386659.04705     -2827.280 5        35.762
E19        20.000    25405922.393 4                     -2955.901 4        26.084                                                                    25405934.066 3                     -2207.124 3        22.000    25405905.813 5 102299042.13705     -2264.463 5        32.293
E09        21.000    25606679.743 6 134564011.39106      1182.836 6        39.273                                                                    25606677.207 6 100486117.48006       883.340 6        37.372    25606681.321 7 103107504.77907       906.419 7        42.381
E36        22.000    25976667.616 5 136508309.07815     -1110.578 5        33.461                                                                    25976696.453 4 101937996.44404      -829.388 4        27.820    25976668.848 5                      -847.693 5        34.795
S23        24.000    38052345.883 7 199966399.26607      -848.649 7        42.554
G11        25.000    23546021.709 6 123735187.97306     -3660.372 6        38.321                                                                                                    23546041.306 3                     -2851.202 3        20.976
E34        26.000    28297920.773 5 148706666.71705      1230.792 5        32.766                                                                    28297929.379 4                       918.742 4        26.228
R17        27.000    22647322.059 6 121190435.79016     -2872.835 6        39.517                                                                    22647309.699 6  94259112.52106     -2234.528 6        38.126
R18        28.000    23096792.228 5                       186.312 5        33.006                                                                    23096783.424 4  95893909.21714       144.667 4        26.455
E10        29.000                                                                                                                                    27418364.258 5 107595574.63205     -2988.634 5        35.605    27418365.543 6 110402380.82506     -3066.618 6        38.111
R11        30.000    19402555.295 6 103681371.05606       191.121 6        40.825                                                                    19402554.005 6  80641057.60906       148.908 6        39.003
C20        31.000                                                                                                                                    23825906.200 4                     -3366.286 4        27.461                                                                    23825899.394 6 100815181.01506     -2735.714 6        39.862
R10        32.000    21264265.231 5 113350547.87205     -3965.715 5        31.291
C36        34.000                                                                                                                                    23868576.303 7 124289947.71207      2250.180 7        42.178                                                                    23868606.575 4                      1828.644 4        26.240
R02        35.000    21908860.485 6 116909913.83606      2476.448 6        37.240                                                                    21908862.401 5  90930086.60005      1926.021 5        33.581
R12        38.000    22461372.368 6 119984653.78206      3549.341 6        41.759                                                                    22461373.705 5  93321375.25915      2760.469 5        31.691
C05        40.000                                                                                                                                                                                                    39165151.567 5 157701845.51105      -700.625 5        30.672
C37        42.000                                                                                                                                    24374348.236 5                     -3330.278 5        34.319
R24        43.000    24283494.737 3                     -4747.428 3        22.171
R01        44.000    19189640.722 7 102579640.95507      -101.182 7        42.336                                                                    19189640.624 6  79784146.64306       -78.918 6        39.063
C09        47.000                                                                                                                                    39714833.620 4                     -1635.040 4        25.669    39714822.243 5 159915098.64605     -1264.584 5        32.898
C19        48.000                                                                                                                                    21718813.299 9 113095718.83809      -940.798 9        54.073                                                                    21718808.267 8  91899386.61208      -764.618 8        49.090
C34        49.000                                                                                                                                                                                                                                                                    26628658.152 4                      -750.590 4        29.924
C22        51.000                                                                                                                                    23537985.060 7 122568450.27007      1715.359 7        42.349                                                                    23537979.225 7  99596909.37407      1393.798 7        45.145
C44        52.000                                                                                                                                    26564458.286 6 138328153.14706     -2874.557 6        36.197
C12        54.000                                                                                                                                    26398811.899 4                     -1935.024 4        24.872    26398805.176 6 106297113.23106     -1496.266 6        36.038
I09        59.000    38613427.650 5 151527393.46605     -1181.491 5        35.029
> 2025 01 02 06 17 15.0000000  0 36
G20         4.000    20579050.176 7 108143704.96207      -618.249 7        46.255                                    20579045.533 5  84267774.94805      -481.746 5        32.916
G07         5.000    21012190.028 7 110419823.15107     -2078.317 7        46.240                                    21012183.371 6  86041428.68206     -1619.465 6        40.091    21012184.822 7  86041374.68007     -1619.497 7        42.243
G09         6.000    22440708.649 6 117926717.93506     -3660.353 6        36.246                                    22440711.836 3  91890962.54903     -2852.257 3        20.738    22440711.295 5  91890974.56905     -2852.149 5        32.563
G30         7.000    20514200.862 8 107802873.08908       165.977 8        48.983                                    20514198.730 8  84002160.45408       129.324 8        49.461    20514198.684 7  84002208.48007       129.355 7        45.046
E21        10.000    25724050.070 6 135180837.94906     -1295.997 6        38.147                                                                    25724050.898 7 100946702.07107      -967.775 7        46.518    25724049.900 7 103580110.85807      -993.099 7        43.807
E06        11.000    23852117.915 6 125343711.29206       417.070 6        39.141                                                                    23852119.300 7  93600908.11407       311.718 7        46.631    23852117.636 7  96042611.67907       319.815 7        45.854
G05        14.000    22021195.925 5 115722461.91405      1701.963 5        32.210                                    22021194.997 5  90173323.12705      1326.223 5        30.777    22021196.529 6  90173133.10006      1326.250 6        41.683
G06        15.000    25196168.501 3                     -4345.782 3        19.881
E11        16.000    26058752.097 4                     -3400.077 4        26.946                                                                    26058752.124 5 102260146.37005     -2538.868 5        32.563    26058749.091 5 104927782.71705     -2605.140 5        35.357
E04        17.000    23209960.512 6 121969197.02406      -748.659 6        36.106                                                                    23209957.740 7  91080926.02407      -559.217 7        44.802    23209957.866 7  93456880.18307      -573.691 7        44.795
R08        18.000    21224864.282 6 113658200.67406     -3636.963 6        41.974                                                                    21224862.067 5  88400799.56805     -2828.736 5        33.449
E19        20.000    25408736.712 3                     -2956.104 3        19.164                                                                    25408738.677 4                     -2207.154 4        26.551    25408721.935 5 102310366.00005     -2265.145 5        33.084
E09        21.000    25605550.662 5 134558099.16305      1182.370 5        33.024                                                                    25605553.906 6 100481702.44806       882.836 6        39.303    25605557.148 6 103102974.56606       905.856 6        41.824
E36        22.000    25977728.080 6 136513869.16006     -1113.035 6        37.493
S23        24.000    38053154.827 7 199970642.99007      -848.853 7        42.373
G11        25.000    23549500.422 5 123753494.28005     -3662.591 5        34.771                                                                                                    23549512.090 4                     -2853.685 4        24.511
E34        26.000    28296752.293 5 148700517.23005      1229.298 5        30.445                                                                    28296759.978 3                       917.587 3        22.800    28296748.876 4                       941.667 4        26.970
R17        27.000    22650008.667 5                     -2876.605 5        33.437                                                                    22649999.661 6  94270292.20816     -2237.321 6        36.113
R18        28.000                                                                                                                                    23096613.519 4  95893192.22404       141.931 4        29.905
E10        29.000    27422182.757 4                     -4002.392 4        25.143                                                                    27422172.645 6 107610518.71106     -2989.031 6        36.268    27422172.989 6 110417714.73906     -3066.925 6        39.462
R11        30.000    19402377.156 7 103680426.57707       186.634 7        42.099                                                                    19402375.383 6  80640323.00706       145.349 6        36.223
C20        31.000                                                                                                                                                                                                                                                                    23829131.991 6 100828861.53406     -2736.650 6        37.958
R10        32.000    21267990.869 5 113370384.16805     -3968.576 5        35.924
C36        34.000                                                                                                                                    23866418.840 7 124278701.42407      2248.678 7        43.627
R02        35.000    21906541.404 6 116897532.09106      2476.393 6        36.556                                                                    21906543.037 6  90920456.34406      1925.793 6        37.985
R12        38.000    22458050.478 7 119966910.25607      3548.209 7        42.351                                                                    22458055.575 5  93307574.81205      2760.197 5        31.208
C05        40.000                                                                                                                                                                                                    39166022.393 5 157705348.50205      -700.666 5        30.687
R24        43.000    24287929.460 3                     -4750.231 3        19.343
R01        44.000    19189736.568 7 102580154.98407      -104.084 7        43.100                                                                    19189737.951 6  79784546.40606       -80.799 6        39.477
C09        47.000                                                                                                                                    39716398.406 4                     -1635.478 4        25.383    39716390.904 6 159921422.74206     -1264.697 6        36.817
C19        48.000                                                                                                                                    21719717.180 8 113100428.53908      -942.941 8        53.895                                                                    21719712.880 8  91903213.60308      -766.230 8        49.733
C34        49.000                                                                                                                                                                                                                                                                    26629553.786 5                      -752.668 5        31.057
C22        51.000                                                                                                                                    23536339.534 7 122559876.34407      1714.260 7        43.725                                                                    23536332.311 7  99589942.33507      1393.049 7        46.423
C44        52.000                                                                                                                                    26567213.758 6 138342531.35106     -2876.448 6        36.945
C12        54.000                                                                                                                                    26400662.020 4                     -1937.288 4        27.533
I09        59.000    38614935.133 6 151533302.58106     -1181.878 6        36.439
> 2025 01 02 06 17 20.0000000  0 36
G13         1.000    23075972.196 5 121265032.78015      2255.343 5        34.338
G20         4.000    20579639.778 7 108146804.92807      -621.541 7        46.027                                    20579635.524 5  84270190.50005      -484.315 5        32.677
G07         5.000    21014167.783 7 110430219.74907     -2080.163 7        46.478                                    21014161.948 6  86049529.93206     -1620.907 6        41.223    21014162.987 7  86049475.92007     -1620.858 7        42.692
G09         6.000    22444190.944 6 117945022.20806     -3661.225 6        37.781                                    22444194.649 3  91905225.65903     -2852.901 3        20.024    22444192.342 5                     -2852.881 5        32.485
G30         7.000    20514044.358 8 107802049.71108       163.581 8        48.385                                    20514042.160 8  84001518.86508       127.465 8        49.817    20514041.971 7  84001566.87807       127.455 7        44.924
E21        10.000    25725284.116 6 135187324.31206     -1298.315 6        40.546                                                                    25725285.519 7 100951545.77607      -969.596 7        46.830    25725284.079 7 103585080.91807      -994.916 7        44.281
E06        11.000    23851721.810 7 125341626.84807       416.450 7        42.559                                                                    23851722.101 7  93599351.59107       310.993 7        46.074    23851720.468 7  96041014.55607       319.190 7        46.803
G05        14.000    22019582.773 5 115713957.85305      1699.793 5        33.467                                    22019577.160 5  90166696.58305      1324.497 5        32.269    22019578.890 7  90166506.64607      1324.380 7        43.966
E11        16.000    26061984.776 4                     -3401.647 4        26.683                                                                    26061994.171 5 102272843.15505     -2540.026 5        34.729    26061985.954 6 104940810.82006     -2606.007 6        37.353
E04        17.000    23210667.277 5 121972943.66805      -749.559 5        35.486                                                                    23210671.045 7  91083723.68907      -559.914 7        46.257    23210670.078 7  93459750.85107      -574.532 7        46.152
R08        18.000    21228259.197 7 113676390.85007     -3638.809 7        45.225                                                                    21228259.700 5  88414947.51805     -2830.392 5        35.281
E19        20.000                                                                                                                                    25411542.483 5                     -2207.990 5        30.211    25411533.000 5 102321691.91705     -2265.310 5        33.581
E09        21.000    25604429.116 5 134552189.35605      1182.105 5        35.143                                                                    25604428.219 6 100477289.36206       882.454 6        39.348    25604430.995 6 103098446.35806       905.551 6        38.916
E36        22.000    25978788.413 5 136519442.03205     -1115.813 5        34.657                                                                    25978809.998 5                      -837.082 5        34.071    25978796.464 4 104605809.89814      -855.157 4        28.209
S23        24.000    38053960.555 7 199974886.64407      -848.501 7        42.057
G11        25.000    23552984.509 5 123771808.48505     -3663.740 5        33.018
E34        26.000    28295586.248 4 148694376.72304      1227.868 4        29.507                                                                    28295599.816 3                       916.035 3        21.310    28295579.914 4                       940.533 4        24.391
R17        27.000    22652699.220 5 121219187.45815     -2880.025 5        33.665                                                                    22652690.496 5  94281486.10505     -2239.955 5        35.333
R18        28.000    23096449.118 5 123290419.54915       178.492 5        34.448                                                                    23096449.777 5  95892492.92905       138.640 5        31.781
E10        29.000    27425981.588 4                     -4003.481 4        25.880                                                                    27425981.114 6 107625463.77206     -2989.198 6        36.163    27425981.783 6 110433049.70106     -3067.088 6        39.631
R11        30.000    19402204.814 7 103679504.40207       182.471 7        44.576                                                                    19402203.260 5  80639605.72905       141.861 5        34.443
C20        31.000                                                                                                                                                                                                                                                                    23832367.797 6 100842547.50606     -2737.553 6        38.273
R10        32.000    21271715.992 5 113390235.45905     -3971.836 5        35.071
C36        34.000                                                                                                                                    23864258.053 6 124267461.24406      2247.426 6        40.956
R02        35.000    21904222.052 6 116885153.62706      2475.539 6        36.374                                                                    21904222.521 6  90910828.55306      1925.451 6        41.440
R12        38.000    22454728.912 7 119949172.89107      3547.034 7        42.580                                                                    22454731.791 4  93293778.98804      2759.224 4        29.251
C05        40.000                                                                                                                                                                                                    39166891.203 5 157708851.51705      -700.951 5        32.611
C37        42.000                                                                                                                                    24380752.927 4                     -3332.948 4        28.190                                                                    24380764.546 4                     -2708.685 4        29.024
R01        44.000    19189835.914 7 102580682.44307      -106.675 7        44.932                                                                    19189836.804 6  79784956.65606       -82.983 6        40.095
C09        47.000                                                                                                                                    39717972.189 4                     -1635.162 4        28.028    39717964.857 6 159927746.69706     -1264.625 6        39.396
C19        48.000                                                                                                                                    21720623.862 8 113105148.68808      -944.979 8        53.075                                                                    21720619.388 8  91907049.11408      -767.917 8        50.936
C34        49.000                                                                                                                                    26630430.518 3                      -932.033 3        21.976                                                                    26630445.500 3                      -754.295 3        21.786
C22        51.000                                                                                                                                    23534693.149 7 122551307.00107      1713.482 7        45.257                                                                    23534686.623 7  99582979.04307      1392.271 7        45.338
C44        52.000                                                                                                                                    26569975.336 6 138356916.78606     -2877.631 6        36.325
C12        54.000                                                                                                                                    26402519.979 4                     -1939.315 4        26.862    26402509.011 6 106312094.38206     -1499.852 6        36.231
I09        59.000    38616435.125 5 151539212.26805     -1181.990 5        34.514
> 2025 01 02 06 17 25.0000000  0 35
G13         1.000    23073830.987 6 121253757.92006      2254.372 6        36.832
G20         4.000    20580232.820 7 108149921.56007      -625.068 7        42.529                                    20580228.443 5  84272619.02505      -487.082 5        31.109
G07         5.000    21016147.561 7 110440625.98907     -2082.306 7        43.354                                    21016142.367 6  86057638.67306     -1622.585 6        40.565    21016142.416 6  86057584.69206     -1622.644 6        40.992
G09         6.000    22447675.121 6 117963331.86406     -3662.556 6        39.042                                    22447678.691 3  91919492.92703     -2853.918 3        20.286    22447678.088 4                     -2853.893 4        29.867
G30         7.000    20513890.333 8 107801238.64308       160.793 8        50.213                                    20513887.822 8  84000886.86508       125.290 8        49.510    20513887.445 7  84000934.87207       125.397 7        44.208
E21        10.000    25726519.579 6 135193823.12906     -1301.206 6        36.132                                                                    25726522.231 7 100956398.79707      -971.679 7        46.687    25726520.709 7 103590060.54907      -996.992 7        44.855
E06        11.000    23851324.434 6 125339547.18806       415.511 6        37.883                                                                    23851325.759 7  93597798.53807       310.066 7        45.040    23851324.486 7  96039420.99607       318.221 7        44.098
G05        14.000    22017966.375 5 115705465.94705      1696.820 5        35.419                                    22017961.674 5  90160079.47405      1322.196 5        33.641    22017962.447 7  90159889.43707      1322.291 7        43.685
E11        16.000    26065228.652 4                     -3402.322 4        26.623                                                                    26065230.374 5 102285545.33305     -2541.074 5        34.871    26065222.356 5 104953844.28105     -2607.521 5        35.843
E04        17.000    23211382.586 6 121976695.74306      -751.334 6        38.045                                                                    23211385.327 7  91086525.63307      -560.888 7        46.941    23211384.384 7  93462625.88907      -575.566 7        46.575
R08        18.000    21231659.150 7 113694590.68407     -3640.983 7        42.927                                                                    21231656.372 5  88429102.87405     -2831.887 5        33.018
E19        20.000    25414345.571 4                     -2957.283 4        24.165                                                                    25414357.449 3                     -2209.737 3        20.381    25414348.213 5 102333020.18005     -2265.991 5        35.786
E09        21.000    25603306.250 6 134546282.34906      1180.841 6        37.996                                                                    25603305.086 6 100472878.24706       881.885 6        38.718    25603304.940 6 103093920.22506       904.910 6        37.013
E36        22.000    25979846.076 3 136525028.30203     -1120.817 3        23.695                                                                    25979873.869 5 101950601.46515      -835.412 5        32.509
S23        24.000    38054772.003 6 199979130.61606      -848.880 6        40.150
G11        25.000    23556472.163 5 123790130.88105     -3665.691 5        34.567                                                                                                    23556480.251 3                     -2856.388 3        22.724
E34        26.000    28294411.485 4 148688245.39904      1224.808 4        29.280                                                                    28294427.365 4                       915.684 4        24.632
R17        27.000    22655392.182 6 121233598.78516     -2884.245 6        38.820                                                                    22655382.310 5  94292693.83215     -2243.297 5        34.238
R18        28.000    23096274.975 6 123289539.97806       173.860 6        38.973
E10        29.000    27429790.257 4                     -4003.174 4        28.493                                                                    27429789.765 6 107640409.91806     -2989.438 6        36.972    27429790.139 6 110448385.73006     -3067.614 6        39.138
R11        30.000    19402037.453 7 103678604.75107       177.602 7        43.354                                                                    19402034.944 5  80638905.96105       137.994 5        35.019
C20        31.000                                                                                                                                                                                                                                                                    23835604.615 6 100856238.96406     -2738.946 6        37.577
R10        32.000    21275440.414 5 113410101.72205     -3975.040 5        30.332
C36        34.000                                                                                                                                    23862099.940 7 124256227.19807      2246.103 7        43.264                                                                    23862115.353 5                      1825.122 5        34.000
R02        35.000    21901903.758 6 116872778.23306      2474.697 6        40.648                                                                    21901904.313 7  90901203.26107      1924.758 7        43.363
R12        38.000    22451409.638 6 119931441.71206      3545.401 6        41.990                                                                    22451415.001 5  93279988.08805      2757.752 5        34.119
C37        42.000                                                                                                                                    24383945.317 5                     -3335.463 5        33.000                                                                    24383961.247 4                     -2709.924 4        28.313
R01        44.000    19189938.000 7 102581223.40907      -109.666 7        45.758                                                                    19189937.369 6  79785377.39406       -85.314 6        40.312
C09        47.000                                                                                                                                    39719552.948 5                     -1635.511 5        30.430    39719535.856 6 159934070.64806     -1264.760 6        38.790
C19        48.000                                                                                                                                    21721533.114 8 113109879.35908      -947.390 8        53.757                                                                    21721527.864 8  91910893.15408      -769.766 8        51.046
C34        49.000                                                                                                                                    26631328.160 4                      -931.163 4        29.943                                                                    26631340.915 3                      -756.816 3        19.313
C22        51.000                                                                                                                                    23533049.359 6 122542742.32006      1712.410 6        40.536                                                                    23533041.296 7  99576019.49607      1391.351 7        46.842
C44        52.000                                                                                                                                    26572747.142 5 138371309.81105     -2879.703 5        31.623
C12        54.000                                                                                                                                                                                                    26404376.408 6 106319599.03606     -1501.661 6        36.699
I09        59.000    38617941.392 5 151545122.70905     -1182.180 5        34.371
> 2025 01 02 06 17 30.0000000  0 36
G13         1.000    23071688.940 6 121242486.44806      2254.176 6        38.399
G20         4.000    20580829.346 7 108153054.75807      -628.076 7        45.044                                    20580823.987 4  84275060.46504      -489.427 4        29.374
G07         5.000    21018129.600 7 110451041.73507     -2083.711 7        44.042                                    21018124.534 6  86065754.83906     -1623.681 6        39.982    21018124.556 6  86065700.88306     -1623.773 6        41.395
G09         6.000    22451157.668 5 117981646.71905     -3663.327 5        31.147                                    22451164.563 3  91933764.20203     -2854.513 3        18.358    22451163.856 4                     -2854.374 4        26.563
G30         7.000    20513738.410 8 107800439.71508       158.849 8        50.430                                    20513735.783 8  84000264.32008       123.780 8        49.914    20513735.617 7  84000312.33307       123.814 7        45.038
E21        10.000    25727759.448 6 135200334.20806     -1303.410 6        39.372                                                                    25727761.391 7 100961260.95907      -973.189 7        47.426    25727758.612 7 103595049.53807      -998.489 7        44.152
E06        11.000    23850932.059 7 125337471.85107       414.923 7        42.779                                                                    23850931.857 7  93596248.81407       309.805 7        46.298    23850930.942 7  96037830.86807       317.866 7        44.643
G05        14.000    22016354.530 6 115696985.34906      1695.195 6        40.262                                    22016348.461 5  90153471.23505      1320.908 5        35.848    22016348.221 7  90153281.24607      1320.977 7        44.567
E11        16.000    26068468.920 4                     -3404.385 4        29.327                                                                    26068464.557 6 102298252.49106     -2541.717 6        38.207    26068460.275 5 104966882.95305     -2608.046 5        34.357
E04        17.000    23212097.762 6 121980453.62706      -751.732 6        36.155                                                                    23212100.244 7  91089331.62407      -561.340 7        47.934    23212099.232 7  93465505.05607      -576.024 7        47.005
R08        18.000    21235060.452 7 113712799.85007     -3642.538 7        42.880                                                                    21235057.699 6  88443265.49906     -2833.103 6        36.200
E19        20.000    25417166.838 4                     -2957.975 4        29.469                                                                    25417170.677 5                     -2208.776 5        32.287    25417160.793 6 102344350.54606     -2266.051 6        36.896
E09        21.000    25602183.202 6 134540377.91706      1181.065 6        39.063                                                                    25602184.036 6 100468469.03806       881.805 6        41.516    25602178.063 6 103089395.97906       904.929 6        40.296
E36        22.000    25980909.446 5 136530626.88105     -1121.216 5        31.706                                                                    25980941.244 4 101954782.34804      -836.644 4        29.735    25980918.669 5                      -859.192 5        31.555
S23        24.000    38055575.030 6 199983374.75406      -848.694 6        41.440
G11        25.000    23559961.968 6 123808461.10606     -3666.555 6        40.584                                                                                                    23559970.674 4                     -2857.311 4        29.573
E34        26.000    28293253.632 4 148682123.04004      1223.608 4        26.719                                                                    28293261.783 4                       913.787 4        28.597    28293251.674 3                       937.245 3        23.600
R17        27.000                                                                                                                                    22658074.751 5  94303915.77305     -2245.539 5        31.940
R18        28.000    23096128.572 4                       170.114 4        26.838
E10        29.000    27433600.790 5                     -4003.439 5        30.709                                                                    27433599.317 6 107655356.89306     -2989.103 6        36.223    27433598.740 6 110463722.68406     -3067.370 6        39.727
R11        30.000    19401871.807 6 103677727.14306       173.574 6        40.231                                                                    19401870.950 6  80638223.45106       135.118 6        36.208
C20        31.000                                                                                                                                    23838856.557 6 124135084.63416     -3371.726 6        36.915                                                                    23838840.911 6 100869935.69206     -2739.765 6        38.219
R10        32.000    21279166.320 5 113429982.57505     -3977.387 5        31.155
C36        34.000                                                                                                                                    23859946.809 7 124244999.15907      2245.177 7        42.804                                                                    23859947.059 3                      1822.826 3        20.167
R02        35.000    21899587.594 5 116860405.98205      2474.106 5        35.605                                                                    21899584.563 7  90891580.27807      1924.555 7        43.401
R12        38.000    22448091.859 7 119913716.50707      3544.571 7        42.667                                                                    22448095.941 5  93266201.83805      2757.074 5        34.233
C37        42.000                                                                                                                                    24387146.480 6                     -3336.511 6        39.757                                                                    24387165.544 4                     -2711.270 4        26.982
R24        43.000                                                                                                                                    24301236.736 3                     -3693.295 3        20.238
R01        44.000    19190041.780 7 102581777.63507      -111.835 7        44.546                                                                    19190040.986 6  79785808.43706       -87.097 6        40.634
C09        47.000                                                                                                                                                                                                    39721104.023 6 159940394.25006     -1264.253 6        36.129
C19        48.000                                                                                                                                    21722443.023 8 113114620.37108      -948.980 8        52.458                                                                    21722438.233 8  91914745.62108      -771.169 8        50.667
C34        49.000                                                                                                                                    26632228.119 4                      -934.001 4        29.829                                                                    26632238.280 3                      -758.294 3        19.463
C22        51.000                                                                                                                                    23531404.372 7 122534182.13107      1711.864 7        45.267                                                                    23531397.546 7  99569063.66807      1391.038 7        46.754
C44        52.000                                                                                                                                    26575510.771 4                     -2880.357 4        29.346
C12        54.000                                                                                                                                    26406258.081 4                     -1944.650 4        28.360    26406246.130 6 106327113.01106     -1503.503 6        40.572
I09        59.000    38619446.632 5 151551033.70505     -1182.139 5        35.724
> 2025 01 02 06 17 35.0000000  0 35
G13         1.000    23069544.472 5 121231217.73805      2253.668 5        33.838
G20         4.000    20581428.883 7 108156203.97207      -631.312 7        43.862                                    20581422.567 4  84277514.40004      -491.917 4        29.156
G07         5.000    21020114.714 7 110461466.53007     -2085.837 7        42.119                                    21020108.504 6  86073878.05506     -1625.328 6        40.489    21020109.002 7  86073824.08907     -1625.359 7        42.690
G09         6.000    22454644.864 6 117999966.31106     -3664.372 6        37.372                                    22454652.558 3  91948039.31903     -2855.313 3        20.429
G30         7.000    20513588.300 8 107799652.41408       156.446 8        48.709                                    20513585.885 8  83999650.82908       121.904 8        49.214    20513585.723 7  83999698.87407       121.780 7        43.602
E21        10.000    25729001.637 6 135206857.12106     -1305.431 6        36.219                                                                    25729002.412 7 100966131.91907      -975.046 7        46.421    25729000.615 7 103600047.59907     -1000.498 7        42.844
E06        11.000    23850536.764 6 125335400.68106       413.752 6        39.685                                                                    23850537.091 7  93594702.08307       309.034 7        47.628    23850536.221 7  96036243.79107       317.132 7        47.096
G05        14.000    22014744.117 7 115688515.95407      1692.882 7        42.698                                    22014737.335 6  90146871.70006      1319.128 6        37.437    22014736.404 7  90146681.75407      1319.108 7        43.473
E11        16.000    26071705.404 4                     -3404.996 4        29.261                                                                    26071704.506 6 102310964.30806     -2542.783 6        37.493    26071698.259 6 104979926.35406     -2608.998 6        36.631
E04        17.000                                                                                                                                    23212815.673 7  91092141.36607      -562.300 7        46.631    23212815.672 7  93468388.05007      -576.904 7        46.490
R08        18.000    21238462.107 7 113731017.87507     -3644.479 7        42.817                                                                    21238460.231 5  88457435.11305     -2834.589 5        34.762
E19        20.000    25419978.138 5 133582890.23115     -2958.165 5        35.095                                                                    25419996.250 3                     -2208.447 3        18.358    25419975.255 5 102355682.61505     -2266.767 5        35.843
E09        21.000    25601059.108 6 134534475.45206      1180.187 6        38.303                                                                    25601059.997 6 100464061.33006       881.481 6        41.540    25601055.149 6 103084873.32306       904.479 6        36.839
E36        22.000    25981993.470 5 136536313.77415     -1123.114 5        31.638                                                                                                                                    25981986.569 4                      -860.558 4        24.451
S23        24.000    38056388.351 7 199987618.41307      -848.710 7        44.835
G11        25.000    23563452.861 6 123826798.57806     -3668.250 6        37.887
E34        26.000                                                                                                                                    28292100.963 3                       911.197 3        20.476
R17        27.000                                                                                                                                    22660778.156 4  94315151.15304     -2248.466 4        29.251
R18        28.000    23095953.280 5 123287763.80915       165.463 5        35.710                                                                    23095955.547 4                       128.827 4        28.995
E10        29.000    27437414.874 4                     -4003.403 4        29.621                                                                    27437407.426 6 107670304.47506     -2989.413 6        36.257    27437408.030 6 110479060.17506     -3067.536 6        38.459
R11        30.000    19401711.304 6 103676871.36306       169.210 6        40.300                                                                    19401710.692 5  80637557.76605       131.473 5        35.300
C20        31.000                                                                                                                                    23842088.338 5 124151946.56705     -3372.978 5        34.990                                                                    23842079.822 6 100883637.41606     -2740.868 6        39.456
R10        32.000    21282904.343 4 113449877.78804     -3980.146 4        29.062
C36        34.000                                                                                                                                    23857791.440 7 124233776.79107      2244.090 7        43.740                                                                    23857789.340 5                      1823.466 5        30.566
R02        35.000    21897266.936 6 116848036.00806      2473.962 6        41.774                                                                    21897266.544 7  90881959.31007      1924.117 7        42.809
R12        38.000    22444774.486 7 119895996.88507      3543.487 7        43.285                                                                    22444778.626 6  93252419.85806      2756.182 6        36.726
C05        40.000                                                                                                                                                                                                    39169499.724 5 157719347.89015      -700.851 5        32.263
C37        42.000                                                                                                                                    24390347.551 4 127006945.79514     -3338.760 4        29.829
R01        44.000    19190146.796 7 102582344.74507      -114.591 7        45.103                                                                    19190147.706 6  79786249.50706       -89.193 6        40.291
C09        47.000                                                                                                                                    39722691.955 3                     -1636.609 3        18.060    39722671.949 6 159946717.46106     -1264.626 6        39.970
C19        48.000                                                                                                                                    21723355.237 8 113119371.25608      -951.107 8        51.719                                                                    21723350.510 8  91918606.08208      -772.808 8        50.469
C22        51.000                                                                                                                                    23529759.772 7 122525625.97907      1710.910 7        44.722                                                                    23529754.207 7  99562111.00207      1390.183 7        44.951
C44        52.000                                                                                                                                    26578261.364 4                     -2882.940 4        29.981
C12        54.000                                                                                                                                    26408126.205 5                     -1947.194 5        31.509    26408112.839 6 106334635.89806     -1505.392 6        38.510
I09        59.000    38620953.124 5 151556944.87105     -1182.373 5        33.629
> 2025 01 02 06 17 40.0000000  0 36
G20         4.000    20582031.230 7 108159369.86107      -634.912 7        45.266                                    20582024.349 4  84279981.31904      -494.729 4        28.417
G07         5.000    21022099.427 7 110471901.06107     -2087.810 7        43.930                                    21022094.092 6  86082008.84106     -1626.847 6        39.171    21022094.037 6  86081954.84106     -1627.093 6        40.560
G09         6.000    22458137.833 6 118018291.33006     -3665.609 6        39.556                                    22458142.328 3  91962318.63903     -2856.246 3        19.881
G30         7.000    20513441.562 7 107798877.46107       153.715 7        47.472                                    20513438.214 8  83999046.98008       119.782 8        48.994    20513438.649 7  83999094.98207       119.716 7        44.817
E21        10.000    25730244.655 6 135213392.50406     -1308.321 6        40.045                                                                    25730245.033 7 100971012.19607      -977.037 7        46.204    25730244.049 7 103605055.18807     -1002.521 7        42.237
E06        11.000    23850143.312 6 125333333.98806       412.962 6        40.372                                                                    23850143.469 7  93593158.80007       308.309 7        47.413    23850142.895 7  96034660.22607       316.315 7        47.402
G05        14.000    22013130.494 7 115680058.47207      1690.224 7        43.236                                    22013128.248 6  90140281.44706      1317.083 6        37.236    22013127.489 7  90140091.45607      1317.160 7        44.179
E11        16.000    26074946.901 5                     -3406.663 5        30.604                                                                    26074944.595 6 102323681.29706     -2543.999 6        36.495    26074938.862 5 104992975.09705     -2610.227 5        33.449
E04        17.000    23213549.252 5 121987984.71805      -754.158 5        31.087                                                                    23213533.142 7  91094955.29607      -563.205 7        47.187    23213532.347 7  93471275.40907      -577.899 7        46.361
R08        18.000    21241865.894 7 113749245.46707     -3646.471 7        43.160                                                                    21241863.779 5  88471612.12605     -2836.339 5        34.076
E19        20.000    25422789.402 5 133597682.46905     -2958.693 5        35.543                                                                    25422820.116 3                     -2209.964 3        23.867    25422791.551 6 102367016.94206     -2267.156 6        36.783
E09        21.000    25599936.636 6 134528575.66206      1179.585 6        39.000                                                                    25599936.584 6 100459655.65106       880.849 6        40.617    25599933.981 6 103080352.66406       903.829 6        36.749
E36        22.000                                                                                                                                                                                                    25983060.411 3                      -862.659 3        23.848
S23        24.000    38057193.364 6 199991862.08706      -848.789 6        41.592
G11        25.000    23566942.854 6 123845144.13406     -3669.983 6        37.750
E34        26.000    28290928.086 5                      1220.038 5        30.491                                                                    28290939.258 4                       911.144 4        24.842    28290955.643 4                       934.949 4        24.647
R17        27.000    22663492.339 5 121276938.00805     -2894.512 5        30.030                                                                    22663486.903 5  94326400.63305     -2251.271 5        31.608
R18        28.000    23095808.993 5                       161.906 5        31.321                                                                    23095800.467 3                       128.461 3        20.214
E10        29.000    27441224.513 4 144204618.32114     -4003.753 4        27.365                                                                    27441217.903 6 107685253.08506     -2989.833 6        36.567    27441217.753 6 110494398.73906     -3067.786 6        38.571
R11        30.000    19401556.633 7 103676038.09707       164.383 7        44.375                                                                    19401555.271 6  80636909.65906       127.970 6        37.811
C20        31.000                                                                                                                                    23845331.918 6 124168815.40706     -3374.506 6        39.018                                                                    23845318.350 6 100897344.57406     -2742.206 6        40.138
R10        32.000    21286636.427 5 113469787.77405     -3983.261 5        33.713
C36        34.000                                                                                                                                    23855634.830 6 124222560.59506      2242.507 6        39.024                                                                    23855639.898 5                      1822.335 5        33.713
R02        35.000    21894947.026 5 116835669.19405      2472.719 5        35.410                                                                    21894948.618 6  90872340.66006      1923.417 6        41.723
S36        36.000    38121549.032 6 200330105.99816      -851.627 6        38.649
R12        38.000    22441458.477 6 119878283.45006      3542.066 6        40.729                                                                    22441461.489 5  93238642.75705      2754.601 5        35.581
C05        40.000                                                                                                                                                                                                    39170369.964 5 157722850.96505      -700.891 5        34.648
C37        42.000                                                                                                                                                                                                                                                                    24393550.825 5                     -2714.070 5        32.210
R01        44.000    19190255.302 7 102582925.23407      -117.493 7        45.130                                                                    19190255.291 6  79786701.01706       -91.373 6        40.112
C09        47.000                                                                                                                                                                                                    39724245.271 6 159953040.57406     -1264.587 6        41.647
C19        48.000                                                                                                                                    21724269.506 8 113124132.65408      -953.413 8        52.374                                                                    21724264.902 8  91922475.11608      -774.829 8        50.997
C34        49.000                                                                                                                                    26634019.688 4                      -938.841 4        24.857
C22        51.000                                                                                                                                    23528118.288 7 122517074.39807      1709.726 7        44.844                                                                    23528112.401 7  99555162.15507      1389.275 7        45.567
C44        52.000                                                                                                                                    26581031.418 5 138414474.79815     -2883.370 5        30.294
C12        54.000                                                                                                                                    26409994.898 5 137523775.90715     -1949.638 5        32.036    26409979.280 6 106342168.02206     -1507.586 6        36.616
I09        59.000    38622459.395 5 151562856.70505     -1182.637 5        33.383
> 2025 01 02 06 17 45.0000000  0 37
G13         1.000    23065251.737 4 121208691.33304      2252.005 4        28.663
G20         4.000    20582638.382 7 108162552.77307      -638.345 7        46.471                                    20582629.275 4  84282461.52404      -497.394 4        28.341
G07         5.000    21024086.897 7 110482345.53507     -2090.026 7        42.038                                    21024081.353 6  86090147.40906     -1628.591 6        38.033    21024081.737 6  86090093.40806     -1628.558 6        40.953
G09         6.000    22461625.856 6 118036622.03706     -3666.832 6        40.269                                    22461631.343 3  91976602.36303     -2857.290 3        18.537
G30         7.000    20513296.363 8 107798115.14708       151.132 8        48.856                                    20513293.029 8  83998452.97808       117.764 8        48.797    20513293.545 7  83998500.98107       117.740 7        45.053
E21        10.000    25731490.389 6 135219940.66006     -1311.099 6        37.172                                                                    25731490.782 7 100975902.05107      -979.023 7        45.503    25731491.183 7 103610072.59107     -1004.574 7        42.999
E06        11.000    23849750.044 6 125331272.39606       411.352 6        36.866                                                                    23849751.098 7  93591619.23007       307.433 7        46.771    23849750.119 7  96033080.50107       315.457 7        47.138
G05        14.000    22011522.641 7 115671613.06107      1687.754 7        43.363                                    22011521.447 6  90133700.58906      1315.136 6        38.402    22011520.578 7  90133510.61107      1315.150 7        44.047
E11        16.000    26078190.549 3                     -3408.230 3        23.924                                                                    26078186.269 6 102336403.71706     -2545.077 6        36.265    26078180.886 5 105006029.45605     -2611.316 5        33.042
E04        17.000                                                                                                                                    23214251.744 7  91097773.73007      -564.179 7        46.550    23214250.560 7  93474167.36207      -578.956 7        46.143
R08        18.000    21245271.807 6 113767482.98406     -3648.607 6        40.963                                                                    21245269.762 6  88485796.84106     -2837.862 6        37.013
E19        20.000    25425603.015 4 133612477.96704     -2959.873 4        29.213                                                                                                                                    25425607.338 6 102378353.73806     -2267.714 6        36.979
E09        21.000    25598814.733 6 134522678.93306      1178.936 6        39.072                                                                    25598814.159 6 100455252.23906       880.290 6        39.742    25598809.608 6 103075834.36006       903.272 6        37.716
E36        22.000    25984128.889 4 136547575.26904     -1128.682 4        24.511                                                                                                                                    25984137.804 4                      -864.918 4        27.665
S23        24.000    38057995.609 6 199996106.42206      -849.097 6        40.439
G11        25.000    23570435.906 6 123863498.00106     -3671.611 6        38.390
E34        26.000    28289771.680 6 148663741.44016      1217.985 6        36.457                                                                    28289776.010 3                       909.942 3        23.962
R17        27.000                                                                                                                                    22666192.546 5  94337664.55505     -2254.018 5        30.989
R18        28.000                                                                                                                                    23095657.800 5  95889238.66515       122.152 5        34.000
E10        29.000    27445031.684 4 144224638.15804     -4004.111 4        28.550                                                                    27445027.708 6 107700202.96706     -2990.198 6        36.684    27445027.287 6 110509738.64106     -3068.401 6        39.117
R11        30.000    19401406.277 7 103675227.50207       159.646 7        44.089                                                                    19401402.500 5  80636279.14705       124.270 5        33.180
C20        31.000                                                                                                                                    23848570.876 5 124185691.13005     -3376.142 5        35.552                                                                    23848558.781 6 100911057.51506     -2743.077 6        40.794
R10        32.000    21290376.314 5 113489713.10305     -3986.987 5        33.072
C36        34.000                                                                                                                                    23853483.291 6 124211350.90906      2241.132 6        39.895                                                                    23853489.835 5 100931912.18415      1821.260 5        34.176
R02        35.000    21892631.311 6                      2472.357 6        36.147                                                                    21892632.217 6  90862725.03416      1922.734 6        41.423
S36        36.000    38122355.484 6 200334365.42106      -852.108 6        39.228
R12        38.000    22438142.446 7 119860576.73607      3540.470 7        42.423                                                                    22438148.410 5  93224870.88205      2754.036 5        32.904
C05        40.000                                                                                                                                                                                                    39171239.261 5 157726354.58505      -700.939 5        32.796
C37        42.000                                                                                                                                    24396786.081 5 127040346.58515     -3341.761 5        30.596                                                                    24396754.170 5                     -2715.578 5        32.012
R24        43.000                                                                                                                                    24314561.809 3                     -3693.878 3        23.562
R01        44.000    19190366.563 7 102583519.59507      -120.515 7        45.529                                                                    19190366.681 6  79787163.30806       -93.673 6        39.844
C09        47.000                                                                                                                                    39725830.811 4                     -1635.291 4        29.668    39725817.509 6 159959363.88506     -1264.716 6        40.346
C19        48.000                                                                                                                                    21725186.194 8 113128904.95308      -955.621 8        51.596                                                                    21725181.306 8  91926352.98408      -776.433 8        50.511
C22        51.000                                                                                                                                    23526476.570 7 122508527.89207      1708.691 7        44.671                                                                    23526470.637 7  99548217.40007      1388.623 7        45.979
C44        52.000                                                                                                                                    26583802.849 5 138428897.07105     -2885.401 5        33.958
C12        54.000                                                                                                                                    26411867.124 5 137533529.18705     -1952.369 5        34.338    26411857.778 6 106349709.88906     -1509.250 6        38.138    26411872.259 4                     -1586.060 4        29.384
I09        59.000    38623964.732 5 151568769.59305     -1182.651 5        32.922
