     3.04           OBSERVATION DATA    M                   RINEX VERSION / TYPE
ssrcrin-15.6.1x                         20250102 160000 UTC PGM / RUN BY / DATE 
(00000000023479385599111004) Septentrio proprietary         COMMENT             
ract                                                        MARKER NAME         
01                                                          MARKER NUMBER       
geodetic                                                    MARKER TYPE         
NFB                 CLIMERS@TUW                             OBSERVER / AGENCY   
3296359             SEPT ASTERX SB3 PROB4.14.4              REC # / TYPE / VERS 
Unknown             Unknown                                 ANT # / TYPE        
  4127447.4715  1206915.1145  4695542.4518                  APPROX POSITION XYZ 
        0.0000        0.0000        0.0000                  ANTENNA: DELTA H/E/N
G   23 X1  C1C L1C D1C S1C C1W S1W C2W L2W D2W S2W C2L L2L  SYS / # / OBS TYPES 
       D2L S2L C5Q L5Q D5Q S5Q C1L L1L D1L S1L              SYS / # / OBS TYPES 
E   21 X1  C1C L1C D1C S1C C6C L6C D6C S6C C5Q L5Q D5Q S5Q  SYS / # / OBS TYPES 
       C7Q L7Q D7Q S7Q C8Q L8Q D8Q S8Q                      SYS / # / OBS TYPES 
S    9 X1  C1C L1C D1C S1C C5I L5I D5I S5I                  SYS / # / OBS TYPES 
R   17 X1  C1C L1C D1C S1C C2P L2P D2P S2P C2C L2C D2C S2C  SYS / # / OBS TYPES 
       C3Q L3Q D3Q S3Q                                      SYS / # / OBS TYPES 
C   25 X1  C1P L1P D1P S1P C5P L5P D5P S5P C2I L2I D2I S2I  SYS / # / OBS TYPES 
       C7I L7I D7I S7I C6I L6I D6I S6I C7D L7D D7D S7D      SYS / # / OBS TYPES 
J   17 X1  C1C L1C D1C S1C C2L L2L D2L S2L C5Q L5Q D5Q S5Q  SYS / # / OBS TYPES 
       C1L L1L D1L S1L                                      SYS / # / OBS TYPES 
I    5 X1  C5A L5A D5A S5A                                  SYS / # / OBS TYPES 
SEPTENTRIO RECEIVERS OUTPUT ALIGNED CARRIER PHASES.         COMMENT             
NO FURTHER PHASE SHIFT APPLIED IN THE RINEX ENCODER.        COMMENT             
G L1C                                                       SYS / PHASE SHIFT   
G L2W                                                       SYS / PHASE SHIFT   
G L2L  0.00000                                              SYS / PHASE SHIFT   
G L5Q  0.00000                                              SYS / PHASE SHIFT   
G L1L  0.00000                                              SYS / PHASE SHIFT   
E L1C  0.00000                                              SYS / PHASE SHIFT   
E L6C  0.00000                                              SYS / PHASE SHIFT   
E L5Q  0.00000                                              SYS / PHASE SHIFT   
E L7Q  0.00000                                              SYS / PHASE SHIFT   
E L8Q  0.00000                                              SYS / PHASE SHIFT   
S L1C                                                       SYS / PHASE SHIFT   
S L5I                                                       SYS / PHASE SHIFT   
R L1C                                                       SYS / PHASE SHIFT   
R L2P  0.00000                                              SYS / PHASE SHIFT   
R L2C                                                       SYS / PHASE SHIFT   
R L3Q  0.00000                                              SYS / PHASE SHIFT   
C L1P  0.00000                                              SYS / PHASE SHIFT   
C L5P  0.00000                                              SYS / PHASE SHIFT   
C L2I                                                       SYS / PHASE SHIFT   
C L7I                                                       SYS / PHASE SHIFT   
C L6I                                                       SYS / PHASE SHIFT   
C L7D                                                       SYS / PHASE SHIFT   
J L1C                                                       SYS / PHASE SHIFT   
J L2L  0.00000                                              SYS / PHASE SHIFT   
J L5Q  0.00000                                              SYS / PHASE SHIFT   
J L1L  0.00000                                              SYS / PHASE SHIFT   
I L5A                                                       SYS / PHASE SHIFT   
  2025     1     2    16     0    0.0000000     GPS         TIME OF FIRST OBS   
 C1C    0.000 C2C    0.000 C2P    0.000                     GLONASS COD/PHS/BIS 
DBHZ                                                        SIGNAL STRENGTH UNIT
    18                                                      LEAP SECONDS        
 24 R01  1 R02 -4 R03  5 R04  6 R05  1 R06 -4 R07  5 R08  6 GLONASS SLOT / FRQ #
    R09 -2 R10 -7 R11  0 R12 -1 R13 -2 R14 -7 R15  0 R16 -1 GLONASS SLOT / FRQ #
    R17  4 R18 -3 R19  3 R20  2 R21  4 R22 -3 R23  3 R24  2 GLONASS SLOT / FRQ #
                                                            END OF HEADER       
> 2025 01 02 16 00  0.0000000  0 40
G11         2.000                                                                                                                                                                    24385730.427 4                     -3183.149 4        28.313
G25         3.000    20874376.096 6 109695756.75806     -3206.603 6        40.942                                    20874379.108 6  85477199.83106     -2498.649 6        37.558    20874378.759 6  85477118.78606     -2498.634 6        40.567
G05         4.000    23651738.245 4                      1397.491 4        26.192
E25         6.000    23668101.692 7 124376772.14707     -2029.545 7        47.035                                                                    23668104.572 8  92878890.30408     -1515.563 8        48.804    23668104.282 8  95301713.31308     -1555.111 8        50.309
G31         7.000    21620763.967 6 113618074.78406      -176.243 6        36.707                                                                                                    21620762.735 6  88533487.47106      -137.190 6        36.333
G28         8.000    21382984.659 6 112368470.15606     -1957.108 6        40.918                                    21382982.668 4  87559746.58104     -1525.019 4        24.827    21382984.457 5  87559864.59005     -1525.095 5        35.848
G29         9.000    20274544.764 8 106543528.55608     -1223.760 8        48.526                                    20274538.973 6  83020935.49006      -953.588 6        36.068    20274541.932 5  83020887.50005      -953.308 5        33.467
E11        10.000    23895901.440 6 125573811.46006     -1037.196 6        38.345                                                                    23895900.580 7  93772645.78807      -774.440 7        42.768    23895899.622 6  96218940.32806      -794.553 6        39.387
E10        11.000                                                                                                                                    25321850.245 6  99368414.73906     -1909.694 6        38.327    25321852.428 7 101960571.14307     -1959.402 7        47.044
G18        12.000    22591135.581 6 118717296.10606      2402.095 6        37.233                                    22591136.857 2  92506987.42802      1871.747 2        14.143    22591139.149 5  92507063.41805      1871.637 5        35.052
E12        13.000    27335254.698 4                     -3456.385 4        24.511                                                                                                                                    27335242.394 4 110067678.25404     -2648.759 4        28.692
G04        14.000    25082620.046 4 131810121.34204      -332.328 4        25.218                                                                                                    25082622.633 3                      -259.892 3        20.810
G12        15.000    24301048.957 4                     -4325.792 4        24.000
G26        17.000    22497064.121 6 118222853.08406      2099.232 6        39.444                                    22497058.647 3  92121735.09503      1635.761 3        22.152    22497059.582 4  92121730.06004      1635.853 4        29.848
E07        18.000    27772274.424 5 145944301.43305     -1349.823 5        34.629                                                                    27772286.030 7 108984419.17907     -1008.016 7        42.199    27772283.046 6 111827505.24506     -1034.379 6        40.276
E30        19.000                                                                                                                                    28200469.373 5 110664727.06205      1340.715 5        32.144    28200466.916 4                      1376.023 4        29.081
E08        20.000                                                                                                                                    27873716.734 4 109382504.38804     -2409.939 4        28.009
E02        21.000    23736604.115 7 124736691.38507       502.978 7        44.405                                                                    23736604.026 7  93147595.88007       375.619 7        45.619    23736603.691 7  95577542.25707       385.439 7        46.170
S23        22.000    38072790.871 6 200073937.52306      -866.439 6        36.393
E36        24.000    24793457.008 6 130290521.45406      1619.120 6        39.955                                                                    24793462.250 6  97294992.47806      1209.042 6        39.589    24793461.879 7  99833106.20107      1240.640 7        45.481
R18        25.000    19015544.798 8 101506309.15608      -252.529 8        49.618                                                                    19015545.863 7  78949339.38307      -196.432 7        43.937
S21        27.000    38351904.994 5 201540717.78905      -862.385 5        35.071
R19        29.000    21234169.472 6 113588488.73806      2679.488 6        36.132                                                                    21234174.622 5  88346615.75005      2083.705 5        30.664
R15        30.000    21025585.107 6 112354383.06306     -4218.975 6        37.539
S36        31.000    38123177.923 6 200338650.84206      -862.538 6        36.091
R16        34.000    19025636.689 8 101632135.44908      -468.176 8        48.735                                                                    19025636.758 7  79046906.03607      -364.190 7        43.649
C44        35.000                                                                                                                                    21224972.146 8 110524310.21308      -949.050 8        49.011                                                                    21224972.366 7  89809961.92907      -771.087 7        47.014
R17        36.000    20456880.882 7 109469303.04807     -3852.647 7        43.924                                                                    20456879.871 6  85142528.02506     -2996.573 6        40.315
R09        37.000    21887341.285 5 116877185.12705      2902.129 5        32.299                                                                    21887327.388 6  90904444.89806      2257.087 6        41.619
C12        41.000                                                                                                                                    21974536.869 7 114427233.89507       564.516 7        46.237    21974534.372 8  88482397.39508       436.556 8        50.473    21974533.216 7  92981485.77207       458.878 7        45.794
C35        42.000                                                                                                                                    23496513.576 8 122352494.21608     -3383.494 8        49.508                                                                    23496513.136 7  99421464.80007     -2749.224 7        42.315
C05        43.000                                                                                                                                                                                                    39324285.815 4                      -623.653 4        29.697
C38        44.000                                                                                                                                    38747383.167 6 201767787.69906      -119.804 6        38.219                                                                    38747382.309 6 163952855.49306       -97.297 6        37.607
C25        45.000                                                                                                                                    23042938.678 7 119990619.86107      1273.769 7        46.776                                                                    23042937.728 7  97502394.50007      1035.129 7        43.088
C08        46.000                                                                                                                                    38424439.786 6 200086163.75806       503.408 6        39.498    38424581.393 4 154719331.03704       389.115 4        24.421    38424432.621 5 162586367.69905       409.278 5        30.762
C26        48.000                                                                                                                                    24680057.126 5 128515568.80705     -4065.448 5        33.030                                                                    24680064.957 5 104429400.94305     -3303.334 5        32.335
C24        51.000                                                                                                                                    21520778.375 6 112064368.70206     -1885.828 6        41.738                                                                    21520779.227 7  91061542.94807     -1532.223 7        45.544
C34        52.000                                                                                                                                    23416319.796 6 121934924.64106      1816.371 6        40.129                                                                    23416348.403 5  99082183.01605      1476.315 5        33.503
I06        58.000    38609073.601 5 151510361.91505      -686.640 5        32.874
I02        59.000    37810148.946 6 148375171.26306     -1080.842 6        36.295
> 2025 01 02 16 00  5.0000000  0 42
G20         1.000    23507415.418 4                      -882.471 4        26.886
G11         2.000                                                                                                                                                                    24389620.824 4                     -3184.643 4        28.597
G25         3.000    20877428.396 7 109711795.16407     -3209.003 7        42.637                                    20877431.362 6  85489697.27806     -2500.521 6        37.418    20877431.281 6  85489616.24206     -2500.512 6        40.446
G05         4.000    23650404.669 4                      1395.142 4        28.588
E25         6.000    23670033.583 7 124386923.47207     -2031.214 7        46.855                                                                    23670036.277 8  92886470.84108     -1516.734 8        48.846    23670036.016 8  95309491.60708     -1556.349 8        50.413
G31         7.000    21620932.641 5 113618963.75205      -179.539 5        34.609                                                                                                    21620931.074 5  88534180.20205      -139.744 5        35.862
G28         8.000    21384848.210 6 112378263.93106     -1960.536 6        39.856                                    21384845.157 3  87567378.11103     -1527.695 3        23.162    21384847.156 5  87567496.13005     -1527.928 5        34.286
G29         9.000    20275710.189 8 106549652.99008     -1226.173 8        48.098                                    20275703.853 5  83025707.77505      -955.459 5        35.295    20275707.080 5  83025659.79805      -955.680 5        33.210
E11        10.000    23896889.714 6 125579002.38406     -1039.742 6        37.796                                                                    23896888.490 7  93776522.15107      -776.363 7        43.031    23896887.120 6  96222917.80606      -796.662 6        39.012
E10        11.000                                                                                                                                    25324284.836 6  99377966.54906     -1911.295 6        38.739    25324286.277 7 101970372.14307     -1961.151 7        46.955
G18        12.000    22588852.422 6 118705289.22006      2400.186 6        36.786                                    22588852.122 2  92497631.45802      1870.253 2        14.286    22588856.203 6  92497707.45806      1870.158 6        36.352
E12        13.000    27338543.138 4                     -3457.415 4        24.361                                                                                                                                    27338531.361 4 110080922.60304     -2649.604 4        27.665
G04        14.000                                                                                                                                                                    25082943.132 4                      -260.996 4        24.617
G12        15.000    24305166.990 3                     -4327.654 3        22.609
G26        17.000    22495066.444 6 118212359.37306      2097.881 6        37.743                                    22495061.468 3  92113558.24603      1634.698 3        22.000    22495063.006 5  92113553.27305      1634.476 5        30.219
E07        18.000    27773560.825 5 145951056.62005     -1352.366 5        33.898                                                                    27773571.927 7 108989463.63707     -1009.947 7        42.343    27773568.837 6 111832681.29006     -1036.253 6        39.793
E30        19.000    28198740.804 3                      1797.814 3        22.286                                                                    28198761.147 5 110658022.67305      1340.940 5        31.494    28198760.630 4                      1375.774 4        29.393
E08        20.000                                                                                                                                    27876791.568 4 109394553.85804     -2410.202 4        28.645
E02        21.000    23736125.390 7 124734179.10707       501.644 7        44.460                                                                    23736126.073 7  93145719.84607       374.596 7        45.980    23736125.429 7  95575617.27507       384.416 7        45.980
S23        22.000    38073613.520 6 200078269.96006      -866.708 6        36.544
R08        23.000    23774165.754 4                     -1703.827 4        24.316
E36        24.000    24791918.283 6 130282430.18306      1617.280 6        41.280                                                                    24791922.356 6  97288950.33306      1207.615 6        39.234    24791921.725 7  99826906.39807      1239.258 7        45.561
R18        25.000    19015783.511 8 101507581.77908      -256.726 8        49.690                                                                    19015784.602 7  78950329.21307      -199.671 7        44.489
S21        27.000    38352721.338 5 201545029.53405      -862.432 5        34.971
R19        29.000    21231666.602 6 113575096.59806      2676.933 6        36.594                                                                    21231670.257 4  88336199.62204      2082.245 4        29.972
R15        30.000    21029533.124 5 112375483.68205     -4221.555 5        34.514                                                                    21029509.885 6  87403081.25116     -3283.544 6        39.048
S36        31.000    38123998.582 6 200342963.25906      -862.520 6        36.333
R16        34.000    19026077.035 8 101634486.00308      -472.191 8        48.594                                                                    19026076.919 7  79048734.23907      -367.175 7        43.418
C44        35.000                                                                                                                                    21225884.202 8 110529061.14408      -951.572 8        48.832                                                                    21225884.759 7  89813822.45707      -773.185 7        47.015
R17        36.000    20460481.025 7 109488572.36607     -3855.232 7        42.095                                                                    20460480.669 6  85157515.28606     -2998.492 6        39.982
R09        37.000    21884620.284 3                      2899.762 3        19.672                                                                    21884611.273 6  90893161.62506      2256.049 6        41.471
C12        41.000                                                                                                                                    21973995.892 7 114424416.39007       562.149 7        45.926    21973993.207 8  88480218.73908       434.733 8        50.418    21973991.825 7  92979196.33707       456.928 7        45.484
C35        42.000                                                                                                                                    23499762.388 8 122369414.34408     -3384.772 8        49.198                                                                    23499762.263 7  99435213.79407     -2750.395 7        42.235
C05        43.000                                                                                                                                                                                                    39325058.681 5                      -622.840 5        30.189
C38        44.000                                                                                                                                    38747499.955 6 201768390.16006      -121.490 6        38.982                                                                    38747498.053 6 163953345.04306       -98.604 6        37.554
C25        45.000                                                                                                                                    23041716.395 7 119984255.72907      1271.680 7        46.080                                                                    23041715.389 7  97497223.12007      1033.368 7        43.132
C08        46.000                                                                                                                                    38423957.234 6 200083649.78006       502.079 6        39.096    38424088.419 3                       389.247 3        22.629    38423949.606 5 162584324.85905       408.335 5        30.740
C26        48.000                                                                                                                                    24683960.845 5 128535899.09205     -4067.010 5        33.096                                                                    24683969.885 5 104445920.96305     -3304.480 5        32.114
C24        51.000                                                                                                                                    21522590.543 6 112073804.08306     -1888.573 6        40.768                                                                    21522591.002 7  91069209.96007     -1534.509 7        45.487
C34        52.000                                                                                                                                    23414576.483 6 121925845.30606      1814.961 6        40.841
I06        58.000    38609947.446 5 151513794.33905      -686.800 5        33.144
I02        59.000    37811526.151 5 148380574.92105     -1080.818 5        35.867
> 2025 01 02 16 00 10.0000000  0 42
G20         1.000    23508250.985 4                      -885.531 4        26.048
G11         2.000                                                                                                                                                                    24393505.447 4                     -3185.331 4        28.379
G25         3.000    20880483.720 7 109727843.58007     -3210.677 7        43.778                                    20880485.431 6  85502202.53906     -2501.823 6        37.463    20880485.260 6  85502121.50906     -2501.864 6        40.844
G05         4.000    23649076.499 4                      1393.105 4        27.521
E25         6.000    23671966.512 7 124397081.52507     -2032.256 7        46.860                                                                    23671969.261 8  92894056.41108     -1517.579 8        49.037    23671969.017 8  95317275.06708     -1557.179 8        50.212
G31         7.000    21621103.328 5 113619869.70905      -182.990 5        31.894                                                                                                    21621103.759 6  88534886.11106      -142.286 6        36.125
G28         8.000    21386715.662 6 112388073.91806     -1963.520 6        39.198                                    21386710.933 3  87575022.27203     -1530.042 3        21.095    21386713.687 5  87575140.30005     -1530.063 5        32.988
G29         9.000    20276877.748 7 106555788.35407     -1228.152 7        47.431                                    20276871.018 5  83030488.56805      -957.004 5        34.771    20276874.627 5  83030440.57105      -956.919 5        34.133
E11        10.000    23897879.656 6 125584205.49206     -1041.758 6        38.480                                                                    23897878.765 7  93780407.60407      -777.913 7        43.287    23897876.960 6  96226904.61506      -798.139 6        38.267
E10        11.000                                                                                                                                    25326721.245 6  99387525.54106     -1912.354 6        38.991    25326722.026 7 101980180.51507     -1962.521 7        46.502
G18        12.000    22586569.185 6 118693290.21806      2399.170 6        36.836                                    22586569.086 2  92488281.64102      1869.468 2        14.810    22586573.321 6  92488357.63906      1869.352 6        37.705
E12        13.000    27341835.160 3                     -3458.221 3        22.743                                                                                                                                    27341820.117 4 110094171.31304     -2650.002 4        26.982
G04        14.000    25083297.093 4 131813470.84304      -337.112 4        26.731                                                                                                    25083262.594 3                      -261.019 3        22.019
G12        15.000    24309287.479 4                     -4327.976 4        24.481
G26        17.000    22493070.204 6 118201871.60106      2097.097 6        36.405                                    22493065.425 3  92105386.02803      1634.091 3        21.310    22493064.622 5  92105381.02405      1634.526 5        30.189
E07        18.000    27774848.322 5 145957823.31305     -1354.377 5        34.824                                                                    27774860.180 7 108994516.67907     -1011.394 7        42.565    27774856.133 6 111837866.15106     -1037.727 6        39.108
E30        19.000                                                                                                                                    28197052.907 4 110651318.12704      1340.533 4        29.810    28197055.542 4                      1375.807 4        29.109
E08        20.000                                                                                                                                    27879864.053 4 109406607.24504     -2411.146 4        28.370
E02        21.000    23735648.466 7 124731672.20007       500.962 7        44.235                                                                    23735649.027 7  93143847.82807       374.047 7        46.237    23735648.318 7  95573696.41707       383.813 7        45.642
S23        22.000    38074442.898 6 200082602.17706      -866.206 6        36.968
R08        23.000    23775767.149 4                     -1708.086 4        28.986                                                                    23775764.422 4                     -1328.478 4        28.512
E36        24.000    24790380.587 6 130274346.92506      1615.953 6        41.907                                                                    24790383.856 6  97282914.14606      1206.537 6        38.997    24790383.359 7  99820712.74207      1238.120 7        45.094
R18        25.000    19016025.122 8 101508874.28508      -260.371 8        49.958                                                                    19016026.990 7  78951334.50907      -202.590 7        44.491
S21        27.000    38353545.686 5 201549341.13105      -862.189 5        35.100
R19        29.000    21229162.178 5 113561716.24205      2675.028 5        35.710                                                                    21229169.547 4  88325792.77604      2080.342 4        27.425
R15        30.000    21033482.906 5 112396595.97005     -4223.438 5        34.995                                                                    21033470.072 6  87419501.83506     -3284.983 6        39.501
S36        31.000    38124818.454 6 200347275.34706      -862.067 6        36.397
R16        34.000    19026519.503 7 101636855.17807      -475.636 7        47.959                                                                    19026520.517 7  79050576.93807      -369.970 7        43.845
C44        35.000                                                                                                                                    21226798.789 8 110533823.21308      -953.411 8        49.044                                                                    21226799.245 7  89817692.01807      -774.689 7        47.025
R17        36.000    20464083.482 7 109507853.48507     -3857.414 7        42.899                                                                    20464083.987 6  85172511.68106     -2999.983 6        40.539
R09        37.000                                                                                                                                    21881896.355 6  90881882.94016      2255.339 6        41.661
C12        41.000                                                                                                                                    21973455.443 7 114421609.53007       560.309 7        45.068    21973454.039 8  88478048.30908       433.270 8        50.217    21973452.479 7  92976915.54107       455.406 7        45.348
C35        42.000                                                                                                                                    23503012.105 8 122386339.88508     -3385.564 8        48.629                                                                    23503012.598 6  99448967.17306     -2750.937 6        41.933
C05        43.000                                                                                                                                                                                                    39325833.108 5                      -622.816 5        30.181
C38        44.000                                                                                                                                    38747616.699 6 201768997.83306      -121.990 6        39.529                                                                    38747614.872 6 163953838.83706       -99.162 6        37.611
C25        45.000                                                                                                                                    23040496.117 7 119977900.60107      1270.201 7        45.359                                                                    23040494.790 7  97492059.05507      1032.137 7        43.145
C08        46.000                                                                                                                                    38423475.692 6 200081140.94806       501.283 6        38.637                                                                    38423467.606 5 162582286.28105       407.368 5        30.234
C26        48.000                                                                                                                                    24687864.349 5 128556233.92905     -4067.283 5        32.036                                                                    24687875.268 5 104462444.68205     -3304.801 5        32.251
C24        51.000                                                                                                                                    21524405.178 6 112083251.85106     -1890.615 6        39.901                                                                    21524405.168 7  91076887.03207     -1536.324 7        45.567
C34        52.000                                                                                                                                    23412833.919 6 121916772.60806      1813.932 6        41.449                                                                    23412839.006 6  99067432.89706      1474.199 6        36.628
I06        58.000    38610822.873 5 151517226.55605      -686.447 5        33.868
I02        59.000    37812903.981 5 148385979.12605     -1080.886 5        35.843
> 2025 01 02 16 00 15.0000000  0 40
G20         1.000    23509088.914 3                      -888.043 3        23.314
G11         2.000                                                                                                                                                                    24397397.203 4                     -3186.741 4        27.796
G25         3.000    20883538.918 7 109743901.80107     -3212.642 7        43.137                                    20883541.315 6  85514715.44006     -2503.354 6        37.198    20883541.031 6  85514634.40006     -2503.370 6        40.777
E25         6.000    23673901.017 7 124407246.08907     -2033.553 7        46.698                                                                    23673903.575 8  92901646.82908     -1518.535 8        49.282    23673903.264 8  95325063.50208     -1558.141 8        50.254
G31         7.000    21621278.521 5 113620792.36405      -186.231 5        31.608                                                                                                    21621279.985 6  88535605.08106      -145.090 6        37.595
G28         8.000    21388586.634 6 112397899.95606     -1966.918 6        37.486                                    21388579.736 3  87582678.92403     -1532.686 3        19.522    21388584.010 5  87582796.93105     -1532.555 5        32.491
G29         9.000    20278047.291 7 106561934.40607     -1230.234 7        46.836                                    20278040.535 5  83035277.68305      -958.619 5        34.267    20278045.460 5  83035229.71605      -958.723 5        34.957
E11        10.000    23898871.847 6 125589420.52006     -1044.079 6        39.240                                                                    23898871.200 7  93784301.95407      -779.692 7        43.318    23898868.923 6  96230900.54406      -799.942 6        37.671
E10        11.000    25329157.103 6 133105621.15816     -2562.816 6        37.025                                                                    25329159.231 6  99397091.54306     -1913.790 6        39.547    25329159.495 7 101989996.06107     -1963.837 7        46.080
G18        12.000    22584287.733 6 118681298.96106      2397.521 6        36.968                                    22584287.593 2  92478937.80902      1868.168 2        14.429    22584291.888 6  92479013.83306      1868.095 6        38.276
E12        13.000    27345126.158 3                     -3460.689 3        22.686                                                                                                                                    27345111.021 4 110107424.35404     -2651.155 4        26.168
G12        15.000    24313409.479 4                     -4328.492 4        25.383
G26        17.000    22491076.660 5 118191389.52805      2095.808 5        34.771                                    22491070.666 3  92097218.23003      1633.084 3        19.373    22491071.340 5  92097213.27105      1633.096 5        30.294
E07        18.000    27776137.742 5 145964601.25305     -1356.398 5        34.067                                                                    27776150.876 7 108999578.14007     -1013.141 7        42.969    27776146.038 6 111843059.65406     -1039.625 6        38.456
E30        19.000                                                                                                                                    28195344.560 4 110644613.10004      1341.333 4        28.019    28195349.922 4                      1376.115 4        28.597
E08        20.000    27882957.089 4                     -3229.842 4        29.791                                                                    27882933.173 4 109418664.20604     -2411.733 4        28.872
E02        21.000    23735172.236 7 124729170.47407       499.772 7        43.585                                                                    23735173.029 7  93141979.66007       373.290 7        46.435    23735172.195 7  95571779.51307       382.980 7        45.573
S23        22.000    38075265.757 6 200086934.33106      -866.327 6        36.847
R08        23.000    23777371.370 4                     -1711.971 4        26.719                                                                    23777355.927 4                     -1331.493 4        28.986
E36        24.000    24788843.131 6 130266271.43106      1614.484 6        41.983                                                                    24788846.788 6  97276883.76206      1205.463 6        38.694    24788846.444 7  99814525.04207      1236.921 7        44.951
R18        25.000    19016271.247 8 101510186.36808      -264.383 8        50.487                                                                    19016272.847 7  78952355.01307      -205.652 7        44.507
S21        27.000    38354364.364 5 201553652.36605      -862.223 5        35.510
R19        29.000    21226661.574 5 113548347.64105      2672.328 5        34.643                                                                    21226659.773 3                      2078.314 3        21.214
R15        30.000    21037434.234 5 112417719.57605     -4225.928 5        32.844                                                                    21037423.327 6  87435931.30806     -3286.736 6        38.679
S36        31.000    38125643.017 6 200351586.37706      -862.230 6        36.858
R16        34.000    19026965.657 7 101639242.83807      -479.373 7        46.745                                                                    19026967.815 7  79052434.01307      -372.839 7        43.884
C44        35.000                                                                                                                                    21227715.085 8 110538596.17608      -955.584 8        49.305                                                                    21227715.780 7  89821570.48707      -776.615 7        47.209
R17        36.000    20467690.412 7 109527146.20007     -3859.608 7        43.848                                                                    20467690.069 6  85187517.13706     -3002.059 6        41.642
R09        37.000                                                                                                                                    21879181.816 7  90870608.70107      2254.432 7        42.218
C12        41.000                                                                                                                                    21972917.292 7 114418813.10307       558.252 7        44.477    21972917.094 8  88475885.94708       431.724 8        50.057    21972915.490 7  92974643.27407       453.565 7        45.202
C35        42.000                                                                                                                                    23506262.710 7 122403270.61007     -3386.607 7        47.939                                                                    23506263.724 6  99462724.81906     -2752.017 6        41.754
C05        43.000                                                                                                                                                                                                    39326606.770 5                      -622.859 5        30.166
C38        44.000                                                                                                                                    38747733.726 6 201769610.55606      -122.914 6        40.243                                                                    38747732.505 6 163954336.77306      -100.106 6        37.554
C25        45.000                                                                                                                                    23039277.058 7 119971554.27707      1268.449 7        43.602                                                                    23039275.688 7  97486902.19007      1030.716 7        42.764
C08        46.000                                                                                                                                    38422994.738 6 200078637.13106       500.325 6        38.520                                                                    38422986.557 4 162580251.68704       406.632 4        29.640
C26        48.000                                                                                                                                    24691770.338 5 128576573.12105     -4067.849 5        30.189                                                                    24691781.562 5 104478971.96405     -3305.796 5        31.608
C24        51.000                                                                                                                                    21526222.451 6 112092711.77506     -1893.170 6        40.341                                                                    21526221.989 7  91084574.02407     -1538.402 7        45.812
C34        52.000                                                                                                                                    23411092.707 7 121907706.31407      1812.710 7        42.324                                                                    23411091.860 6  99060065.82406      1472.891 6        36.972
I06        58.000    38611696.474 5 151520658.36005      -686.339 5        34.371
I02        59.000    37814280.750 5 148391383.86805     -1080.839 5        35.843
> 2025 01 02 16 00 20.0000000  0 40
G20         1.000    23509928.962 4                      -892.229 4        25.669
G11         2.000    24401306.110 3                     -4091.418 3        23.352                                                                                                    24401289.590 4                     -3188.053 4        25.895
G25         3.000    20886596.279 7 109759970.71307     -3215.208 7        42.487                                    20886599.087 6  85527236.66506     -2505.357 6        36.786    20886598.016 6  85527155.63006     -2505.302 6        40.200
E25         6.000    23675836.520 7 124417418.06407     -2035.341 7        46.717                                                                    23675839.322 8  92909242.79008     -1519.945 8        49.459    23675838.877 8  95332857.62108     -1559.562 8        50.285
G31         7.000    21621460.902 6 113621732.59006      -190.016 6        37.217                                                                                                    21621459.367 6  88536337.78406      -148.160 6        38.204
G28         8.000    21390461.101 5 112407742.91405     -1970.306 5        33.186                                    21390452.098 2  87590348.74502     -1535.299 2        17.208    21390457.003 5  87590466.75805     -1535.470 5        31.389
G29         9.000    20279219.763 7 106568092.06107     -1232.875 7        46.267                                    20279212.695 5  83040075.83705      -960.680 5        34.400    20279216.804 5  83040027.86205      -960.739 5        35.943
E11        10.000    23899866.759 6 125594648.37006     -1047.048 6        40.188                                                                    23899865.968 7  93788205.87507      -781.887 7        43.223    23899863.438 6  96234906.31406      -802.218 6        37.187
E10        11.000    25331597.537 6 133118441.57106     -2565.190 6        38.009                                                                    25331599.158 6  99406665.23306     -1915.742 6        40.257    25331598.668 7 101999819.48807     -1965.607 7        45.621
G18        12.000    22582007.611 6 118669316.29406      2395.473 6        36.042                                    22582007.732 2  92469600.69902      1866.595 2        14.476    22582011.971 6  92469676.72706      1866.531 6        38.799
E12        13.000    27348418.399 3                     -3461.331 3        21.310                                                                                                                                    27348402.970 4 110120682.28604     -2652.500 4        25.549
G04        14.000                                                                                                                                                                    25083901.044 3                      -268.770 3        23.676
G26        17.000    22489082.580 5 118180914.11205      2094.558 5        33.114                                    22489077.556 3  92089055.60803      1632.112 3        18.239    22489083.173 5  92089050.58905      1631.933 5        32.934
E07        18.000    27777428.453 5 145971391.41905     -1359.691 5        33.353                                                                    27777443.675 7 109004648.69007     -1015.050 7        43.191    27777438.250 6 111848262.45806     -1041.449 6        37.524
E30        19.000                                                                                                                                    28193636.019 4 110637908.40804      1341.007 4        26.263    28193644.427 4                      1376.007 4        28.768
E08        20.000    27886032.438 5                     -3230.643 5        31.253                                                                    27886004.391 4 109430725.50504     -2413.052 4        29.005
E02        21.000    23734697.079 7 124726674.80707       498.270 7        42.599                                                                    23734698.067 7  93140116.02507       372.131 7        46.539    23734697.316 7  95569867.24907       381.913 7        45.509
S23        22.000    38076087.212 6 200091267.11006      -866.976 6        36.178
R08        23.000    23778969.332 4                     -1715.052 4        24.241                                                                    23778955.354 4                     -1334.582 4        29.232
E36        24.000    24787307.957 6 130258204.64706      1612.401 6        41.955                                                                    24787311.882 6  97270859.87506      1204.178 6        39.048    24787311.191 7  99808344.00507      1235.392 7        44.721
R18        25.000    19016521.459 8 101511519.04308      -268.781 8        50.920                                                                    19016522.197 7  78953391.54507      -209.046 7        45.148
S21        27.000    38355181.017 5 201557964.29505      -862.741 5        35.310
R19        29.000    21224162.902 5 113534991.58605      2669.971 5        32.802
R15        30.000                                                                                                                                    21041378.729 6                     -3288.959 6        37.527
S36        31.000    38126463.524 6 200355897.74506      -862.567 6        36.828
R16        34.000    19027415.659 7 101641649.87307      -483.561 7        45.315                                                                    19027418.176 7  79054306.15807      -376.133 7        43.809
C44        35.000                                                                                                                                    21228633.796 8 110543380.94108      -958.365 8        49.318                                                                    21228634.651 7  89825458.48407      -778.692 7        47.352
R17        36.000    20471298.667 7 109546451.41207     -3862.465 7        44.561                                                                    20471297.753 7  85202532.30907     -3004.191 7        42.626
R09        37.000                                                                                                                                    21876468.333 7  90859339.74607      2253.098 7        43.156
C12        41.000                                                                                                                                    21972383.128 7 114416028.01207       555.736 7        44.635    21972382.044 8  88473732.34808       429.691 8        49.908    21972380.576 7  92972380.15807       451.639 7        44.921
C35        42.000                                                                                                                                    23509514.899 7 122420207.39607     -3388.139 7        47.003                                                                    23509516.199 6  99476487.33306     -2753.142 6        41.621
C05        43.000                                                                                                                                                                                                    39327380.204 5                      -623.535 5        30.226
C38        44.000                                                                                                                                    38747852.884 6 201770229.21206      -124.553 6        40.493                                                                    38747851.128 6 163954839.47406      -101.140 6        37.645
C25        45.000                                                                                                                                    23038060.842 7 119965217.70007      1266.060 7        42.042                                                                    23038058.640 7  97481753.16907      1028.974 7        42.428
C08        46.000                                                                                                                                    38422514.496 6 200076139.12406       498.919 6        37.943                                                                    38422507.031 4 162578221.88004       405.284 4        29.460
C26        48.000                                                                                                                                    24695679.708 4 128596917.53104     -4069.046 4        27.653                                                                    24695689.119 5 104495503.47905     -3306.967 5        31.525
C24        51.000                                                                                                                                    21528042.383 6 112102184.74606     -1896.123 6        41.404                                                                    21528041.379 7  91092271.58107     -1540.674 7        46.335
C34        52.000                                                                                                                                    23409353.163 7 121898647.35407      1810.803 7        42.227                                                                    23409352.928 6  99052704.68306      1471.656 6        37.826
I06        58.000    38612572.019 5 151524090.44805      -686.447 5        35.024
I02        59.000    37815656.972 5 148396789.71505     -1081.299 5        35.529
> 2025 01 02 16 00 25.0000000  0 41
G20         1.000    23510784.526 5                      -895.598 5        30.249
G11         2.000    24405191.172 4                     -4092.490 4        26.946                                                                                                    24405180.684 4                     -3189.032 4        24.045
G25         3.000    20889655.864 7 109776049.64407     -3216.735 7        42.404                                    20889658.374 6  85539765.70106     -2506.544 6        36.019    20889657.109 6  85539684.67006     -2506.533 6        38.601
E25         6.000    23677773.586 7 124427596.81607     -2036.451 7        46.748                                                                    23677776.264 8  92916843.80708     -1520.669 8        49.824    23677775.853 8  95340656.93308     -1560.358 8        50.308
G31         7.000    21621644.332 6 113622689.81206      -193.051 6        40.644                                                                                                    21621641.641 6  88537083.70606      -150.419 6        38.763
G28         8.000    21392334.670 5 112417602.14905     -1973.487 5        30.581                                    21392328.078 2  87598031.29202     -1537.747 2        14.190    21392334.561 5  87598149.26605     -1537.788 5        33.287
G29         9.000    20280393.871 7 106574260.67807     -1234.785 7        47.033                                    20280387.279 5  83044882.53705      -962.169 5        34.514    20280391.964 6  83044834.57706      -962.303 6        36.839
E11        10.000    23900863.352 6 125599888.39906     -1049.203 6        40.293                                                                    23900863.188 7  93792118.90807      -783.564 7        42.942    23900860.261 6  96238921.42406      -803.881 6        36.983
E10        11.000    25334039.470 6 133131271.61506     -2566.985 6        39.513                                                                    25334040.807 6  99416246.12506     -1917.042 6        40.858    25334039.831 7 102009650.31607     -1966.977 7        45.023
G18        12.000    22579728.547 6 118657341.66006      2393.900 6        37.202                                    22579729.498 2  92460269.83902      1865.374 2        16.000    22579733.371 6  92460345.84106      1865.575 6        39.246
E12        13.000    27351716.686 3                     -3459.449 3        20.548
G04        14.000                                                                                                                                                                    25084231.130 3                      -270.305 3        23.733
G12        15.000    24321664.979 4                     -4329.355 4        26.838
G26        17.000    22487086.518 5 118170444.60505      2093.171 5        31.751                                    22487085.489 2  92080897.62602      1631.020 2        17.774    22487094.932 5  92080892.58405      1631.049 5        34.471
E07        18.000    27778723.031 5 145978193.06005     -1361.542 5        34.195                                                                    27778738.456 7 109009727.86107     -1016.699 7        43.238    27778732.638 6 111853474.14406     -1043.371 6        36.491
E30        19.000                                                                                                                                    28191926.592 4 110631203.49804      1341.427 4        25.398    28191941.097 4                      1375.955 4        29.365
E08        20.000    27889106.844 5                     -3231.809 5        31.449                                                                    27889078.957 4 109442790.57504     -2413.267 4        29.052
E02        21.000    23734223.005 6 124724184.56506       497.449 6        41.540                                                                    23734224.186 7  93138256.44807       371.545 7        46.528    23734223.507 7  95567959.15807       381.239 7        45.539
S23        22.000    38076915.285 6 200095599.80406      -866.552 6        36.473
R08        23.000    23780569.104 4                     -1719.683 4        28.085                                                                    23780561.297 5                     -1337.558 5        30.589
E36        24.000    24785774.716 6 130250145.92806      1610.933 6        41.592                                                                    24785778.028 6  97264842.04206      1202.942 6        39.513    24785777.642 7  99802169.15107      1234.353 7        44.629
R18        25.000    19016774.740 8 101512871.55908      -272.471 8        50.828                                                                    19016775.683 7  78954443.51207      -211.968 7        45.834
S21        27.000    38356005.463 5 201562276.38105      -862.573 5        35.024
R19        29.000    21221668.649 5 113521647.45005      2667.193 5        30.679
R15        30.000                                                                                                                                    21045336.238 6  87468818.26016     -3290.653 6        36.631
S36        31.000    38127282.390 6 200360208.79006      -862.184 6        36.885
R16        34.000    19027870.036 7 101644075.60507      -487.056 7        45.645                                                                    19027872.378 7  79056192.84507      -378.713 7        43.526
C44        35.000                                                                                                                                    21229554.644 8 110548176.85108      -960.238 8        49.456                                                                    21229555.785 7  89829355.55707      -780.193 7        47.704
R17        36.000    20474909.351 7 109565768.41107     -3864.534 7        44.683                                                                    20474907.959 7  85217556.65207     -3005.830 7        42.967
R09        37.000    21873842.145 3                      2896.054 3        23.086                                                                    21873755.695 7  90848075.37817      2252.387 7        44.131
C12        41.000                                                                                                                                    21971851.462 7 114413253.59707       553.791 7        45.309    21971849.447 8  88471587.00508       428.247 8        49.876    21971847.558 7  92970125.72807       450.153 7        44.933
C35        42.000                                                                                                                                    23512768.464 7 122437149.60207     -3388.941 7        46.111                                                                    23512770.035 6  99490254.26606     -2753.696 6        41.912
C05        43.000                                                                                                                                                                                                    39328153.594 5                      -623.163 5        30.491
C38        44.000                                                                                                                                    38747972.626 6 201770853.17806      -125.236 6        40.782                                                                    38747971.282 6 163955346.49106      -101.811 6        37.853
C25        45.000                                                                                                                                    23036847.392 6 119958890.18506      1264.557 6        40.403                                                                    23036843.471 7  97476611.53707      1027.636 7        42.074
C08        46.000                                                                                                                                    38422035.521 6 200073646.33506       498.142 6        37.758                                                                    38422027.570 4 162576196.27104       404.897 4        29.630
C26        48.000                                                                                                                                    24699587.758 4 128617266.57004     -4070.008 4        28.483                                                                    24699596.576 5 104512038.73905     -3307.445 5        31.728
C24        51.000                                                                                                                                    21529864.736 7 112111670.13107     -1898.288 7        42.440                                                                    21529863.396 7  91099979.23707     -1542.408 7        46.766
C34        52.000                                                                                                                                    23407613.951 6 121889595.07606      1809.854 6        41.082                                                                    23407616.654 6  99045348.97706      1470.761 6        39.162
I06        58.000    38613446.712 5 151527522.36905      -686.510 5        35.076
I02        59.000    37817034.840 5 148402196.06305     -1081.445 5        35.362
> 2025 01 02 16 00 30.0000000  0 41
G11         2.000    24409077.003 4                     -4093.234 4        26.994                                                                                                    24409074.917 3                     -3189.650 3        23.962
G25         3.000    20892718.299 6 109792138.44206     -3218.827 6        41.225                                    20892719.258 5  85552302.41905     -2508.178 5        34.900    20892718.458 6  85552221.38706     -2508.127 6        36.798
G05         4.000    23643750.219 3                      1384.927 3        22.724
E25         6.000    23679712.082 7 124437782.11507     -2037.741 7        46.785                                                                    23679714.506 8  92924449.72208     -1521.702 8        50.293    23679714.006 8  95348461.26708     -1561.427 8        50.528
G31         7.000    21621828.206 6 113623663.84506      -196.549 6        40.865                                                                                                    21621827.736 6  88537842.72406      -153.265 6        39.667
G28         8.000    21394215.556 5 112427477.40405     -1976.899 5        32.719                                    21394206.937 2  87605726.28302     -1540.497 2        12.121    21394213.734 5  87605844.25705     -1540.302 5        33.856
G29         9.000    20281569.864 7 106580440.04107     -1237.029 7        47.357                                    20281564.098 5  83049697.61205      -963.909 5        35.109    20281567.003 6  83049649.63806      -963.783 6        36.314
E11        10.000    23901862.601 6 125605140.41006     -1051.623 6        41.266                                                                    23901862.630 7  93796040.86607      -785.257 7        42.754    23901859.376 6  96242945.70806      -805.948 6        36.813
E10        11.000    25336482.572 6 133144111.07906     -2568.854 6        40.691                                                                    25336484.101 6  99425834.01706     -1918.231 6        41.640    25336482.787 7 102019488.33507     -1968.332 7        44.652
G18        12.000    22577451.603 6 118645374.73006      2392.622 6        38.805                                    22577452.955 2  92450944.95802      1864.388 2        17.736    22577456.280 6  92451021.00306      1864.312 6        39.366
E12        13.000                                                                                                                                                                                                    27354989.459 4 110147211.33404     -2652.961 4        24.075
G04        14.000    25084567.809 5 131820350.39105      -349.780 5        32.365                                                                                                    25084562.267 4                      -272.838 4        25.609
G12        15.000    24325783.035 4                     -4330.305 4        27.653
G26        17.000    22485091.254 4 118159980.90704      2091.872 4        26.587                                    22485094.664 3  92072744.15403      1630.011 3        18.746    22485103.509 5  92072739.12605      1630.165 5        35.505
E07        18.000    27780021.405 5 145985006.05205     -1363.631 5        35.552                                                                    27780035.364 7 109014815.46907     -1018.359 7        43.263    27780029.644 5 111858694.46805     -1045.029 5        35.638
E30        19.000                                                                                                                                    28190212.443 4 110624498.23204      1340.865 4        26.479    28190235.208 4                      1375.950 4        29.801
E08        20.000    27892181.527 4                     -3233.022 4        28.796                                                                    27892155.224 4 109454859.28104     -2413.897 4        29.659
E02        21.000    23733749.486 6 124721699.52806       496.412 6        40.796                                                                    23733751.437 7  93136400.76207       370.757 7        46.558    23733750.768 7  95566055.05907       380.309 7        45.853
S23        22.000    38077735.323 6 200099932.36306      -866.486 6        36.121
R08        23.000    23782173.960 5                     -1723.958 5        33.204                                                                    23782169.807 5                     -1340.798 5        31.434
E36        24.000    24784242.925 6 130242095.03406      1609.345 6        41.030                                                                    24784246.267 6  97258830.04306      1201.788 6        40.021    24784245.659 7  99796000.31107      1233.121 7        44.802
R18        25.000    19017030.992 8 101514243.78008      -276.412 8        50.296                                                                    19017032.156 7  78955510.81107      -215.057 7        45.317
S21        27.000    38356827.043 5 201566588.13105      -862.313 5        34.910
R19        29.000    21219176.313 5 113508314.97605      2664.672 5        30.196
R15        30.000    21049355.514 4                     -4232.768 4        28.341                                                                    21049295.514 6  87485275.22216     -3292.400 6        36.522
S36        31.000    38128102.150 6 200364519.45606      -862.115 6        36.733
R16        34.000    19028328.045 7 101646519.91307      -490.730 7        46.610                                                                    19028330.137 7  79058094.00807      -381.613 7        43.149
C44        35.000                                                                                                                                    21230477.361 8 110552983.72608      -962.555 8        49.049                                                                    21230479.043 8  89833261.54408      -782.113 8        48.050
R17        36.000    20478520.812 7 109585097.02107     -3866.979 7        43.266                                                                    20478520.704 7  85232590.02207     -3007.613 7        43.050
R09        37.000                                                                                                                                    21871043.602 7  90836815.61807      2251.434 7        43.989
C12        41.000                                                                                                                                    21971321.068 7 114410489.67307       551.655 7        45.288    21971319.023 8  88469449.77808       426.574 8        50.032    21971316.617 7  92967879.83807       448.225 7        44.892
C35        42.000                                                                                                                                    23516023.021 7 122454097.03607     -3390.127 7        44.778                                                                    23516024.919 7  99504025.45907     -2754.866 7        42.163
C05        43.000                                                                                                                                                                                                    39328927.310 4                      -623.004 4        29.962
C38        44.000                                                                                                                                    38748092.649 6 201771482.23606      -126.482 6        40.670                                                                    38748092.279 6 163955857.67106      -102.944 6        38.045
C25        45.000                                                                                                                                    23035635.040 6 119952571.53706      1262.711 6        39.075                                                                    23035629.928 6  97471477.14906      1025.985 6        41.433
C08        46.000                                                                                                                                    38421557.864 6 200071158.56706       497.001 6        37.403    38421526.903 5                       384.363 5        30.823    38421549.518 5 162574174.78505       404.050 5        30.204
C26        48.000                                                                                                                                    24703501.953 5 128637619.99005     -4071.461 5        31.351                                                                    24703505.239 5 104528577.54505     -3308.583 5        31.600
C24        51.000                                                                                                                                    21531688.928 7 112121167.71807     -1900.835 7        42.527                                                                    21531687.614 7  91107696.83307     -1544.594 7        47.240
C34        52.000                                                                                                                                    23405876.458 6 121880549.28406      1808.467 6        40.031                                                                    23405880.634 6  99037998.54406      1469.462 6        40.729
I06        58.000    38614320.842 5 151530953.91005      -686.237 5        35.514
I02        59.000    37818413.616 5 148407602.84205     -1081.526 5        35.419
> 2025 01 02 16 00 35.0000000  0 41
G11         2.000    24412975.757 4                     -4094.958 4        29.972                                                                                                    24412973.564 4                     -3190.330 4        24.526
G25         3.000    20895782.655 6 109808237.13906     -3220.511 6        40.741                                    20895781.828 5  85564846.84605     -2509.475 5        33.593    20895781.320 5  85564765.83505     -2509.824 5        35.619
G05         4.000    23642434.887 4                      1382.520 4        26.910
E25         6.000    23681651.562 7 124447974.08707     -2038.878 7        46.892                                                                    23681654.095 8  92932060.60808     -1522.552 8        50.552    23681653.453 8  95356270.70008     -1562.251 8        50.604
G31         7.000    21622015.459 6 113624654.78706      -199.752 6        41.990                                                                                                    21622017.614 6  88538614.87006      -155.552 6        41.204
G28         8.000    21396097.621 5 112437368.77105     -1979.709 5        30.989                                    21396088.779 1  87613433.86801     -1542.583 1         9.905    21396094.465 5  87613551.84905     -1542.657 5        33.808
G29         9.000    20282747.703 7 106586630.22707     -1238.948 7        47.399                                    20282743.001 5  83054521.12105      -965.413 5        35.705    20282743.517 6  83054473.15406      -965.281 6        36.359
E11        10.000    23902864.483 6 125610404.50506     -1053.886 6        41.967                                                                    23902864.202 7  93799971.84507      -786.988 7        42.409    23902861.512 6  96246979.23206      -807.744 6        36.586
E10        11.000    25338927.394 6 133156960.05506     -2570.561 6        41.483                                                                    25338929.602 7  99435429.03607     -1919.612 7        42.155    25338927.753 7 102029333.65507     -1969.702 7        44.101
G18        12.000    22575176.324 6 118633415.70306      2391.239 6        40.911                                    22575177.905 3  92441626.28403      1863.289 3        18.388    22575180.064 6  92441702.30606      1863.344 6        38.907
E12        13.000                                                                                                                                                                                                    27358280.892 3                     -2658.037 3        22.952
G04        14.000    25084906.163 5 131822107.53205      -352.761 5        33.060                                                                                                    25084896.445 4                      -275.195 4        27.617
G12        15.000    24329900.604 4                     -4331.052 4        27.245
G26        17.000                                                                                                                                                                    22483111.369 6  92064590.18906      1629.488 6        37.036
E07        18.000    27781320.690 6 145991830.45906     -1365.917 6        36.253                                                                    27781333.654 7 109019911.60307     -1019.910 7        43.196    27781329.572 5 111863923.53505     -1046.540 5        35.267
E30        19.000                                                                                                                                    28188498.014 4 110617792.78504      1340.839 4        28.370    28188528.256 4                      1376.131 4        29.422
E08        20.000    27895256.711 4                     -3233.148 4        26.287                                                                    27895232.000 5 109466931.70905     -2414.740 5        30.068
E02        21.000    23733277.412 6 124719219.82906       495.497 6        39.994                                                                    23733279.649 7  93134549.06207       369.990 7        46.324    23733278.929 7  95564155.04007       379.656 7        45.992
S23        22.000    38078563.194 6 200104264.86406      -866.370 6        36.665
R08        23.000    23783785.231 5 127361092.88715     -1727.449 5        35.081                                                                    23783779.256 5                     -1343.870 5        31.706
E36        24.000    24782712.954 6 130234052.14006      1607.761 6        41.008                                                                    24782715.666 6  97252823.98706      1200.723 6        40.491    24782715.236 7  99789837.57407      1232.043 7        44.769
R18        25.000    19017291.642 8 101515635.70008      -280.190 8        49.588                                                                    19017292.615 7  78956593.42607      -217.968 7        44.921
S21        27.000    38357646.513 5 201570899.63205      -862.181 5        35.381
R19        29.000    21216687.163 4 113494994.23704      2662.329 4        29.564                                                                    21216694.432 3                      2073.165 3        20.976
R15        30.000    21053313.137 4                     -4235.434 4        24.436                                                                    21053256.448 6  87501741.10816     -3294.124 6        36.336
S36        31.000    38128921.494 6 200368829.61106      -861.697 6        36.560
R16        34.000    19028789.265 7 101648982.74907      -494.255 7        47.186                                                                    19028791.440 7  79060009.53507      -384.426 7        42.935
C44        35.000                                                                                                                                    21231402.678 8 110557801.62708      -964.513 8        48.985                                                                    21231404.303 8  89837176.49008      -783.794 8        48.349
R17        36.000    20482133.275 7 109604437.30307     -3869.117 7        42.563                                                                    20482135.223 7  85247632.48307     -3009.307 7        43.291
R09        37.000                                                                                                                                    21868333.583 7  90825560.48807      2250.737 7        43.556
C12        41.000                                                                                                                                    21970791.518 7 114407736.34007       549.842 7        44.474    21970790.265 8  88467320.74408       425.106 8        50.044    21970787.784 7  92965642.54407       446.703 7        44.769
C35        42.000                                                                                                                                    23519278.969 7 122471049.75807     -3390.842 7        44.024                                                                    23519280.594 7  99517800.93207     -2755.367 7        42.421
C05        43.000                                                                                                                                                                                                    39329701.459 5                      -622.541 5        30.385
C38        44.000                                                                                                                                    38748214.406 6 201772116.46406      -127.270 6        40.644                                                                    38748213.969 6 163956373.03806      -103.353 6        38.021
C25        45.000                                                                                                                                    23034423.735 6 119946261.88206      1261.219 6        37.406                                                                    23034418.271 6  97466350.03406      1024.738 6        40.968
C08        46.000                                                                                                                                    38421080.789 6 200068675.87406       496.255 6        37.316                                                                    38421072.886 4 162572157.39904       403.487 4        29.441
C26        48.000                                                                                                                                    24707412.396 5 128657977.81505     -4071.816 5        34.424                                                                    24707414.497 5 104545119.93805     -3308.363 5        31.260
C24        51.000                                                                                                                                    21533514.376 6 112130677.61306     -1902.990 6        41.945                                                                    21533514.106 7  91115424.40607     -1546.358 7        47.770
C34        52.000                                                                                                                                    23404141.574 6 121871510.05606      1807.315 6        39.913                                                                    23404145.171 6  99030653.45206      1468.449 6        41.688
I06        58.000    38615194.758 5 151534385.17205      -686.305 5        35.700
I02        59.000    37819790.634 5 148413010.00505     -1081.319 5        34.857
> 2025 01 02 16 00 40.0000000  0 41
G11         2.000    24416878.947 5                     -4096.531 5        31.079                                                                                                    24416871.804 4                     -3192.600 4        24.571
G25         3.000    20898848.388 6 109824345.86406     -3222.507 6        40.696                                    20898846.208 5  85577399.10405     -2511.037 5        31.932    20898846.678 5  85577318.06705     -2511.154 5        35.238
G05         4.000    23641126.477 5                      1379.727 5        31.064
E25         6.000    23683592.626 7 124458172.84407     -2040.203 7        46.924                                                                    23683594.930 8  92939676.56008     -1523.460 8        51.021    23683594.196 8  95364085.33208     -1563.272 8        50.626
G31         7.000    21622207.872 7 113625662.71107      -203.022 7        42.802                                                                                                    21622209.060 6  88539400.28506      -158.300 6        41.189
G28         8.000    21397977.232 4 112447276.38304     -1982.990 4        24.707                                    21397973.752 1  87621154.06301     -1545.206 1         9.429    21397978.799 5  87621272.10405     -1545.222 5        31.155
G29         9.000    20283927.526 7 106592831.36607     -1241.088 7        47.665                                    20283923.889 6  83059353.16306      -967.079 6        36.457    20283924.250 5  83059305.20405      -966.865 5        35.824
E11        10.000    23903869.168 7 125615680.77107     -1056.286 7        42.339                                                                    23903868.248 6  93803911.92306      -788.752 6        41.850    23903865.104 6  96251022.07806      -809.277 6        36.181
E10        11.000    25341374.190 6 133169818.64106     -2572.360 6        41.843                                                                    25341376.748 7  99445031.22607     -1920.905 7        42.703    25341374.470 7 102039186.34407     -1971.039 7        43.507
G18        12.000    22572903.341 7 118621464.71807      2389.554 7        42.299                                    22572904.492 3  92432313.81303      1862.013 3        18.478    22572905.738 6  92432389.87006      1862.135 6        38.264
E12        13.000                                                                                                                                                                                                    27361576.881 3                     -2654.115 3        22.648
G04        14.000    25085251.252 5 131823879.73105      -355.815 5        34.971                                                                                                    25085235.394 4                      -277.422 4        29.659
G12        15.000    24334020.019 4                     -4331.275 4        27.305                                                                                                    24334011.275 3                     -3374.874 3        20.833
G26        17.000                                                                                                                                                                    22481121.180 6  92056445.99206      1628.559 6        37.618
E07        18.000    27782620.097 5 145998666.37605     -1368.006 5        35.629                                                                    27782633.956 7 109025016.35207     -1021.629 7        43.105    27782631.399 5 111869161.46605     -1048.206 5        34.567
E30        19.000                                                                                                                                    28186791.364 4 110611087.18104      1341.188 4        29.033    28186822.426 4                      1376.130 4        27.725
E08        20.000    27898331.193 4                     -3234.944 4        25.113                                                                    27898310.195 5 109479007.91605     -2415.269 5        30.317
E02        21.000    23732806.726 6 124716745.58806       494.628 6        38.489                                                                    23732808.783 7  93132701.41507       369.385 7        46.207    23732808.079 7  95562259.19507       378.981 7        45.995
S23        22.000    38079385.655 6 200108597.26306      -866.145 6        36.333
R08        23.000    23785400.461 5 127369742.09005     -1731.756 5        34.210                                                                    23785396.038 5                     -1346.911 5        31.381
E36        24.000    24781183.622 6 130226017.29306      1606.428 6        40.765                                                                    24781186.529 6  97246823.98006      1199.659 6        41.228    24781186.266 7  99783681.02907      1230.869 7        44.653
R18        25.000    19017555.496 8 101517047.47908      -284.093 8        49.359                                                                    19017556.832 7  78957691.48607      -220.968 7        44.734
S21        27.000    38358469.520 5 201575211.02205      -861.860 5        35.381
R19        29.000    21214201.461 4 113481685.46704      2660.745 4        28.749                                                                    21214211.568 4                      2069.977 4        25.173
R15        30.000    21057280.105 3                     -4237.595 3        23.733                                                                    21057220.625 6                     -3295.589 6        36.499
S36        31.000    38129740.758 6 200373138.96506      -861.568 6        37.112
R16        34.000    19029253.992 7 101651464.41907      -498.001 7        47.711                                                                    19029255.448 7  79061939.72507      -387.335 7        42.701
C44        35.000                                                                                                                                    21232330.676 8 110562630.67508      -966.664 8        49.019                                                                    21232331.810 8  89841100.48708      -785.470 8        48.538
R17        36.000    20485749.066 6 109623789.33206     -3871.366 6        41.569                                                                    20485751.609 7  85262684.05307     -3011.031 7        43.467
R09        37.000    21865622.507 6 116761145.66916      2892.543 6        37.766                                                                    21865624.626 7  90814310.03907      2249.902 7        42.563
C12        41.000                                                                                                                                    21970262.728 7 114404993.72907       547.691 7        43.913    21970263.400 8  88465199.98508       423.539 8        49.999    21970261.006 7  92963413.94507       445.155 7        44.825
C35        42.000                                                                                                                                    23522536.653 7 122488007.88607     -3391.843 7        43.644                                                                    23522537.424 7  99531580.79107     -2756.127 7        42.353
C05        43.000                                                                                                                                                                                                    39330473.297 4                      -622.682 4        29.839
C38        44.000                                                                                                                                    38748336.947 6 201772756.00506      -128.230 6        40.596                                                                    38748336.709 6 163956892.70506      -104.151 6        37.924
C25        45.000                                                                                                                                    23033217.569 5 119939961.25605      1259.371 5        34.676                                                                    23033208.261 6  97461230.31406      1023.451 6        40.429
C08        46.000                                                                                                                                    38420604.507 6 200066198.40006       495.162 6        36.907                                                                    38420597.564 4 162570144.28404       402.228 4        29.517
C26        48.000                                                                                                                                    24711323.257 6 128678340.24906     -4072.516 6        36.412                                                                    24711324.587 5 104561666.14805     -3309.325 5        31.064
C24        51.000                                                                                                                                    21535342.532 6 112140199.93606     -1905.470 6        41.282                                                                    21535342.873 8  91123162.06608     -1548.238 8        48.088
C34        52.000                                                                                                                                    23402406.089 6 121862477.50806      1806.071 6        40.179                                                                    23402410.304 7  99023313.77107      1467.637 7        42.190
I06        58.000    38616069.620 5 151537816.23905      -686.137 5        35.629
I02        59.000    37821169.176 5 148418417.70805     -1081.350 5        34.819
> 2025 01 02 16 00 45.0000000  0 42
G20         1.000    23514259.787 4                      -907.872 4        27.473
G11         2.000    24420782.660 5                     -4097.684 5        31.555                                                                                                    24420770.759 4                     -3193.015 4        24.511
G25         3.000    20901914.920 6 109840464.32906     -3224.972 6        40.179                                    20901912.431 5  85589958.93505     -2512.969 5        30.196    20901912.613 5  85589877.93005     -2513.131 5        35.781
G05         4.000    23639817.409 5                      1377.375 5        32.832
E25         6.000    23685534.957 7 124468378.09607     -2041.907 7        47.374                                                                    23685536.961 8  92947297.36708     -1524.798 8        51.319    23685536.129 8  95371904.93708     -1564.568 8        50.752
G31         7.000    21622403.634 7 113626687.35907      -206.928 7        42.154                                                                                                    21622403.143 6  88540198.72406      -161.233 6        41.175
G28         8.000    21399868.720 4 112457200.02804     -1986.559 4        28.009                                    21399861.684 1  87628886.75801     -1547.969 1         7.625    21399866.616 4  87629004.77504     -1547.590 4        26.383
G29         9.000    20285109.844 7 106599043.18407     -1243.640 7        47.421                                    20285106.616 6  83064193.53906      -969.072 6        36.707    20285106.544 5  83064145.59605      -969.077 5        35.738
E11        10.000    23904875.500 7 125620968.95007     -1059.055 7        42.573                                                                    23904874.491 6  93807860.89206      -790.862 6        41.378    23904871.093 5  96255074.05405      -811.578 5        35.952
E10        11.000    25343822.802 7 133182686.55207     -2574.675 7        42.068                                                                    25343825.398 7  99454640.38507     -1922.634 7        43.022    25343823.128 7 102049046.18007     -1972.948 7        43.228
G18        12.000    22570630.351 7 118609521.46907      2387.657 7        42.948                                    22570632.353 3  92423007.38003      1860.492 3        18.597    22570633.021 6  92423083.46506      1860.403 6        37.399
E12        13.000                                                                                                                                                                                                    27364872.046 3                     -2655.877 3        23.314
G04        14.000    25085602.576 5 131825666.71705      -359.197 5        34.500                                                                                                    25085577.674 5                      -279.793 5        30.264
G12        15.000    24338136.666 4                     -4331.794 4        26.934                                                                                                    24338137.228 3                     -3377.184 3        22.019
G26        17.000    22479127.107 5                      2088.507 5        32.653                                                                                                    22479133.944 6  92048306.22206      1627.259 6        37.675
E07        18.000    27783922.265 5 146005513.53005     -1370.771 5        34.690                                                                    27783936.553 7 109030129.48507     -1023.635 7        42.720    27783936.702 5 111874408.03105     -1050.440 5        34.395
E30        19.000                                                                                                                                    28185083.907 5 110604381.13405      1341.160 5        30.023    28185119.905 4                      1375.949 4        28.019
E08        20.000    27901410.871 4                     -3235.733 4        26.263                                                                    27901389.095 5 109491087.69605     -2416.576 5        31.208
E02        21.000    23732336.748 6 124714276.53206       493.174 6        37.138                                                                    23732338.840 7  93130857.63607       368.201 7        45.970    23732338.235 7  95560367.30507       377.815 7        46.085
S23        22.000    38080215.785 6 200112929.55706      -866.691 6        36.794
R08        23.000    23787018.506 5 127378410.93705     -1735.885 5        33.856                                                                    23787014.591 5                     -1350.061 5        32.168
E36        24.000    24779655.707 6 130217990.28306      1604.335 6        41.046                                                                    24779658.868 6  97240829.80906      1197.997 6        41.349    24779658.806 7  99777530.46807      1229.401 7        44.614
R18        25.000    19017823.793 8 101518478.84508      -288.435 8        49.673                                                                    19017825.350 7  78958804.77807      -224.371 7        45.034
S21        27.000    38359290.501 5 201579522.11005      -862.523 5        35.410
R19        29.000    21211718.042 4 113468388.27814      2657.928 4        29.403
R15        30.000    21061239.834 5                     -4239.881 5        31.977                                                                    21061185.849 6  87534699.62316     -3297.705 6        36.087
S36        31.000    38130560.585 6 200377447.86306      -862.014 6        36.779
R16        34.000    19029721.897 8 101653964.67308      -502.117 8        48.066                                                                    19029723.646 7  79063884.35207      -390.485 7        42.083
C44        35.000                                                                                                                                    21233260.898 8 110567470.59208      -969.325 8        48.839                                                                    21233261.382 8  89845033.31308      -787.575 8        48.591
R17        36.000    20489367.886 6 109643152.72006     -3874.063 6        40.968                                                                    20489369.985 7  85277744.47107     -3013.127 7        44.184
R09        37.000    21862918.274 6 116746686.53106      2891.028 6        39.228                                                                    21862916.578 6  90803064.05906      2248.658 6        41.240
C12        41.000                                                                                                                                    21969737.438 7 114402261.51407       545.144 7        44.029    21969738.625 8  88463087.27308       421.578 8        49.539    21969736.378 7  92961193.80907       443.054 7        44.789
C35        42.000                                                                                                                                    23525795.097 7 122504971.12907     -3393.392 7        43.998                                                                    23525794.898 7  99545364.81107     -2757.325 7        42.008
C05        43.000                                                                                                                                                                                                    39331245.394 4                      -623.320 4        29.100
C38        44.000                                                                                                                                    38748460.703 6 201773400.56706      -129.697 6        40.400                                                                    38748460.558 6 163957416.44206      -105.311 6        37.573
C25        45.000                                                                                                                                                                                                                                                                    23031999.847 6  97456117.78506      1021.632 6        39.718
C08        46.000                                                                                                                                    38420129.802 6 200063725.87106       493.612 6        36.968    38420125.832 5                       381.986 5        32.874    38420122.575 4 162568135.11804       401.083 4        29.327
C26        48.000                                                                                                                                    24715233.486 6 128698706.99806     -4074.040 6        37.701                                                                    24715235.840 5 104578215.74705     -3310.378 5        31.245
C24        51.000                                                                                                                                    21537174.615 6 112149734.41506     -1908.228 6        40.784                                                                    21537173.952 8  91130909.60608     -1550.606 8        48.328
C34        52.000                                                                                                                                    23400671.826 6 121853451.37406      1804.200 6        40.083                                                                    23400676.116 7  99015979.31407      1466.316 7        42.015
I06        58.000    38616943.394 5 151541246.91305      -686.238 5        35.400
I02        59.000    37822546.555 5 148423825.73205     -1081.921 5        34.448
> 2025 01 02 16 00 50.0000000  0 42
G11         2.000    24424683.082 4                     -4099.188 4        29.905                                                                                                    24424672.133 4                     -3194.158 4        24.917
G25         3.000    20904982.560 6 109856593.15106     -3226.914 6        40.934                                    20904980.782 4  85602526.83904     -2514.479 4        29.062    20904981.320 6  85602445.84006     -2514.448 6        36.121
G05         4.000    23638507.595 5                      1375.158 5        33.647
E25         6.000    23687478.484 7 124478590.41607     -2043.231 7        47.430                                                                    23687480.328 8  92954923.45808     -1525.791 8        51.536    23687479.547 8  95379729.96508     -1565.562 8        51.006
G31         7.000    21622601.296 6 113627729.30606      -210.172 6        41.552                                                                                                    21622600.830 6  88541010.63906      -163.767 6        40.901
G28         8.000    21401762.192 5 112467140.20605     -1989.919 5        31.313                                    21401752.773 1  87636632.42501     -1550.561 1         6.875    21401755.828 4  87636750.38804     -1550.007 4        24.120
G29         9.000    20286293.785 7 106605266.24407     -1245.741 7        47.653                                    20286291.149 6  83069042.68206      -970.708 6        36.794    20286289.497 5  83068994.73705      -970.769 5        35.662
E11        10.000    23905883.734 7 125626269.60107     -1061.548 7        42.806                                                                    23905883.007 6  93811819.15806      -792.754 6        40.636    23905879.818 6  96259135.58006      -813.282 6        36.091
E10        11.000    25346273.214 7 133195564.36807     -2576.583 7        42.224                                                                    25346276.031 7  99464256.95507     -1924.104 7        43.536    25346273.599 7 102058913.60407     -1974.347 7        42.940
G18        12.000    22568358.858 7 118597586.55607      2386.091 7        43.541                                    22568361.753 2  92413707.47502      1859.277 2        17.585    22568363.754 6  92413783.55406      1859.205 6        36.102
E12        13.000    27368171.309 3                     -3468.630 3        22.629                                                                                                                                    27368169.488 3                     -2657.687 3        23.752
G04        14.000    25085947.752 5 131827468.97205      -362.302 5        32.557                                                                                                    25085921.090 5                      -282.342 5        30.875
G12        15.000    24342254.364 4                     -4332.955 4        29.554                                                                                                    24342254.362 3                     -3375.208 3        21.048
E24        16.000    27927356.778 3                     -3469.315 3        20.048
G26        17.000    22477137.291 6 118118169.51516      2087.129 6        36.658                                    22477146.091 2  92040155.43712      1626.328 2        15.190    22477148.075 6  92040171.39906      1626.345 6        38.201
E07        18.000    27785227.976 5 146012372.50905     -1373.255 5        34.133                                                                    27785241.397 7 109035251.45907     -1025.414 7        42.362    27785244.236 5 111879663.62905     -1052.138 5        33.820
E30        19.000    28183364.772 5 148104572.84015      1796.029 5        31.366                                                                    28183375.739 5 110597675.19205      1340.999 5        30.883    28183419.204 4                      1375.854 4        27.952
E08        20.000    27904491.131 3                     -3236.246 3        23.486                                                                    27904469.276 5 109503171.46105     -2417.124 5        30.506
E02        21.000    23731868.436 6 124711813.22106       491.763 6        36.250                                                                    23731869.945 7  93129018.16107       367.314 7        45.600    23731869.551 7  95558479.83207       376.916 7        46.361
S23        22.000    38081040.956 6 200117262.05106      -866.507 6        37.081
R08        23.000    23788637.703 5 127387100.13205     -1739.878 5        33.245                                                                    23788638.689 5                     -1353.353 5        32.575
E36        24.000    24778129.176 6 130209971.66206      1602.795 6        41.128                                                                    24778132.898 6  97234841.89806      1196.853 6        41.650    24778132.810 7  99771386.34607      1228.116 7        44.618
R18        25.000    19018095.900 8 101519930.42208      -292.401 8        50.321                                                                    19018097.510 7  78959933.78507      -227.435 7        45.299
S21        27.000    38360108.146 5 201583833.55405      -862.420 5        35.895
R19        29.000    21209233.924 4 113455103.50604      2655.162 4        29.772
R15        30.000    21065200.185 5 112566073.85215     -4242.471 5        35.676                                                                    21065154.138 6  87551192.53806     -3299.511 6        36.340
S36        31.000    38131381.736 6 200381757.46406      -862.242 6        36.877
R16        34.000    19030194.204 8 101656483.89408      -505.861 8        48.566                                                                    19030194.934 6  79065843.74606      -393.465 6        41.702
C44        35.000                                                                                                                                    21234192.270 8 110572321.95408      -971.520 8        48.623                                                                    21234193.114 8  89848975.44708      -789.417 8        48.833
R17        36.000    20492989.014 7 109662528.25607     -3876.378 7        42.332                                                                    20492991.064 7  85292814.33507     -3015.020 7        45.326
R09        37.000    21860211.419 6 116732233.86906      2889.794 6        39.387                                                                    21860209.670 6  90791823.11906      2247.679 6        40.205
C12        41.000                                                                                                                                    21969215.767 7 114399540.28607       543.049 7        44.379    21969215.815 8  88460983.06308       419.994 8        49.211    21969213.897 7  92958982.60807       441.295 7        44.752
C35        42.000                                                                                                                                    23529054.177 7 122521940.05907     -3394.513 7        44.489                                                                    23529053.114 6  99559153.47506     -2758.278 6        41.487
C05        43.000                                                                                                                                                                                                    39332019.933 4                      -622.820 4        29.242
C38        44.000                                                                                                                                    38748585.059 6 201774050.72006      -130.658 6        40.548                                                                    38748585.442 6 163957944.75006      -106.138 6        37.739
C25        45.000                                                                                                                                                                                                                                                                    23030793.289 6  97451012.92406      1020.158 6        39.021
C08        46.000                                                                                                                                    38419656.528 6 200061258.85006       492.749 6        37.614    38419649.372 5                       381.038 5        32.713    38419648.766 4 162566130.43904       400.517 4        29.024
C26        48.000                                                                                                                                    24719143.908 6 128719078.59406     -4074.887 6        38.444                                                                    24719148.205 5 104594769.32405     -3310.873 5        31.819
C24        51.000                                                                                                                                    21539008.374 6 112159281.59706     -1910.816 6        40.377                                                                    21539007.329 8  91138667.46908     -1552.621 8        48.484
C34        52.000                                                                                                                                    23398939.256 6 121844432.22706      1802.927 6        40.162                                                                    23398943.206 6  99008650.55506      1465.126 6        41.778
I06        58.000    38617818.075 5 151544677.63905      -686.189 5        35.052
I02        59.000    37823925.077 5 148429234.70405     -1082.036 5        34.181
> 2025 01 02 16 00 55.0000000  0 42
G11         2.000    24428581.205 5                     -4100.451 5        30.053                                                                                                    24428577.090 3                     -3196.237 3        23.029
G25         3.000    20908053.017 6 109872731.92806     -3229.016 6        41.874                                    20908051.209 4  85615102.51604     -2516.119 4        28.237    20908051.286 6  85615021.54206     -2516.364 6        36.265
G05         4.000    23637198.259 5 124214322.29715      1372.723 5        33.317
E25         6.000    23689422.849 7 124488809.48207     -2044.792 7        47.480                                                                    23689424.922 8  92962554.57808     -1526.978 8        51.815    23689424.202 8  95387560.15508     -1566.826 8        50.997
G31         7.000    21622802.224 6 113628788.22706      -213.720 6        40.205                                                                                                    21622802.525 6  88541835.79506      -166.529 6        40.634
G28         8.000    21403657.047 5 112477096.52905     -1993.065 5        32.760                                    21403647.015 1  87644390.64101     -1553.017 1         6.375    21403651.746 4                     -1552.540 4        25.865
G29         9.000    20287479.828 7 106611500.24307     -1248.202 7        47.617                                    20287477.336 6  83073900.34806      -972.628 6        36.571    20287475.584 6  83073852.40206      -972.634 6        36.560
E11        10.000    23906895.051 7 125631582.37107     -1064.040 7        42.290                                                                    23906893.927 6  93815786.50706      -794.624 6        40.129    23906890.107 5  96263206.42305      -815.382 5        35.495
E10        11.000    25348725.138 6 133208451.74406     -2578.726 6        41.392                                                                    25348728.580 7  99473880.65307     -1925.735 7        43.712    25348725.991 7 102068788.34607     -1976.029 7        42.525
G18        12.000    22566088.940 7 118585659.63307      2384.342 7        43.464                                    22566092.431 2  92404413.78402      1857.934 2        16.340    22566096.170 5  92404489.86005      1858.114 5        33.641
E12        13.000    27371478.521 4                     -3470.270 4        24.211                                                                                                                                    27371467.524 3                     -2658.708 3        23.333
G04        14.000                                                                                                                                                                    25086263.447 5                      -284.405 5        30.868
G12        15.000    24346375.644 5                     -4333.444 5        30.777                                                                                                    24346374.860 3                     -3378.345 3        22.152
E24        16.000    27930654.837 3                     -3469.200 3        18.925
G26        17.000    22475153.864 6 118107735.78206      2085.948 6        38.309                                    22475161.232 2  92032025.25402      1625.378 2        15.095    22475164.644 6  92032041.22206      1625.503 6        38.417
E07        18.000    27786535.371 5 146019242.97405     -1375.401 5        33.204                                                                    27786548.626 7 109040381.99707     -1027.203 7        42.205    27786553.309 5 111884928.04905     -1054.060 5        33.371
E30        19.000    28181653.380 5 148095592.34605      1795.515 5        32.096                                                                    28181667.692 5 110590969.06705      1340.878 5        31.230    28181713.521 4                      1376.388 4        28.616
E08        20.000    27907568.823 3                     -3237.122 3        21.476                                                                    27907549.042 5 109515258.97405     -2417.997 5        30.121
E02        21.000    23731400.097 5 124709355.29605       490.823 5        35.224                                                                    23731402.044 7  93127182.71107       366.453 7        45.409    23731401.740 7  95556596.49907       375.971 7        46.285
S23        22.000    38081861.217 6 200121594.42406      -866.682 6        36.824
R08        23.000    23790263.226 4 127395809.15614     -1743.644 4        29.791                                                                    23790264.361 5                     -1356.379 5        30.400
E36        24.000    24776605.005 6 130201961.08306      1600.988 6        41.204                                                                    24776608.635 6  97228859.99706      1195.544 6        41.905    24776608.323 7  99765248.40107      1226.739 7        44.265
R18        25.000    19018371.475 8 101521401.78808      -296.531 8        50.274                                                                    19018373.069 7  78961078.19307      -230.676 7        45.809
S21        27.000    38360926.538 5 201588145.08805      -862.558 5        35.052
R19        29.000    21206752.511 4 113441830.56304      2653.130 4        28.389                                                                    21206807.102 4                      2063.929 4        27.617
R15        30.000    21069161.825 5 112587290.60105     -4244.606 5        35.695                                                                    21069124.938 5  87567694.41105     -3301.409 5        35.352
S36        31.000    38132201.362 6 200386067.09006      -862.111 6        36.609
R16        34.000    19030669.507 8 101659021.88308      -509.764 8        48.635                                                                    19030670.511 6  79067817.75606      -396.356 6        41.931
C44        35.000                                                                                                                                    21235125.940 8 110577184.40608      -973.875 8        48.340                                                                    21235126.965 8  89852926.59508      -790.990 8        48.838
R17        36.000    20496612.382 7 109681915.47407     -3878.943 7        43.687                                                                    20496614.129 7  85307893.26907     -3016.947 7        46.155
R09        37.000    21857503.566 6 116717787.16706      2888.551 6        40.029                                                                    21857504.791 6  90780586.83006      2246.521 6        39.655
C12        41.000                                                                                                                                    21968696.287 7 114396829.71407       540.771 7        44.906    21968695.074 8  88458887.10208       418.123 8        49.006    21968693.385 7  92956780.07707       439.682 7        45.052
C35        42.000                                                                                                                                    23532313.889 7 122538914.34407     -3395.776 7        45.320                                                                    23532312.597 6  99572946.47806     -2759.027 6        41.220
C05        43.000                                                                                                                                                                                                    39332793.309 4                      -623.107 4        29.507
C38        44.000                                                                                                                                    38748710.715 6 201774706.13906      -131.929 6        40.412                                                                    38748711.059 6 163958477.32706      -106.917 6        37.932
C25        45.000                                                                                                                                                                                                                                                                    23029588.540 6  97445915.43406      1018.975 6        38.631
C08        46.000                                                                                                                                    38419184.012 6 200058797.02806       491.511 6        37.936    38419176.221 5                       380.238 5        32.934    38419175.995 4 162564130.01904       399.951 4        28.626
C26        48.000                                                                                                                                    24723055.923 6 128739454.70706     -4076.069 6        39.174                                                                    24723061.309 5 104611326.56205     -3311.419 5        32.802
C24        51.000                                                                                                                                    21540843.957 6 112168841.12306     -1913.457 6        40.899                                                                    21540842.955 8  91146435.38708     -1554.482 8        48.438
C34        52.000                                                                                                                                    23397207.957 6 121835419.74606      1801.480 6        40.372                                                                    23397212.040 6  99001327.19206      1464.190 6        41.614
I06        58.000    38618692.106 5 151548108.08505      -686.279 5        35.662
I02        59.000    37825303.717 5 148434644.06605     -1082.031 5        33.778
> 2025 01 02 16 01  0.0000000  0 43
G20         1.000    23516803.152 4                      -916.597 4        27.605
G11         2.000    24432484.905 4                     -4101.829 4        28.313                                                                                                    24432484.425 3                     -3195.819 3        22.286
G25         3.000    20911125.906 6 109888880.78106     -3230.908 6        41.228                                    20911123.598 4  85627686.06204     -2517.591 4        27.545    20911123.905 5  85627605.07905     -2517.380 5        35.552
G05         4.000    23635889.228 5 124207463.20605      1370.722 5        32.275
E25         6.000    23691368.774 8 124499035.37808     -2045.854 8        48.044                                                                    23691370.858 8  92970190.80608     -1527.726 8        51.974    23691370.095 8  95395395.58408     -1567.602 8        51.204
G31         7.000    21623007.729 6 113629864.18906      -216.874 6        36.737                                                                                                    21623006.358 6  88542674.23906      -169.154 6        40.191
G28         8.000    21405555.198 6 112487069.15706     -1996.256 6        38.180                                    21405544.240 1  87652161.52901     -1555.557 1         5.571    21405554.453 4                     -1555.453 4        28.607
G29         9.000    20288668.723 7 106617745.23507     -1250.181 7        47.978                                    20288665.249 6  83078766.58406      -974.168 6        36.639    20288664.899 6  83078718.61906      -974.131 6        36.295
E11        10.000    23907908.728 6 125636907.37206     -1066.348 6        41.843                                                                    23907907.060 6  93819762.96606      -795.970 6        39.303    23907903.130 5  96267286.61905      -817.234 5        35.433
E10        11.000    25351179.048 6 133221348.77806     -2580.538 6        41.108                                                                    25351182.927 7  99483511.55207     -1926.966 7        43.736    25351180.338 7 102078670.47307     -1977.128 7        42.499
G18        12.000    22563820.280 7 118573740.84507      2382.868 7        43.196                                    22563824.415 2  92395126.43702      1856.801 2        16.000    22563826.109 5  92395202.57105      1856.725 5        30.958
E12        13.000    27374782.196 4                     -3470.479 4        25.068                                                                                                                                    27374769.200 4                     -2658.784 4        24.030
G04        14.000                                                                                                                                                                    25086611.969 5                      -286.675 5        30.468
G12        15.000    24350499.763 5                     -4334.042 5        31.192                                                                                                    24350505.722 3                     -3376.530 3        21.667
E24        16.000    27933957.631 3                     -3471.804 3        19.463
G26        17.000    22473172.256 6 118097308.14906      2084.875 6        38.354                                    22473176.887 2  92023899.83402      1624.547 2        15.143    22473182.924 6  92023915.83806      1624.558 6        37.819
E07        18.000    27787845.712 5 146026125.02805     -1377.484 5        32.784                                                                    27787858.219 6 109045521.18306     -1028.798 6        41.952    27787864.993 5 111890201.30505     -1055.563 5        33.275
E30        19.000    28179942.703 5 148086611.70705      1795.904 5        33.934                                                                    28179960.355 5 110584262.80005      1341.203 5        30.725    28180004.869 4                      1376.233 4        28.256
E08        20.000    27910650.402 3                     -3240.801 3        18.687                                                                    27910629.973 4 109527350.25504     -2418.112 4        29.118
E02        21.000    23730933.669 5 124706902.88305       490.097 5        35.595                                                                    23730935.276 7  93125351.39207       365.880 7        45.166    23730935.004 7  95554717.39907       375.392 7        46.390
S23        22.000    38082686.348 6 200125927.00606      -866.601 6        36.892
R08        23.000    23791885.675 4                     -1747.619 4        26.934                                                                    23791893.547 4                     -1359.313 4        29.062
E36        24.000    24775082.434 6 130193958.67106      1599.656 6        41.959                                                                    24775085.807 7  97222884.21007      1194.510 7        42.182    24775085.342 7  99759116.71607      1225.693 7        44.068
R18        25.000    19018650.579 8 101522893.06808      -300.275 8        50.155                                                                    19018652.108 7  78962238.08607      -233.614 7        45.208
S21        27.000    38361749.285 5 201592456.32105      -862.236 5        34.981
R19        29.000    21204271.619 4 113428569.67914      2651.229 4        27.377                                                                    21204326.697 4                      2061.854 4        28.749
R15        30.000                                                                                                                                    21073097.036 5  87584205.29005     -3303.006 5        34.090
S36        31.000    38133021.073 6 200390376.73106      -862.059 6        36.450
R16        34.000    19031147.659 8 101661578.67608      -513.332 8        48.306                                                                    19031149.284 7  79069806.39407      -399.226 7        42.578
C44        35.000                                                                                                                                    21236061.903 7 110582058.05207      -975.845 7        47.780                                                                    21236062.927 8  89856886.85308      -793.009 8        49.013
R17        36.000    20500237.494 7 109701314.45207     -3881.085 7        44.248                                                                    20500238.918 7  85322981.38607     -3018.573 7        46.128
R09        37.000    21854797.477 6 116703346.73506      2887.139 6        38.970                                                                    21854801.294 6  90769355.41306      2245.808 6        39.730
C12        41.000                                                                                                                                    21968178.955 7 114394129.90907       538.846 7        44.876    21968176.361 8  88456799.44708       416.712 8        48.968    21968174.902 7  92954586.28607       437.831 7        45.242
C35        42.000                                                                                                                                    23535574.639 7 122555894.05407     -3396.544 7        45.667                                                                    23535573.171 6  99586743.89206     -2759.935 6        41.056
C05        43.000                                                                                                                                                                                                    39333567.011 4                      -622.583 4        29.374
C38        44.000                                                                                                                                    38748837.669 6 201775366.91206      -132.730 6        40.276                                                                    38748837.791 6 163959014.26706      -107.877 6        38.018
C25        45.000                                                                                                                                    23028467.205 5 119914849.21205      1251.722 5        30.325                                                                    23028385.554 6  97440825.44706      1017.335 6        38.456
C08        46.000                                                                                                                                    38418712.599 6 200056340.49406       490.947 6        38.012    38418704.375 5                       379.563 5        32.832    38418704.169 4 162562133.94504       398.770 4        29.005
C26        48.000                                                                                                                                    24726968.620 6 128759835.44806     -4076.562 6        39.682                                                                    24726975.916 5 104627887.60405     -3312.479 5        33.904
C24        51.000                                                                                                                                    21542682.848 6 112178413.12306     -1915.791 6        41.509                                                                    21542680.925 8  91154213.43908     -1556.710 8        48.464
C34        52.000                                                                                                                                    23395479.108 6 121826414.02506      1800.355 6        39.703                                                                    23395482.419 6  98994009.35006      1462.965 6        41.809
I06        58.000    38619565.955 5 151551538.42905      -686.114 5        35.724
I02        59.000    37826681.168 5 148440054.22905     -1081.984 5        33.467
> 2025 01 02 16 01  5.0000000  0 43
G20         1.000    23517684.195 4                      -920.394 4        24.466
G11         2.000    24436390.456 4                     -4103.598 4        26.228                                                                                                    24436393.906 3                     -3195.835 3        20.881
G25         3.000    20914200.434 6 109905039.74906     -3232.651 6        40.305                                    20914198.308 4  85640277.50404     -2518.947 4        27.449    20914198.823 5  85640196.49905     -2518.942 5        35.886
G05         4.000    23634585.247 5 124200615.46305      1368.843 5        32.383
E25         6.000    23693316.008 8 124509268.16208     -2046.999 8        48.445                                                                    23693318.062 8  92977832.17708     -1528.609 8        52.146    23693317.211 8  95403236.29608     -1568.502 8        51.271
G31         7.000    21623216.594 5 113630957.28005      -220.142 5        35.562                                                                                                    21623214.355 6  88543525.99706      -171.530 6        39.312
G28         8.000    21407461.168 6 112497058.09406     -1999.271 6        41.304                                    21407444.858 1  87659945.16801     -1557.937 1         7.125
G29         9.000    20289859.500 7 106624001.35607     -1252.160 7        47.401                                    20289854.987 6  83083641.49806      -975.709 6        36.423    20289854.843 5  83083593.54105      -975.604 5        35.900
E11        10.000    23908923.962 6 125642244.68006     -1068.480 6        41.478                                                                    23908922.337 6  93823748.62706      -798.002 6        38.234    23908918.822 5  96271376.24205      -818.754 5        35.271
E10        11.000    25353635.414 6 133234255.48006     -2582.218 6        40.851                                                                    25353639.018 7  99493149.68607     -1928.141 7        43.856    25353636.653 7 102088560.04407     -1978.676 7        42.290
G18        12.000    22561554.169 7 118561830.22007      2381.553 7        43.194                                    22561557.553 2  92385845.48302      1855.773 2        14.048
E12        13.000    27378080.393 4                     -3470.980 4        24.526                                                                                                                                    27378071.306 4                     -2660.184 4        24.481
G04        14.000    25086954.783 4 131832965.64504      -371.428 4        25.835                                                                                                    25086964.794 5                      -288.832 5        31.215
G12        15.000    24354624.393 5                     -4334.871 5        30.891                                                                                                    24354634.863 3                     -3377.799 3        20.786
E24        16.000    27937256.074 3                     -3468.692 3        19.642
G26        17.000    22471184.973 6 118086886.67906      2083.922 6        37.410                                    22471194.098 2  92015779.24602      1623.845 2        16.641    22471202.724 6  92015795.26806      1623.863 6        37.013
E07        18.000    27789157.900 5 146033018.66305     -1379.582 5        32.240                                                                    27789170.351 6 109050669.03706     -1030.396 6        41.723    27789180.097 5 111895483.49705     -1057.318 5        33.054
E30        19.000    28178232.835 5 148077630.94905      1796.206 5        35.281                                                                    28178252.355 4 110577556.39904      1341.626 4        29.820    28178295.279 4                      1376.284 4        28.863
E08        20.000                                                                                                                                    27913711.143 4 109539445.44304     -2419.242 4        27.605
E02        21.000    23730468.847 6 124704456.07406       489.109 6        36.359                                                                    23730469.547 7  93123524.23307       365.145 7        45.178    23730469.285 7  95552842.57607       374.715 7        46.262
S23        22.000    38083509.278 6 200130259.57306      -866.284 6        37.002
R08        23.000    23793516.355 5 127413287.36615     -1751.551 5        30.845                                                                    23793525.886 3                     -1362.143 3        22.590
E36        24.000    24773561.459 7 130185964.47907      1598.157 7        42.015                                                                    24773564.869 7  97216914.55407      1193.445 7        42.182    24773563.818 7  99752991.34007      1224.555 7        43.841
R18        25.000    19018933.963 8 101524404.30508      -304.035 8        50.021                                                                    19018935.461 7  78963413.50707      -236.590 7        44.745
S21        27.000    38362572.940 5 201596767.67205      -862.206 5        35.443
R19        29.000    21201790.635 4 113415320.85704      2649.061 4        28.483
R15        30.000                                                                                                                                    21077072.452 5                     -3305.004 5        33.910
S36        31.000    38133840.950 5 200394686.69305      -861.834 5        35.943
R16        34.000    19031629.393 7 101664154.32107      -516.787 7        47.819                                                                    19031631.953 7  79071809.70407      -402.020 7        43.022
C44        35.000                                                                                                                                    21236999.610 7 110586942.94107      -977.865 7        47.426                                                                    21237001.027 8  89860856.23908      -794.549 8        48.934
R17        36.000    20503864.793 7 109720725.17607     -3883.156 7        45.109                                                                    20503866.336 7  85338078.61607     -3020.199 7        45.594
R09        37.000    21852092.258 6 116688912.58506      2886.337 6        36.514                                                                    21852097.858 6  90758128.91106      2244.918 6        39.450
C12        41.000                                                                                                                                    21967663.288 7 114391440.94107       536.965 7        44.275    21967659.888 8  88454720.16508       415.174 8        48.454    21967658.221 7  92952401.29207       436.298 7        45.204
C35        42.000                                                                                                                                    23538836.227 7 122572879.24107     -3397.424 7        46.219                                                                    23538835.105 6  99600545.75506     -2760.532 6        40.846
C05        43.000                                                                                                                                                                                                    39334341.944 4                      -622.592 4        29.270
C38        44.000                                                                                                                                    38748965.327 6 201776033.08806      -133.528 6        40.319                                                                    38748965.691 6 163959555.60206      -108.550 6        37.943
C25        45.000                                                                                                                                                                                                                                                                    23027184.235 6  97435742.98006      1015.955 6        38.192
C08        46.000                                                                                                                                    38418242.368 6 200053889.32106       490.031 6        38.273    38418233.576 5                       378.655 5        32.545    38418233.562 4 162560142.18204       398.447 4        28.834
C26        48.000                                                                                                                                    24730883.671 6 128780220.81806     -4077.286 6        40.391                                                                    24730890.703 5 104644452.37005     -3313.104 5        34.519
C24        51.000                                                                                                                                    21544524.228 7 112187997.65007     -1917.927 7        42.605                                                                    21544521.445 8  91162001.65508     -1558.352 8        48.269
C34        52.000                                                                                                                                    23393751.505 6 121817415.13906      1799.340 6        38.820                                                                    23393754.524 7  98986697.04207      1462.183 7        42.199
I06        58.000    38620440.733 5 151554968.65805      -685.878 5        35.357
I02        59.000    37828060.186 5 148445464.94205     -1082.062 5        33.503
> 2025 01 02 16 01 10.0000000  0 42
G11         2.000    24440302.052 4                     -4103.732 4        24.436                                                                                                    24440298.751 3                     -3197.836 3        21.762
G25         3.000    20917276.535 6 109921207.98106     -3234.922 6        38.219                                    20917275.375 4  85652876.14504     -2520.730 4        27.293    20917276.915 6  85652795.13606     -2520.504 6        37.028
G05         4.000    23633286.209 5 124193778.27005      1365.868 5        31.306
E25         6.000    23695264.347 8 124519506.98708     -2048.668 8        48.476                                                                    23695266.479 8  92985478.06308     -1529.931 8        52.141    23695265.556 8  95411081.63008     -1569.797 8        51.136
G31         7.000    21623427.843 5 113632066.63705      -224.055 5        35.114                                                                                                    21623424.612 6  88544390.44106      -174.498 6        37.875
G28         8.000    21409370.949 7 112507062.52707     -2002.822 7        42.417                                    21409348.339 1  87667740.92201     -1560.696 1         4.143
G29         9.000    20291051.268 7 106630267.67807     -1254.533 7        46.733                                    20291046.581 6  83088524.36306      -977.559 6        36.450    20291047.319 5  83088476.38905      -977.569 5        35.090
E11        10.000    23909941.760 6 125647593.38606     -1071.104 6        41.194                                                                    23909940.013 6  93827742.80706      -800.017 6        37.172    23909936.695 5  96275474.59605      -820.749 5        34.609
E10        11.000    25356093.305 6 133247171.03006     -2584.289 6        41.139                                                                    25356096.993 7  99502794.43307     -1929.816 7        43.818    25356094.430 7 102098456.37107     -1980.265 7        42.047
G18        12.000    22559288.973 7 118549926.94807      2379.594 7        43.164                                    22559291.911 2  92376570.23702      1854.226 2        12.000    22559284.487 4  92376646.31804      1854.188 4        27.737
E12        13.000    27381383.004 4                     -3472.792 4        25.579                                                                                                                                    27381373.120 3                     -2661.354 3        23.219
G04        14.000    25087322.110 4 131834827.21004      -374.149 4        26.287                                                                                                    25087321.030 5                      -291.280 5        32.216
G12        15.000    24358746.535 5                     -4335.253 5        30.740                                                                                                    24358758.120 3                     -3378.057 3        20.238
E24        16.000    27940564.775 3                     -3469.009 3        20.286
G26        17.000    22469201.723 6 118076470.55306      2082.341 6        38.447                                    22469212.235 3  92007662.77803      1622.604 3        18.388    22469219.877 5  92007678.82205      1622.612 5        35.495
E07        18.000    27790471.541 5 146039923.08305     -1382.098 5        31.660                                                                    27790484.514 6 109055824.93306     -1032.281 6        41.156    27790494.745 5 111900773.92305     -1059.336 5        32.731
E30        19.000    28176524.084 5 148068649.22005      1796.085 5        35.781                                                                    28176544.373 4 110570849.39204      1340.693 4        28.389    28176586.148 4                      1376.452 4        28.294
E08        20.000    27916785.244 4                     -3241.378 4        26.647                                                                    27916793.007 4 109551543.83604     -2420.905 4        26.204
E02        21.000    23730004.258 6 124702013.98106       487.659 6        38.204                                                                    23730004.700 7  93121700.60807       364.138 7        44.798    23730004.448 7  95550971.36807       373.644 7        46.060
S23        22.000    38084335.116 6 200134591.32406      -866.589 6        36.870
R08        23.000    23795161.058 5 127422055.59905     -1756.056 5        32.126
E36        24.000    24772041.963 6 130177977.65906      1596.342 6        41.652                                                                    24772045.304 7  97210950.40607      1192.062 7        42.411    24772043.693 7  99746871.61507      1223.124 7        42.899
R18        25.000    19019220.740 8 101525934.69508      -308.339 8        50.333                                                                    19019222.402 7  78964603.81407      -239.839 7        44.393
S21        27.000    38363393.545 5 201601078.56605      -862.383 5        35.714
R19        29.000    21199321.949 5 113402083.28005      2646.167 5        30.913                                                                    21199330.491 5  88201653.23315      2058.103 5        33.886
R15        30.000                                                                                                                                    21081049.263 5  87617253.60815     -3306.855 5        35.771
S36        31.000    38134659.995 6 200398996.01306      -861.942 6        36.246
R16        34.000    19032115.109 7 101666748.08807      -520.919 7        47.588                                                                    19032116.882 7  79073827.07307      -405.130 7        42.908
C44        35.000                                                                                                                                    21237939.525 7 110591838.23607      -980.378 7        47.133                                                                    21237941.079 8  89864834.07608      -796.641 8        48.911
R17        36.000    20507493.872 7 109740146.79507     -3885.800 7        46.140                                                                    20507495.094 7  85353184.32007     -3022.267 7        45.151
R09        37.000    21849389.564 5 116674483.79405      2884.711 5        30.302                                                                    21849396.139 6  90746906.56206      2243.884 6        39.997
C12        41.000                                                                                                                                    21967147.773 7 114388761.96407       534.498 7        43.191    21967145.136 7  88452648.59907       413.274 7        47.574    21967143.517 7  92950224.39707       434.371 7        45.153
C35        42.000                                                                                                                                    23542098.634 7 122589869.06807     -3398.770 7        46.642                                                                    23542097.633 6  99614351.37406     -2761.593 6        40.505
C05        43.000                                                                                                                                                                                                    39335113.925 4                      -623.138 4        29.649
C38        44.000                                                                                                                                    38749093.621 6 201776703.85906      -135.016 6        40.172                                                                    38749094.350 6 163960100.65606      -109.661 6        38.069
C25        45.000                                                                                                                                                                                                                                                                    23025984.908 6  97430667.35806      1014.312 6        38.261
C08        46.000                                                                                                                                    38417773.309 6 200051442.65906       488.521 6        39.000    38417763.049 5                       377.976 5        32.892    38417763.403 4 162558154.07604       396.406 4        28.919
C26        48.000                                                                                                                                    24734799.051 6 128800610.00006     -4078.493 6        41.311                                                                    24734806.731 5 104661020.23705     -3314.125 5        35.219
C24        51.000                                                                                                                                    21546367.590 7 112197593.84607     -1920.726 7        43.837                                                                    21546364.271 8  91169799.36508     -1560.672 8        48.181
C34        52.000                                                                                                                                    23392024.865 6 121808422.20906      1797.746 6        38.520                                                                    23392027.999 7  98979389.60907      1460.713 7        42.705
I06        58.000    38621314.084 5 151558398.13505      -685.886 5        35.757
I02        59.000    37829438.698 5 148450875.59705     -1082.473 5        33.371
> 2025 01 02 16 01 15.0000000  0 43
G20         1.000    23519456.832 3                      -925.660 3        22.400
G11         2.000                                                                                                                                                                    24444199.097 3                     -3199.010 3        23.181
G25         3.000    20920354.969 6 109937386.73706     -3236.553 6        37.365                                    20920354.749 4  85665482.96104     -2522.001 4        27.880    20920357.154 6  85665401.98306     -2522.120 6        38.583
G05         4.000    23631990.711 3 124186952.92503      1363.049 3        23.886                                    23631989.935 1  96769050.09711      1062.305 1         3.400
E25         6.000    23697214.206 8 124529753.10208     -2049.847 8        48.421                                                                    23697216.219 8  92993129.38608     -1530.751 8        52.069    23697215.206 8  95418932.54808     -1570.670 8        51.171
G31         7.000    21623642.396 6 113633193.48906      -226.850 6        36.461                                                                                                    21623638.965 6  88545268.53006      -176.914 6        36.310
G28         8.000    21411280.309 7 112517083.67407     -2005.818 7        42.381                                    21411254.891 1  87675549.47501     -1563.045 1         4.857    21411304.021 5                     -1563.100 5        31.555
G29         9.000    20292245.834 7 106636545.37107     -1256.555 7        46.545                                    20292240.495 6  83093416.09006      -979.136 6        36.711    20292242.468 5  83093368.13405      -979.260 5        35.705
E11        10.000    23910962.207 6 125652954.75506     -1073.311 6        40.973                                                                    23910960.127 6  93831746.40906      -801.395 6        36.265    23910957.265 5  96279582.64405      -822.301 5        34.686
E10        11.000    25358553.207 6 133260096.66106     -2586.006 6        41.814                                                                    25358556.479 7  99512446.69207     -1931.095 7        43.403    25358554.266 7 102108360.42607     -1981.602 7        42.262
G18        12.000    22557025.918 7 118538032.26307      2378.172 7        42.772                                    22557027.942 2  92367301.72102      1853.114 2        12.667    22557024.978 4  92367377.74204      1853.162 4        27.198
E12        13.000    27384687.354 4                     -3473.745 4        24.752                                                                    27384684.508 5 107463380.38515     -2594.170 5        30.257    27384678.383 4                     -2661.294 4        24.000
G04        14.000    25087683.533 5 131836704.28905      -376.688 5        30.392                                                                                                    25087678.523 5                      -293.664 5        33.180
G12        15.000    24362871.469 5                     -4335.942 5        30.143                                                                                                    24362882.346 3                     -3378.927 3        20.333
E24        16.000    27943867.346 3                     -3470.246 3        19.910
G26        17.000    22467224.470 6 118066060.98906      2081.258 6        39.384                                    22467231.878 2  91999551.46402      1621.775 2        17.585    22467237.230 5  91999567.49105      1622.027 5        33.994
E07        18.000    27791787.777 5 146046839.53605     -1384.412 5        32.060                                                                    27791800.806 6 109060989.79706     -1033.658 6        40.634    27791811.206 5 111906073.55105     -1060.771 5        32.048
E30        19.000    28174814.558 6 148059667.80906      1796.326 6        36.541                                                                    28174839.584 4 110564142.53904      1341.405 4        26.371    28174881.248 4                      1376.063 4        27.401
E08        20.000    27919870.946 4                     -3241.574 4        29.479                                                                    27919876.764 4 109563646.29204     -2421.395 4        24.887
E02        21.000    23729540.410 6 124699577.87206       486.856 6        40.184                                                                    23729541.047 7  93119881.44007       363.451 7        44.492    23729540.617 7  95549104.75307       372.929 7        46.141
S23        22.000    38085161.489 6 200138923.74006      -866.557 6        37.025
R08        23.000    23796806.906 5 127430844.20605     -1759.790 5        30.649
E36        24.000    24770523.755 6 130169999.49106      1594.744 6        41.380                                                                    24770527.300 7  97204992.70207      1190.984 7        42.648    24770525.036 7  99740758.50307      1221.882 7        42.391
R18        25.000    19019512.026 8 101527485.45108      -312.133 8        51.651                                                                    19019512.969 7  78965809.94307      -242.715 7        43.805
S21        27.000    38364213.296 5 201605390.21505      -862.498 5        35.814
R19        29.000    21196856.968 5 113388858.35705      2643.765 5        32.293                                                                    21196856.084 5  88191367.24905      2056.246 5        34.252
R15        30.000    21085089.913 4                     -4254.109 4        28.284                                                                    21085027.884 6  87633791.33706     -3308.336 6        38.345
S36        31.000    38135479.361 6 200403305.28206      -861.948 6        36.060
R16        34.000    19032604.985 8 101669361.19408      -524.448 8        48.176                                                                    19032605.561 7  79075859.48907      -407.892 7        42.925
C44        35.000                                                                                                                                    21238882.299 7 110596745.15907      -982.367 7        46.552                                                                    21238883.282 8  89868821.35308      -798.431 8        48.712
R17        36.000    20511125.826 7 109759580.66407     -3887.868 7        47.663                                                                    20511126.953 7  85368299.55407     -3023.896 7        44.883
R09        37.000    21846693.784 5 116660061.70505      2883.884 5        30.015                                                                    21846695.660 6  90735689.42106      2242.992 6        41.297
C12        41.000                                                                                                                                    21966633.803 6 114386094.17506       532.544 6        41.416    21966632.725 7  88450585.68307       411.809 7        47.430    21966631.059 7  92948056.59207       432.581 7        45.053
C35        42.000                                                                                                                                    23545362.010 7 122606864.74207     -3399.635 7        46.991                                                                    23545361.347 6  99628161.74906     -2762.497 6        40.074
C05        43.000                                                                                                                                                                                                    39335887.149 4                      -622.881 4        29.602
C38        44.000                                                                                                                                    38749222.821 6 201777380.40706      -135.726 6        39.949                                                                    38749224.376 6 163960650.40606      -110.417 6        37.981
C25        45.000                                                                                                                                    23024754.800 6 119896111.44006      1246.610 6        37.021                                                                    23024787.169 6  97425599.59506      1012.659 6        38.348
C08        46.000                                                                                                                                    38417304.795 6 200049001.71106       487.689 6        38.973    38417294.249 5                       377.115 5        32.844    38417295.459 4 162556170.58704       396.208 4        28.957
C26        48.000                                                                                                                                    24738715.306 6 128821004.23806     -4079.248 6        41.330                                                                    24738723.345 5 104677592.21605     -3314.892 5        35.567
C24        51.000                                                                                                                                    21548213.240 7 112207202.95407     -1923.021 7        44.370                                                                    21548209.602 7  91177607.55307     -1562.712 7        47.903
C34        52.000                                                                                                                                    23390299.321 6 121799436.55506      1796.611 6        37.369                                                                    23390302.653 7  98972088.03607      1459.679 7        43.075
I06        58.000    38622188.126 6 151561827.77406      -685.975 6        36.049
I02        59.000    37830818.320 5 148456287.28705     -1082.332 5        32.976
> 2025 01 02 16 01 20.0000000  0 42
G20         1.000    23520338.685 4                      -928.924 4        27.689
G11         2.000                                                                                                                                                                    24448106.432 4                     -3200.537 4        26.240
G25         3.000    20923437.486 6 109953575.54006     -3238.523 6        36.533                                    20923436.407 4  85678097.62504     -2523.520 4        29.156    20923439.099 6  85678016.60706     -2523.594 6        40.005
E25         6.000    23699165.334 8 124540006.00608     -2051.069 8        48.163                                                                    23699167.283 8  93000785.78208     -1531.651 8        52.064    23699166.171 8  95426788.67208     -1571.557 8        51.232
G31         7.000    21623860.493 6 113634337.37606      -230.264 6        39.865                                                                                                    21623856.450 5  88546159.91505      -179.465 5        35.371
G28         8.000    21413187.881 6 112527121.01206     -2008.954 6        41.116                                    21413164.645 1  87683370.85001     -1565.614 1         4.286
G29         9.000    20293442.844 7 106642833.96607     -1258.580 7        46.642                                    20293436.842 6  83098316.31306      -980.718 6        37.376    20293440.341 6  83098268.31606      -980.686 6        36.590
E11        10.000    23911984.883 6 125658328.31706     -1075.782 6        40.687                                                                    23911982.393 5  93835759.14505      -803.271 5        35.567    23911979.706 5  96283700.08205      -824.227 5        34.810
E10        11.000    25361014.642 7 133273031.87007     -2587.909 7        42.089                                                                    25361017.899 7  99522106.11207     -1932.527 7        43.046    25361016.220 7 102118271.82107     -1982.979 7        42.311
G18        12.000    22554763.067 6 118526145.69906      2376.682 6        40.889                                    22554765.574 1  92358039.47701      1851.951 1        11.852    22554760.709 4  92358115.52904      1851.969 4        26.611
E12        13.000    27387994.182 3                     -3475.095 3        23.448                                                                    27387990.775 5 107476352.66405     -2594.890 5        30.483    27387984.374 3                     -2662.443 3        22.914
G04        14.000    25088045.755 5 131838596.41805      -380.048 5        33.036                                                                                                    25088039.817 5 102731327.64315      -295.945 5        34.490
G12        15.000    24366998.083 4                     -4336.506 4        29.602                                                                                                    24367010.897 3                     -3378.337 3        22.324
E24        16.000    27947168.007 3                     -3472.782 3        19.134
G26        17.000                                                                                                                                                                    22465255.234 5  91991460.92505      1620.832 5        31.879
E07        18.000    27793105.011 5 146053767.49105     -1386.651 5        32.503                                                                    27793120.113 6 109066163.28306     -1035.299 6        40.169    27793130.764 5 111911381.99805     -1062.464 5        31.464
E30        19.000    28173105.863 6 148050686.17206      1796.567 6        37.248                                                                    28173142.292 4 110557435.61904      1341.465 4        26.754    28173179.438 4                      1376.688 4        26.000
E08        20.000    27922956.665 5                     -3242.746 5        30.091                                                                    27922962.293 4 109575752.41704     -2421.733 4        25.068
E02        21.000    23729077.184 6 124697147.26406       485.789 6        40.336                                                                    23729078.468 7  93118066.38207       362.671 7        44.333    23729078.020 7  95547242.33907       372.247 7        46.124
S23        22.000    38085983.195 6 200143256.09606      -866.260 6        36.885
R08        23.000    23798452.380 4 127439652.82804     -1763.476 4        28.730
E36        24.000    24769008.118 6 130162029.45106      1593.483 6        41.104                                                                    24769010.902 7  97199041.09207      1189.922 7        42.938    24769008.054 6  99734651.63206      1220.903 6        41.988
R18        25.000    19019806.765 8 101529056.05108      -315.918 8        52.254                                                                    19019807.384 7  78967031.52707      -245.759 7        44.409
S21        27.000    38365032.158 5 201609702.00405      -862.197 5        35.300
R19        29.000    21194392.386 5 113375645.38105      2641.624 5        32.293                                                                    21194382.996 5  88181090.51505      2054.404 5        34.295
R15        30.000                                                                                                                                    21089008.257 6  87650338.14606     -3310.087 6        39.435
S36        31.000    38136299.171 6 200407615.80906      -861.975 6        36.386
R16        34.000    19033097.906 8 101671993.14008      -528.147 8        48.809                                                                    19033098.482 7  79077906.54007      -410.552 7        42.550
C44        35.000                                                                                                                                    21239826.981 7 110601663.22007      -984.536 7        46.369                                                                    21239827.687 8  89872817.69008      -800.051 8        48.722
R17        36.000    20514760.353 8 109779026.08308     -3890.043 8        49.122                                                                    20514760.757 7  85383423.77107     -3025.602 7        44.278
R09        37.000    21843996.658 5 116645645.84405      2882.610 5        34.167                                                                    21843996.083 7  90724477.10907      2242.205 7        42.641
C12        41.000                                                                                                                                    21966122.194 6 114383437.09906       530.606 6        40.002    21966122.944 8  88448531.08508       410.186 8        48.358    21966120.812 7  92945897.51507       431.108 7        45.037
C35        42.000                                                                                                                                    23548626.684 7 122623865.78707     -3400.505 7        47.143                                                                    23548626.003 6  99641976.49206     -2763.332 6        39.853
C05        43.000                                                                                                                                                                                                    39336661.254 4                      -622.758 4        29.668
C38        44.000                                                                                                                                    38749353.445 6 201778062.27706      -136.677 6        39.571                                                                    38749355.027 6 163961204.49606      -110.937 6        38.339
C25        45.000                                                                                                                                                                                                                                                                    23023591.310 6  97420539.30206      1011.495 6        38.465
C08        46.000                                                                                                                                    38416836.879 6 200046566.02406       486.789 6        39.153    38416826.692 5                       376.240 5        33.000    38416827.321 4 162554191.38204       396.216 4        29.744
C26        48.000                                                                                                                                    24742632.680 6 128841402.98106     -4080.090 6        40.961                                                                    24742640.879 5 104694167.85905     -3315.271 5        35.438
C24        51.000                                                                                                                                    21550061.020 7 112216824.47507     -1925.328 7        44.707                                                                    21550057.191 7  91185425.85307     -1564.630 7        47.855
C34        52.000                                                                                                                                    23388574.709 6 121790457.63006      1795.191 6        36.117                                                                    23388578.294 7  98964791.97807      1458.741 7        43.473
I06        58.000    38623062.128 5 151565257.20805      -685.591 5        35.576
I02        59.000    37832197.367 5 148461699.53105     -1082.499 5        33.096
> 2025 01 02 16 01 25.0000000  0 41
G20         1.000    23521228.564 4                      -932.537 4        29.896
G11         2.000                                                                                                                                                                    24452012.072 4                     -3201.731 4        26.611
G25         3.000    20926521.084 6 109969774.02406     -3241.048 6        36.488                                    20926520.065 5  85690719.82905     -2525.484 5        30.196    20926522.524 6  85690638.79106     -2525.369 6        40.420
E25         6.000    23701117.539 8 124550265.38708     -2052.703 8        48.073                                                                    23701119.558 8  93008447.01608     -1532.866 8        52.072    23701118.421 8  95434649.75308     -1572.831 8        51.153
G31         7.000    21624082.799 6 113635498.00506      -233.799 6        41.836                                                                                                    21624076.806 5  88547064.29705      -182.372 5        35.390
G29         9.000    20294641.250 7 106649133.18707     -1261.117 7        46.667                                    20294635.621 6  83103224.81106      -982.695 6        38.408    20294638.982 6  83103176.82106      -982.600 6        38.772
E11        10.000    23913009.878 6 125663713.72706     -1078.377 6        40.000                                                                    23913007.111 5  93839780.74805      -805.326 5        34.381    23913004.447 5  96287826.58405      -826.314 5        34.624
E10        11.000    25363478.108 7 133285976.31907     -2589.928 7        42.038                                                                    25363480.906 7  99531772.42907     -1934.019 7        42.527    25363480.281 7 102128190.28507     -1984.536 7        42.322
G18        12.000    22552501.828 6 118514266.94006      2374.763 6        38.141                                    22552504.807 1  92348783.34301      1850.484 1        10.963    22552500.970 4  92348859.37904      1850.833 4        28.209
E12        13.000    27391297.423 3                     -3476.988 3        21.333                                                                    27391297.247 5 107489328.92905     -2595.582 5        30.241    27391289.704 3                     -2662.655 3        22.190
G04        14.000    25088411.682 5 131840503.20705      -383.035 5        35.605                                                                                                    25088402.771 5 102732813.46405      -298.091 5        35.324
G12        15.000    24371124.161 4                     -4337.665 4        28.711                                                                                                    24371139.819 3                     -3380.687 3        20.048
E24        16.000    27950474.217 3                     -3471.458 3        20.857
G26        17.000    22463293.552 6 118045259.75806      2078.774 6        39.084                                    22463274.676 2  91983342.75502      1619.823 2        17.057    22463279.899 5  91983358.76005      1620.070 5        30.211
E07        18.000    27794425.189 5 146060706.63105     -1388.946 5        33.006                                                                    27794441.430 6 109071345.10306     -1037.233 6        39.276    27794452.855 5 111916699.05105     -1064.010 5        30.898
E30        19.000    28171398.285 6 148041704.04206      1796.381 6        37.550                                                                    28171439.422 4 110550728.28504      1340.379 4        27.509    28171472.665 4                      1377.326 4        24.271
E08        20.000    27926042.174 4                     -3244.084 4        28.351                                                                    27926048.657 4 109587862.13004     -2422.458 4        25.534
E02        21.000    23728615.330 6 124694721.82506       484.495 6        40.789                                                                    23728616.896 7  93116255.17707       361.835 7        44.123    23728616.287 7  95545383.89307       371.186 7        45.946
S23        22.000    38086810.499 6 200147588.22906      -866.729 6        37.168
R08        23.000    23800094.860 4 127448481.04204     -1767.311 4        24.241
E36        24.000    24767494.026 6 130154067.25306      1591.516 6        40.653                                                                    24767495.954 7  97193095.32407      1188.484 7        43.134    24767492.668 6  99728550.75506      1219.542 6        41.261
R18        25.000    19020104.254 8 101530646.19408      -320.118 8        52.201                                                                    19020105.261 7  78968268.31807      -249.007 7        45.053
S21        27.000    38365852.777 5 201614013.49305      -862.507 5        35.471
R19        29.000    21191921.168 5 113362444.06505      2639.269 5        31.796                                                                    21191914.091 5  88170822.80905      2052.622 5        33.545
R15        30.000    21093025.603 6 112714778.44716     -4258.402 6        37.372                                                                    21092990.694 6  87666893.58506     -3312.130 6        39.399
S36        31.000    38137122.137 6 200411926.38706      -862.293 6        36.098
R16        34.000    19033594.019 8 101674643.56108      -532.080 8        49.077                                                                    19033593.755 6  79079967.99406      -413.854 6        41.306
C44        35.000                                                                                                                                    21240774.164 7 110606592.08507      -986.967 7        46.754                                                                    21240774.060 8  89876822.80008      -801.974 8        48.424
R17        36.000    20518396.978 8 109798482.83808     -3892.713 8        50.040                                                                    20518396.517 7  85398556.77807     -3027.640 7        43.136
R09        37.000    21841297.506 6 116631235.87206      2881.260 6        38.441                                                                    21841297.649 7  90713269.32507      2241.062 7        42.603
C12        41.000                                                                                                                                    21965612.908 6 114380790.46306       528.211 6        38.985    21965615.374 8  88446484.53008       408.405 8        48.988    21965612.636 7  92943746.88807       429.174 7        45.035
C35        42.000                                                                                                                                    23551892.202 7 122640871.86207     -3401.880 7        47.119                                                                    23551891.829 6  99655795.30806     -2764.269 6        39.562
C05        43.000                                                                                                                                                                                                    39337434.974 5                      -622.405 5        30.068
C38        44.000                                                                                                                                    38749484.944 6 201778749.13506      -137.801 6        39.300                                                                    38749486.836 6 163961762.63006      -112.127 6        38.408
C25        45.000                                                                                                                                                                                                                                                                    23022397.520 6  97415486.19706      1009.709 6        38.598
C08        46.000                                                                                                                                    38416369.226 6 200044135.22906       485.500 6        39.057    38416359.492 5                       375.424 5        33.449    38416360.696 4 162552216.18004       394.787 4        29.242
C26        48.000                                                                                                                                    24746550.068 6 128861805.95006     -4081.151 6        40.055                                                                    24746558.961 5 104710746.91805     -3316.218 5        35.452
C24        51.000                                                                                                                                    21551911.986 7 112226458.11207     -1928.153 7        45.138                                                                    21551907.204 7  91193253.95407     -1566.658 7        47.536
C34        52.000                                                                                                                                    23386852.645 5 121781485.15305      1793.859 5        35.138                                                                    23386854.896 7  98957501.10607      1457.618 7        43.287
I06        58.000    38623935.945 6 151568686.29506      -685.781 6        36.034
I02        59.000    37833576.319 5 148467111.93605     -1082.874 5        32.677
> 2025 01 02 16 01 30.0000000  0 41
G20         1.000    23522117.076 4                      -935.609 4        29.687
G11         2.000    24455994.514 4                     -4110.242 4        26.299                                                                                                    24455918.008 4                     -3202.757 4        27.976
G25         3.000    20929604.328 6 109985982.54006     -3242.597 6        37.259                                    20929605.413 5  85703349.85005     -2526.698 5        30.717    20929606.628 6  85703268.85306     -2526.925 6        40.188
E25         6.000    23703071.292 8 124560531.67908     -2053.997 8        48.131                                                                    23703073.090 8  93016113.40908     -1533.850 8        51.908    23703072.110 8  95442516.13508     -1573.818 8        51.292
G31         7.000    21624310.675 7 113636675.81307      -237.461 7        42.701                                                                                                    21624301.961 5  88547982.06505      -184.856 5        35.138
G28         8.000    21417000.391 6 112547243.84606     -2015.511 6        40.298
G29         9.000    20295841.633 7 106655443.44307     -1263.230 7        46.133                                    20295836.896 6  83108141.91206      -984.342 6        39.544    20295840.345 6  83108093.92406      -984.166 6        40.567
E11        10.000    23914036.845 6 125669111.43306     -1080.831 6        39.805                                                                    23914034.143 5  93843811.49905      -807.172 5        33.916    23914031.822 5  96291962.51805      -828.376 5        35.014
E10        11.000    25365943.131 6 133298930.45706     -2591.946 6        41.545                                                                    25365945.607 6  99541445.98406     -1935.475 6        41.983    25365946.241 7 102138116.16907     -1986.001 7        42.336
G18        12.000    22550243.186 5 118502396.44005      2373.122 5        34.729                                    22550245.756 1  92339533.67801      1849.153 1         8.476    22550242.801 5  92339609.67805      1849.488 5        30.219
E12        13.000    27394598.911 3                     -3473.997 3        20.690                                                                    27394605.631 5 107502309.59505     -2596.254 5        30.075    27394599.630 3                     -2664.079 3        23.105
G04        14.000    25088783.082 6 131842425.21606      -385.986 6        36.000                                                                                                    25088770.987 5 102734311.13105      -300.792 5        35.590
G12        15.000    24375250.981 4                     -4337.690 4        28.379
G26        17.000    22461316.495 6 118034868.32406      2077.518 6        37.652                                    22461297.870 2  91975245.49302      1618.899 2        13.818    22461310.787 4  91975261.59904      1618.408 4        28.076
E07        18.000    27795748.816 5 146067657.40505     -1391.414 5        32.910                                                                    27795764.220 6 109076535.62606     -1039.089 6        38.213    27795776.966 5 111922025.00005     -1065.815 5        31.577
E30        19.000    28169692.254 6 148032721.84206      1796.474 6        37.815                                                                    28169737.258 4 110544020.82404      1341.390 4        27.521    28169766.034 3                      1375.725 3        23.638
E08        20.000    27929126.806 4                     -3244.582 4        27.461                                                                    27929137.168 4 109599975.65004     -2423.313 4        27.353
E02        21.000    23728154.409 6 124692302.00206       483.437 6        41.144                                                                    23728156.360 7  93114448.18607       360.881 7        43.991    23728155.799 7  95543529.74907       370.317 7        46.037
S23        22.000    38087637.583 6 200151920.60106      -866.500 6        37.516
R08        23.000    23801742.778 4                     -1770.175 4        24.722
E36        24.000    24765980.645 6 130146113.33606      1589.878 6        40.653                                                                    24765982.407 7  97187155.73707      1187.329 7        42.919    24765979.239 6  99722456.23106      1218.217 6        41.056
R18        25.000    19020405.435 8 101532256.28508      -324.038 8        52.273                                                                    19020406.873 7  78969520.63007      -252.130 7        45.472
S21        27.000    38366668.226 5 201618325.19305      -862.347 5        35.243
R19        29.000    21189452.781 5 113349254.97305      2636.939 5        31.019                                                                    21189446.606 5  88160564.66105      2050.885 5        33.593
R15        30.000    21097005.124 6 112736075.71106     -4260.585 6        39.051                                                                    21096976.250 6  87683458.07406     -3313.832 6        38.922
S36        31.000    38137939.948 6 200416238.03606      -862.357 6        36.284
R16        34.000    19034093.228 8 101677312.98808      -535.835 8        49.057                                                                    19034093.218 6  79082044.23206      -416.712 6        40.377
C44        35.000                                                                                                                                    21241723.451 7 110611532.19207      -989.192 7        47.681                                                                    21241722.534 8  89880837.04808      -803.693 8        48.266
R17        36.000    20522035.902 8 109817951.31108     -3894.984 8        50.843                                                                    20522034.230 6  85413698.92006     -3029.497 6        41.836
R09        37.000    21838599.365 6 116616832.25306      2880.118 6        40.784                                                                    21838598.624 7  90702066.53407      2240.117 7        42.144
C12        41.000                                                                                                                                    21965107.534 6 114378154.62806       526.017 6        39.228    21965109.498 8  88444446.35208       406.762 8        49.285    21965106.442 7  92941605.06007       427.569 7        45.199
C35        42.000                                                                                                                                    23555158.963 7 122657883.41407     -3402.956 7        46.925                                                                    23555158.529 6  99669618.57406     -2765.121 6        39.420
C05        43.000                                                                                                                                                                                                    39338208.855 4                      -622.516 4        29.953
C38        44.000                                                                                                                                    38749617.264 6 201779441.45206      -138.993 6        38.535                                                                    38749619.879 6 163962325.17306      -112.894 6        38.589
C25        45.000                                                                                                                                    23021222.592 7 119877456.10707      1240.839 7        42.906                                                                    23021205.304 6  97410440.66506      1008.380 6        38.952
C08        46.000                                                                                                                                    38415903.332 6 200041709.76906       484.600 6        39.405    38415894.636 5                       374.765 5        34.200    38415895.360 4 162550245.29104       394.069 4        29.270
C26        48.000                                                                                                                                    24750469.242 6 128882213.55306     -4082.034 6        39.243                                                                    24750477.875 5 104727329.76805     -3316.778 5        34.829
C24        51.000                                                                                                                                    21553764.871 7 112236104.26907     -1930.626 7        45.424                                                                    21553759.543 7  91201092.25007     -1568.583 7        47.303
C34        52.000                                                                                                                                    23385131.639 5 121772519.51805      1792.764 5        34.690                                                                    23385132.961 7  98950215.81907      1456.560 7        43.024
I06        58.000    38624809.545 5 151572115.25505      -685.995 5        35.867
I02        59.000    37834955.898 5 148472525.17405     -1082.588 5        31.970
> 2025 01 02 16 01 35.0000000  0 41
G20         1.000    23523004.367 4                      -938.788 4        28.417
G11         2.000    24459907.256 4                     -4111.199 4        26.731                                                                                                    24459828.518 4                     -3203.445 4        28.853
G25         3.000    20932690.508 5 110002200.96105     -3244.428 5        34.271                                    20932692.277 5  85715987.61105     -2528.127 5        30.498    20932692.327 6  85715906.58906     -2528.070 6        39.607
E25         6.000    23705026.218 8 124570804.64608     -2055.099 8        48.525                                                                    23705027.887 8  93023784.78708     -1534.677 8        51.778    23705026.984 8  95450387.63708     -1574.745 8        51.361
G31         7.000    21624540.985 7 113637870.54207      -240.393 7        42.373                                    21624505.542 2  88548733.04012      -187.346 2        15.905    21624529.558 5  88548913.06705      -187.453 5        34.357
G28         8.000    21418922.183 6 112557329.50206     -2018.544 6        41.182                                                                                                    21418955.226 4                     -1572.709 4        29.232
G29         9.000    20297044.645 7 106661764.50007     -1265.186 7        46.035                                    20297040.536 6  83113067.43406      -985.866 6        40.589    20297043.498 7  83113019.43807      -985.747 7        42.512
E11        10.000    23915066.293 6 125674521.19306     -1083.104 6        39.871                                                                    23915063.492 5  93847851.27605      -808.855 5        33.641    23915061.521 5  96296107.64805      -829.700 5        34.886
E10        11.000    25368409.935 6 133311894.01106     -2593.374 6        41.504                                                                    25368412.075 6  99551126.58006     -1936.716 6        41.075    25368414.438 7 102148049.28407     -1987.263 7        42.235
G18        12.000    22547988.163 5 118490533.95605      2371.883 5        31.396                                    22547988.249 1  92330290.16301      1848.190 1         6.375    22547988.396 5  92330366.19905      1848.113 5        32.455
E12        13.000    27397902.219 3                     -3477.796 3        19.791                                                                    27397914.692 4 107515294.48304     -2597.590 4        29.213    27397909.543 3                     -2664.686 3        22.400
G04        14.000    25089152.326 5 131844362.01705      -388.017 5        33.090                                                                                                    25089139.728 5 102735820.33805      -302.599 5        34.324
G12        15.000    24379379.152 4                     -4338.490 4        28.626
G26        17.000                                                                                                                                                                    22459346.517 4  91967168.88104      1618.532 4        27.341
E07        18.000    27797073.559 5 146074619.54905     -1393.287 5        32.898                                                                    27797088.293 6 109081734.63806     -1040.687 6        36.639    27797102.087 5 111927359.66105     -1067.135 5        31.230
E30        19.000    28167987.882 6 148023739.34706      1796.617 6        37.819                                                                    28168031.583 4 110537313.13604      1341.238 4        27.569    28168057.208 3                      1378.028 3        21.071
E08        20.000    27932212.043 3                     -3247.157 3        23.105                                                                    27932226.040 4 109612092.76704     -2423.610 4        28.076
E02        21.000    23727695.690 6 124689887.55406       482.519 6        41.540                                                                    23727697.022 7  93112645.19607       360.296 7        43.771    23727696.496 7  95541679.73307       369.666 7        46.000
S23        22.000    38088462.200 6 200156252.70806      -866.442 6        37.830
R08        23.000    23803403.011 5                     -1775.422 5        30.015
E36        24.000    24764469.511 6 130138167.45206      1588.516 6        40.191                                                                    24764469.754 7  97181222.18007      1186.188 7        42.453    24764467.701 6  99716367.87006      1217.158 6        40.725
R18        25.000    19020710.688 8 101533886.16308      -327.779 8        52.715                                                                    19020712.604 7  78970788.31007      -255.011 7        45.923
S21        27.000    38367488.545 5 201622637.12705      -862.250 5        35.914
R19        29.000    21186991.933 5 113336077.91405      2634.158 5        31.404                                                                    21186982.683 5  88150315.79405      2048.969 5        34.105
R15        30.000    21100985.877 6 112757384.29306     -4262.783 6        39.492                                                                    21100964.292 6  87700031.36906     -3315.401 6        38.835
S36        31.000    38138760.745 6 200420549.00606      -861.792 6        36.079
R16        34.000    19034596.305 8 101680001.17908      -539.412 8        49.081                                                                    19034597.201 6  79084135.07106      -419.530 6        40.150
C44        35.000                                                                                                                                    21242674.337 8 110616483.31708      -991.160 8        48.668                                                                    21242673.272 8  89884860.27508      -805.523 8        48.031
R17        36.000    20525676.527 8 109837431.36008     -3896.958 8        51.623                                                                    20525674.575 6  85428850.07406     -3031.040 6        40.915
R09        37.000    21835902.350 7 116602434.72707      2879.090 7        42.864                                                                    21835901.886 6  90690868.45206      2239.352 6        41.738
C12        41.000                                                                                                                                    21964603.721 6 114375529.43806       524.074 6        40.477    21964605.249 8  88442416.37108       405.287 8        49.161    21964602.447 7  92939471.88407       425.730 7        45.400
C35        42.000                                                                                                                                    23558426.600 7 122674900.17607     -3403.678 7        47.017                                                                    23558426.294 6  99683446.10006     -2765.868 6        39.045
C05        43.000                                                                                                                                                                                                    39338982.424 5                      -622.661 5        30.128
C38        44.000                                                                                                                                    38749750.994 6 201780138.95906      -139.861 6        38.360                                                                    38749753.686 6 163962891.97506      -113.745 6        38.811
C25        45.000                                                                                                                                    23020031.641 7 119871255.93907      1239.344 7        43.589                                                                    23020014.975 6  97405402.55906      1006.883 6        39.252
C08        46.000                                                                                                                                    38415438.370 6 200039289.48706       483.713 6        39.423    38415433.871 5 154683017.71715       373.743 5        35.176    38415430.589 4 162548278.63904       393.204 4        29.374
C26        48.000                                                                                                                                    24754389.995 6 128902625.55506     -4082.719 6        39.153                                                                    24754397.808 5 104743916.20305     -3317.550 5        34.324
C24        51.000                                                                                                                                    21555618.846 7 112245762.73207     -1932.693 7        45.478                                                                    21555614.261 7  91208940.56207     -1570.704 7        47.175
C34        52.000                                                                                                                                    23383412.476 5 121763560.54705      1791.287 5        35.319                                                                    23383412.181 7  98942935.94707      1455.456 7        42.540
I06        58.000    38625683.029 5 151575543.91205      -685.676 5        35.667
I02        59.000    37836335.641 5 148477938.85305     -1082.004 5        31.585
> 2025 01 02 16 01 40.0000000  0 41
G20         1.000    23523892.498 5                      -941.785 5        30.483
G11         2.000                                                                                                                                                                    24463743.284 5                     -3204.748 5        30.174
G25         3.000    20935775.400 4 110018430.08904     -3247.271 4        28.730                                    20935780.863 5  85728633.63605     -2530.343 5        30.279    20935780.970 6  85728552.61706     -2530.219 6        39.222
G05         4.000    23625527.772 3                      1357.239 3        18.896
E25         6.000    23706982.314 8 124581085.00408     -2057.025 8        48.569                                                                    23706984.150 8  93031461.68708     -1536.108 8        51.646    23706983.428 8  95458264.79808     -1576.156 8        51.371
G31         7.000    21624771.680 6 113639082.94006      -244.400 6        41.395                                    21624740.030 3  88549677.79903      -190.453 3        18.030    21624760.335 5  88549857.82105      -190.554 5        33.245
G28         8.000    21420846.948 6 112567431.95906     -2022.448 6        40.858                                                                                                    21420883.064 5                     -1575.672 5        30.574
G29         9.000    20298249.811 7 106668097.10207     -1267.887 7        47.070                                    20298246.519 6  83118001.95106      -987.967 6        41.895    20298248.428 7  83117953.95007      -987.965 7        43.668
E11        10.000    23916098.122 6 125679943.71606     -1086.111 6        39.883                                                                    23916095.320 5  93851900.57205      -811.149 5        33.605    23916093.748 5  96300262.59105      -832.092 5        35.167
E10        11.000    25370878.604 6 133324867.71306     -2595.881 6        40.765                                                                    25370880.503 6  99560814.76806     -1938.581 6        40.219    25370884.153 7 102157990.17807     -1989.071 7        42.072
G18        12.000    22545741.818 4 118478680.12704      2369.780 4        29.877                                    22545732.575 1  92321053.54301      1846.599 1         7.375    22545731.270 5  92321129.53305      1846.814 5        33.892
E12        13.000    27401207.254 3                     -3480.865 3        20.619                                                                    27401225.779 5 107528283.98605     -2598.332 5        30.211
G04        14.000                                                                                                                                                                    25089510.399 5 102737341.72805      -305.624 5        32.263
G12        15.000    24383508.606 4                     -4339.680 4        28.009
G26        17.000                                                                                                                                                                    22457375.366 4  91959081.48904      1617.004 4        28.275
E07        18.000    27798400.167 5 146081593.79905     -1396.449 5        32.377                                                                    27798414.412 5 109086942.64705     -1042.629 5        34.700    27798430.123 5 111932703.60805     -1069.666 5        31.245
E30        19.000    28166283.927 6 148014757.23606      1796.144 6        37.811                                                                    28166323.014 4 110530605.77504      1341.448 4        26.407
E08        20.000                                                                                                                                    27935314.421 4 109624214.05104     -2425.212 4        29.137
E02        21.000    23727238.301 7 124687479.21107       480.938 7        42.030                                                                    23727238.791 7  93110846.76707       359.140 7        43.708    23727238.241 7  95539834.39507       368.415 7        46.055
S23        22.000    38089282.984 6 200160585.44106      -866.925 6        37.361
E36        24.000    24762959.326 6 130130230.35106      1586.242 6        38.622                                                                    24762958.681 6  97175295.15806      1184.647 6        41.900    24762957.741 6  99710286.22506      1215.674 6        40.555
R18        25.000    19021020.248 8 101535536.49608      -332.298 8        52.510                                                                    19021021.052 7  78972071.90507      -258.452 7        45.955
S21        27.000    38368312.209 5 201626949.76205      -862.681 5        35.724
R19        29.000    21184528.732 5 113322913.52305      2631.443 5        30.302                                                                    21184524.013 6  88140076.88406      2046.558 6        36.730
R15        30.000    21104969.024 6 112778704.93806     -4265.472 6        39.652                                                                    21104954.809 6  87716614.13006     -3317.601 6        39.736
S36        31.000    38139581.257 6 200424860.21206      -862.657 6        36.064
R16        34.000    19035103.633 8 101682708.84208      -543.591 8        49.427                                                                    19035105.180 6  79086241.04506      -422.772 6        40.026
C44        35.000                                                                                                                                    21243627.217 8 110621446.15608      -993.912 8        49.134                                                                    21243626.148 7  89888892.98207      -807.636 7        47.732
R17        36.000    20529319.814 8 109856923.55808     -3899.863 8        52.352                                                                    20529317.927 6  85444010.65806     -3033.204 6        40.276
R09        37.000    21833207.822 7 116588043.96107      2877.343 7        44.090                                                                    21833207.113 6  90679675.64006      2237.904 6        41.395
C12        41.000                                                                                                                                    21964103.017 6 114372915.53306       521.514 6        41.199    21964103.052 8  88440395.15208       403.164 8        49.041    21964100.636 7  92937347.86807       423.785 7        45.696
C35        42.000                                                                                                                                    23561695.597 7 122691922.86807     -3405.348 7        46.575                                                                    23561695.466 6  99697278.40506     -2767.198 6        39.129
C05        43.000                                                                                                                                                                                                    39339754.968 4                      -623.082 4        29.611
C38        44.000                                                                                                                                    38749886.230 6 201780842.36206      -141.488 6        37.505                                                                    38749888.798 6 163963463.54406      -114.882 6        38.841
C25        45.000                                                                                                                                    23018833.895 7 119865065.57407      1236.923 7        43.856                                                                    23018826.236 6  97400372.40706      1005.053 6        39.802
C08        46.000                                                                                                                                    38414974.365 6 200036875.06406       482.217 6        39.048    38414971.536 5 154681150.71805       372.698 5        35.848    38414967.088 4 162546316.70104       392.372 4        29.782
C26        48.000                                                                                                                                    24758312.738 6 128923042.64306     -4084.035 6        39.345                                                                    24758318.402 5 104760506.75405     -3319.051 5        33.240
C24        51.000                                                                                                                                    21557474.889 7 112255434.21307     -1935.798 7        45.487                                                                    21557471.481 7  91216799.40407     -1572.979 7        46.974
C34        52.000                                                                                                                                                                                                                                                                    23381692.853 7  98935662.02207      1453.969 7        42.252
I06        58.000    38626557.208 5 151578972.85605      -685.885 5        35.362
I02        59.000    37837714.968 5 148483353.45105     -1082.914 5        31.223
> 2025 01 02 16 01 45.0000000  0 41
G20         1.000    23524793.816 5                      -945.099 5        32.323
G11         2.000                                                                                                                                                                    24467655.610 5                     -3205.803 5        30.143
G25         3.000    20938866.302 4 110034669.12804     -3248.749 4        29.991                                    20938870.982 5  85741287.42505     -2531.507 5        30.309    20938871.630 6  85741206.40606     -2531.546 6        39.399
E25         6.000    23708939.586 8 124591372.15008     -2058.140 8        48.466                                                                    23708941.659 8  93039143.65208     -1536.899 8        51.676    23708941.102 8  95466147.16008     -1576.988 8        51.429
G31         7.000    21625004.559 6 113640312.42206      -247.623 6        39.898                                    21624977.768 3  88550635.83803      -192.958 3        19.015    21624993.352 5  88550815.81605      -192.732 5        34.357
G28         8.000    21422771.921 6 112577550.62906     -2025.462 6        41.557                                                                                                    21422805.571 5                     -1578.291 5        31.117
G29         9.000    20299457.087 7 106674440.60307     -1269.791 7        47.684                                    20299454.555 7  83122944.95807      -989.453 7        43.088    20299455.544 7  83122896.95407      -989.545 7        43.812
E11        10.000    23917132.617 6 125685378.40306     -1088.226 6        40.269                                                                    23917129.489 5  93855958.90505      -812.546 5        33.096    23917128.261 5  96304426.86405      -833.886 5        34.490
E10        11.000    25373348.844 6 133337850.95306     -2597.661 6        40.038                                                                    25373350.784 6  99570510.05106     -1939.825 6        39.456    25373355.579 6 102167938.36606     -1990.288 6        41.521
G18        12.000    22543489.466 5 118466834.45605      2368.241 5        33.293                                    22543478.385 1  92311823.28901      1845.423 1         7.500    22543476.904 5  92311899.29505      1845.158 5        34.648
E12        13.000    27404511.832 3                     -3481.688 3        21.476                                                                    27404537.391 4 107541277.75904     -2599.100 4        29.744
G04        14.000    25089876.540 4 131848282.04404      -395.320 4        27.485                                                                                                    25089881.119 5 102738874.80105      -307.802 5        30.309
G12        15.000    24387636.669 4                     -4340.203 4        27.593
G26        17.000                                                                                                                                                                    22455394.630 4  91950999.05604      1615.627 4        27.868
E07        18.000    27799730.065 5 146088579.56405     -1398.260 5        31.562                                                                    27799739.291 5 109092159.22005     -1044.207 5        32.922    27799759.880 5 111938056.37305     -1071.375 5        30.566
E30        19.000    28164575.905 6 148005774.93406      1796.559 6        36.964                                                                    28164615.372 4 110523898.20004      1342.450 4        24.496    28164575.218 6 113407072.19116      1376.595 6        37.766
E08        20.000                                                                                                                                    27938403.526 5 109636339.02505     -2425.365 5        30.362
E02        21.000    23726781.333 7 124685076.38807       480.062 7        42.142                                                                    23726781.573 7  93109052.45607       358.502 7        43.924    23726781.214 7  95537993.27307       367.807 7        45.976
S23        22.000    38090111.034 6 200164918.22506      -866.629 6        37.323
R08        23.000    23806742.691 4                     -1783.508 4        27.940                                                                    23806723.872 4                     -1387.126 4        27.377
E36        24.000    24761451.768 6 130122301.38706      1584.948 6        36.518                                                                    24761449.196 6  97169374.25706      1183.572 6        41.061    24761449.398 6  99704210.84306      1214.513 6        40.522
R18        25.000    19021332.728 8 101537206.72808      -336.024 8        51.686                                                                    19021334.300 7  78973370.99507      -261.395 7        46.641
S21        27.000    38369134.053 5 201631262.57905      -862.344 5        35.824
R19        29.000                                                                                                                                    21182067.882 6  88129847.26506      2045.080 6        38.219
R15        30.000    21108956.379 6 112800037.07706     -4267.657 6        39.315                                                                    21108947.517 6  87733205.77306     -3319.115 6        40.641
S36        31.000    38140402.117 6 200429171.23006      -862.139 6        36.129
R16        34.000    19035614.170 8 101685435.24708      -547.232 8        49.948                                                                    19035615.027 6  79088361.56806      -425.654 6        39.796
C44        35.000                                                                                                                                    21244582.134 8 110626420.11308      -995.873 8        49.499                                                                    21244581.196 7  89892934.74707      -809.288 7        47.469
R17        36.000    20532964.931 8 109876427.18808     -3901.944 8        52.791                                                                    20532962.458 6  85459180.11806     -3035.004 6        38.982
R09        37.000    21830514.256 7 116573659.65307      2876.271 7        44.507                                                                    21830513.525 6  90668487.86706      2237.154 6        40.658
C12        41.000                                                                                                                                    21963603.551 6 114370312.36706       519.539 6        41.266    21963602.949 8  88438382.20108       401.759 8        49.122    21963600.719 7  92935232.58107       422.170 7        46.124
C35        42.000                                                                                                                                    23564965.613 7 122708950.85807     -3406.164 7        46.273                                                                    23564965.678 6  99711115.04406     -2767.753 6        39.339
C05        43.000                                                                                                                                                                                                    39340527.673 4                      -622.565 4        29.829
C38        44.000                                                                                                                                    38750021.599 6 201781551.09906      -142.295 6        37.077                                                                    38750025.004 6 163964039.46506      -115.709 6        39.315
C25        45.000                                                                                                                                    23017634.661 7 119858884.50207      1235.270 7        43.517                                                                    23017639.323 6  97395349.76606      1003.640 6        40.093
C08        46.000                                                                                                                                    38414511.812 6 200034465.88606       481.352 6        38.940    38414509.555 6 154679287.79506       372.161 6        36.533    38414505.341 5 162544359.14405       390.566 5        30.181
C26        48.000                                                                                                                                    24762236.119 6 128943464.24006     -4084.874 6        40.443                                                                    24762240.031 5 104777100.93805     -3319.016 5        32.287
C24        51.000                                                                                                                                    21559333.423 7 112265118.08907     -1937.983 7        45.713                                                                    21559331.087 7  91224668.35407     -1574.779 7        46.836
C34        52.000                                                                                                                                                                                                                                                                    23379974.991 6  98928393.60606      1453.077 6        41.909
I06        58.000    38627430.629 5 151582401.62005      -685.780 5        35.457
I02        59.000    37839093.826 5 148488768.51705     -1083.362 5        30.536
> 2025 01 02 16 01 50.0000000  0 41
G20         1.000    23525697.737 5                      -948.252 5        32.287
G11         2.000                                                                                                                                                                    24471568.244 5                     -3206.579 5        30.551
G25         3.000    20941960.459 5 110050917.90605     -3250.712 5        32.180                                    20941962.800 5  85753948.84505     -2533.025 5        30.604    20941963.519 6  85753867.82106     -2533.176 6        38.943
E25         6.000    23710898.168 8 124601665.91008     -2059.532 8        48.207                                                                    23710900.460 8  93046830.56408     -1537.946 8        51.664    23710900.006 8  95474034.59608     -1578.096 8        51.381
G31         7.000    21625235.608 6 113641558.78506      -251.106 6        37.732                                    21625218.802 3  88551607.01303      -195.662 3        20.190    21625232.661 6  88551787.00206      -195.568 6        36.352
G28         8.000    21424701.210 6 112587685.28206     -2028.637 6        41.168
G29         9.000    20300666.103 7 106680794.79107     -1272.022 7        47.240                                    20300664.527 7  83127896.29307      -991.189 7        44.202    20300664.706 7  83127848.28707      -991.177 7        43.911
E11        10.000    23918169.027 6 125690825.06306     -1090.561 6        40.791                                                                    23918166.084 5  93860026.24305      -814.313 5        33.988    23918165.627 5  96308600.29605      -835.872 5        34.481
E10        11.000    25375821.232 6 133350843.54506     -2599.544 6        38.796                                                                    25375822.733 6  99580212.34006     -1941.367 6        38.387    25375827.813 6 102177893.72606     -1991.815 6        41.101
G18        12.000    22541233.535 5 118454996.84505      2366.411 5        34.567                                    22541225.827 1  92302599.24701      1843.912 1         9.905    22541223.183 5  92302675.26705      1843.833 5        34.595
E12        13.000                                                                                                                                    27407849.940 4 107554275.67204     -2600.319 4        29.564    27407869.452 4                     -2668.063 4        26.407
G04        14.000    25090248.876 3                      -399.210 3        21.381                                                                                                    25090259.304 5 102740419.50605      -310.466 5        30.181
G12        15.000    24391765.739 4                     -4341.069 4        26.874                                                                                                    24391759.477 3                     -3383.538 3        19.821
G26        17.000    22453388.112 6 117993365.03606      2072.540 6        37.168                                    22453400.573 2  91942905.15902      1614.991 2        16.981
E07        18.000    27801061.828 5 146095576.66805     -1400.754 5        31.147                                                                    27801066.631 5 109097384.32005     -1046.154 5        31.774    27801091.193 4 111943417.80204     -1073.197 4        29.251
E30        19.000    28162864.269 6 147996792.31506      1796.368 6        36.336                                                                    28162909.699 3                      1341.534 3        23.619    28162863.951 6 113400189.48906      1376.457 6        36.926
E08        20.000    27941516.501 4                     -3248.946 4        27.018                                                                    27941494.468 5 109648467.56605     -2426.279 5        30.400
E02        21.000    23726324.566 7 124682678.89907       478.891 7        42.582                                                                    23726325.502 7  93107262.13807       357.534 7        44.018    23726325.208 7  95536156.23907       366.932 7        46.032
S23        22.000    38090932.749 6 200169250.71106      -866.545 6        37.648
R08        23.000    23808416.536 4                     -1787.964 4        27.365                                                                    23808397.224 4                     -1390.473 4        29.782
E36        24.000    24759948.905 5 130114380.34705      1583.179 5        35.567                                                                    24759941.178 6  97163459.33606      1182.343 6        40.012    24759942.234 6  99698141.60706      1213.093 6        40.262
R18        25.000    19021649.116 8 101538896.58008      -340.056 8        51.301                                                                    19021650.623 7  78974685.33407      -264.541 7        46.672
S21        27.000    38369954.202 6 201635575.31506      -862.793 6        36.034
R19        29.000    21179598.413 4 113296620.60004      2626.352 4        28.701                                                                    21179610.927 6  88119626.88506      2043.092 6        38.255
R15        30.000    21112949.105 6 112821380.59906     -4270.048 6        37.815                                                                    21112942.673 6  87749806.29406     -3321.053 6        40.937
S36        31.000    38141223.013 6 200433481.98306      -862.364 6        36.170
R16        34.000    19036128.113 8 101688180.39008      -551.002 8        49.774                                                                    19036128.974 6  79090496.71206      -428.631 6        39.054
C44        35.000                                                                                                                                    21245539.570 8 110631405.02208      -998.210 8        49.874                                                                    21245538.485 7  89896985.40107      -811.119 7        47.108
R17        36.000    20536612.288 8 109895942.36008     -3904.292 8        53.075                                                                    20536609.520 6  85474358.56406     -3036.514 6        38.435
R09        37.000    21827820.637 7 116559281.37507      2874.865 7        43.579                                                                    21827819.740 6  90657304.77506      2235.969 6        39.859
C12        41.000                                                                                                                                    21963106.186 6 114367719.71906       517.363 6        41.333    21963105.187 8  88436377.41208       400.016 8        49.330    21963102.863 7  92933125.84507       420.498 7        46.141
C35        42.000                                                                                                                                    23568236.302 7 122725983.98707     -3407.275 7        45.773                                                                    23568236.825 6  99724955.87506     -2768.715 6        39.646
C05        43.000                                                                                                                                                                                                    39341302.351 4                      -622.385 4        29.896
C38        44.000                                                                                                                                    38750159.448 6 201782264.98806      -143.521 6        36.556                                                                    38750162.250 6 163964619.55906      -116.487 6        39.456
C25        45.000                                                                                                                                    23016449.505 7 119852712.46807      1233.474 7        42.610                                                                    23016454.127 6  97390334.47006      1002.350 6        40.200
C08        46.000                                                                                                                                    38414049.427 6 200032061.78306       480.069 6        38.691    38414047.788 6 154677428.79406       371.239 6        37.248    38414045.580 5 162542405.60205       390.519 5        30.309
C26        48.000                                                                                                                                    24766159.277 6 128963890.12206     -4085.872 6        41.473                                                                    24766162.615 5 104793698.70305     -3319.958 5        31.291
C24        51.000                                                                                                                                    21561194.019 7 112274814.18607     -1940.610 7        46.096                                                                    21561192.978 7  91232547.22807     -1576.804 7        46.586
C34        52.000                                                                                                                                    23378282.631 5 121736726.02405      1786.907 5        34.805                                                                    23378258.401 6  98921130.54506      1452.015 6        41.340
I06        58.000    38628304.097 5 151585830.04705      -685.774 5        35.324
I02        59.000    37840474.354 5 148494184.34105     -1083.357 5        30.234
> 2025 01 02 16 01 55.0000000  0 42
G20         1.000    23526600.173 5                      -951.379 5        30.755
G11         2.000                                                                                                                                                                    24475486.047 4                     -3208.006 4        28.332
G25         3.000    20945057.277 6 110067176.77506     -3252.873 6        36.253                                    20945056.399 5  85766618.11205     -2534.715 5        30.687    20945057.207 6  85766537.10106     -2534.878 6        37.792
G05         4.000    23621678.452 4                      1345.992 4        27.521
E25         6.000    23712858.316 8 124611966.58408     -2061.076 8        48.445                                                                    23712860.555 8  93054522.62908     -1539.079 8        51.503    23712860.229 8  95481927.31908     -1579.255 8        51.323
G31         7.000    21625466.575 5 113642822.24905      -254.903 5        34.329                                    21625462.903 3  88552591.57003      -198.623 3        21.929    21625472.738 6  88552771.55106      -198.344 6        36.941
G28         8.000    21426632.692 6 112597836.21606     -2031.963 6        40.741                                                                                                    21426646.793 4                     -1583.024 4        28.844
G29         9.000    20301877.314 7 106687160.01707     -1274.417 7        47.794                                    20301876.430 7  83132856.22707      -993.059 7        44.850    20301875.727 7  83132808.21907      -993.001 7        43.810
E11        10.000    23919207.508 6 125696283.97906     -1093.251 6        40.984                                                                    23919205.450 5  93864102.71905      -816.324 5        34.410    23919204.902 5  96312783.11005      -837.288 5        34.195
E10        11.000    25378295.217 6 133363845.77006     -2601.753 6        37.875                                                                    25378296.945 6  99589921.79106     -1942.773 6        37.629    25378301.406 6 102187856.47306     -1993.462 6        40.358
G18        12.000    22538980.562 5 118443167.53905      2365.046 5        34.148                                    22538974.763 2  92293381.66202      1842.850 2        12.364    22538971.943 5  92293457.66105      1842.760 5        33.731
E12        13.000                                                                                                                                    27411163.775 4 107567277.89404     -2600.968 4        29.962    27411178.533 4                     -2668.865 4        26.491
G04        14.000                                                                                                                                                                    25090643.260 5 102741976.00305      -312.757 5        30.158
G12        15.000    24395895.680 4                     -4341.571 4        27.198
G26        17.000    22451419.148 6 117983004.67206      2071.129 6        38.063                                    22451428.216 2  91934832.14102      1613.868 2        17.283    22451419.519 4  91934848.07704      1613.413 4        26.754
E07        18.000    27802395.505 5 146102585.37505     -1403.608 5        31.706                                                                    27802401.020 5 109102618.01405     -1047.562 5        31.004    27802424.881 4 111948788.14904     -1075.058 4        26.994
E30        19.000    28161156.524 5 147987809.57205      1796.457 5        35.986                                                                    28161199.576 3                      1340.597 3        20.214    28161156.157 6 113393306.67806      1376.395 6        36.174
E08        20.000    27944600.615 4                     -3249.904 4        26.036                                                                    27944586.609 5 109660599.88705     -2427.500 5        30.460
E02        21.000    23725869.852 7 124680287.03707       477.580 7        43.209                                                                    23725870.373 7  93105476.01007       356.612 7        44.093    23725870.373 7  95534323.51807       365.892 7        45.926
S23        22.000    38091757.267 6 200173583.30206      -866.820 6        37.641
R08        23.000    23810090.408 3                     -1790.481 3        23.219                                                                    23810068.100 5                     -1393.459 5        32.814
E36        24.000    24758444.829 6 130106467.61606      1581.453 6        36.068                                                                    24758434.581 6  97157550.61506      1180.956 6        39.102    24758436.683 6  99692078.71406      1211.804 6        40.107
R18        25.000    19021969.595 8 101540606.42408      -344.236 8        50.949                                                                    19021971.070 7  78976015.20707      -267.726 7        46.126
S21        27.000    38370774.244 6 201639888.12806      -862.921 6        36.011
R19        29.000    21177147.595 4 113283492.30704      2623.679 4        27.413                                                                    21177152.895 6  88109416.00606      2040.973 6        37.607
R15        30.000    21116946.590 6 112842735.63806     -4272.329 6        38.408                                                                    21116938.100 6  87766415.75406     -3323.010 6        40.250
S36        31.000    38142042.952 6 200437792.77706      -862.308 6        36.132
R16        34.000    19036645.431 8 101690944.54508      -554.983 8        50.175                                                                    19036646.469 6  79092646.57906      -431.525 6        38.168
C44        35.000                                                                                                                                    21246499.164 8 110636401.15008     -1000.621 8        49.610                                                                    21246497.836 7  89901045.14907      -812.946 7        46.903
R17        36.000    20540261.432 8 109915469.01308     -3906.807 8        52.290                                                                    20540259.059 6  85489545.99606     -3038.737 6        39.246
R09        37.000    21825126.582 6 116544909.44306      2873.417 6        40.579                                                                    21825128.305 6  90646126.63606      2234.938 6        39.192
C12        41.000                                                                                                                                    21962610.672 6 114365137.93806       515.027 6        41.292    21962609.223 8  88434381.01108       398.259 8        49.023    21962607.181 7  92931027.91707       418.540 7        46.306
C35        42.000                                                                                                                                    23571507.892 7 122743022.53707     -3408.414 7        44.983                                                                    23571508.981 6  99738801.06106     -2769.490 6        39.661
C05        43.000                                                                                                                                                                                                    39342076.075 4                      -623.345 4        29.488
C38        44.000                                                                                                                                    38750298.534 6 201782984.26506      -144.687 6        36.737                                                                    38750300.491 6 163965204.02706      -117.440 6        39.535
C25        45.000                                                                                                                                    23015269.289 7 119846549.79307      1231.316 7        42.040                                                                    23015270.802 6  97385326.78506      1000.743 6        40.236
C08        46.000                                                                                                                                    38413588.073 6 200029663.03206       478.859 6        38.745    38413587.815 6 154675573.91706       370.524 6        37.728    38413585.924 5 162540456.40805       389.214 5        30.574
C26        48.000                                                                                                                                    24770082.499 7 128984320.59307     -4086.742 7        42.273                                                                    24770085.377 4 104810300.11304     -3320.808 4        29.137
C24        51.000                                                                                                                                    21563058.287 7 112284522.80407     -1943.311 7        46.561                                                                    21563057.351 7  91240436.27007     -1578.939 7        46.434
C34        52.000                                                                                                                                                                                                                                                                    23376543.136 6  98913873.05706      1450.754 6        40.956
I06        58.000    38629178.463 5 151589258.39905      -685.837 5        35.286
I02        59.000    37841854.473 5 148499600.81505     -1083.644 5        30.091
> 2025 01 02 16 02  0.0000000  0 42
G20         1.000    23527507.662 4                      -954.064 4        26.802
G11         2.000    24479400.315 4                     -4117.788 4        29.251                                                                                                    24479405.751 4                     -3208.555 4        26.623
G25         3.000    20948151.365 6 110083445.97706     -3254.448 6        37.164                                    20948151.830 5  85779295.40405     -2535.933 5        30.068    20948153.580 6  85779214.40306     -2535.997 6        36.767
G05         4.000    23620400.641 5                      1343.428 5        32.653
E25         6.000    23714819.771 8 124622274.34708     -2061.834 8        48.406                                                                    23714821.960 8  93062219.99408     -1539.693 8        51.378    23714821.764 8  95489825.48108     -1579.831 8        51.346
G31         7.000    21625713.551 4 113644103.05604      -257.541 4        28.389                                    21625709.585 3  88553589.62503      -200.707 3        20.952    21625715.483 6  88553769.63906      -200.738 6        37.527
G28         8.000    21428567.521 6 112608003.62106     -2034.610 6        41.030                                                                                                    21428586.605 4                     -1585.938 4        29.592
G29         9.000    20303090.984 8 106693536.44808     -1275.969 8        48.704                                    20303090.252 7  83137824.89507      -994.270 7        45.293    20303088.937 7  83137776.88707      -994.345 7        44.081
E11        10.000    23920248.665 6 125701755.36306     -1095.180 6        40.791                                                                    23920247.083 5  93868188.49705      -817.769 5        34.762    23920246.523 5  96316975.47705      -838.875 5        34.052
E10        11.000    25380771.424 6 133376857.82706     -2602.840 6        37.338                                                                    25380772.901 6  99599638.61006     -1943.971 6        36.733    25380776.417 6 102197826.73506     -1994.526 6        39.847
G18        12.000    22536733.624 5 118431346.77105      2363.554 5        32.281                                    22536725.341 2  92284170.67702      1841.734 2        12.364    22536722.945 5  92284246.70505      1842.168 5        32.766
E12        13.000    27414506.503 4                     -3483.627 4        25.173                                                                    27414478.225 4 107580284.55404     -2601.178 4        29.782    27414491.406 4                     -2669.588 4        26.982
G04        14.000    25091018.035 4                      -403.984 4        24.737                                                                                                    25091027.555 4 102743544.45104      -314.725 4        29.052
G12        15.000    24400027.330 4                     -4341.852 4        27.976
G26        17.000    22449446.363 6 117972650.79206      2070.629 6        38.676                                    22449456.298 2  91926764.16402      1613.478 2        17.736    22449450.733 4  91926780.06004      1613.414 4        27.317
E07        18.000    27803732.422 5 146109605.79405     -1404.730 5        32.323                                                                    27803738.065 5 109107860.60305     -1049.342 5        30.249
E30        19.000    28159449.638 5 147978826.99805      1796.558 5        34.252                                                                                                                                    28159450.017 5 113386423.95905      1376.739 5        34.652
E08        20.000                                                                                                                                    27947678.946 5 109672736.07105     -2427.347 5        30.068
E02        21.000    23725416.366 7 124677900.99107       477.050 7        43.987                                                                    23725416.400 7  93103694.23807       356.220 7        44.290    23725416.396 7  95532495.26707       365.475 7        46.027
S23        22.000    38092586.829 6 200177916.30706      -866.227 6        37.690
R08        23.000    23811761.583 4                     -1795.423 4        24.105                                                                    23811749.018 5                     -1396.475 5        32.737
E36        24.000    24756939.628 6 130098563.44506      1580.532 6        37.667                                                                    24756930.190 6  97151648.23006      1180.210 6        38.126    24756932.651 6  99686022.33706      1210.975 6        40.021
R18        25.000    19022293.372 8 101542336.38908      -347.629 8        50.209                                                                    19022294.523 7  78977360.74807      -270.353 7        45.362
S21        27.000    38371595.749 5 201644201.05705      -862.193 5        35.643
R19        29.000    21174694.021 4 113270376.51804      2621.880 4        25.519                                                                    21174701.211 6  88099214.87006      2039.697 6        36.741
R15        30.000    21120951.382 6 112864102.49206     -4274.093 6        37.603                                                                    21120936.385 6  87783034.43606     -3324.396 6        39.778
S36        31.000    38142865.350 5 200442103.29605      -861.908 5        35.867
R16        34.000    19037166.571 8 101693727.78808      -558.162 8        50.360                                                                    19037167.862 6  79094811.34006      -434.044 6        38.015
C44        35.000                                                                                                                                    21247460.449 8 110641408.67608     -1002.209 8        49.468                                                                    21247459.451 7  89905114.17107      -814.572 7        46.742
R17        36.000    20543911.590 8 109935007.55708     -3908.495 8        50.834                                                                    20543910.000 6  85504742.62906     -3039.970 6        40.667
R09        37.000    21822435.570 6 116530544.28806      2872.724 6        38.622                                                                    21822439.562 6  90634953.74206      2234.382 6        39.183
C12        41.000                                                                                                                                    21962116.253 6 114362567.18906       513.503 6        40.584    21962114.976 8  88432393.14808       396.994 8        48.847    21962113.506 7  92928938.97107       417.031 7        46.459
C35        42.000                                                                                                                                    23574780.826 7 122760066.69307     -3408.960 7        44.029                                                                    23574782.309 6  99752650.82006     -2770.262 6        39.910
C05        43.000                                                                                                                                                                                                    39342849.845 5                      -622.637 5        30.000
C38        44.000                                                                                                                                    38750438.973 6 201783709.14706      -145.014 6        36.749                                                                    38750439.787 6 163965793.07206      -118.104 6        39.646
C25        45.000                                                                                                                                    23014088.769 7 119840396.67107      1230.078 7        42.197                                                                    23014089.225 6  97380326.86706       999.464 6        40.126
C08        46.000                                                                                                                                    38413128.683 6 200027269.83906       478.378 6        38.694    38413128.597 6 154673723.38406       369.885 6        38.610    38413128.038 5 162538511.75405       388.924 5        30.755
C26        48.000                                                                                                                                    24774006.862 7 129004755.85107     -4087.208 7        43.037                                                                    24774009.777 4 104826905.41204     -3320.488 4        27.138
C24        51.000                                                                                                                                    21564925.238 7 112294244.10507     -1945.103 7        46.883                                                                    21564924.042 7  91248335.62307     -1580.700 7        46.342
C34        52.000                                                                                                                                    23374830.315 6 121718870.39506      1784.467 6        37.077                                                                    23374829.206 6  98906621.30006      1450.034 6        40.458
I06        58.000    38630052.351 5 151592686.75005      -685.282 5        35.657
I02        59.000    37843234.215 5 148505017.84805     -1083.296 5        30.219
> 2025 01 02 16 02  5.0000000  0 40
G11         2.000    24483317.581 4                     -4119.378 4        28.739                                                                                                    24483328.643 3                     -3210.306 3        22.819
G25         3.000    20951248.357 5 110099725.08705     -3256.978 5        35.643                                    20951249.140 4  85791980.41404     -2537.910 4        28.825    20951251.913 6  85791899.38706     -2537.741 6        36.983
G05         4.000    23619126.617 5                      1341.123 5        34.943
E25         6.000    23716782.573 8 124632588.83908     -2063.438 8        48.382                                                                    23716784.712 8  93069922.37808     -1540.906 8        51.275    23716784.648 8  95497728.79608     -1581.095 8        51.319
G31         7.000                                                                                                                                                                    21625962.362 6  88554780.96706      -203.651 6        37.694
G28         8.000    21430505.237 7 112618187.12007     -2038.152 7        42.017                                                                                                    21430528.537 4                     -1588.269 4        29.213
G29         9.000    20304306.588 8 106699923.71008     -1278.483 8        49.122                                    20304305.934 7  83142801.99507      -996.227 7        45.549    20304304.530 7  83142753.97507      -996.163 7        44.438
E11        10.000    23921291.503 6 125707238.82206     -1097.842 6        40.451                                                                    23921291.110 5  93872283.29105      -819.780 5        35.324    23921290.858 5  96321177.11605      -841.143 5        33.737
E10        11.000    25383249.839 6 133389879.29406     -2605.005 6        36.522                                                                    25383250.643 5  99609362.43905     -1945.531 5        35.581    25383252.683 6 102207804.23006     -1996.138 6        39.045
G18        12.000    22534485.176 5 118419534.11905      2362.093 5        30.317                                    22534477.434 2  92274966.06102      1840.668 2        12.485    22534477.138 5  92275042.12805      1840.551 5        32.653
E12        13.000    27417819.104 4                     -3485.448 4        26.826                                                                    27417793.928 5 107593295.40505     -2602.761 5        30.189    27417804.082 4                     -2670.656 4        27.293
G04        14.000    25091412.334 5                      -406.969 5        30.823                                                                                                    25091412.666 4 102745124.40604      -317.216 4        28.370
G12        15.000    24404162.463 4                     -4342.403 4        28.493
G26        17.000    22447478.071 6 117962302.97906      2069.063 6        39.054                                    22447485.300 2  91918700.95602      1612.268 2        17.283    22447483.345 4  91918716.88504      1612.151 4        27.868
E07        18.000    27805071.936 5 146116637.70605     -1407.220 5        34.114                                                                    27805077.427 5 109113111.68005     -1050.976 5        30.536    27805096.694 4 111959555.69504     -1078.565 4        27.916
E30        19.000    28157743.848 5 147969844.10105      1796.971 5        33.060                                                                                                                                    28157744.921 5 113379541.00305      1376.807 5        34.552
E08        20.000    27950770.148 3                     -3252.272 3        23.314                                                                    27950772.063 4 109684875.93504     -2428.390 4        29.848
E02        21.000    23724963.454 7 124675520.41907       475.742 7        44.494                                                                    23724963.565 7  93101916.54307       355.185 7        44.468    23724963.444 7  95530671.18707       364.485 7        45.955
S23        22.000    38093407.452 6 200182249.02706      -866.396 6        37.648
E36        24.000    24755437.442 6 130090667.45506      1578.452 6        38.655                                                                    24755427.612 6  97145751.91706      1178.687 6        37.690    24755430.211 6  99679972.17806      1209.543 6        40.079
R18        25.000    19022620.931 8 101544086.11208      -351.833 8        50.112                                                                    19022622.008 7  78978721.65007      -273.735 7        44.754
S21        27.000    38372417.181 5 201648513.82605      -862.419 5        35.481
R19        29.000    21172244.697 4 113257272.69104      2620.054 4        24.150                                                                    21172250.737 6  88089023.06706      2037.631 6        36.215
R15        30.000    21124950.081 5 112885480.66405     -4276.564 5        35.386                                                                    21124936.858 6  87799661.90206     -3326.332 6        39.225
S36        31.000    38143687.199 5 200446414.09805      -862.298 5        35.762
R16        34.000    19037691.097 8 101696529.97508      -562.178 8        50.361                                                                    19037691.895 6  79096990.82306      -437.405 6        39.279
C44        35.000                                                                                                                                    21248423.808 8 110646427.25208     -1004.705 8        49.331                                                                    21248423.317 7  89909192.16407      -816.398 7        46.720
R17        36.000    20547563.907 8 109954557.48408     -3911.008 8        49.823                                                                    20547563.378 7  85519948.14507     -3041.912 7        42.279
R09        37.000    21819750.340 6 116516185.32806      2871.259 6        40.224                                                                    21819750.222 6  90623785.68206      2233.237 6        38.673
C12        41.000                                                                                                                                    21961624.037 6 114360007.10306       511.101 6        40.040    21961622.985 8  88430413.52008       395.165 8        48.768    21961621.951 7  92926858.66807       415.243 7        46.612
C35        42.000                                                                                                                                    23578055.354 7 122777116.08907     -3410.347 7        42.880                                                                    23578056.624 6  99766504.82206     -2771.114 6        40.105
C05        43.000                                                                                                                                                                                                    39343623.284 4                      -622.870 4        29.886
C38        44.000                                                                                                                                    38750580.020 6 201784439.30006      -146.445 6        36.919                                                                    38750580.166 6 163966386.38206      -119.027 6        39.820
C25        45.000                                                                                                                                    23012908.723 7 119834252.72207      1227.940 7        42.845                                                                    23012909.425 6  97375334.42306       997.832 6        39.856
C08        46.000                                                                                                                                    38412670.443 6 200024881.87306       477.168 6        38.979    38412669.833 6 154671876.84806       368.936 6        39.267    38412670.132 5 162536571.37205       387.622 5        31.238
C26        48.000                                                                                                                                    24777931.767 7 129025195.50207     -4088.252 7        43.295                                                                    24777935.953 4 104843514.31104     -3322.374 4        25.504
C24        51.000                                                                                                                                    21566794.226 7 112303977.75407     -1947.854 7        46.871                                                                    21566793.178 7  91256245.00207     -1582.832 7        46.166
C34        52.000                                                                                                                                    23373119.320 5 121709952.74705      1782.989 5        35.324                                                                    23373116.658 6  98899375.00106      1448.818 6        40.257
I06        58.000    38630925.149 5 151596114.87605      -685.432 5        35.681
I02        59.000    37844614.480 5 148510435.50605     -1083.717 5        30.438
> 2025 01 02 16 02 10.0000000  0 43
G20         1.000    23529340.973 4                      -959.084 4        24.421
G11         2.000    24487233.851 4                     -4120.834 4        27.473                                                                                                    24487256.659 3                     -3211.963 3        19.761
G25         3.000    20954347.837 5 110116013.38605     -3258.741 5        34.286                                    20954348.135 4  85804672.60704     -2539.283 4        27.569    20954351.126 6  85804591.58206     -2539.026 6        37.074
G05         4.000    23617848.230 5 124112639.65215      1338.655 5        34.652
E25         6.000    23718746.580 8 124642909.43908     -2064.888 8        48.301                                                                    23718748.613 8  93077629.32508     -1541.979 8        51.258    23718748.627 8  95505636.79108     -1582.166 8        51.188
G31         7.000                                                                                                                                                                    21626212.750 6  88555805.06306      -206.297 6        37.569
G28         8.000    21432446.443 7 112628386.11107     -2041.498 7        42.900                                                                                                    21432471.394 4                     -1590.297 4        27.880
G29         9.000    20305523.948 8 106706321.21208     -1280.674 8        49.066                                    20305523.325 7  83147787.07907      -997.927 7        45.901    20305521.909 7  83147739.05507      -997.897 7        44.137
E11        10.000    23922336.741 6 125712733.73806     -1100.219 6        40.353                                                                    23922337.167 5  93876386.66305      -821.748 5        35.652    23922337.494 5  96325387.55705      -842.807 5        33.120
E10        11.000    25385730.360 6 133402909.57406     -2606.863 6        36.193                                                                    25385729.742 5  99619092.85705     -1946.688 5        34.429    25385730.918 6 102217788.49306     -1997.805 6        38.252
G18        12.000    22532239.151 4 118407728.94304      2360.830 4        29.156                                    22532230.944 2  92265767.30402      1839.603 2        12.182    22532230.309 5  92265843.39205      1839.103 5        32.437
E12        13.000    27421135.098 4                     -3486.516 4        26.204                                                                    27421110.486 4 107606309.94404     -2603.650 4        29.659    27421113.995 4                     -2671.467 4        28.085
G04        14.000    25091802.608 5                      -409.710 5        30.332                                                                                                    25091803.503 4 102746715.47004      -319.655 4        27.485
G12        15.000    24408297.842 4                     -4342.837 4        28.872
E24        16.000    27980226.122 3                     -3475.299 3        19.194
G26        17.000    22445514.381 6 117951960.66506      2067.855 6        38.640                                    22445515.864 2  91910642.02102      1611.278 2        16.679    22445518.293 5  91910658.03005      1611.097 5        30.189
E07        18.000    27806410.570 5 146123680.39705     -1409.708 5        35.571                                                                    27806419.285 5 109118370.77205     -1052.401 5        31.691    27806437.169 4 111964952.08804     -1080.303 4        28.929
E30        19.000    28156036.468 5 147960860.35405      1796.605 5        33.431                                                                    28156026.812 5                      1341.710 5        31.736    28156037.821 5 113372657.41005      1376.991 5        34.286
E08        20.000                                                                                                                                    27953866.517 4 109697018.89104     -2429.509 4        29.716
E02        21.000    23724511.187 7 124673144.67707       474.535 7        44.883                                                                    23724511.562 7  93100142.45907       354.310 7        44.783    23724511.342 7  95528850.82307       363.570 7        45.989
S23        22.000    38094233.124 6 200186581.07106      -866.433 6        37.902
E36        24.000    24753936.046 6 130082778.96406      1576.519 6        38.465                                                                    24753926.906 6  97139861.20306      1177.580 6        37.845    24753928.849 6  99673927.81606      1208.185 6        40.074
R18        25.000    19022952.708 8 101545855.01508      -355.837 8        50.502                                                                    19022953.717 7  78980097.46807      -276.787 7        45.536
G16        26.000    25131383.141 5 132066302.70715      2749.764 5        30.460
S21        27.000    38373235.032 5 201652825.93505      -862.386 5        35.729
R19        29.000    21169799.852 3 113244180.35503      2616.661 3        23.905                                                                    21169802.330 5  88078840.15005      2035.557 5        35.505
R15        30.000                                                                                                                                    21128938.527 6  87816297.69406     -3327.988 6        38.396
S36        31.000    38144505.287 5 200450724.02305      -862.206 5        35.757
R16        34.000    19038219.339 8 101699350.30408      -566.052 8        50.850                                                                    19038219.706 6  79099184.42506      -440.195 6        40.756
C44        35.000                                                                                                                                    21249389.477 8 110651456.22808     -1006.981 8        49.442                                                                    21249389.134 7  89913278.63407      -818.250 7        46.756
R17        36.000    20551219.656 8 109974118.17108     -3913.373 8        48.898                                                                    20551218.263 7  85535162.01307     -3043.672 7        42.864
R09        37.000    21817063.514 7 116501832.04407      2869.961 7        42.413                                                                    21817061.518 6  90612622.02506      2232.301 6        36.964
C12        41.000                                                                                                                                    21961133.456 6 114357457.06906       508.774 6        39.607    21961133.446 8  88428441.67908       393.491 8        48.507    21961132.327 7  92924786.56107       413.546 7        46.862
C35        42.000                                                                                                                                    23581331.071 6 122794170.03806     -3411.267 6        41.509                                                                    23581331.736 6  99780362.57106     -2772.031 6        40.346
C05        43.000                                                                                                                                                                                                    39344397.353 4                      -622.329 4        29.479
C38        44.000                                                                                                                                    38750721.354 6 201785174.08206      -147.612 6        37.524                                                                    38750721.338 6 163966983.48706      -119.959 6        39.988
C25        45.000                                                                                                                                    23011730.417 7 119828117.36607      1226.016 7        43.932                                                                    23011731.464 6  97370348.97506       996.272 6        39.468
C08        46.000                                                                                                                                    38412213.537 6 200022498.44806       476.210 6        39.249    38412211.817 6 154670033.86706       368.272 6        40.293    38412211.022 5 162534634.69205       386.505 5        31.283
C26        48.000                                                                                                                                    24781857.204 7 129045638.92807     -4089.190 7        43.520                                                                    24781861.875 4                     -3323.005 4        24.030
C24        51.000                                                                                                                                    21568666.170 7 112313723.09607     -1950.382 7        47.289                                                                    21568664.761 7  91264163.91407     -1584.856 7        46.182
C34        52.000                                                                                                                                    23371408.969 5 121701041.14805      1781.615 5        34.038                                                                    23371405.499 6  98892133.67406      1447.603 6        40.539
I06        58.000    38631799.037 5 151599542.29205      -685.425 5        35.295
I02        59.000    37845997.042 5 148515853.35605     -1083.584 5        30.249
> 2025 01 02 16 02 15.0000000  0 42
G11         2.000    24491152.790 4                     -4121.423 4        25.744
G25         3.000    20957449.518 5 110132311.28605     -3260.919 5        35.057                                    20957449.049 4  85817372.26904     -2540.967 4        26.335    20957451.469 6  85817291.22906     -2540.814 6        37.648
G05         4.000    23616575.651 5 124105950.47205      1336.539 5        33.353
E25         6.000    23720711.849 8 124653236.37908     -2066.210 8        48.377                                                                    23720713.709 8  93085341.00208     -1542.942 8        51.208    23720713.675 8  95513549.64908     -1583.208 8        50.983
G31         7.000                                                                                                                                                                    21626466.188 6  88556842.10606      -208.926 6        37.618
G28         8.000    21434390.129 7 112638600.79307     -2044.814 7        44.045
G29         9.000    20306743.014 8 106712729.16908     -1282.842 8        49.106                                    20306742.508 7  83152780.30107      -999.615 7        45.914    20306740.576 7  83152732.28407      -999.691 7        43.041
E11        10.000    23923384.955 6 125718240.37706     -1102.743 6        40.400                                                                    23923384.975 6  93880498.76006      -823.502 6        36.023    23923386.768 5  96329606.95505      -844.738 5        32.737
E10        11.000    25388212.122 6 133415948.91506     -2609.064 6        36.904                                                                    25388210.124 5  99628830.00205     -1948.017 5        32.766    25388211.448 6 102227779.66706     -1999.080 6        37.837
G18        12.000    22529996.959 5 118395931.64105      2358.623 5        30.445                                    22529986.015 1  92256574.70201      1837.888 1        10.444    22529986.260 5  92256650.69605      1837.716 5        32.832
E12        13.000    27424453.216 4                     -3487.828 4        25.970                                                                    27424428.764 4 107619328.34804     -2604.156 4        29.725    27424428.196 4                     -2671.936 4        28.294
G04        14.000    25092193.517 4                      -412.990 4        27.892
G12        15.000    24412434.253 4                     -4343.803 4        28.332                                                                                                    24412469.171 3                     -3386.342 3        20.405
G26        17.000    22443549.241 6 117941624.06406      2066.432 6        36.336                                    22443548.077 2  91902587.53502      1610.209 2        16.189    22443561.641 5  91902603.53005      1610.241 5        30.317
E07        18.000    27807752.453 5 146130734.10305     -1412.050 5        35.690                                                                    27807762.844 5 109123638.14705     -1054.178 5        32.269    27807778.890 5 111970356.93005     -1082.026 5        30.060
E30        19.000    28154325.946 5 147951875.95605      1796.753 5        34.424                                                                    28154320.557 5                      1341.633 5        31.932    28154328.916 5 113365773.35205      1376.756 5        34.562
E08        20.000                                                                                                                                    27956961.120 4 109709165.16904     -2429.907 4        28.569
E02        21.000    23724060.041 7 124670774.02907       473.434 7        45.264                                                                    23724060.537 7  93098372.18507       353.548 7        45.013    23724060.215 7  95527034.36507       362.747 7        45.779
S23        22.000    38095055.223 6 200190912.81406      -866.303 6        37.546
R08        23.000    23816777.487 5                     -1807.501 5        33.323
E36        24.000    24752436.194 6 130074898.23006      1574.907 6        37.645                                                                    24752427.426 6  97133976.29306      1176.453 6        38.315    24752429.058 6  99667889.37406      1207.033 6        40.207
R18        25.000    19023288.215 8 101547643.25908      -359.800 8        50.662                                                                    19023289.503 7  78981488.33607      -279.933 7        46.129
G16        26.000    25128766.471 4 132052551.05204      2750.028 4        29.991
S21        27.000    38374052.395 5 201657137.48005      -862.441 5        35.529
R19        29.000                                                                                                                                    21167355.548 5  88068666.47515      2033.563 5        33.808
R15        30.000    21132936.706 5 112928269.39405     -4281.447 5        31.698                                                                    21132942.343 6  87832942.07306     -3329.896 6        37.089
S36        31.000    38145321.470 5 200455034.04305      -862.034 5        35.867
R16        34.000    19038750.693 8 101702189.07808      -569.834 8        50.234                                                                    19038750.364 6  79101392.36006      -443.218 6        41.340
C44        35.000                                                                                                                                    21250357.084 8 110656495.86408     -1009.194 8        49.474                                                                    21250357.011 7  89917373.73107      -820.020 7        46.977
R17        36.000    20554876.985 7 109993689.90407     -3915.677 7        47.390                                                                    20554875.214 7  85550384.48807     -3045.575 7        42.546
R09        37.000    21814375.416 7 116487484.75907      2868.631 7        42.085                                                                    21814374.679 5  90601463.07305      2231.185 5        34.438
C12        41.000                                                                                                                                    21960645.701 6 114354917.31106       506.937 6        39.351    21960645.600 7  88426477.79007       391.828 7        47.800    21960644.658 7  92922722.78907       411.770 7        47.013
C35        42.000                                                                                                                                    23584607.544 6 122811228.84206     -3412.416 6        40.114                                                                    23584607.912 6  99794224.22906     -2773.016 6        40.293
C05        43.000                                                                                                                                                                                                    39345169.271 4                      -623.131 4        29.716
C38        44.000                                                                                                                                    38750864.160 6 201785913.74006      -148.512 6        38.006                                                                    38750863.342 6 163967584.50306      -120.785 6        40.114
C25        45.000                                                                                                                                    23010553.978 7 119821990.84407      1224.215 7        44.444                                                                    23010554.515 6  97365370.69906       994.757 6        38.928
C08        46.000                                                                                                                                    38411756.700 6 200020119.87506       474.983 6        39.411    38411755.026 6 154668194.60706       367.397 6        41.037    38411752.598 5 162532701.87405       385.973 5        31.638
C26        48.000                                                                                                                                    24785783.508 7 129066086.37407     -4090.189 7        43.244                                                                    24785788.592 3                     -3324.558 3        20.524
C24        51.000                                                                                                                                    21570540.111 7 112323480.39607     -1952.837 7        46.644                                                                    21570538.708 7  91272092.50307     -1586.821 7        46.165
C34        52.000                                                                                                                                    23369703.484 6 121692135.93506      1780.072 6        36.197                                                                    23369695.783 6  98884897.47706      1446.474 6        40.992
I06        58.000    38632671.710 5 151602969.22605      -685.641 5        35.700
I02        59.000    37847375.514 5 148521271.17905     -1084.063 5        30.717
> 2025 01 02 16 02 20.0000000  0 43
G20         1.000    23531160.740 4                      -966.853 4        28.294
G11         2.000    24495075.682 4                     -4122.479 4        24.962
G25         3.000    20960552.393 6 110148619.51706     -3262.668 6        37.081                                    20960552.122 4  85830079.98404     -2542.333 4        26.371    20960554.116 6  85829998.92706     -2542.156 6        38.027
G05         4.000    23615312.377 5 124099273.32105      1334.303 5        32.108
E25         6.000    23722678.227 8 124663570.54708     -2067.428 8        48.612                                                                    23722680.230 8  93093058.07708     -1543.864 8        51.198    23722680.164 8  95521468.03408     -1584.135 8        50.776
G31         7.000                                                                                                                                                                    21626723.564 6  88557892.73506      -211.404 6        38.934
G28         8.000    21436337.232 7 112648832.02507     -2047.749 7        44.510
G29         9.000    20307964.429 8 106719148.44808     -1284.823 8        48.640                                    20307963.681 7  83157782.33907     -1001.161 7        45.675    20307961.997 7  83157734.32007     -1001.138 7        42.645
E11        10.000    23924435.525 6 125723759.57006     -1105.015 6        40.601                                                                    23924435.127 6  93884620.23806      -825.066 6        36.393    23924439.289 5  96333836.02405      -846.948 5        32.347
E10        11.000    25390694.967 6 133428998.16006     -2610.683 6        37.093                                                                    25390692.138 5  99638574.61405     -1949.621 5        31.215    25390694.225 6 102237778.44406     -2000.563 6        37.543
G18        12.000    22527755.366 5 118384142.93805      2356.776 5        30.498                                    22527742.808 1  92247388.79501      1836.446 1         8.667    22527742.234 5  92247464.81705      1836.553 5        33.515
E12        13.000    27427772.260 4                     -3487.613 4        26.024                                                                    27427747.372 4 107632351.27104     -2604.857 4        29.403    27427747.482 4                     -2673.249 4        28.948
G04        14.000    25092583.778 4                      -415.608 4        27.533                                                                                                    25092604.854 4 102749932.86304      -325.349 4        25.383
G12        15.000    24416562.724 4                     -4344.396 4        25.895
G26        17.000    22441587.464 5 117931294.09905      2065.238 5        33.467                                    22441581.802 2  91894538.23702      1609.266 2        14.429    22441593.770 4  91894554.25104      1609.380 4        28.521
E07        18.000    27809097.699 5 146137799.71005     -1414.233 5        35.952                                                                    27809108.589 5 109128914.40705     -1056.055 5        32.754    27809122.927 5 111975770.81205     -1083.106 5        31.117
E30        19.000    28152614.489 5 147942891.86705      1796.849 5        34.924                                                                    28152609.978 5                      1341.765 5        32.228    28152619.899 5 113358889.50105      1376.757 5        35.248
E08        20.000    27960045.778 4                     -3254.953 4        24.842                                                                    27960056.963 4 109721315.43704     -2430.684 4        27.581
E02        21.000    23723610.156 7 124668409.33707       472.464 7        45.478                                                                    23723610.626 7  93096606.34807       352.771 7        45.220    23723610.122 7  95525222.46507       362.026 7        45.547
S23        22.000    38095882.356 6 200195244.78006      -866.012 6        37.705
R08        23.000    23818467.532 5                     -1811.248 5        32.790
E36        24.000    24750939.345 6 130067026.09906      1573.591 6        36.522                                                                    24750930.035 6  97128097.84506      1175.109 6        38.775    24750930.706 6  99661857.56506      1205.760 6        40.210
R18        25.000    19023627.088 8 101549451.78508      -363.587 8        50.954                                                                    19023628.195 7  78982894.97107      -282.825 7        45.758
G16        26.000    25126150.627 4 132038799.83804      2750.368 4        28.521
S21        27.000    38374876.529 5 201661449.51505      -862.229 5        35.562
R19        29.000                                                                                                                                    21164911.561 5  88058502.58205      2031.859 5        31.540
R15        30.000    21136947.009 5 112949681.09705     -4283.783 5        33.096                                                                    21136948.828 6  87849595.63406     -3331.811 6        36.000
S36        31.000    38146145.406 5 200459344.48105      -862.021 5        35.695
R16        34.000    19039285.280 8 101705047.15608      -573.389 8        50.023                                                                    19039285.440 6  79103615.33606      -446.010 6        41.287
C44        35.000                                                                                                                                    21251326.805 8 110661547.00208     -1011.235 8        49.419                                                                    21251326.958 7  89921478.20207      -821.736 7        47.118
R17        36.000    20558535.832 7 110013273.44507     -3917.687 7        44.987                                                                    20558535.006 7  85565616.14307     -3047.044 7        42.195
R09        37.000    21811689.029 6 116473144.12906      2867.396 6        39.757                                                                    21811690.833 5  90590309.27505      2230.251 5        35.700
C12        41.000                                                                                                                                    21960159.416 6 114352388.73906       504.757 6        38.886    21960159.446 7  88424522.54607       390.173 7        46.654    21960159.119 7  92920668.11507       410.099 7        47.137
C35        42.000                                                                                                                                    23587884.255 6 122828293.32706     -3413.374 6        38.781                                                                    23587885.051 6  99808090.50906     -2773.628 6        40.498
C05        43.000                                                                                                                                                                                                    39345941.793 4                      -623.346 4        29.109
C38        44.000                                                                                                                                    38751007.828 6 201786659.13606      -149.597 6        38.063                                                                    38751006.593 6 163968190.21406      -121.633 6        40.343
C25        45.000                                                                                                                                    23009379.448 7 119815874.03907      1222.475 7        44.698                                                                    23009379.552 6  97360400.30406       993.385 6        38.532
C08        46.000                                                                                                                                    38411300.930 6 200017746.98006       474.026 6        39.495    38411299.364 6 154666359.72906       366.665 6        41.778    38411297.014 5 162530773.70105       385.360 5        32.228
C26        48.000                                                                                                                                    24789710.588 7 129086538.68507     -4090.913 7        42.832
C24        51.000                                                                                                                                    21572415.463 7 112333250.53507     -1955.165 7        44.977                                                                    21572415.117 7  91280031.53007     -1588.730 7        46.220
C34        52.000                                                                                                                                    23368004.647 6 121683237.92106      1779.189 6        36.858                                                                    23367987.488 6  98877667.13706      1445.757 6        41.697
I06        58.000    38633545.297 5 151606396.28105      -685.380 5        35.433
I02        59.000    37848758.803 5 148526689.99505     -1084.063 5        30.566
> 2025 01 02 16 02 25.0000000  0 41
G20         1.000    23532076.730 4                      -969.750 4        26.251
G11         2.000    24499000.791 3                     -4125.697 3        22.876
G25         3.000    20963658.056 6 110164937.62006     -3265.017 6        38.276                                    20963657.029 4  85842795.39404     -2544.165 4        26.323    20963658.942 6  85842714.38306     -2544.330 6        37.917
E25         6.000    23724646.077 8 124673911.47108     -2069.311 8        48.726                                                                    23724648.057 8  93100780.19208     -1545.263 8        51.162    23724647.877 8  95529391.59808     -1585.557 8        50.447
G31         7.000    21626995.174 6 113650763.79516      -275.293 6        38.634                                    21626970.596 3  88558819.64513      -214.513 3        21.357    21626982.885 6  88558956.63006      -214.371 6        39.883
G28         8.000    21438286.693 7 112659079.36707     -2051.477 7        45.365                                                                                                    21438282.907 3                     -1600.204 3        21.048
G29         9.000    20309187.771 8 106725578.62908     -1287.518 8        48.575                                    20309186.840 7  83162792.87207     -1003.260 7        45.354    20309185.860 7  83162744.87007     -1003.343 7        42.231
E11        10.000    23925487.687 6 125729290.87206     -1107.880 6        39.477                                                                    23925487.349 6  93888750.77406      -827.651 6        36.367    23925495.058 5  96338074.40005      -849.299 5        31.645
E10        11.000    25393179.550 6 133442056.84606     -2613.102 6        37.157                                                                    25393175.934 4  99648326.21604     -1951.698 4        29.858    25393178.737 6 102247784.46206     -2002.380 6        37.119
G18        12.000    22525510.321 5 118372362.34105      2355.000 5        32.922                                    22525501.139 1  92238209.18301      1835.067 1         7.625    22525500.667 5  92238285.28305      1834.862 5        34.357
E12        13.000    27431093.357 4                     -3489.770 4        25.068                                                                    27431067.163 4 107645378.41604     -2606.648 4        29.156    27431067.344 4                     -2674.119 4        29.194
G04        14.000    25092984.713 4                      -419.118 4        28.133
G12        15.000    24420692.902 4                     -4345.249 4        24.932
G26        17.000    22439634.198 5 117920970.17905      2063.649 5        30.641                                    22439616.783 1  91886493.73801      1608.046 1        11.704
E07        18.000    27810445.122 5 146144876.75005     -1416.827 5        35.438                                                                    27810455.944 5 109134199.20705     -1058.080 5        33.551    27810469.356 5 111981193.51605     -1085.813 5        31.358
E30        19.000    28150902.821 5 147933907.58305      1796.418 5        34.271                                                                    28150899.913 5                      1341.726 5        31.977    28150909.986 5 113352005.47405      1376.581 5        35.886
E08        20.000    27963142.954 4                     -3255.250 4        26.910                                                                    27963154.413 4 109733469.32104     -2431.738 4        26.623
E02        21.000    23723161.147 7 124666050.14907       470.875 7        45.859                                                                    23723161.699 7  93094844.63507       351.595 7        45.300    23723160.899 7  95523414.78907       360.755 7        45.362
S23        22.000    38096704.952 6 200199576.78606      -866.872 6        37.350
E36        24.000    24749441.554 5 130059162.16205      1571.575 5        35.324                                                                    24749434.426 6  97122225.51106      1173.516 6        39.886    24749434.129 6  99655832.02106      1204.178 6        40.212
R18        25.000    19023969.589 8 101551280.09308      -368.086 8        50.966                                                                    19023969.879 7  78984316.98607      -286.318 7        44.522
G16        26.000    25123532.233 4 132025048.69204      2749.825 4        27.006
S21        27.000    38375694.384 5 201665761.34705      -862.823 5        35.724
R19        29.000                                                                                                                                    21162472.941 4  88048348.01404      2029.908 4        29.678
R15        30.000    21140958.364 6 112971104.20306     -4286.208 6        36.537                                                                    21140956.702 5  87866258.00105     -3333.740 5        35.119
S36        31.000    38146969.383 5 200463655.65005      -862.652 5        35.838
R16        34.000    19039824.469 8 101707924.17508      -577.744 8        50.343                                                                    19039823.911 6  79105853.01306      -449.426 6        41.967
C44        35.000                                                                                                                                    21252298.861 8 110666609.19108     -1013.922 8        49.310                                                                    21252299.006 7  89925591.65207      -823.837 7        47.195
R17        36.000    20562197.176 6 110032868.38906     -3920.584 6        41.864                                                                    20562196.183 7  85580856.69007     -3049.246 7        42.066
R09        37.000    21809005.201 6 116458809.93706      2865.796 6        38.414                                                                    21809008.933 6  90579160.44906      2228.925 6        38.730
C12        41.000                                                                                                                                    21959674.569 6 114349870.80306       502.170 6        38.562    21959675.289 7  88422575.52707       388.171 7        45.208    21959675.504 7  92918622.10007       408.042 7        47.166
C35        42.000                                                                                                                                    23591163.309 6 122845362.99406     -3414.825 6        38.192                                                                    23591163.075 6  99821961.04506     -2774.814 6        40.782
C05        43.000                                                                                                                                                                                                    39346716.712 4                      -623.103 4        29.147
C38        44.000                                                                                                                                    38751152.034 6 201787409.82106      -151.022 6        38.180                                                                    38751150.956 6 163968800.20806      -122.659 6        40.441
C25        45.000                                                                                                                                    23008206.285 7 119809766.49407      1220.149 7        44.408                                                                    23008206.238 6  97355437.45806       991.599 6        38.348
C08        46.000                                                                                                                                    38410846.417 6 200015379.27106       472.562 6        39.402    38410844.816 7 154664528.87507       365.477 7        42.246    38410842.089 5 162528849.76805       384.266 5        32.395
C26        48.000                                                                                                                                    24793639.143 7 129106995.36807     -4092.241 7        42.254
C24        51.000                                                                                                                                    21574294.221 7 112343033.01907     -1958.128 7        43.592                                                                    21574293.750 7  91287980.59007     -1591.076 7        46.329
C34        52.000                                                                                                                                    23366299.698 5 121674346.69505      1777.166 5        34.943                                                                    23366280.348 7  98870442.31107      1444.030 7        42.262
I06        58.000    38634418.359 5 151609823.08505      -685.455 5        35.124
I02        59.000    37850138.186 5 148532109.51905     -1083.905 5        30.445
