     3.04           OBSERVATION DATA    M                   RINEX VERSION / TYPE
ssrcrin-15.6.1x                         20250102 234500 UTC PGM / RUN BY / DATE 
(00000000023479385599111004) Septentrio proprietary         COMMENT             
ract                                                        MARKER NAME         
01                                                          MARKER NUMBER       
geodetic                                                    MARKER TYPE         
NFB                 CLIMERS@TUW                             OBSERVER / AGENCY   
3296359             SEPT ASTERX SB3 PROB4.14.4              REC # / TYPE / VERS 
Unknown             Unknown                                 ANT # / TYPE        
  4127445.9479  1206914.6182  4695541.4286                  APPROX POSITION XYZ 
        0.0000        0.0000        0.0000                  ANTENNA: DELTA H/E/N
G   23 X1  C1C L1C D1C S1C C1W S1W C2W L2W D2W S2W C2L L2L  SYS / # / OBS TYPES 
       D2L S2L C5Q L5Q D5Q S5Q C1L L1L D1L S1L              SYS / # / OBS TYPES 
E   21 X1  C1C L1C D1C S1C C6C L6C D6C S6C C5Q L5Q D5Q S5Q  SYS / # / OBS TYPES 
       C7Q L7Q D7Q S7Q C8Q L8Q D8Q S8Q                      SYS / # / OBS TYPES 
S    9 X1  C1C L1C D1C S1C C5I L5I D5I S5I                  SYS / # / OBS TYPES 
R   17 X1  C1C L1C D1C S1C C2P L2P D2P S2P C2C L2C D2C S2C  SYS / # / OBS TYPES 
       C3Q L3Q D3Q S3Q                                      SYS / # / OBS TYPES 
C   25 X1  C1P L1P D1P S1P C5P L5P D5P S5P C2I L2I D2I S2I  SYS / # / OBS TYPES 
       C7I L7I D7I S7I C6I L6I D6I S6I C7D L7D D7D S7D      SYS / # / OBS TYPES 
J   17 X1  C1C L1C D1C S1C C2L L2L D2L S2L C5Q L5Q D5Q S5Q  SYS / # / OBS TYPES 
       C1L L1L D1L S1L                                      SYS / # / OBS TYPES 
I    5 X1  C5A L5A D5A S5A                                  SYS / # / OBS TYPES 
SEPTENTRIO RECEIVERS OUTPUT ALIGNED CARRIER PHASES.         COMMENT             
NO FURTHER PHASE SHIFT APPLIED IN THE RINEX ENCODER.        COMMENT             
G L1C                                                       SYS / PHASE SHIFT   
G L2W                                                       SYS / PHASE SHIFT   
G L2L  0.00000                                              SYS / PHASE SHIFT   
G L5Q  0.00000                                              SYS / PHASE SHIFT   
G L1L  0.00000                                              SYS / PHASE SHIFT   
E L1C  0.00000                                              SYS / PHASE SHIFT   
E L6C  0.00000                                              SYS / PHASE SHIFT   
E L5Q  0.00000                                              SYS / PHASE SHIFT   
E L7Q  0.00000                                              SYS / PHASE SHIFT   
E L8Q  0.00000                                              SYS / PHASE SHIFT   
S L1C                                                       SYS / PHASE SHIFT   
S L5I                                                       SYS / PHASE SHIFT   
R L1C                                                       SYS / PHASE SHIFT   
R L2P  0.00000                                              SYS / PHASE SHIFT   
R L2C                                                       SYS / PHASE SHIFT   
R L3Q  0.00000                                              SYS / PHASE SHIFT   
C L1P  0.00000                                              SYS / PHASE SHIFT   
C L5P  0.00000                                              SYS / PHASE SHIFT   
C L2I                                                       SYS / PHASE SHIFT   
C L7I                                                       SYS / PHASE SHIFT   
C L6I                                                       SYS / PHASE SHIFT   
C L7D                                                       SYS / PHASE SHIFT   
J L1C                                                       SYS / PHASE SHIFT   
J L2L  0.00000                                              SYS / PHASE SHIFT   
J L5Q  0.00000                                              SYS / PHASE SHIFT   
J L1L  0.00000                                              SYS / PHASE SHIFT   
I L5A                                                       SYS / PHASE SHIFT   
  2025     1     2    23    45    0.0000000     GPS         TIME OF FIRST OBS   
 C1C    0.000 C2C    0.000 C2P    0.000                     GLONASS COD/PHS/BIS 
DBHZ                                                        SIGNAL STRENGTH UNIT
    18                                                      LEAP SECONDS        
 24 R01  1 R02 -4 R03  5 R04  6 R05  1 R06 -4 R07  5 R08  6 GLONASS SLOT / FRQ #
    R09 -2 R10 -7 R11  0 R12 -1 R13 -2 R14 -7 R15  0 R16 -1 GLONASS SLOT / FRQ #
    R17  4 R18 -3 R19  3 R20  2 R21  4 R22 -3 R23  3 R24  2 GLONASS SLOT / FRQ #
                                                            END OF HEADER       
> 2025 01 02 23 45  0.0000000  0 32
G03         2.000    21233185.931 7 111581281.52307      1459.660 7        46.353                                    21233181.180 6  86946382.54506      1137.392 6        40.443    21233182.622 6  86946323.56206      1137.406 6        40.656
G32         3.000    22510642.679 5 118294338.77105     -2860.326 5        35.095                                    22510639.795 5  92177289.61705     -2228.839 5        33.132    22510641.157 5  92177366.45805     -2228.216 5        32.922
G21         4.000    20904011.764 7 109851369.90207     -1940.322 7        42.686                                    20904005.242 3  85598437.51003     -1511.944 3        23.143
G08         5.000    23273279.197 6 122301883.06806     -4399.483 6        39.120                                    23273274.695 3  95300152.25603     -3428.177 3        19.612
G02         6.000    20705094.211 7 108805998.23407      -444.407 7        46.679                                    20705086.147 6  84783871.87806      -346.286 6        36.828
G14         7.000    24485064.924 5 128669861.91705     -2688.774 5        32.635                                                                                                    24485077.075 4                     -2094.897 4        28.521
E03         9.000    24000718.425 5 126124633.50205      -338.101 5        35.043                                                                    24000718.879 7  94184039.52107      -252.296 7        47.501    24000719.341 8  96640985.58808      -258.798 8        48.659
G17        10.000    23418049.864 7 123062668.16707      1652.732 7        45.558                                    23418044.486 7  95892952.85307      1287.829 7        44.099    23418043.888 7  95892965.86807      1287.873 7        42.887
E05        11.000    24813394.983 5 130395310.86405     -2971.571 5        35.338                                                                    24813391.224 4  97373107.20304     -2218.547 4        28.825    24813393.041 5  99913229.70305     -2277.034 5        32.772
E13        12.000    24576614.559 6 129150967.76506       976.029 6        41.240                                                                    24576613.647 6  96443916.76706       729.032 6        39.492    24576607.363 6  98959925.56606       747.832 6        38.045
E21        15.000    27563397.212 5 144846619.33005     -2723.433 5        34.857                                                                    27563383.411 5 108164636.19905     -2033.302 5        34.948    27563414.320 5                     -2086.629 5        34.114
E15        16.000    23447224.037 6 123215980.84606     -1441.734 6        41.635                                                                    23447224.220 7  92011927.99107     -1076.660 7        43.414    23447224.838 7  94412279.32807     -1104.654 7        46.184
E08        19.000    25687239.759 6 134987512.55606      2012.853 6        37.115                                                                    25687236.035 6 100802269.40406      1502.950 6        38.063    25687237.717 6 103431905.62606      1542.173 6        40.832
S23        21.000    38155317.692 6 200507588.00206      -848.768 6        38.730
R06        25.000    19850674.851 6 105926997.77906     -2989.431 6        41.092
R14        26.000    23822852.031 5                     -1211.385 5        30.121
R07        27.000    19508559.755 7 104430823.87707       909.497 7        43.118                                                                    19508557.972 7  81223988.65107       707.321 7        43.848
C41        29.000                                                                                                                                    23079774.977 7 120182472.74507      1407.403 7        46.728                                                                    23079775.934 6                      1143.469 6        38.709
R08        30.000    22941499.942 4                      3279.574 4        27.808                                                                    22941466.924 5                      2550.406 5        31.117
E34        32.000    26631374.805 5                     -3242.584 5        30.725                                                                    26631351.372 5 104507151.00005     -2421.185 5        30.853    26631348.769 4 107233419.85204     -2485.035 4        29.005
R23        33.000    22136876.140 5 118417412.47205      2916.827 5        30.672
R22        35.000    19306912.021 8 103061601.72908       261.844 8        49.405                                                                    19306909.793 8  80159051.66608       203.744 8        49.825
C33        37.000                                                                                                                                    21931360.809 8 114202373.18008     -1466.257 8        51.618                                                                    21931370.044 7  92798793.14107     -1191.595 7        42.650
R21        39.000    20689235.899 5 110712420.56905     -3772.493 5        35.862                                                                    20689230.606 5  86109529.73805     -2934.276 5        32.162
C27        41.000                                                                                                                                    22605507.989 7 117712825.25107      1001.134 7        44.915                                                                    22605505.148 6  95651336.17806       813.156 6        39.901
C14        42.000                                                                                                                                    23012287.074 5 119830967.89505     -2947.427 5        35.848    23012278.947 6  92660952.65306     -2279.229 6        40.467    23012293.104 5                     -2395.433 5        30.317
C39        45.000                                                                                                                                    39276715.775 5                        59.392 5        33.551                                                                    39276706.771 4                        48.417 4        28.351
C43        48.000                                                                                                                                    25501803.571 5                     -4180.804 5        30.211
C30        49.000                                                                                                                                    26738598.648 3                      2408.948 3        22.552                                                                    26738575.478 4                      1957.115 4        29.630
C42        50.000                                                                                                                                    25140798.363 5 130914773.36105     -3827.247 5        33.880
C28        55.000                                                                                                                                    21621649.414 8 112589704.66808     -1720.902 8        48.641                                                                    21621649.595 8  91488260.57008     -1398.509 8        49.653
I09        56.000    37134822.535 7 145725016.57107      -540.481 7        43.617
> 2025 01 02 23 45  5.0000000  0 32
G03         2.000    21231798.660 7 111573987.73907      1457.955 7        46.849                                    21231793.014 6  86940699.07306      1136.076 6        39.613    21231795.451 5  86940640.05805      1135.999 5        35.424
G32         3.000    22513363.482 6 118308644.20206     -2862.430 6        37.853                                    22513361.542 5  92188436.66105     -2230.546 5        30.566    22513362.732 6  92188513.71506     -2230.622 6        37.361
G21         4.000    20905858.745 6 109861075.71106     -1942.010 6        41.652                                    20905851.674 3  85606000.43003     -1513.248 3        23.981
G08         5.000    23277465.152 6 122323882.33306     -4400.512 6        36.102                                    23277460.330 3  95317294.55303     -3429.025 3        19.373    23277496.358 3                     -3430.193 3        22.800
G02         6.000    20705517.852 7 108808225.69107      -446.496 7        46.137                                    20705510.218 6  84785607.55606      -347.926 6        36.688
G14         7.000    24487624.159 5 128683310.10105     -2690.631 5        35.881
E03         9.000    24001039.267 5 126126328.32205      -339.647 5        33.557                                                                    24001041.898 8  94185305.12808      -253.980 8        48.090    24001041.778 8  96642284.20708      -260.647 8        48.847
G17        10.000    23416477.949 7 123054408.76007      1650.932 7        46.167                                    23416472.774 7  95886516.96907      1286.441 7        43.318    23416472.514 7  95886529.94107      1286.486 7        42.222
E05        11.000    24816222.965 5 130410172.02105     -2973.031 5        31.042                                                                    24816223.525 5  97384204.82005     -2220.421 5        33.491    24816216.512 5  99924616.82405     -2278.586 5        31.087
E13        12.000    24575685.947 6 129146089.31006       975.473 6        39.994                                                                    24575686.220 7  96440273.72107       728.231 7        42.235    24575683.495 7  98956187.51207       747.324 7        43.395
E21        15.000    27565985.631 5 144860240.72405     -2724.802 5        31.155                                                                    27565978.414 5 108174806.95905     -2035.108 5        30.657    27566008.956 4                     -2087.218 4        25.383
E15        16.000    23448595.546 6 123223192.87606     -1443.102 6        40.133                                                                    23448596.539 7  92017313.62407     -1077.617 7        45.704    23448596.638 7  94417805.49107     -1105.694 7        46.805
E08        19.000    25685324.252 5 134977451.71705      2011.558 5        35.786                                                                    25685323.606 6 100794756.47706      1501.982 6        38.976    25685320.982 6 103424196.69406      1541.501 6        38.880
S23        21.000    38156140.359 6 200511831.37706      -848.630 6        41.228
R06        25.000    19853477.084 6 105941953.34706     -2992.701 6        41.697
R14        26.000                                                                                                                                    23824016.798 5  98774267.55615      -945.386 5        32.341
R07        27.000    19507710.541 7 104426285.89107       905.840 7        44.900                                                                    19507710.101 7  81220459.07007       704.502 7        44.081
C41        29.000                                                                                                                                    23078426.230 7 120175440.34707      1405.588 7        46.943                                                                    23078422.897 6                      1142.016 6        36.756
R08        30.000                                                                                                                                    22938406.863 5  95537645.32815      2549.457 5        31.004
E34        32.000                                                                                                                                    26634440.596 5 104519258.87905     -2421.597 5        32.533    26634435.664 5 107245843.59305     -2485.181 5        31.381
R23        33.000    22134146.856 5 118402832.24105      2915.878 5        33.521
R22        35.000    19306668.015 8 103060300.44508       258.687 8        49.999                                                                    19306665.586 8  80158039.57608       201.210 8        48.229
C33        37.000                                                                                                                                    21932769.928 8 114209710.08008     -1468.533 8        51.668                                                                    21932779.357 7  92804754.93107     -1193.107 7        42.590
R21        39.000    20692762.583 5                     -3775.469 5        34.829                                                                    20692755.270 4                     -2936.457 4        29.336
C27        41.000                                                                                                                                    22604548.190 7 117707825.04007       999.243 7        43.035                                                                    22604547.059 5  95647273.05205       811.868 5        34.510
C14        42.000                                                                                                                                    23015116.220 6 119845709.78506     -2948.825 6        40.155    23015111.123 7  92672352.03907     -2280.361 7        44.426    23015121.186 5                     -2396.199 5        31.026
C39        45.000                                                                                                                                    39276662.788 5 204523872.09515        58.445 5        33.413                                                                    39276650.133 4                        46.990 4        26.156
C43        48.000                                                                                                                                    25505820.188 5                     -4181.033 5        31.117
C30        49.000                                                                                                                                    26736279.750 4                      2407.988 4        25.444                                                                    26736262.254 5                      1956.852 5        30.732
C42        50.000                                                                                                                                    25144476.209 5 130933911.93705     -3827.736 5        31.411                                                                    25144478.684 5                     -3110.694 5        32.114
C28        55.000                                                                                                                                    21623303.670 8 112598315.19108     -1723.320 8        49.990                                                                    21623303.284 8  91495257.32408     -1400.220 8        49.171
I09        56.000    37135510.113 6 145727719.50006      -540.750 6        41.511
> 2025 01 02 23 45 10.0000000  0 31
G03         2.000    21230412.719 7 111566703.03107      1455.967 7        47.594                                    21230406.480 6  86935022.70106      1134.526 6        40.994    21230410.134 6  86934963.69106      1134.574 6        37.705
G32         3.000    22516089.339 6 118322962.32406     -2864.796 6        40.088                                    22516085.815 4  92199593.67704     -2232.349 4        29.024    22516086.813 5  92199670.74205     -2232.513 5        34.300
G21         4.000    20907707.743 7 109870790.90507     -1943.978 7        43.081                                    20907700.046 3  85613570.74703     -1514.781 3        23.676
G08         5.000    23281651.584 6 122345886.08006     -4401.073 6        38.468                                    23281646.878 3  95334440.31003     -3429.389 3        19.015
G02         6.000    20705943.649 7 108810463.37207      -448.473 7        47.704                                    20705935.988 6  84787351.20206      -349.455 6        37.157
G14         7.000    24490187.918 5 128696768.70605     -2692.823 5        32.437                                                                                                    24490202.065 3                     -2097.959 3        21.762
E03         9.000    24001366.851 6 126128035.28806      -342.789 6        36.318                                                                    24001367.098 8  94186579.78608      -255.808 8        48.796    24001366.869 8  96643592.12108      -262.528 8        49.138
G17        10.000    23414908.062 7 123046159.20107      1649.013 7        46.398                                    23414902.782 7  95880088.73707      1284.949 7        42.561    23414901.387 6  95880101.73106      1285.097 6        41.206
E05        11.000    24819048.102 5 130425041.34205     -2975.062 5        30.151                                                                    24819052.084 5  97395308.37905     -2221.172 5        32.347    24819044.390 5  99936010.08005     -2279.949 5        30.430
E13        12.000    24574759.129 6 129141214.80806       974.616 6        40.377                                                                    24574758.739 6  96436633.66306       727.762 6        41.697    24574756.528 7  98952452.49907       746.684 7        42.066
E15        16.000    23449970.207 6 123230411.93206     -1444.373 6        39.492                                                                    23449971.253 7  92022704.53507     -1078.729 7        46.711    23449970.322 7  94423337.02307     -1106.807 7        46.441
E08        19.000    25683411.970 5 134967396.62405      2010.612 5        34.710                                                                    25683409.756 6 100787247.83606      1501.299 6        39.670    25683406.541 6 103416492.15706      1540.502 6        40.350
S23        21.000    38156956.090 6 200516074.92006      -848.842 6        41.990
R06        25.000    19856282.335 6 105956925.00506     -2995.944 6        41.869
R14        26.000                                                                                                                                    23825157.204 5  98779003.05805      -949.167 5        32.180
R07        27.000    19506868.091 7 104421766.37407       902.051 7        45.287                                                                    19506865.458 7  81216943.89307       701.541 7        43.456
C41        29.000                                                                                                                                    23077078.041 7 120168417.09507      1403.710 7        47.097                                                                    23077077.460 6  97646658.03416      1140.824 6        38.078
R08        30.000                                                                                                                                    22935343.998 4  95524900.42604      2549.087 4        26.623
E34        32.000    26637534.506 4                     -3244.399 4        29.147                                                                    26637521.855 5 104531369.59005     -2422.713 5        31.540    26637524.105 5 107258270.20605     -2485.720 5        30.770
R23        33.000    22131425.016 5 118388256.85305      2914.699 5        35.219
R22        35.000    19306427.199 8 103059015.57408       255.273 8        48.494                                                                    19306424.711 8  80157040.22608       198.599 8        48.877
C33        37.000                                                                                                                                    21934181.229 8 114217058.56308     -1470.839 8        49.750                                                                    21934191.170 6  92810726.16906     -1195.166 6        41.921
R21        39.000                                                                                                                                    20696283.641 5  86138894.41915     -2939.258 5        31.321
C27        41.000                                                                                                                                    22603590.489 7 117702834.55807       997.088 7        46.380                                                                    22603583.433 6  95643217.93006       810.204 6        36.938
C14        42.000                                                                                                                                    23017946.968 6 119860459.88906     -2950.785 6        37.550    23017944.656 7  92683757.77807     -2281.814 7        44.826    23017955.532 5  97396509.04815     -2397.566 5        34.576
C39        45.000                                                                                                                                    39276604.588 4 204523582.22404        58.154 4        29.422                                                                    39276598.406 4                        46.836 4        28.436
C43        48.000                                                                                                                                    25509829.177 4                     -4182.220 4        29.640
C30        49.000                                                                                                                                                                                                                                                                    26733948.395 5                      1956.675 5        30.091
C42        50.000                                                                                                                                    25148153.780 4 130953053.98904     -3828.415 4        29.896                                                                    25148150.021 4                     -3111.047 4        27.018
C28        55.000                                                                                                                                    21624959.766 8 112606938.28108     -1725.898 8        49.112                                                                    21624959.128 8  91502264.28508     -1402.382 8        49.621
I09        56.000    37136199.176 6 145730423.69006      -540.944 6        41.666
> 2025 01 02 23 45 15.0000000  0 31
G03         2.000    21229027.492 7 111559427.19507      1454.421 7        46.973                                    21229021.887 6  86929353.20506      1133.308 6        41.533    21229025.559 6  86929294.23106      1133.252 6        40.656
G32         3.000                                                                                                                                                                    22518814.932 6  92210837.22806     -2234.288 6        39.553
G21         4.000    20909558.238 7 109880515.24607     -1945.611 7        43.848                                    20909549.983 3  85621148.16503     -1516.044 3        22.990
G08         5.000    23285839.624 6 122367894.17206     -4401.982 6        38.946                                    23285835.496 3  95351589.44903     -3430.086 3        20.619
G02         6.000    20706371.534 8 108812711.09208      -450.376 8        48.419                                    20706363.801 6  84789102.68006      -350.957 6        38.435
G14         7.000    24492744.481 5 128710237.56105     -2694.802 5        32.557
E03         9.000    24001694.198 7 126129754.25507      -344.901 7        43.458                                                                    24001694.673 8  94187863.41008      -257.555 8        49.191    24001693.804 8  96644909.20708      -264.159 8        48.567
G17        10.000    23413340.582 7 123037919.36607      1647.156 7        46.953                                    23413334.638 7  95873668.07207      1283.494 7        43.342    23413333.772 7  95873681.08307      1283.426 7        42.256
E05        11.000    24821881.562 4                     -2976.497 4        26.838                                                                    24821886.923 5  97406417.98405     -2222.573 5        32.257    24821883.499 5  99947409.62305     -2280.632 5        34.200
E13        12.000    24573832.446 6 129136344.05406       973.733 6        39.087                                                                    24573830.338 6  96432996.49606       727.354 6        40.296    24573830.251 6  98948720.40006       746.335 6        41.538
E21        15.000    27571173.302 4                     -2728.229 4        28.028
E15        16.000    23451343.098 6 123237637.98806     -1445.961 6        36.926                                                                    23451346.048 7  92028100.54007     -1079.577 7        46.544    23451345.549 7  94428873.79907     -1107.785 7        45.989
E08        19.000    25681500.653 5 134957347.26805      2009.216 5        35.081                                                                    25681496.987 6 100779743.39706      1500.607 6        40.923    25681495.330 6 103408791.95306      1539.683 6        38.859
S23        21.000    38157759.739 6 200520318.43306      -848.594 6        41.633
R06        25.000    19859091.560 6 105971912.44806     -2998.909 6        41.964
R07        27.000    19506028.423 8 104417265.18308       898.613 8        48.870                                                                    19506024.963 7  81213443.01607       698.851 7        43.409
C41        29.000                                                                                                                                    23075731.205 7 120161402.73207      1402.093 7        47.403                                                                    23075728.239 6  97640958.32306      1139.472 6        37.077
R08        30.000                                                                                                                                    22932284.862 5  95512160.11215      2547.362 5        31.532
E34        32.000    26640626.633 4                     -3244.527 4        29.175                                                                    26640608.185 4 104543482.88504     -2422.315 4        28.787
R23        33.000    22128700.324 6 118373686.03306      2914.015 6        36.280
R22        35.000    19306188.619 7 103057746.93307       252.320 7        47.322                                                                    19306186.892 8  80156053.51008       196.160 8        48.017
C33        37.000                                                                                                                                    21935594.508 8 114224418.47008     -1472.960 8        49.071                                                                    21935603.767 6  92816706.71706     -1196.797 6        41.812
R21        39.000    20699836.256 5 110769073.45915     -3780.653 5        35.929                                                                    20699818.255 5  86153592.29405     -2940.719 5        32.305
C27        41.000                                                                                                                                    22602635.196 7 117697853.95707       995.419 7        43.860                                                                    22602629.623 6  95639170.72406       808.881 6        38.183
C14        42.000                                                                                                                                    23020781.896 5                     -2952.324 5        32.862    23020777.278 7  92695169.59307     -2282.778 7        44.116    23020789.281 6  97408501.20606     -2399.101 6        37.183
C39        45.000                                                                                                                                    39276550.308 5 204523297.22705        57.277 5        30.332                                                                    39276538.361 4                        45.839 4        27.401
C43        48.000                                                                                                                                    25513847.064 4                     -4182.920 4        28.844
C30        49.000                                                                                                                                    26731644.005 3                      2408.032 3        23.486                                                                    26731636.584 4                      1956.334 4        29.659
C42        50.000                                                                                                                                    25151834.820 5                     -3828.736 5        30.709                                                                    25151830.413 4                     -3110.922 4        25.398
C28        55.000                                                                                                                                    21626617.901 8 112615573.77308     -1728.148 8        50.601                                                                    21626617.594 8  91509281.38208     -1404.159 8        48.401
I09        56.000    37136889.365 6 145733129.00506      -541.001 6        41.423
> 2025 01 02 23 45 20.0000000  0 31
G03         2.000    21227644.100 7 111552159.44907      1452.629 7        46.356                                    21227639.037 6  86923690.04606      1131.917 6        41.719    21227642.140 7  86923631.03807      1131.969 7        43.024
G32         3.000    22521573.762 5 118351632.79515     -2870.397 5        33.024                                                                                                    22521544.432 6  92222012.70106     -2236.138 6        39.090
G21         4.000    20911409.764 7 109890247.95907     -1947.450 7        43.482                                    20911401.583 3  85628732.08603     -1517.495 3        22.438
G08         5.000    23290029.392 5 122389905.68405     -4402.734 5        33.108                                    23290024.946 3  95368741.28803     -3430.683 3        20.238    23290021.968 5                     -3430.705 5        30.257
G02         6.000    20706800.864 8 108814968.14908      -452.394 8        49.392                                    20706793.225 6  84790861.41806      -352.506 6        38.228
G14         7.000                                                                                                                                                                    24495326.808 3                     -2105.544 3        20.310
E03         9.000    24002023.126 7 126131484.37207      -347.222 7        42.595                                                                    24002023.659 8  94189155.38008      -259.329 8        48.580    24002022.756 8  96646234.89908      -266.049 8        48.279
G17        10.000    23411774.165 7 123029688.40407      1645.232 7        46.349                                    23411768.251 7  95867254.33807      1281.998 7        42.995    23411766.864 6  95867267.37006      1282.048 6        39.288
E05        11.000    24824714.777 5                     -2977.904 5        30.143                                                                    24824723.333 5  97417532.99605     -2223.839 5        32.922    24824715.195 5  99958814.41705     -2281.575 5        33.437
E13        12.000    24572904.554 6 129131476.32506       973.231 6        36.405                                                                    24572905.064 6  96429361.56306       726.566 6        38.979    24572904.661 7  98944990.66507       745.585 7        44.346
E21        15.000    27573780.468 5                     -2729.485 5        31.291                                                                    27573775.404 5 108205355.55205     -2038.195 5        31.675    27573751.772 4                     -2091.280 4        26.120
E15        16.000    23452720.160 5 123244869.98605     -1446.873 5        34.386                                                                    23452722.558 7  92033501.12107     -1080.694 7        46.545    23452721.725 7  94434415.23507     -1108.777 7        46.918
E08        19.000    25679589.934 6 134947302.65306      2008.453 6        38.279                                                                    25679586.418 6 100772242.52606      1499.721 6        38.324    25679583.699 6 103401095.35006      1538.957 6        38.006
S23        21.000    38158561.443 7 200524561.27107      -848.492 7        42.226
R06        25.000    19861903.945 6 105986914.95206     -3002.041 6        40.453
R07        27.000    19505191.009 8 104412781.93808       894.846 8        49.804                                                                    19505186.617 6  81209955.98506       696.043 6        41.666
C41        29.000                                                                                                                                    23074383.802 7 120154396.60307      1400.319 7        46.935                                                                    23074387.741 6  97635265.24406      1137.846 6        39.474
R08        30.000                                                                                                                                    22929229.279 4                      2546.585 4        28.768
E34        32.000    26643718.456 4                     -3244.938 4        28.351                                                                    26643694.403 4 104555598.22604     -2423.513 4        28.436    26643696.454 4 107283130.92104     -2486.635 4        28.332
R23        33.000    22125983.791 6 118359118.96906      2912.913 6        36.193
R22        35.000    19305953.978 8 103056493.80708       249.061 8        48.744                                                                    19305951.995 7  80155078.87007       193.661 7        47.509
C33        37.000                                                                                                                                    21937009.749 8 114231789.00408     -1475.214 8        50.310                                                                    21937020.022 7  92822695.94007     -1198.814 7        42.573
R21        39.000                                                                                                                                    20703352.798 5  86168300.03105     -2942.544 5        34.662
C27        41.000                                                                                                                                    22601678.898 7 117692882.31807       993.475 7        47.212                                                                    22601675.021 6  95635130.88506       807.001 6        40.288
C14        42.000                                                                                                                                    23023619.568 6                     -2953.742 6        36.234    23023613.796 7  92706587.02207     -2284.108 7        45.612    23023624.366 5  97420499.23705     -2400.399 5        32.347
C39        45.000                                                                                                                                    39276498.026 5 204523016.63505        55.754 5        33.395                                                                    39276485.672 4                        45.175 4        27.521
C43        48.000                                                                                                                                    25517871.086 4                     -4183.475 4        26.419
C30        49.000                                                                                                                                                                                                                                                                    26729326.436 5                      1956.396 5        30.423
C42        50.000                                                                                                                                    25155513.642 5                     -3829.789 5        31.909                                                                    25155503.243 3                     -3111.846 3        21.429
C28        55.000                                                                                                                                    21628278.860 8 112624220.98308     -1730.642 8        50.341                                                                    21628277.764 7  91516307.95307     -1406.324 7        47.755
I09        56.000    37137578.479 6 145735834.91206      -541.372 6        41.964
> 2025 01 02 23 45 25.0000000  0 31
G03         2.000    21226263.007 8 111544900.43008      1450.978 8        48.110                                    21226258.223 7  86918033.66407      1130.625 7        42.950    21226260.911 7  86917974.66207      1130.667 7        42.519
G32         3.000                                                                                                                                                                    22524274.213 6  92233197.57906     -2237.861 6        37.512
G21         4.000    20913263.611 6 109899989.67806     -1949.307 6        40.770                                    20913255.272 3  85636323.02703     -1518.950 3        22.190
G08         5.000    23294218.866 6 122411921.41206     -4403.435 6        39.297                                    23294214.780 3  95385896.34503     -3431.245 3        18.776    23294217.794 5                     -3431.449 5        31.555
G02         6.000    20707232.288 8 108817235.07108      -454.254 8        48.953                                    20707224.607 6  84792627.82806      -353.956 6        38.544
E03         9.000    24002355.000 6 126133226.36606      -349.576 6        41.733                                                                    24002355.017 8  94190456.19408      -261.055 8        48.631    24002353.740 7  96647569.62907      -267.810 7        47.903
G17        10.000    23410209.392 7 123021467.08907      1643.281 7        44.980                                    23410203.277 7  95860848.12607      1280.462 7        42.705    23410202.869 6  95860861.16906      1280.538 6        41.268
E05        11.000    24827548.896 4                     -2979.196 4        28.654                                                                    24827560.836 4  97428653.64804     -2224.817 4        29.090    24827545.041 4  99970225.32104     -2282.813 4        29.848
E13        12.000    24571979.062 5 129126612.23005       972.605 5        35.095                                                                    24571978.377 6  96425729.37206       726.229 6        38.571    24571979.498 7  98941263.66807       745.259 7        44.193
E21        15.000    27576380.555 5                     -2731.156 5        32.317                                                                    27576369.951 4                     -2039.928 4        27.042
E15        16.000    23454099.692 6 123252108.79306     -1448.352 6        39.279                                                                    23454100.370 7  92038906.66807     -1081.500 7        47.574    23454099.134 7  94439961.83907     -1109.789 7        47.224
E08        19.000    25677678.233 6 134937263.38406      2007.348 6        37.422                                                                    25677673.981 6 100764745.76606      1499.044 6        37.645    25677675.902 6 103393403.05806      1537.953 6        41.094
S23        21.000    38159372.090 6 200528804.02406      -848.476 6        41.185
R06        25.000    19864717.359 6 106001933.05806     -3005.107 6        40.372
R14        26.000    23828601.481 5 127019865.90415     -1232.084 5        34.686
R07        27.000    19504356.830 7 104408316.98407       891.075 7        44.001                                                                    19504353.554 7  81206483.26607       693.153 7        44.221
C41        29.000                                                                                                                                    23073040.304 7 120147399.25407      1398.584 7        47.326                                                                    23073046.269 7  97629579.33907      1136.515 7        42.550
R08        30.000    22926180.337 5                      3273.530 5        30.272                                                                    22926174.645 5                      2545.980 5        35.771
E34        32.000    26646795.938 3                     -3245.243 3        18.955                                                                    26646783.898 4 104567716.12804     -2423.322 4        28.483    26646779.884 4                     -2486.852 4        27.689
R23        33.000    22123256.718 6 118344556.49406      2911.930 6        39.568
R22        35.000    19305723.196 8 103055256.80608       245.824 8        49.299                                                                    19305720.863 7  80154116.72407       191.200 7        47.742
C33        37.000                                                                                                                                    21938426.803 8 114239170.87508     -1477.436 8        50.422                                                                    21938438.109 7  92828694.31607     -1200.537 7        42.747
R21        39.000    20706886.852 6 110806906.52106     -3785.714 6        37.913                                                                    20706886.732 4  86183017.92204     -2944.663 4        28.588
C27        41.000                                                                                                                                    22600725.499 7 117687920.31207       991.471 7        44.928                                                                    22600723.210 6  95631098.79706       805.629 6        40.231
C14        42.000                                                                                                                                    23026456.034 6 119904804.19516     -2955.525 6        40.012    23026449.146 7  92718010.40007     -2285.280 7        42.538
C39        45.000                                                                                                                                    39276445.433 5 204522740.49305        55.128 5        31.706                                                                    39276432.486 4                        44.676 4        24.917
C43        48.000                                                                                                                                    25521894.826 5                     -4183.667 5        30.762
C30        49.000                                                                                                                                    26727048.720 4                      2407.693 4        27.437                                                                    26727012.425 5                      1955.988 5        30.921
C42        50.000                                                                                                                                    25159183.887 4                     -3831.393 4        28.455                                                                    25159186.621 5                     -3112.462 5        31.955
C28        55.000                                                                                                                                    21629942.039 8 112632880.49008     -1733.129 8        50.037                                                                    21629940.252 7  91523344.48207     -1408.432 7        47.579
I09        56.000    37138268.033 6 145738541.80306      -541.453 6        39.381
> 2025 01 02 23 45 30.0000000  0 32
G03         2.000    21224883.194 8 111537650.62208      1449.023 8        48.542                                    21224879.192 7  86912384.46007      1129.111 7        42.842    21224881.110 6  86912325.45906      1129.188 6        41.728
G32         3.000    22527001.879 6 118380177.13816     -2874.395 6        39.012                                    22526994.575 4  92244278.25514     -2239.834 4        29.450    22527008.637 7  92244392.29707     -2240.010 7        42.123
G21         4.000    20915118.894 6 109909740.81606     -1951.104 6        39.844                                    20915110.419 3  85643921.30803     -1520.350 3        21.714
G08         5.000    23298409.923 6 122433941.65206     -4404.514 6        37.376                                    23298405.164 3  95403054.89403     -3432.095 3        20.143    23298409.480 5                     -3432.371 5        32.102
G02         6.000    20707665.597 7 108819512.33707      -456.243 7        45.145                                    20707657.938 6  84794402.31606      -355.481 6        37.845
G14         7.000    24500445.235 4                     -2700.625 4        28.815                                                                                                    24500479.606 3                     -2103.415 3        22.419
E03         9.000    24002688.480 6 126134980.60606      -352.058 6        40.348                                                                    24002688.101 7  94191766.16507      -262.933 7        47.003    24002688.340 8  96648913.77608      -269.726 8        48.032
G17        10.000    23408646.500 7 123013255.79507      1641.465 7        47.420                                    23408640.034 7  95854449.72507      1279.061 7        42.154    23408640.189 6  95854462.72806      1278.958 6        41.292
E05        11.000    24830384.088 5 130484545.39915     -2980.685 5        34.900                                                                                                                                    24830380.282 5  99981642.28905     -2284.062 5        31.509
E13        12.000    24571056.515 6 129121752.33706       971.582 6        39.090                                                                    24571047.822 5  96422100.18005       725.632 5        33.443    24571055.611 7  98937539.82607       744.396 7        43.439
E21        15.000    27578972.749 5 144928506.33115     -2732.878 5        34.910                                                                                                                                    27578968.228 5                     -2093.884 5        32.216
E15        16.000    23455478.986 7 123259354.73707     -1449.908 7        42.952                                                                    23455479.104 7  92044317.57207     -1082.698 7        47.231    23455478.414 8  94445513.87208     -1110.866 8        48.126
E08        19.000    25675769.341 6 134927230.19706      2006.174 6        38.862                                                                    25675764.480 6 100757253.45106      1498.108 6        37.002    25675766.725 7 103385715.27707      1537.177 7        42.277
S23        21.000    38160167.967 6 200533047.12606      -848.879 6        38.180
R06        25.000    19867534.534 6 106016967.33006     -3008.265 6        41.247
R14        26.000    23829757.169 4                     -1237.697 4        24.090
R07        27.000    19503523.899 7 104403870.83807       887.565 7        46.141                                                                    19503523.704 7  81203025.20707       690.264 7        45.973
C41        29.000                                                                                                                                    23071697.911 7 120140411.17807      1396.795 7        45.081                                                                    23071702.609 7  97623900.93807      1134.941 7        42.482
R08        30.000    22923133.383 4                      3271.503 4        28.474                                                                    22923117.285 5                      2544.664 5        33.659
E34        32.000    26649887.470 4                     -3245.763 4        26.994                                                                    26649871.816 5 104579836.95605     -2424.259 5        30.755    26649868.787 4                     -2486.926 4        28.199
R23        33.000    22120541.394 6 118329998.93306      2911.057 6        37.444
R22        35.000    19305495.326 8 103054036.34508       242.561 8        51.249                                                                    19305492.469 7  80153167.46107       188.680 7        47.659
C33        37.000                                                                                                                                    21939846.432 8 114246564.41408     -1479.739 8        50.891                                                                    21939857.387 7  92834702.11007     -1202.484 7        43.750
R21        39.000    20710427.219 5 110825843.24105     -3787.879 5        31.547                                                                    20710428.480 5  86197746.59805     -2947.031 5        32.641
C27        41.000                                                                                                                                    22599774.043 7 117682968.30907       989.771 7        43.420                                                                    22599771.538 6  95627074.89706       804.038 6        40.965
C14        42.000                                                                                                                                    23029295.111 6 119919585.46306     -2957.158 6        39.529    23029287.824 6  92729440.28406     -2286.661 6        40.448    23029299.807 5                     -2402.822 5        33.677
C39        45.000                                                                                                                                    39276403.288 5 204522470.57105        53.779 5        31.857                                                                    39276375.464 4                        43.949 4        26.156
C43        48.000                                                                                                                                    25525911.135 5                     -4184.110 5        31.132
C30        49.000                                                                                                                                    26724730.827 3                      2408.514 3        22.114                                                                    26724702.085 5                      1955.793 5        32.090
C42        50.000                                                                                                                                    25162862.253 4                     -3832.158 4        25.383                                                                    25162869.624 4                     -3113.533 4        26.156
C28        55.000                                                                                                                                    21631607.396 8 112641552.62908     -1735.593 8        49.083                                                                    21631605.309 7  91530391.30507     -1410.289 7        44.659
I09        56.000    37138958.349 6 145741250.10806      -541.859 6        40.348
> 2025 01 02 23 45 35.0000000  0 30
G03         2.000    21223504.879 7 111530410.15707      1447.226 7        47.415                                    21223501.874 7  86906742.54807      1127.711 7        42.762    21223503.009 6  86906683.50606      1127.743 6        40.598
G32         3.000    22529744.996 6 118394556.46106     -2877.356 6        40.215                                    22529733.158 4  92255482.96804     -2242.103 4        29.223    22529744.690 6  92255596.93606     -2241.714 6        39.982
G21         4.000    20916974.513 6 109919501.62106     -1953.185 6        36.945                                    20916967.886 3  85651527.13603     -1521.956 3        19.015
G08         5.000    23302599.806 7 122455966.63407     -4405.405 7        42.476                                    23302597.642 3  95420217.20903     -3432.792 3        22.971    23302600.087 5                     -3432.767 5        32.641
G02         6.000    20708101.105 7 108821800.05307      -458.445 7        46.989                                    20708093.277 6  84796184.91706      -357.231 6        38.093
G14         7.000                                                                                                                                                                    24503046.139 3                     -2106.121 3        21.833
E03         9.000    24003024.383 6 126136747.25806      -354.572 6        37.989                                                                    24003024.429 7  94193085.40007      -264.711 7        47.481    24003024.081 8  96650267.43408      -271.551 8        48.085
G17        10.000    23407086.246 7 123005054.70507      1639.260 7        47.441                                    23407078.668 6  95848059.27906      1277.351 6        41.826    23407079.657 6  95848072.27706      1277.464 6        41.230
E05        11.000    24833226.359 5                     -2982.438 5        32.940                                                                    24833224.022 4                     -2226.802 4        27.377    24833223.105 6  99993065.98006     -2285.268 6        38.066
E13        12.000    24570131.842 6 129116896.69306       970.820 6        36.858                                                                    24570123.990 5  96418474.19705       725.252 5        32.880    24570131.551 7  98933819.24407       744.025 7        42.645
E21        15.000    27581567.080 5 144942174.92605     -2734.713 5        32.593                                                                    27581574.669 3                     -2041.939 3        20.310    27581563.285 5 111059555.79915     -2095.034 5        32.766
E15        16.000    23456859.587 6 123266607.87106     -1451.255 6        41.692                                                                    23456859.120 7  92049733.98607     -1083.705 7        47.438    23456858.108 7  94451071.59907     -1112.057 7        46.335
E08        19.000    25673861.943 6 134917203.07106      2004.917 6        39.883                                                                    25673856.932 6 100749765.66506      1497.362 6        36.132    25673857.074 6 103378032.15106      1536.215 6        40.739
S23        21.000    38160983.694 6 200537290.61606      -848.417 6        38.961
R06        25.000    19870354.704 6 106032017.78806     -3011.557 6        38.216
R07        27.000    19502695.226 8 104399443.65208       883.683 8        49.911                                                                    19502696.062 7  81199581.80307       687.363 7        45.815
C41        29.000                                                                                                                                    23070356.940 7 120133432.48107      1394.747 7        42.263                                                                    23070363.879 7  97618230.20007      1133.423 7        42.819
R08        30.000    22920081.183 4                      3270.612 4        29.033                                                                    22920063.595 5  95461245.75115      2543.515 5        35.695
E34        32.000    26652972.894 5                     -3247.338 5        30.211                                                                    26652960.668 4 104591960.68904     -2425.694 4        28.332    26652960.198 4                     -2488.070 4        27.748
R23        33.000    22117827.257 5 118315446.46805      2910.930 5        35.305
R22        35.000    19305269.591 8 103052832.66008       239.173 8        49.493                                                                    19305266.962 8  80152231.25408       186.093 8        48.769
C33        37.000                                                                                                                                    21941268.828 8 114253969.81208     -1482.126 8        51.553                                                                    21941278.742 7  92840719.58807     -1204.463 7        46.042
R21        39.000    20713970.752 6 110844793.73206     -3791.046 6        37.293                                                                    20713967.788 5  86212485.94405     -2948.611 5        35.952
C27        41.000                                                                                                                                    22598824.293 7 117678026.56507       987.534 7        44.748                                                                    22598824.102 6  95623059.37106       802.370 6        40.522
C14        42.000                                                                                                                                    23032136.116 6 119934375.05806     -2958.752 6        37.694    23032128.440 6  92740876.47906     -2287.693 6        41.764    23032143.388 4  97456521.02614     -2404.447 4        29.640
C39        45.000                                                                                                                                    39276350.896 5 204522204.93805        52.190 5        35.695                                                                    39276332.196 4                        42.789 4        27.198
C30        49.000                                                                                                                                    26722417.894 3                      2406.908 3        21.429                                                                    26722393.136 5                      1955.870 5        32.742
C42        50.000                                                                                                                                    25166544.532 5                     -3830.994 5        32.419                                                                    25166543.576 4                     -3113.290 4        25.880
C28        55.000                                                                                                                                    21633275.688 8 112650237.66108     -1738.227 8        50.477                                                                    21633273.107 7  91537448.59507     -1412.443 7        44.942
I09        56.000    37139649.543 6 145743959.86206      -541.991 6        41.490
> 2025 01 02 23 45 40.0000000  0 31
G03         2.000    21222128.541 7 111523177.79307      1445.903 7        47.629                                    21222125.594 7  86901106.93707      1126.677 7        42.074    21222125.466 6  86901047.93706      1126.585 6        39.724
G32         3.000    22532481.928 7 118408947.14707     -2879.075 7        42.102                                    22532475.399 5  92266696.51505     -2243.430 5        30.694    22532484.311 7  92266810.47907     -2243.554 7        42.239
G21         4.000    20918834.323 5 109929270.82605     -1954.426 5        35.076                                    20918826.833 3  85659139.47103     -1522.901 3        18.716
G08         5.000    23306792.534 6 122477995.11506     -4405.747 6        38.048                                    23306790.221 3  95437382.25903     -3433.048 3        23.848    23306792.202 5                     -3433.537 5        32.335
G02         6.000    20708538.740 7 108824097.09207      -460.027 7        47.668                                    20708530.414 6  84797974.82606      -358.471 6        39.156
G14         7.000                                                                                                                                                                    24505613.440 3                     -2107.992 3        22.648
E03         9.000    24003363.951 6 126138525.03906      -356.551 6        41.630                                                                    24003362.823 7  94194413.04907      -266.214 7        47.461    24003362.535 8  96651629.69708      -273.152 8        48.254
G17        10.000    23405526.918 7 122996862.61007      1637.815 7        47.479                                    23405519.431 6  95841675.84306      1276.241 6        41.919    23405521.372 6  95841688.83206      1276.210 6        40.627
E05        11.000                                                                                                                                    24836067.590 4  97462052.27514     -2228.519 4        27.653    24836058.312 5 100004494.90505     -2285.785 5        33.180
E13        12.000    24569206.627 6 129112044.08606       970.600 6        37.312                                                                    24569203.018 5  96414850.53005       724.817 5        33.599    24569207.408 7  98930101.07207       743.568 7        43.827
E21        15.000    27584161.008 6 144955850.87806     -2735.678 6        36.155                                                                    27584176.746 4                     -2043.166 4        27.533    27584165.354 5 111070034.84405     -2096.213 5        35.614
E15        16.000    23458240.297 7 123273867.26307     -1452.236 7        44.342                                                                    23458240.855 8  92055154.88608     -1084.378 8        48.577    23458240.279 7  94456633.92707     -1112.731 7        46.483
E08        19.000    25671955.616 6 134907180.77506      2004.454 6        39.940                                                                    25671953.837 6 100742281.56306      1496.687 6        38.465    25671949.075 6 103370352.74606      1535.580 6        40.293
S23        21.000    38161788.255 6 200541533.38906      -848.307 6        40.844
S36        22.000    38206835.645 5 200778236.06615      -849.465 5        31.170
R06        25.000    19873177.828 6 106047083.29906     -3014.381 6        39.090
R07        27.000    19501872.904 7 104395034.22207       880.319 7        46.845                                                                    19501871.861 7  81196152.23807       684.651 7        45.088
C41        29.000                                                                                                                                    23069017.807 6 120126462.10406      1393.588 6        41.735                                                                    23069024.730 6  97612566.10806      1132.453 6        41.869
R08        30.000                                                                                                                                    22917008.039 5                      2542.935 5        32.701
E34        32.000                                                                                                                                    26656053.558 5 104604086.39805     -2425.039 5        30.392    26656047.778 3                     -2490.216 3        21.738
R22        35.000    19305046.442 8 103051644.48008       236.316 8        49.481                                                                    19305044.364 8  80151307.11708       183.811 8        48.475
C33        37.000                                                                                                                                    21942692.416 8 114261385.84408     -1484.075 8        50.928                                                                    21942704.012 7  92846745.74707     -1206.122 7        43.236
R21        39.000    20717513.171 6 110863756.70506     -3793.566 6        36.904                                                                    20717517.785 5  86227234.88605     -2950.385 5        32.096
C27        41.000                                                                                                                                    22597878.949 7 117673093.90707       985.912 7        43.323                                                                    22597876.509 6  95619051.09706       801.185 6        40.698
C14        42.000                                                                                                                                    23034975.484 6 119949171.68406     -2959.855 6        38.853    23034973.091 6  92752318.18006     -2288.680 6        39.186    23034979.478 6                     -2405.387 6        36.340
C39        45.000                                                                                                                                    39276292.192 4                        52.749 4        28.322
C43        48.000                                                                                                                                    25533929.729 4                     -4184.986 4        27.713
C30        49.000                                                                                                                                    26720105.457 5                      2406.661 5        31.064                                                                    26720080.422 5                      1955.570 5        33.168
C42        50.000                                                                                                                                    25170231.625 4 131068011.99514     -3831.135 4        27.281
C28        55.000                                                                                                                                    21634944.776 8 112658934.37908     -1740.365 8        50.110                                                                    21634942.970 7  91544515.37607     -1414.168 7        45.687
I09        56.000    37140340.733 6 145746670.13906      -542.025 6        38.973
> 2025 01 02 23 45 45.0000000  0 30
G03         2.000    21220753.886 7 111515954.35007      1443.512 7        46.801                                    21220750.986 6  86895478.26206      1124.807 6        41.888    21220751.612 6  86895419.25406      1124.932 6        40.024
G32         3.000    22535224.911 6 118423350.11406     -2881.938 6        38.219                                    22535218.846 5  92277919.60905     -2245.630 5        30.906    22535224.469 6  92278033.53206     -2245.815 6        39.922
G21         4.000    20920695.798 5 109939049.13405     -1957.057 5        33.695                                    20920687.927 2  85666758.99002     -1525.005 2        17.887
G08         5.000    23310984.794 6 122500027.77606     -4407.017 6        38.847                                    23310983.432 4  95454550.57904     -3434.019 4        25.248    23310986.083 5  95454585.54215     -3434.128 5        34.714
G02         6.000    20708977.269 8 108826404.19108      -462.593 8        50.111                                    20708969.291 6  84799772.56006      -360.465 6        39.141
E03         9.000    24003702.835 6 126140314.84906      -359.161 6        39.105                                                                    24003703.615 8  94195749.56208      -268.349 8        48.188    24003703.110 8  96653001.07908      -275.321 8        48.349
G17        10.000    23403969.935 7 122988680.26807      1635.303 7        47.926                                    23403962.220 7  95835299.99507      1274.251 7        42.461    23403964.064 7  95835313.03107      1274.277 7        42.330
E05        11.000    24838898.447 4                     -2985.939 4        24.286                                                                    24838902.535 4  97473196.61804     -2229.516 4        29.659    24838890.262 4 100015930.03804     -2287.796 4        29.280
E13        12.000    24568283.753 6 129107195.37306       969.308 6        40.126                                                                    24568282.390 5  96411229.67805       723.678 5        34.738    24568285.493 7  98926385.77407       742.540 7        44.868
E21        15.000    27586768.092 5 144969534.88305     -2738.109 5        32.120                                                                    27586788.281 3                     -2045.484 3        23.467    27586772.003 5 111080519.96505     -2097.828 5        32.186
E15        16.000    23459623.229 7 123281133.42207     -1454.179 7        45.189                                                                    23459623.893 8  92060580.91008     -1085.875 8        49.028    23459622.720 8  94462201.47908     -1114.175 8        48.019
E08        19.000    25670048.411 6 134897164.17206      2002.541 6        39.279                                                                    25670045.037 6 100734801.56806      1495.359 6        38.195    25670044.967 6 103362677.68106      1534.381 6        40.858
S23        21.000    38162602.314 6 200545776.26106      -848.868 6        41.611
S36        22.000    38207628.830 6 200782491.83706      -851.055 6        36.280
R06        25.000    19876005.617 6 106062164.53806     -3018.079 6        39.712
R07        27.000    19501052.914 8 104390643.27308       876.115 8        48.288                                                                    19501052.169 7  81192737.06207       681.421 7        45.073
C41        29.000                                                                                                                                    23067681.195 6 120119500.53106      1391.157 6        41.066                                                                    23067688.924 6  97606909.23706      1130.598 6        41.957
R08        30.000                                                                                                                                    22913953.921 5  95435817.43615      2541.575 5        32.796
E34        32.000    26659150.280 4                     -3248.321 4        26.551                                                                    26659143.678 5 104616214.77505     -2426.108 5        32.461    26659153.941 4                     -2488.931 4        24.887
R23        33.000    22112396.944 4 118286449.95214      2908.083 4        28.246
R22        35.000    19304827.136 8 103050472.57408       232.520 8        50.044                                                                    19304825.307 8  80150395.64708       180.838 8        49.139
C33        37.000                                                                                                                                    21944119.175 8 114268813.26508     -1486.773 8        50.683                                                                    21944130.041 7  92852781.10507     -1208.142 7        42.445
R21        39.000    20721062.029 6 110882732.92506     -3796.461 6        36.930                                                                    20721058.340 5  86241993.96305     -2953.349 5        31.049
C27        41.000                                                                                                                                    22596933.086 7 117668170.92407       983.590 7        45.228                                                                    22596930.052 6  95615050.82006       799.142 6        39.258
C14        42.000                                                                                                                                    23037819.065 6 119963976.25406     -2961.889 6        38.159    23037816.978 7  92763765.99407     -2290.336 7        42.136    23037830.728 4                     -2406.475 4        29.829
C39        45.000                                                                                                                                    39276242.189 5                        50.822 5        33.545                                                                    39276251.345 4                        41.180 4        27.593
C30        49.000                                                                                                                                    26717799.848 4                      2406.421 4        29.033                                                                    26717768.960 5                      1955.179 5        33.425
C42        50.000                                                                                                                                    25173909.343 5                     -3832.885 5        34.795                                                                    25173913.100 5                     -3114.416 5        33.198
C28        55.000                                                                                                                                    21636617.068 8 112667643.46808     -1743.268 8        49.236                                                                    21636615.385 7  91551592.21407     -1416.352 7        44.795
I09        56.000    37141030.971 7 145749381.48407      -542.448 7        42.988
> 2025 01 02 23 45 50.0000000  0 31
G03         2.000    21219380.630 7 111508739.97007      1441.881 7        45.619                                    21219378.395 6  86889856.66906      1123.541 6        41.788    21219379.861 6  86889797.69106      1123.373 6        40.546
G32         3.000    22537970.725 6 118437765.44706     -2884.680 6        36.110                                    22537964.427 5  92289152.34405     -2247.790 5        32.293    22537966.804 6  92289266.26006     -2247.708 6        39.508
G21         4.000    20922557.932 6 109948836.83206     -1958.693 6        37.391                                    20922550.894 2  85674385.74702     -1526.249 2        16.906
G08         5.000    23315179.983 6 122522064.88906     -4408.147 6        40.610                                    23315177.563 4  95471722.36504     -3434.905 4        26.144    23315179.114 5  95471757.32405     -3434.918 5        35.300
G02         6.000    20709418.217 8 108828721.55308      -464.719 8        49.990                                    20709410.076 6  84801578.29506      -362.122 6        38.991
G14         7.000    24510804.169 5                     -2709.055 5        31.102                                                                                                    24510736.583 5                     -2111.069 5        31.608
E03         9.000    24004045.192 6 126142116.81206      -361.640 6        36.696                                                                    24004046.637 8  94197095.19208      -270.203 8        48.159    24004045.906 8  96654381.81008      -277.267 8        48.481
G17        10.000    23402414.411 8 122980507.96808      1633.303 8        48.093                                    23402407.115 7  95828931.97707      1272.703 7        42.311    23402408.558 7  95828944.97907      1272.751 7        42.601
E05        11.000    24841734.587 4                     -2987.110 4        27.748                                                                    24841745.468 5  97484347.01005     -2231.167 5        32.186    24841739.386 5 100027371.43905     -2288.858 5        30.913
E13        12.000    24567362.121 6 129102350.55306       968.470 6        38.613                                                                    24567361.470 6  96407611.82006       723.172 6        36.839    24567363.167 7  98922673.54807       741.993 7        44.302
E21        15.000    27589374.929 5 144983226.93605     -2739.722 5        30.053                                                                                                                                    27589374.579 5 111091011.51605     -2098.882 5        30.717
E15        16.000    23461007.156 7 123288406.62107     -1455.506 7        45.919                                                                    23461008.056 8  92066012.21208     -1086.921 8        49.894    23461006.768 8  94467774.49208     -1115.335 8        48.746
E08        19.000    25668142.827 6 134887153.38106      2001.304 6        40.319                                                                    25668138.600 6 100727325.95506      1494.480 6        38.132    25668141.490 6 103355007.05806      1533.489 6        40.749
S23        21.000    38163415.483 6 200550019.30106      -848.724 6        41.242
R06        25.000    19878833.814 6 106077261.64906     -3021.064 6        38.625
R07        27.000    19500236.268 8 104386270.89508       872.389 8        49.936                                                                    19500235.769 7  81189336.30507       678.533 7        44.274
C41        29.000                                                                                                                                    23066348.361 6 120112548.14006      1389.447 6        41.852                                                                    23066353.694 7  97601259.91007      1129.030 7        43.875
R08        30.000                                                                                                                                    22910908.640 5                      2540.560 5        34.348
E34        32.000    26662231.215 4                     -3249.387 4        29.327                                                                    26662235.333 5 104628345.90505     -2426.770 5        32.772    26662249.077 3                     -2488.100 3        19.970
R23        33.000    22109673.372 4                      2907.094 4        28.038
R22        35.000    19304610.494 8 103049317.16708       229.229 8        49.269                                                                    19304608.568 8  80149497.02208       178.308 8        48.377
C33        37.000                                                                                                                                    21945547.705 8 114276252.23408     -1489.097 8        50.232                                                                    21945558.976 7  92858825.88807     -1210.073 7        43.534
R21        39.000                                                                                                                                    20724606.101 5  86256763.81905     -2955.195 5        33.222
C27        41.000                                                                                                                                    22595991.151 7 117663257.99607       981.460 7        43.695                                                                    22595986.915 6  95611058.68406       797.385 6        39.817
C14        42.000                                                                                                                                    23040664.297 5 119978788.90905     -2963.859 5        34.424    23040659.831 7  92775220.10907     -2291.596 7        45.448    23040669.403 5                     -2407.936 5        32.383
C39        45.000                                                                                                                                    39276192.935 5                        49.619 5        32.952                                                                    39276199.443 5                        40.394 5        30.694
C43        48.000                                                                                                                                    25541990.200 3                     -4185.852 3        20.619
C30        49.000                                                                                                                                                                                                                                                                    26715458.012 5                      1955.006 5        32.695
C42        50.000                                                                                                                                    25177581.824 5                     -3833.752 5        32.731                                                                    25177589.454 5                     -3115.044 5        31.947
C28        55.000                                                                                                                                    21638291.931 8 112676365.17508     -1745.901 8        49.695                                                                    21638290.926 7  91558679.29307     -1418.678 7        45.025
I09        56.000    37141721.927 7 145752094.22207      -542.882 7        43.700
> 2025 01 02 23 45 55.0000000  0 30
G03         2.000    21218009.314 7 111501534.52507      1440.213 7        44.795                                    21218007.520 6  86884242.04606      1122.228 6        41.135    21218008.572 6  86884183.07206      1122.169 6        41.974
G32         3.000    22540715.907 6 118452192.95806     -2886.820 6        37.191                                    22540711.488 5  92300394.56005     -2249.486 5        32.677    22540712.644 6  92300508.54606     -2249.364 6        40.374
G21         4.000    20924423.124 6 109958633.74206     -1960.327 6        36.578                                    20924415.369 3  85682019.70703     -1527.530 3        18.448
G08         5.000    23319375.018 6 122544106.23106     -4408.605 6        40.248                                    23319372.290 4  95488897.42404     -3435.292 4        26.910    23319369.719 5  95488932.40605     -3435.287 5        30.143
G02         6.000    20709861.468 8 108831049.08608      -466.516 8        49.345                                    20709852.843 6  84803391.95706      -363.511 6        39.270
G14         7.000                                                                                                                                                                    24513326.627 5                     -2112.663 5        31.879
E03         9.000    24004390.750 5 126143930.91905      -364.185 5        35.957                                                                    24004391.696 8  94198449.82008      -271.797 8        48.188    24004391.190 8  96655771.76608      -278.964 8        48.732
G17        10.000    23400861.089 8 122972345.51508      1631.526 8        48.389                                    23400853.901 7  95822571.63307      1271.316 7        42.241    23400854.572 6  95822584.63906      1271.298 6        41.478
E05        11.000    24844580.573 4                     -2988.840 4        27.557                                                                    24844587.756 5  97495503.33805     -2231.879 5        31.049    24844583.324 4 100038818.82604     -2289.701 4        26.707
E13        12.000    24566441.195 6 129097509.75906       967.578 6        40.617                                                                    24566439.791 6  96403996.86906       722.548 6        36.514    24566442.008 7  98918964.33007       741.350 7        44.176
E21        15.000    27591984.051 4 144996927.45304     -2740.696 4        27.126                                                                                                                                    27591980.675 5 111101509.14805     -2100.224 5        32.629
E15        16.000    23462392.722 7 123295686.81407     -1456.737 7        46.148                                                                    23462393.141 8  92071448.71408     -1087.871 8        50.204    23462392.154 7  94473352.81407     -1116.241 7        47.584
E08        19.000    25666241.553 6 134877148.32606      2000.382 6        40.858                                                                    25666234.232 6 100719854.65906      1493.801 6        38.201    25666239.451 6 103347340.87806      1532.709 6        37.883
S23        21.000    38164217.894 6 200554262.65106      -848.765 6        40.355
R06        25.000    19881665.409 6 106092374.54106     -3024.149 6        36.767
R07        27.000    19499423.426 7 104381917.17307       868.812 7        47.525                                                                    19499422.952 7  81185950.05907       675.805 7        46.036
C41        29.000                                                                                                                                    23065014.873 7 120105604.83707      1387.639 7        45.053                                                                    23065019.829 7  97595617.88407      1127.460 7        43.998
R08        30.000    22907859.161 5                      3265.278 5        34.595                                                                    22907860.243 5  95410409.19515      2539.927 5        32.647
E34        32.000                                                                                                                                    26665329.780 5 104640479.74105     -2426.936 5        33.108
R23        33.000    22106963.444 5                      2906.301 5        34.048
R22        35.000    19304396.713 8 103048178.19408       226.132 8        49.131                                                                    19304395.584 8  80148611.15208       175.877 8        49.003
C33        37.000                                                                                                                                    21946978.826 8 114283702.66408     -1491.220 8        50.955                                                                    21946989.819 7  92864879.96007     -1212.001 7        42.432
R21        39.000                                                                                                                                    20728159.712 4  86271543.97004     -2957.096 4        29.630
C27        41.000                                                                                                                                    22595050.351 7 117658354.98107       979.599 7        42.641                                                                    22595045.721 6  95607074.53306       795.835 6        40.651
C14        42.000                                                                                                                                    23043512.962 5 119993609.58005     -2965.000 5        35.386    23043506.044 7  92786680.33607     -2292.667 7        44.107    23043517.263 6                     -2409.481 6        37.040
C39        45.000                                                                                                                                    39276145.859 5 204521188.81115        48.716 5        33.988                                                                    39276161.287 4                        39.671 4        29.735
C30        49.000                                                                                                                                    26713180.085 4                      2405.920 4        28.379                                                                    26713147.547 5                      1954.754 5        32.263
C42        50.000                                                                                                                                    25181263.136 5                     -3834.144 5        32.467                                                                    25181273.964 4                     -3115.459 4        28.028
C28        55.000                                                                                                                                    21639968.705 8 112685099.37208     -1748.098 8        48.869                                                                    21639968.107 7  91565776.56207     -1420.760 7        45.108
I09        56.000    37142412.721 7 145754808.08407      -542.941 7        42.385
> 2025 01 02 23 46  0.0000000  0 30
G03         2.000    21216640.517 7 111494337.93607      1438.659 7        44.901                                    21216638.336 6  86878634.31806      1121.025 6        41.099    21216639.216 7  86878575.33107      1120.962 7        42.726
G32         3.000    22543464.322 6 118466632.69606     -2888.866 6        41.743                                    22543460.543 5  92311646.30805     -2251.053 5        34.057    22543460.138 6  92311760.31806     -2250.999 6        38.772
G21         4.000    20926290.018 6 109968439.67606     -1962.041 6        38.390                                    20926281.887 3  85689660.66403     -1528.864 3        18.179
G08         5.000    23323570.089 6 122566151.65006     -4409.306 6        39.312                                    23323567.535 4  95506075.68704     -3435.821 4        27.425    23323567.265 5  95506110.69605     -3435.985 5        33.641
G02         6.000    20710306.709 8 108833386.56908      -468.300 8        48.877                                    20710297.559 6  84805213.37806      -364.897 6        39.270
G14         7.000                                                                                                                                                                    24515909.208 5 100388554.39715     -2114.209 5        30.272
E03         9.000    24004738.279 6 126145756.74106      -366.144 6        39.183                                                                    24004739.032 8  94199813.29108      -273.382 8        48.071    24004738.592 8  96657170.79808      -280.548 8        48.188
G17        10.000    23399309.539 8 122964192.71708      1629.815 8        49.060                                    23399302.535 7  95816218.82307      1269.984 7        42.646    23399303.920 6  95816231.81206      1270.014 6        41.838
E05        11.000    24847424.597 4                     -2989.884 4        26.168                                                                    24847434.758 5  97506665.48405     -2232.908 5        30.083    24847427.736 5 100050272.15905     -2291.083 5        32.132
E13        12.000    24565520.573 7 129092672.61407       967.176 7        43.037                                                                    24565519.003 6  96400384.75106       722.207 6        37.149    24565521.337 7  98915257.91707       741.138 7        44.625
E21        15.000    27594597.318 4 145010635.88304     -2743.300 4        25.113                                                                                                                                    27594587.141 5 111112012.91605     -2101.583 5        32.377
E15        16.000    23463779.526 7 123302973.71207     -1457.850 7        46.225                                                                    23463780.035 8  92076890.23508     -1088.638 8        50.208    23463778.827 8  94478936.29408     -1117.016 8        48.110
E08        19.000    25664340.468 6 134867148.83406      1999.528 6        40.570                                                                    25664331.207 6 100712387.47506      1493.486 6        37.127    25664332.501 6 103339678.94406      1532.113 6        38.928
S23        21.000    38165026.054 6 200558506.03806      -848.447 6        40.806
R06        25.000    19884500.679 6 106107503.05006     -3027.087 6        37.316
R07        27.000    19498612.245 7 104377581.77607       865.388 7        46.145                                                                    19498612.403 7  81182578.08507       673.228 7        44.746
C41        29.000                                                                                                                                    23063681.905 7 120098670.35407      1386.136 7        44.351                                                                    23063687.560 7  97589983.05207      1126.404 7        42.882
R08        30.000    22904812.147 5 122654217.82215      3264.554 5        33.138                                                                    22904809.241 5  95397712.43005      2539.018 5        30.604
E34        32.000                                                                                                                                    26668423.309 5 104652616.12805     -2427.285 5        34.019
R23        33.000    22104244.941 6 118242816.23816      2905.866 6        37.698
R22        35.000    19304186.327 8 103047055.43708       223.062 8        50.247                                                                    19304185.099 8  80147737.88508       173.596 8        49.249
C33        37.000                                                                                                                                    21948411.801 8 114291164.38908     -1493.246 8        50.290                                                                    21948422.524 7  92870943.17907     -1213.316 7        43.678
R21        39.000    20731733.226 5 110939723.50015     -3803.750 5        30.166
C27        41.000                                                                                                                                    22594110.177 6 117653461.65506       978.034 6        39.907                                                                    22594105.888 6  95603098.24906       794.743 6        40.353
C14        42.000                                                                                                                                    23046360.601 6 120008437.87706     -2966.216 6        40.060    23046354.519 7  92798146.57407     -2293.615 7        42.700    23046357.706 5  97516699.55115     -2410.429 5        34.390
C39        45.000                                                                                                                                    39276100.122 5 204520947.08305        47.948 5        34.605                                                                    39276112.130 5                        39.080 5        31.404
C30        49.000                                                                                                                                                                                                                                                                    26710837.493 5                      1954.727 5        32.228
C42        50.000                                                                                                                                    25184942.882 5                     -3834.628 5        33.335
C28        55.000                                                                                                                                    21641648.537 8 112693845.83308     -1750.363 8        48.901                                                                    21641647.733 7  91572883.78607     -1422.352 7        46.068
I09        56.000    37143105.693 6 145757523.00306      -542.884 6        41.781
> 2025 01 02 23 46  5.0000000  0 30
G03         2.000    21215272.858 7 111487150.04207      1436.507 7        44.653                                    21215270.668 6  86873033.36306      1119.363 6        40.942    21215271.141 6  86872974.36606      1119.313 6        41.864
G32         3.000    22546214.041 7 118481084.36407     -2891.421 7        42.845                                    22546211.369 5  92322907.34005     -2253.050 5        35.257    22546210.051 6  92323021.33206     -2253.339 6        39.411
G21         4.000    20928157.038 6 109978254.51506     -1964.094 6        37.992                                    20928149.988 2  85697308.58902     -1530.449 2        17.585
G08         5.000    23327765.787 6 122588201.04406     -4410.475 6        40.257                                    23327763.119 4  95523257.03704     -3436.757 4        27.317    23327764.727 5  95523292.04305     -3436.503 5        33.641
G02         6.000    20710753.330 8 108835733.88908      -470.620 8        49.990                                    20710744.181 6  84807042.46106      -366.716 6        39.408
G14         7.000                                                                                                                                                                    24518492.777 5 100399128.37405     -2115.831 5        33.192
E03         9.000    24005089.324 6 126147594.36506      -368.934 6        38.369                                                                    24005088.727 8  94201185.54208      -275.387 8        48.212    24005088.464 8  96658578.85008      -282.604 8        48.733
G17        10.000    23397759.667 8 122956049.51508      1627.522 8        48.660                                    23397753.158 7  95809873.47907      1268.195 7        42.728    23397754.438 7  95809886.48307      1268.341 7        42.034
E05        11.000    24850270.387 3                     -2989.940 3        21.143                                                                    24850278.005 4  97517833.43904     -2234.337 4        28.009    24850273.063 5 100061731.32905     -2292.572 5        31.615
E13        12.000    24564601.816 7 129087839.08207       966.129 7        43.268                                                                    24564599.789 6  96396775.34106       721.411 6        38.384    24564601.383 7  98911554.31307       740.314 7        44.542
E21        15.000    27597208.841 4 145024351.91404     -2744.425 4        27.018                                                                                                                                    27597199.438 5 111122522.67805     -2102.390 5        30.226
E15        16.000    23465167.273 7 123310267.28107     -1459.503 7        46.697                                                                    23465168.068 8  92082336.72208     -1089.890 8        50.393    23465166.919 8  94484524.88408     -1118.343 8        48.286
E08        19.000    25662437.755 6 134857154.82606      1998.155 6        41.044                                                                    25662429.582 6 100704924.44206      1492.109 6        37.573    25662425.963 6 103332021.16906      1531.136 6        37.335
S23        21.000    38165824.212 6 200562749.37106      -848.861 6        40.889
R06        25.000    19887338.580 6 106122647.03806     -3030.355 6        37.943
R07        27.000    19497804.776 7 104373264.73007       861.405 7        45.285                                                                    19497805.815 7  81179220.42207       669.999 7        45.269
C41        29.000                                                                                                                                    23062351.825 6 120091744.70406      1383.996 6        40.808                                                                    23062357.919 6  97584355.38006      1124.632 6        41.456
R08        30.000    22901766.905 6 122637899.54606      3263.025 6        36.087                                                                    22901762.805 5  95385020.47205      2537.652 5        33.892
E34        32.000    26671528.903 4                     -3251.737 4        25.774                                                                    26671516.355 5 104664754.97405     -2427.804 5        34.667
R23        33.000    22101526.953 5 118228291.31705      2904.555 5        34.614
R22        35.000    19303979.343 8 103045948.80108       219.597 8        50.579                                                                    19303977.123 8  80146877.16908       170.837 8        48.437
C33        37.000                                                                                                                                    21949846.393 8 114298637.25208     -1495.821 8        49.361                                                                    21949857.363 7  92877015.52807     -1215.566 7        43.600
R21        39.000                                                                                                                                    20735267.523 5  86301134.94015     -2961.111 5        35.814
C27        41.000                                                                                                                                    22593171.915 7 117648577.88107       975.735 7        43.744                                                                    22593168.061 6  95599129.85006       792.667 6        39.069
C14        42.000                                                                                                                                    23049208.364 6 120023273.94506     -2968.157 6        41.871    23049202.784 7  92809618.74107     -2295.149 7        42.457    23049201.960 4  97528755.06204     -2412.378 4        29.194
C39        45.000                                                                                                                                    39276063.042 6 204520709.93806        46.686 6        36.915                                                                    39276071.103 4                        38.078 4        29.441
C30        49.000                                                                                                                                                                                                                                                                    26708528.526 5                      1954.389 5        30.747
C42        50.000                                                                                                                                    25188629.401 5                     -3835.336 5        35.743                                                                    25188648.523 5                     -3116.270 5        32.599
C28        55.000                                                                                                                                    21643330.822 8 112702604.53608     -1753.115 8        49.840                                                                    21643329.830 7  91580000.93707     -1424.622 7        45.595
I09        56.000    37143797.708 6 145760238.92906      -543.348 6        41.395
> 2025 01 02 23 46 10.0000000  0 30
G03         2.000    21213906.686 7 111479971.15907      1434.839 7        44.208                                    21213904.489 6  86867439.43306      1118.063 6        40.901    21213904.318 6  86867380.39506      1118.148 6        41.690
G32         3.000    22548965.697 7 118495548.35607     -2894.081 7        43.837                                    22548964.301 6  92334177.98606     -2255.135 6        36.265    22548963.144 6  92334291.99006     -2255.042 6        40.725
G21         4.000    20930027.123 6 109988078.58406     -1965.802 6        37.104                                    20930020.074 3  85704963.72403     -1531.807 3        18.388
G08         5.000    23331961.945 6 122610254.73506     -4411.238 6        39.225                                    23331959.585 4  95540441.73904     -3437.322 4        26.479    23331958.625 5  95540476.73105     -3437.300 5        33.120
G02         6.000    20711201.511 8 108838091.40208      -472.540 8        50.270                                    20711192.738 6  84808879.48906      -368.216 6        39.598
G14         7.000    24521056.490 5 128859385.06115     -2716.564 5        30.740                                                                                                    24521073.653 5 100409710.39205     -2117.254 5        35.705
E03         9.000    24005440.535 6 126149444.11306      -371.367 6        38.234                                                                    24005440.991 8  94202566.82208      -277.126 8        48.738    24005440.412 8  96659996.14508      -284.400 8        48.262
G17        10.000    23396211.698 8 122947916.28108      1625.689 8        49.427                                    23396205.645 7  95803535.90107      1266.771 7        42.804    23396206.472 7  95803548.89607      1266.647 7        42.891
E05        11.000    24853119.409 5                     -2993.490 5        32.329                                                                    24853125.591 4  97529007.29704     -2235.736 4        28.815
E13        12.000    24563682.474 7 129083009.48407       965.525 7        42.730                                                                    24563680.597 6  96393168.82406       721.080 6        39.492    24563681.938 7  98907853.73407       739.842 7        44.298
E21        15.000    27599819.399 4 145038075.99104     -2746.239 4        24.060                                                                                                                                    27599812.639 5 111133038.57405     -2103.461 5        30.906
E15        16.000    23466556.729 7 123317567.81707     -1460.770 7        46.111                                                                    23466557.061 8  92087788.43308     -1090.872 8        50.235    23466556.547 8  94490118.79408     -1119.262 8        48.539
E08        19.000    25660536.618 6 134847166.55406      1997.138 6        39.024                                                                    25660528.701 6 100697465.68806      1491.395 6        39.183    25660526.727 6 103324367.85106      1530.114 6        37.482
S23        21.000    38166639.107 6 200566992.86506      -848.668 6        40.176
R06        25.000    19890179.309 6 106137806.84106     -3033.429 6        39.282
R07        27.000    19497003.519 7 104368966.29607       857.765 7        47.222                                                                    19497002.196 7  81175877.17707       667.269 7        45.366
C41        29.000                                                                                                                                    23061024.251 6 120084828.11506      1382.473 6        41.278                                                                    23061029.777 6  97578735.11006      1123.336 6        41.120
R08        30.000    22898719.606 5 122621587.78705      3262.051 5        32.689                                                                    22898718.941 6  95372333.53306      2537.015 6        36.499
E34        32.000                                                                                                                                    26674608.820 5 104676896.51505     -2428.304 5        32.719
R22        35.000    19303775.544 8 103044858.66208       216.451 8        51.419                                                                    19303773.145 7  80146029.28707       168.263 7        47.754
C33        37.000                                                                                                                                    21951283.493 8 114306121.57608     -1497.953 8        49.920                                                                    21951294.001 7  92883097.15407     -1217.144 7        42.919
R21        39.000    20738860.375 6                     -3810.053 6        36.563                                                                    20738829.172 6  86315945.86506     -2963.395 6        37.656
C27        41.000                                                                                                                                    22592235.383 7 117643704.07707       973.832 7        43.136                                                                    22592231.816 6  95595169.49406       791.335 6        40.124
C14        42.000                                                                                                                                    23052057.532 7 120038117.94607     -2969.595 7        42.186    23052052.493 6  92821097.08006     -2296.263 6        41.330    23052053.991 6  97540816.98406     -2413.123 6        37.127
C39        45.000                                                                                                                                    39276019.307 6 204520477.80106        45.885 6        36.265                                                                    39276025.367 4                        37.446 4        28.303
C43        48.000                                                                                                                                    25558068.630 4                     -4189.455 4        24.316
C30        49.000                                                                                                                                    26706217.680 5                      2404.639 5        31.479                                                                    26706218.312 4                      1954.307 4        29.782
C42        50.000                                                                                                                                    25192316.663 5 131182977.88815     -3836.169 5        33.425                                                                    25192325.829 5 106596997.77115     -3116.607 5        30.921
C28        55.000                                                                                                                                    21645015.419 8 112711375.74208     -1755.510 8        49.505                                                                    21645014.072 7  91587128.26607     -1426.444 7        44.778
I09        56.000    37144489.565 6 145762956.04606      -543.583 6        41.986
> 2025 01 02 23 46 15.0000000  0 31
G03         2.000    21212543.500 7 111472801.05507      1433.430 7        45.049                                    21212539.965 6  86861852.34006      1116.972 6        41.766    21212539.350 6  86861793.31906      1116.885 6        41.001
G32         3.000    22551719.510 7 118510024.42807     -2896.248 7        43.740                                    22551719.465 5  92345458.04905     -2256.823 5        35.800    22551717.949 6  92345572.05606     -2256.831 6        41.125
G21         4.000    20931897.685 6 109997911.74206     -1967.301 6        37.002                                    20931891.917 3  85712625.92003     -1532.975 3        18.179
G08         5.000    23336159.554 6 122632312.48106     -4411.814 6        39.024                                    23336157.343 4  95557629.58204     -3437.772 4        26.527    23336157.656 5  95557664.61605     -3437.865 5        33.150
G02         6.000    20711651.889 8 108840458.94608      -474.350 8        50.281                                    20711643.415 6  84810724.33306      -369.619 6        40.050
G14         7.000    24523650.721 4 128872975.39104     -2718.711 4        27.042                                                                                                    24523660.311 5 100420300.19405     -2118.646 5        33.491
E03         9.000    24005795.216 6 126151305.66306      -373.309 6        39.985                                                                    24005795.368 8  94203956.95808      -278.801 8        48.737    24005794.395 8  96661422.57508      -286.055 8        48.723
G17        10.000    23394665.654 8 122939792.78308      1623.928 8        49.022                                    23394659.931 7  95797205.88707      1265.399 7        42.434    23394660.464 7  95797218.87907      1265.482 7        43.126
E05        11.000    24855973.096 5                     -2994.924 5        33.150                                                                    24855975.515 5  97540186.83205     -2236.012 5        31.238    24855972.089 4 100084692.94014     -2294.964 4        27.689
E13        12.000    24562763.980 7 129078183.66307       965.001 7        42.512                                                                    24562763.454 6  96389565.07906       720.517 6        39.027    24562763.871 7  98904156.06907       739.341 7        46.108
E21        15.000                                                                                                                                                                                                    27602423.124 5 111143560.60905     -2105.023 5        33.341
E15        16.000    23467947.411 7 123324875.16807     -1461.983 7        46.869                                                                    23467947.485 8  92093245.19708     -1091.732 8        50.539    23467947.255 8  94495717.91908     -1120.190 8        48.209
E08        19.000                                                                                                                                    25658630.036 6 100690011.09106      1490.617 6        40.102    25658629.745 6 103316718.78506      1529.647 6        38.294
S23        21.000    38167439.809 6 200571236.25806      -848.502 6        41.104
R06        25.000    19893024.982 6 106152982.23006     -3036.467 6        39.096
R07        27.000    19496205.507 8 104364686.30108       854.284 8        48.539                                                                    19496203.103 7  81172548.26307       664.537 7        46.227
C41        29.000                                                                                                                                    23059697.028 6 120077920.45606      1380.905 6        37.645                                                                    23059703.830 6  97573122.03206      1122.181 6        40.596
R08        30.000    22895669.754 5 122605282.22305      3260.841 5        31.509                                                                    22895674.956 5  95359651.55305      2536.119 5        35.895
E34        32.000                                                                                                                                    26677703.383 5 104689040.57305     -2428.771 5        30.679
R23        33.000    22096080.918 6 118199114.87716      2902.662 6        36.658
R22        35.000    19303574.535 8 103043784.79208       213.299 8        51.197                                                                    19303572.342 8  80145194.03908       166.019 8        48.185
C33        37.000                                                                                                                                    21952723.399 8 114313617.19708     -1500.031 8        48.672                                                                    21952732.853 7  92889187.94407     -1218.956 7        42.609
R21        39.000    20742418.611 4 110996883.66314     -3813.073 4        27.904                                                                    20742391.982 6  86330767.00616     -2965.206 6        36.287
C27        41.000                                                                                                                                    22591301.753 7 117638840.08707       971.920 7        43.426                                                                    22591297.959 6  95591217.07606       789.721 6        41.063
C14        42.000                                                                                                                                    23054911.148 7 120052969.63407     -2970.923 7        43.280    23054904.432 6  92832581.35206     -2297.426 6        41.692    23054908.464 6  97552885.20106     -2414.129 6        37.754
C39        45.000                                                                                                                                    39275979.712 5 204520250.54305        45.184 5        35.500                                                                    39275977.776 4                        36.595 4        26.228
C43        48.000                                                                                                                                    25562096.757 4                     -4189.669 4        25.910
C30        49.000                                                                                                                                    26703909.790 4 139054265.00414      2403.964 4        28.057                                                                    26703907.256 4                      1954.090 4        29.384
C42        50.000                                                                                                                                    25196001.783 4                     -3836.938 4        25.744                                                                    25196003.978 5 106612583.85605     -3117.334 5        30.332
C28        55.000                                                                                                                                    21646702.906 8 112720159.26908     -1757.789 8        49.384                                                                    21646700.974 7  91594265.62607     -1428.318 7        45.365
I09        56.000    37145183.148 6 145765674.20506      -543.754 6        40.822
> 2025 01 02 23 46 20.0000000  0 31
G03         2.000    21211180.308 7 111465639.33707      1431.587 7        44.739                                    21211177.054 6  86856271.77206      1115.528 6        41.087    21211176.850 6  86856212.76306      1115.597 6        40.717
G32         3.000    22554476.712 7 118524512.04007     -2898.719 7        43.592                                    22554476.806 6  92356747.08906     -2258.741 6        36.817    22554474.258 6  92356861.10806     -2258.621 6        41.778
G21         4.000    20933769.034 6 110007753.48406     -1969.184 6        36.299                                    20933765.067 2  85720294.84002     -1534.456 2        16.755
G08         5.000    23340356.084 6 122654373.73106     -4412.166 6        36.446                                    23340355.446 4  95574820.16904     -3438.053 4        24.241    23340355.827 5  95574855.27405     -3438.643 5        33.551
G02         6.000    20712103.671 8 108842836.01508      -476.286 8        50.531                                    20712095.885 6  84812576.58406      -371.133 6        40.648
G14         7.000                                                                                                                                                                    24526248.159 4 100430897.49604     -2120.123 4        29.261
E03         9.000    24006150.498 6 126153178.66406      -375.636 6        40.493                                                                    24006152.032 8  94205355.63108      -280.475 8        49.458    24006150.179 8  96662857.72208      -287.805 8        49.020
G17        10.000    23393121.765 7 122931678.57707      1621.995 7        46.987                                    23393116.242 7  95790883.13407      1263.895 7        42.762    23393117.301 7  95790896.11907      1263.877 7        42.741
E05        11.000    24858820.885 5 130633982.89415     -2996.487 5        34.424                                                                                                                                    24858824.228 4 100096169.76904     -2295.590 4        26.096
E13        12.000    24561845.543 6 129073361.15606       964.145 6        41.294                                                                    24561844.097 6  96385963.85506       720.137 6        39.967    24561846.201 7  98900460.88207       738.859 7        44.769
E21        15.000    27605052.760 3                     -2749.593 3        23.619                                                                                                                                    27605031.746 5 111154088.23805     -2105.641 5        31.494
E15        16.000    23469338.747 7 123332188.80307     -1463.257 7        45.848                                                                    23469339.345 8  92098706.67908     -1092.690 8        50.364    23469338.552 8  94501321.86708     -1121.199 8        48.429
E08        19.000    25656730.129 5 134827206.32905      1994.975 5        32.497                                                                    25656731.555 6 100682560.33206      1489.993 6        40.443    25656731.361 6 103309073.67706      1528.808 6        40.193
S23        21.000    38168252.348 6 200575479.02906      -848.410 6        41.905
R06        25.000    19895872.188 6 106168172.73006     -3039.443 6        39.523
R07        27.000    19495410.070 7 104360424.31907       850.783 7        46.953                                                                    19495406.708 7  81169233.36907       661.746 7        45.711
C41        29.000                                                                                                                                    23058371.576 6 120071021.25806      1379.177 6        38.096                                                                    23058376.588 6  97567515.83206      1120.702 6        39.565
R08        30.000    22892625.105 5 122588982.64805      3259.866 5        33.922                                                                    22892628.697 5  95346974.07505      2535.004 5        33.096
E34        32.000    26680825.518 3                     -3252.676 3        22.857                                                                    26680800.467 5 104701186.85605     -2429.068 5        31.155
R23        33.000    22093366.792 5 118184603.72305      2901.610 5        32.365
R22        35.000    19303375.758 8 103042726.71208       210.098 8        51.011                                                                    19303373.937 7  80144371.10607       163.480 7        47.749
C33        37.000                                                                                                                                    21954165.383 8 114321123.59108     -1502.265 8        49.995                                                                    21954174.408 7  92895287.48907     -1220.656 7        42.614
R21        39.000    20745969.477 5                     -3815.313 5        30.181                                                                    20745955.524 5  86345598.03015     -2967.068 5        35.424
C27        41.000                                                                                                                                    22590369.420 7 117633985.29107       970.131 7        46.610                                                                    22590366.391 6  95587272.18506       788.254 6        41.395
C14        42.000                                                                                                                                    23057767.079 6 120067828.56506     -2972.378 6        36.820    23057758.882 6  92844071.24706     -2298.568 6        38.270    23057766.861 6  97564959.50406     -2415.517 6        38.844
C39        45.000                                                                                                                                    39275939.857 5 204520027.68305        44.191 5        35.243
C43        48.000                                                                                                                                    25566117.000 4                     -4190.144 4        25.414
C30        49.000                                                                                                                                    26701602.512 5 139042242.01105      2404.470 5        34.038                                                                    26701599.023 4                      1954.107 4        28.739
C42        50.000                                                                                                                                    25199687.433 5                     -3837.040 5        31.094                                                                    25199689.505 4 106628171.79504     -3117.784 4        29.062
C28        55.000                                                                                                                                    21648391.234 8 112728954.63908     -1760.126 8        49.840                                                                    21648390.286 7  91601412.58507     -1430.325 7        45.702
I09        56.000    37145875.654 6 145768393.11106      -543.839 6        41.998
> 2025 01 02 23 46 25.0000000  0 31
G03         2.000    21209818.774 7 111458486.75307      1429.797 7        46.123                                    21209815.897 6  86850698.34706      1114.133 6        41.025    21209815.885 7  86850639.34307      1114.148 7        42.076
G32         3.000    22557235.810 7 118539012.09407     -2901.116 7        44.581                                    22557235.922 6  92368045.82706     -2260.636 6        36.775    22557232.299 6  92368159.89006     -2260.638 6        40.810
G21         4.000    20935643.265 5 110017604.63905     -1970.910 5        33.407                                    20935640.013 2  85727971.06902     -1535.814 2        16.264
G08         5.000    23344554.654 5 122676439.45605     -4413.125 5        34.219                                    23344553.494 3  95592014.28503     -3438.812 3        21.381    23344551.268 4  95592049.45004     -3439.336 4        29.393
G02         6.000    20712558.300 8 108845223.43308      -478.429 8        50.927                                    20712550.345 6  84814436.90106      -372.806 6        40.858
G14         7.000    24528857.830 3                     -2723.118 3        21.024                                                                                                    24528840.952 4 100441502.70704     -2121.009 4        28.284
E03         9.000    24006509.550 6 126155063.88106      -378.012 6        38.417                                                                    24006510.888 8  94206763.41708      -282.366 8        49.504    24006509.053 8  96664302.23908      -289.713 8        48.810
G17        10.000    23391579.424 7 122923574.41907      1620.078 7        47.853                                    23391574.270 7  95784568.21507      1262.398 7        42.292    23391574.299 6  95784581.22606      1262.339 6        41.845
E05        11.000    24861668.055 4 130648969.18404     -2997.780 4        28.455                                                                    24861667.081 4  97562563.01804     -2238.151 4        26.311    24861677.005 4 100107652.81504     -2297.677 4        25.789
E13        12.000    24560928.348 6 129068542.75306       963.508 6        39.369                                                                    24560927.322 6  96382365.68806       719.574 6        39.880    24560929.563 7  98896768.81507       738.122 7        45.723
E21        15.000    27607664.684 5                     -2749.986 5        30.536                                                                    27607672.860 5 108338429.70815     -2053.458 5        30.943    27607648.911 4 111164622.29604     -2107.291 4        29.299
E15        16.000    23470731.953 7 123339509.54507     -1464.682 7        46.747                                                                    23470732.379 8  92104173.48308     -1093.764 8        50.123    23470731.554 8  94506931.27508     -1122.323 8        48.349
E08        19.000    25654839.841 6 134817234.68006      1993.721 6        38.414                                                                    25654832.978 6 100675114.04806      1488.954 6        38.483    25654832.874 6 103301433.15106      1527.758 6        40.229
S23        21.000    38169055.286 6 200579721.95306      -848.281 6        40.267
R06        25.000    19898720.359 6 106183379.09906     -3042.798 6        38.294
R07        27.000    19494615.531 7 104356180.99507       846.841 7        45.955                                                                    19494613.927 7  81165933.04207       658.760 7        46.111
C41        29.000                                                                                                                                    23057047.824 6 120064131.16906      1377.386 6        39.204                                                                    23057052.589 6  97561917.15306      1118.794 6        38.883
R08        30.000                                                                                                                                    22889583.718 5  95334301.69205      2533.657 5        34.095
E34        32.000                                                                                                                                    26683900.106 5 104713336.01205     -2429.932 5        33.060
R23        33.000    22090656.422 4 118170097.83004      2899.743 4        26.287
R22        35.000    19303181.007 8 103041685.27108       206.786 8        50.634                                                                    19303178.789 7  80143561.10807       160.816 7        47.406
C33        37.000                                                                                                                                    21955608.837 8 114328641.58208     -1504.539 8        50.360                                                                    21955617.861 6  92901396.46806     -1222.744 6        41.514
R21        39.000    20749531.907 4 111034935.27914     -3818.219 4        28.626                                                                    20749518.996 5  86360439.53715     -2969.322 5        35.819
C27        41.000                                                                                                                                    22589438.111 7 117629140.62607       968.039 7        47.540                                                                    22589435.530 7  95583335.50807       786.427 7        42.402
C14        42.000                                                                                                                                    23060618.016 6 120082695.77806     -2974.204 6        36.703    23060612.787 6  92855567.45006     -2299.953 6        40.160    23060617.819 5  97577040.21605     -2416.897 5        35.019
C39        45.000                                                                                                                                    39275894.507 5 204519809.84705        43.315 5        35.933
C43        48.000                                                                                                                                    25570140.575 3                     -4188.960 3        22.781
C30        49.000                                                                                                                                    26699293.170 6 139030220.55806      2404.336 6        36.038                                                                    26699292.502 4                      1953.440 4        28.028
C42        50.000                                                                                                                                    25203365.759 6                     -3837.565 6        37.006                                                                    25203376.446 5 106643762.41905     -3118.164 5        30.891
C28        55.000                                                                                                                                    21650083.109 8 112737762.68508     -1762.624 8        49.051                                                                    21650081.323 7  91608569.83207     -1432.482 7        44.912
I09        56.000    37146567.679 6 145771113.31606      -544.126 6        40.968
> 2025 01 02 23 46 30.0000000  0 29
G03         2.000    21208459.232 7 111451342.72807      1427.949 7        44.953                                    21208456.148 6  86845131.57406      1112.699 6        41.061    21208456.174 6  86845072.53806      1112.684 6        41.416
G32         3.000    22559997.611 7 118553523.90907     -2903.680 7        42.637                                    22559997.127 6  92379353.72706     -2262.625 6        36.189    22559994.359 6  92379467.75206     -2262.690 6        39.399
G21         4.000    20937521.398 5 110027464.63505     -1973.036 5        30.770                                    20937516.458 2  85735654.17902     -1537.447 2        15.381
G08         5.000    23348754.071 6 122698508.89206     -4414.234 6        36.083                                    23348751.928 3  95609211.28303     -3439.674 3        19.045
G02         6.000    20713014.837 8 108847620.53008      -480.496 8        51.231                                    20713006.728 6  84816304.77306      -374.415 6        41.638
E03         9.000    24006871.034 6 126156960.68706      -380.666 6        37.233                                                                    24006871.458 8  94208179.86008      -284.244 8        49.212    24006870.333 8  96665755.62108      -291.669 8        48.923
G17        10.000    23390040.264 7 122915479.72707      1617.794 7        46.981                                    23390033.974 7  95778260.67707      1260.616 7        42.631    23390034.228 6  95778273.67406      1260.733 6        41.085
E05        11.000    24864525.474 5 130663963.10705     -2999.608 5        31.117                                                                    24864540.553 3                     -2239.371 3        20.476    24864526.195 4                     -2298.238 4        26.048
E13        12.000    24560011.434 6 129063727.76606       962.510 6        40.994                                                                    24560013.106 6  96378770.15106       718.707 6        41.590    24560013.565 7  98893079.42107       737.511 7        44.251
E21        15.000    27610283.785 4                     -2751.680 4        28.332                                                                    27610289.355 5 108348701.69705     -2055.052 5        31.683    27610265.616 4 111175162.04104     -2108.301 4        26.395
E15        16.000    23472125.860 7 123346836.78807     -1466.191 7        47.493                                                                    23472126.875 8  92109645.13108     -1094.911 8        50.198    23472126.229 8  94512545.67508     -1123.480 8        48.510
E08        19.000    25652946.932 6 134807268.37306      1992.724 6        36.000                                                                    25652937.721 6 100667671.71506      1488.107 6        41.206    25652937.346 6 103293796.66306      1526.917 6        39.285
S23        21.000    38169860.907 6 200583964.41706      -848.471 6        38.264
R06        25.000    19901572.454 6 106198600.62806     -3045.955 6        39.526
R07        27.000    19493826.165 8 104351955.92908       843.130 8        48.213                                                                    19493824.408 7  81162646.85907       655.757 7        45.746
C41        29.000                                                                                                                                    23055727.882 6 120057249.72006      1375.624 6        38.694                                                                    23055730.697 6  97556325.40706      1117.431 6        37.025
R08        30.000    22886563.769 5 122556402.63605      3256.827 5        31.132                                                                    22886545.476 5  95321634.05005      2532.765 5        34.476
E34        32.000    26686996.442 4                     -3255.211 4        25.128                                                                    26686998.215 5 104725487.49305     -2430.437 5        33.539
R23        33.000    22087939.924 6 118155595.98006      2899.811 6        36.019
R22        35.000    19302989.723 8 103040659.87608       203.282 8        51.574                                                                    19302986.785 7  80142763.57307       158.109 7        47.354
C33        37.000                                                                                                                                    21957054.905 8 114336170.54408     -1506.944 8        49.350                                                                    21957064.961 7  92907514.33107     -1224.648 7        42.969
R21        39.000                                                                                                                                    20753083.636 5  86375290.92505     -2971.506 5        35.043
C27        41.000                                                                                                                                    22588508.372 7 117624305.44507       965.921 7        47.088                                                                    22588507.676 6  95579406.51706       784.810 6        41.752
C14        42.000                                                                                                                                    23063470.485 6 120097570.25706     -2975.890 6        38.532    23063471.017 6  92867069.35706     -2301.128 6        40.894    23063471.170 6  97589127.00806     -2417.996 6        37.236
C43        48.000                                                                                                                                    25574166.364 4                     -4190.831 4        25.699
C30        49.000                                                                                                                                    26696986.870 5 139018200.31405      2403.767 5        32.503                                                                    26696982.918 4                      1953.074 4        27.593
C42        50.000                                                                                                                                    25207050.358 5 131259741.60215     -3838.410 5        34.376                                                                    25207062.041 5 106659355.20605     -3119.195 5        32.210
C28        55.000                                                                                                                                    21651777.061 8 112746582.74708     -1765.354 8        49.209                                                                    21651775.851 7  91615736.84307     -1434.524 7        47.041
I09        56.000    37147262.225 6 145773834.35406      -544.318 6        41.754
> 2025 01 02 23 46 35.0000000  0 31
G03         2.000    21207101.940 7 111444207.42307      1426.036 7        46.610                                    21207097.991 6  86839571.59906      1111.209 6        41.390    21207098.183 6  86839512.56906      1111.087 6        41.089
G32         3.000    22562760.255 7 118568047.69707     -2906.207 7        44.238                                    22562760.245 5  92390670.94305     -2264.575 5        35.990    22562758.604 6  92390784.94006     -2264.501 6        39.574
G21         4.000    20939398.116 5 110037333.47905     -1974.787 5        32.545                                    20939394.428 2  85743344.20502     -1538.795 2        13.697
G08         5.000    23352954.135 6 122720582.31706     -4415.303 6        36.306                                    23352951.434 3  95626411.37503     -3440.487 3        19.284    23352954.032 4  95626446.33904     -3440.756 4        27.461
G02         6.000    20713472.739 8 108850027.59208      -482.589 8        50.009                                    20713464.913 6  84818180.40906      -376.044 6        41.385
G14         7.000    24534029.857 5                     -2726.966 5        32.305                                                                                                    24534029.479 5                     -2124.846 5        33.653
E03         9.000    24007235.448 6 126158869.24206      -382.925 6        39.360                                                                    24007234.850 8  94209605.10708      -286.048 8        48.667    24007233.541 8  96667218.04508      -293.476 8        48.165
G17        10.000    23388501.750 7 122907394.71307      1615.904 7        47.254                                    23388495.531 7  95771960.66907      1259.149 7        43.022    23388496.285 6  95771973.67606      1259.151 6        40.632
E05        11.000    24867381.605 5 130678964.57205     -3001.518 5        33.192                                                                    24867387.076 3                     -2241.627 3        19.940    24867386.545 5                     -2299.406 5        32.719
E13        12.000    24559096.587 6 129058916.48206       961.720 6        40.846                                                                    24559097.398 6  96375177.28106       718.155 6        41.597    24559096.500 7  98889392.84907       736.966 7        43.026
E21        15.000    27612900.534 4                     -2753.510 4        29.725                                                                    27612909.175 4 108358979.28904     -2056.894 4        28.379
E15        16.000    23473521.784 7 123354170.74207     -1467.578 7        47.718                                                                    23473522.180 8  92115121.77408     -1095.987 8        49.710    23473521.509 8  94518165.21008     -1124.569 8        48.334
E08        19.000                                                                                                                                    25651042.865 6 100660233.52706      1487.107 6        41.766    25651042.787 6 103286164.40206      1526.002 6        41.425
S23        21.000    38170677.152 6 200588206.59406      -848.632 6        40.393
R06        25.000    19904428.279 6 106213837.65506     -3049.065 6        40.336
R07        27.000    19493042.293 8 104347749.02608       839.335 8        49.370                                                                    19493038.821 7  81159374.82407       652.879 7        44.755
C41        29.000                                                                                                                                    23054406.800 6 120050377.19606      1373.298 6        41.425                                                                    23054407.768 5  97550740.88205      1116.268 5        34.457
R08        30.000    22883523.855 5 122540121.83405      3255.165 5        32.814                                                                    22883503.802 5  95308971.22805      2532.121 5        33.527
E34        32.000    26690090.031 4                     -3255.543 4        26.431                                                                    26690096.989 5 104737641.42005     -2431.098 5        32.928
R23        33.000    22085233.480 6 118141099.09806      2898.631 6        37.490
R22        35.000    19302800.825 8 103039650.65308       200.088 8        52.273                                                                    19302797.740 7  80141978.61607       155.579 7        47.990
C33        37.000                                                                                                                                    21958502.426 8 114343710.67108     -1509.258 8        48.663                                                                    21958513.458 7  92913641.29407     -1226.367 7        43.300
R21        39.000    20756659.788 6 111073137.53506     -3823.108 6        41.490                                                                    20756656.723 6  86390152.58706     -2973.759 6        36.170
C27        41.000                                                                                                                                    22587581.270 7 117619479.94207       964.011 7        45.035                                                                    22587581.093 7  95575485.44707       783.361 7        42.083
C14        42.000                                                                                                                                    23066332.319 6 120112452.45406     -2977.307 6        38.526    23066328.971 6  92878577.21906     -2302.341 6        41.614    23066330.839 6  97601220.00706     -2419.407 6        40.122
C39        45.000                                                                                                                                    39275792.407 5 204519387.91905        41.201 5        31.170
C43        48.000                                                                                                                                    25578185.767 4                     -4191.131 4        26.707
C30        49.000                                                                                                                                    26694679.383 5 139006181.27705      2403.189 5        31.457                                                                    26694671.276 4                      1953.252 4        25.278
C42        50.000                                                                                                                                    25210744.526 5 131278934.57305     -3838.951 5        33.066                                                                    25210744.686 5 106674950.23605     -3119.433 5        35.067
C28        55.000                                                                                                                                    21653473.293 8 112755415.07008     -1767.841 8        48.581                                                                    21653472.405 7  91622913.80607     -1436.516 7        47.750
I09        56.000    37147956.351 7 145776556.40107      -544.510 7        43.202
> 2025 01 02 23 46 40.0000000  0 32
G03         2.000    21205745.956 7 111437080.81307      1424.297 7        46.825                                    21205741.547 7  86834018.39307      1109.838 7        42.201    21205742.298 6  86833959.40206      1109.815 6        41.447
G32         3.000    22565526.755 6 118582583.28306     -2908.640 6        41.287                                    22565525.769 5  92401997.35905     -2266.482 5        34.524    22565524.854 6  92402111.37706     -2266.380 6        40.324
G21         4.000    20941276.656 4                     -1976.605 4        26.527
G08         5.000    23357156.317 5 122742659.55405     -4416.269 5        35.214                                    23357151.844 3  95643614.45203     -3441.230 3        19.104    23357157.413 5  95643649.34905     -3441.014 5        32.138
G02         6.000    20713932.345 8 108852444.47708      -484.499 8        48.894                                    20713924.949 6  84820063.69806      -377.541 6        41.044
G14         7.000    24536632.551 4                     -2728.682 4        29.100                                                                                                    24536624.342 5 100473377.28815     -2126.428 5        33.054
E03         9.000    24007599.866 7 126160789.55707      -385.298 7        43.306                                                                    24007599.629 7  94211039.12107      -287.815 7        47.748    24007598.676 7  96668689.45907      -295.310 7        47.965
G17        10.000    23386964.802 8 122899319.32808      1614.006 8        48.271                                    23386958.902 7  95765668.16907      1257.661 7        43.598    23386960.024 6  95765681.17606      1257.621 6        41.240
E05        11.000    24870236.982 5 130693973.67005     -3002.954 5        32.964                                                                    24870239.179 4                     -2242.158 4        24.797    24870244.757 5                     -2300.816 5        31.525
E13        12.000    24558182.450 7 129054108.85407       960.977 7        42.135                                                                    24558182.608 7  96371587.12307       717.627 7        42.950    24558181.089 7  98885709.06407       736.321 7        43.141
E21        15.000    27615536.788 3                     -2754.910 3        22.838
E15        16.000    23474918.572 7 123361511.33607     -1468.901 7        47.072                                                                    23474919.087 8  92120603.37908     -1096.947 8        49.859    23474918.203 8  94523789.81208     -1125.530 8        48.116
E08        19.000    25649149.721 4 134787352.61804      1989.761 4        28.882                                                                    25649147.851 6 100652799.44206      1486.227 6        41.223    25649149.944 7 103278536.37607      1525.106 7        42.662
S23        21.000    38171477.738 6 200592448.43106      -848.475 6        40.122
R06        25.000    19907287.919 6 106229089.98206     -3052.154 6        39.781
R07        27.000    19492260.164 7 104343560.55707       835.845 7        47.158                                                                    19492256.872 7  81156117.15207       650.092 7        44.367
C41        29.000                                                                                                                                    23053087.166 6 120043513.42806      1371.565 6        37.282                                                                    23053089.837 5  97545163.44305      1114.690 5        33.431
R08        30.000                                                                                                                                    22880458.939 5  95296313.35515      2531.105 5        30.830
E34        32.000    26693188.928 4                     -3255.953 4        26.299                                                                    26693196.310 5 104749797.76605     -2431.635 5        34.438
R23        33.000    22082525.090 5 118126606.71205      2898.323 5        34.357
R22        35.000    19302614.148 8 103038657.62408       196.875 8        52.090                                                                    19302611.915 7  80141206.23307       153.136 7        47.103
C33        37.000                                                                                                                                    21959951.981 7 114351261.90507     -1511.505 7        47.356                                                                    21959963.561 7  92919777.24207     -1228.203 7        44.385
R21        39.000    20760235.463 6 111092258.23106     -3825.433 6        41.533                                                                    20760227.582 5  86405024.26405     -2975.303 5        32.401
C27        41.000                                                                                                                                    22586657.245 7 117614664.07907       962.096 7        44.232                                                                    22586655.958 7  95571572.17007       781.831 7        42.385
C14        42.000                                                                                                                                    23069193.327 6 120127342.24006     -2978.794 6        40.141    23069187.980 7  92890090.95607     -2303.495 7        44.620    23069189.452 6  97613319.16206     -2420.633 6        40.076
C39        45.000                                                                                                                                    39275753.966 5 204519183.92305        40.322 5        33.742
I01        47.000   417682110.705 4 335933510.82214     -2707.646 4        29.318
C43        48.000                                                                                                                                    25582216.013 4                     -4191.926 4        27.245
C30        49.000                                                                                                                                    26692371.496 5 138994163.41705      2403.663 5        31.728                                                                    26692362.940 4                      1953.154 4        24.120
C42        50.000                                                                                                                                    25214432.380 5                     -3839.651 5        35.833                                                                    25214431.416 6 106690547.52406     -3119.853 6        36.121
C28        55.000                                                                                                                                    21655172.253 7 112764259.53407     -1770.216 7        47.982                                                                    21655170.613 7  91630100.63507     -1438.421 7        47.394
I09        56.000    37148649.791 6 145779279.37006      -544.714 6        41.948
> 2025 01 02 23 46 45.0000000  0 30
G03         2.000    21204391.190 7 111429962.87707      1422.641 7        45.636                                    21204387.222 7  86828471.93607      1108.551 7        43.245    21204388.772 7  86828412.92607      1108.614 7        42.660
G32         3.000    22568293.998 7 118597130.70807     -2910.574 7        44.945                                    22568293.408 5  92413333.00705     -2267.985 5        33.186    22568292.507 6  92413447.07906     -2268.072 6        39.565
G21         4.000    20943159.031 5                     -1978.507 5        34.567
G08         5.000    23361358.306 6 122764740.51206     -4416.388 6        38.279                                    23361353.300 3  95660820.39803     -3441.360 3        19.313    23361357.076 4  95660855.33304     -3442.372 4        25.669
G02         6.000    20714394.035 8 108854871.17008      -486.236 8        50.159                                    20714386.782 6  84821954.63606      -378.906 6        40.706
G14         7.000    24539233.676 4 128954530.17414     -2731.508 4        28.227                                                                                                    24539221.798 5 100484013.00005     -2127.879 5        31.049
E03         9.000    24007968.111 7 126162721.57107      -387.466 7        44.325                                                                    24007967.241 7  94212481.81707      -289.337 7        45.685    24007966.257 7  96670169.82807      -296.964 7        45.856
G17        10.000    23385430.242 7 122891253.54907      1612.101 7        47.747                                    23385424.000 7  95759383.15707      1256.175 7        43.573    23385424.372 7  95759396.18007      1256.398 7        42.135
E05        11.000    24873094.175 5 130708990.17205     -3004.317 5        31.902                                                                    24873099.019 4                     -2243.520 4        28.313    24873104.444 5                     -2301.885 5        31.879
E13        12.000    24557268.953 7 129049304.74107       960.707 7        42.171                                                                    24557267.498 7  96367999.64107       717.362 7        44.813    24557265.584 7  98882027.97607       735.974 7        46.322
E21        15.000    27618153.210 4                     -2756.964 4        25.759                                                                    27618146.000 4                     -2058.028 4        29.498    27618129.438 4                     -2112.037 4        28.436
E15        16.000    23476317.027 7 123368858.55107     -1469.989 7        46.840                                                                    23476317.525 8  92126089.92408     -1097.693 8        49.993    23476316.453 7  94529419.45907     -1126.281 7        46.919
E08        19.000    25647255.418 5 134777233.66615      1990.103 5        33.347                                                                    25647255.523 6 100645369.33306      1485.811 6        40.698    25647256.514 7 103270912.49707      1524.413 7        43.947
S23        21.000    38172281.758 7 200596690.15507      -848.275 7        42.186
R06        25.000    19910148.164 6 106244357.55706     -3054.696 6        38.592
R07        27.000    19491477.095 7 104339390.22507       832.357 7        44.141                                                                    19491477.992 7  81152873.56007       647.447 7        46.708
C41        29.000                                                                                                                                    23051769.989 7 120036658.29107      1370.487 7        43.255                                                                    23051778.179 6  97539593.05006      1113.237 6        39.760
R08        30.000    22877435.005 4                      3252.841 4        24.586                                                                    22877431.201 4                      2530.401 4        29.820
E34        32.000    26696287.566 4                     -3256.538 4        27.341                                                                    26696295.823 5 104761956.63205     -2432.225 5        30.181
R22        35.000    19302430.718 8 103037680.69108       193.924 8        52.274                                                                    19302427.805 7  80140446.46607       150.801 7        46.767
C33        37.000                                                                                                                                    21961405.006 7 114358824.14407     -1513.404 7        46.793                                                                    21961415.717 7  92925922.18507     -1229.832 7        44.024
R21        39.000    20763812.373 6 111111391.91806     -3828.198 6        41.335
C27        41.000                                                                                                                                    22585734.991 7 117609857.79807       960.706 7        43.204                                                                    22585733.725 7  95567666.74407       780.343 7        42.207
C14        42.000                                                                                                                                    23072055.919 6 120142239.47106     -2980.104 6        36.155    23072050.495 7  92901610.40907     -2304.393 7        46.695    23072048.983 6  97625424.41906     -2421.146 6        37.006
C39        45.000                                                                                                                                    39275720.813 5 204518984.63105        39.314 5        32.659
I01        47.000   417685559.966 4 335947050.56404     -2708.039 4        28.559
C30        49.000                                                                                                                                    26690067.831 5 138982146.85905      2403.495 5        35.186                                                                    26690061.892 3                      1955.010 3        22.248
C42        50.000                                                                                                                                    25218114.185 5                     -3840.327 5        33.275                                                                    25218117.594 5 106706147.09205     -3119.918 5        31.321
C28        55.000                                                                                                                                    21656873.467 8 112773116.08208     -1772.477 8        49.901                                                                    21656871.341 7  91637297.34707     -1440.313 7        45.058
I09        56.000    37149343.512 6 145782003.30406      -544.811 6        40.172
> 2025 01 02 23 46 50.0000000  0 29
G03         2.000    21203037.851 7 111422854.02207      1421.060 7        46.764                                    21203034.417 7  86822932.55807      1107.334 7        42.698    21203034.601 7  86822873.50707      1107.354 7        42.918
G32         3.000    22571066.096 6 118611690.62806     -2913.534 6        41.240                                    22571063.959 5  92424678.44705     -2270.260 5        32.982    22571064.072 6  92424792.33706     -2269.797 6        40.400
G21         4.000    20945042.897 6 110066938.82516     -1979.832 6        37.565                                    20945038.058 3  85766429.14613     -1542.701 3        18.985
G08         5.000    23365560.056 6 122786825.78506     -4417.520 6        38.153                                    23365556.075 3  95678029.70203     -3442.219 3        20.571    23365559.115 4  95678064.64204     -3442.188 4        29.725
G02         6.000    20714858.166 8 108857308.22108      -488.383 8        50.299                                    20714850.485 6  84823853.70106      -380.585 6        39.303
G14         7.000    24541837.927 4                     -2731.238 4        26.515                                                                                                    24541814.945 5 100494656.85105     -2130.149 5        30.913
E03         9.000    24008337.240 7 126164665.72507      -390.062 7        44.096                                                                    24008336.894 7  94213933.62107      -291.203 7        47.671    24008336.726 7  96671659.55407      -298.725 7        47.397
G17        10.000    23383897.586 8 122883197.87908      1610.315 8        48.757                                    23383890.882 7  95753106.02307      1254.786 7        43.700    23383891.241 6  95753119.02706      1254.792 6        38.871
E05        11.000                                                                                                                                    24875961.805 5  97618625.29215     -2244.320 5        32.946    24875962.562 5                     -2303.209 5        30.574
E13        12.000    24556357.007 6 129044504.69206       959.710 6        40.551                                                                    24556353.550 7  96364415.23007       716.712 7        45.702    24556353.194 7  98878350.04507       735.517 7        46.891
E21        15.000                                                                                                                                    27620772.903 4                     -2060.011 4        29.886    27620754.804 4 111217327.33314     -2113.136 4        29.194
E15        16.000    23477716.787 7 123376212.78807     -1471.408 7        45.044                                                                    23477717.086 8  92131581.76308     -1098.792 8        49.020    23477714.746 7  94535054.53307     -1127.422 7        47.441
E08        19.000    25645365.467 5 134767289.87405      1988.456 5        32.629                                                                    25645361.321 6 100637943.73706      1484.954 6        38.631    25645360.840 6 103263293.18706      1523.472 6        40.682
S23        21.000    38173097.217 6 200600932.12506      -848.207 6        40.229
R06        25.000    19913010.799 7 106259640.91207     -3058.114 7        42.195
R07        27.000    19490699.481 7 104335238.75907       828.741 7        43.058                                                                    19490702.608 7  81149644.68307       644.342 7        43.484
C41        29.000                                                                                                                                    23050457.954 7 120029812.25007      1368.979 7        42.248
R08        30.000    22874403.460 3                      3252.519 3        22.933                                                                    22874388.816 5                      2529.325 5        30.966
R22        35.000    19302250.712 8 103036720.44608       190.499 8        50.079                                                                    19302248.363 8  80139699.61308       148.182 8        48.177
C33        37.000                                                                                                                                    21962859.307 6 114366397.88706     -1515.796 6        40.279                                                                    21962870.489 7  92932076.54607     -1231.829 7        45.771
R21        39.000    20767388.446 5 111130538.96705     -3830.979 5        33.557                                                                    20767380.758 5                     -2979.169 5        33.479
C27        41.000                                                                                                                                    22584812.655 5 117605061.75805       958.490 5        35.590                                                                    22584809.515 5  95563769.26505       778.707 5        34.371
C14        42.000                                                                                                                                    23074921.982 4 120157145.05804     -2981.502 4        28.711    23074913.278 7  92913136.00807     -2305.805 7        42.988    23074908.496 6  97637536.13606     -2423.164 6        37.051
I01        47.000   417689011.056 5 335960591.65505     -2707.886 5        32.521
C43        48.000                                                                                                                                    25590265.444 4                     -4193.299 4        26.060
C30        49.000                                                                                                                                    26687768.995 3                      2403.791 3        23.524                                                                    26687751.074 4                      1951.833 4        26.144
C42        50.000                                                                                                                                    25221799.910 4                     -3839.655 4        29.479                                                                    25221806.467 5 106721749.00205     -3120.335 5        34.486
C28        55.000                                                                                                                                    21658577.162 8 112781985.23308     -1774.982 8        52.358                                                                    21658573.987 7  91644504.30507     -1442.347 7        47.896
I09        56.000    37150036.725 6 145784728.47806      -545.037 6        37.304
> 2025 01 02 23 46 55.0000000  0 29
G03         2.000    21201687.715 7 111415753.66007      1419.011 7        45.961                                    21201683.442 7  86817399.80707      1105.705 7        44.778    21201684.660 7  86817340.83907      1105.949 7        43.200
G32         3.000    22573837.165 6 118626261.85706     -2915.376 6        41.735                                    22573837.049 5  92436032.64905     -2271.685 5        31.487    22573837.209 6  92436146.66706     -2271.739 6        36.405
G21         4.000    20946927.267 6 110076843.38906     -1981.508 6        38.838                                    20946922.458 3  85774146.97503     -1544.082 3        19.821
G08         5.000    23369760.581 6 122808914.63606     -4417.976 6        37.127                                    23369759.499 3  95695241.78903     -3442.584 3        19.672    23369761.324 4  95695276.76004     -3441.807 4        28.180
G02         6.000    20715323.823 8 108859754.90308      -490.315 8        50.591                                    20715316.276 6  84825760.19306      -382.048 6        40.942
G14         7.000    24544434.258 3                     -2733.366 3        21.690                                                                                                    24544420.521 3 100505307.77003     -2131.113 3        22.686
E03         9.000    24008709.224 6 126166621.30306      -391.926 6        39.685                                                                    24008710.599 7  94215394.06007      -292.959 7        45.413    24008708.655 8  96673158.07608      -300.674 8        48.174
G17        10.000    23382366.528 7 122875151.68007      1608.123 7        44.533                                    23382359.217 7  95746836.24907      1253.072 7        42.518    23382359.373 6  95746849.27406      1253.287 6        39.958
E05        11.000    24878812.478 5 130739046.60605     -3007.063 5        31.072
E13        12.000    24555442.558 7 129039708.16607       958.922 7        45.010                                                                    24555441.122 7  96360833.32807       716.052 7        43.532    24555441.721 7  98874674.73807       734.825 7        47.352
E21        15.000    27623376.112 5 145161938.24515     -2759.542 5        31.525                                                                    27623394.473 4                     -2060.317 4        28.445    27623380.344 4 111227896.92304     -2114.262 4        27.689
E15        16.000    23479116.793 7 123383573.43807     -1472.707 7        46.292                                                                    23479118.104 8  92137078.33608     -1099.799 8        51.071    23479115.369 7  94540694.48707     -1128.529 7        44.975
E08        19.000    25643476.551 6 134757351.32106      1986.849 6        40.677                                                                    25643470.215 6 100630522.08406      1484.100 6        40.400    25643471.337 6 103255677.93006      1522.513 6        41.723
S23        21.000    38173894.377 6 200605173.88606      -848.202 6        39.429
R06        25.000    19915878.716 6 106274939.34406     -3061.245 6        41.690
R07        27.000    19489929.504 7 104331105.62007       824.631 7        44.172                                                                    19489931.109 7  81146429.87707       641.567 7        44.894
C41        29.000                                                                                                                                    23049144.027 7 120022975.03007      1366.585 7        45.279                                                                    23049152.690 6  97528474.11206      1110.854 6        40.908
R08        30.000    22871374.298 4                      3250.724 4        25.068                                                                    22871353.622 5  95258372.94315      2528.177 5        35.100
E34        32.000    26702487.489 4                     -3258.714 4        26.012                                                                    26702496.564 5                     -2432.971 5        30.626
R22        35.000    19302074.715 8 103035776.19508       187.167 8        52.095                                                                    19302071.609 7  80138965.16507       145.744 7        47.353
C33        37.000                                                                                                                                    21964314.833 6 114373982.50306     -1517.996 6        41.175                                                                    21964327.168 7  92938239.61507     -1233.442 7        44.659
R21        39.000    20770964.750 7 111149699.55517     -3833.031 7        43.111                                                                    20770962.595 5                     -2981.151 5        33.659
C27        41.000                                                                                                                                    22583892.163 7 117600274.88507       956.308 7        47.162                                                                    22583888.272 6  95559879.75606       777.279 6        39.468
C14        42.000                                                                                                                                                                                                    23077775.125 7  92924667.36507     -2306.699 7        42.900    23077775.569 6  97649653.80006     -2424.223 6        37.580
C43        48.000                                                                                                                                    25594295.610 4                     -4193.903 4        27.605
C30        49.000                                                                                                                                    26685451.357 5                      2402.805 5        34.724                                                                    26685443.395 4                      1951.832 4        24.692
C42        50.000                                                                                                                                    25225487.393 4                     -3839.873 4        27.425                                                                    25225495.628 5                     -3120.801 5        34.867
C28        55.000                                                                                                                                    21660282.524 8 112790866.36308     -1777.489 8        50.730                                                                    21660279.594 7  91651720.94007     -1444.223 7        46.117
I09        56.000    37150733.416 6 145787454.42206      -545.275 6        39.838
> 2025 01 02 23 47  0.0000000  0 29
G03         2.000    21200337.343 7 111408662.52107      1417.277 7        46.579                                    21200334.049 7  86811874.22707      1104.397 7        43.549    21200334.785 6  86811815.22906      1104.228 6        41.623
G32         3.000    22576613.794 6 118640845.56006     -2918.394 6        39.763                                    22576611.838 5  92447396.55905     -2274.101 5        31.517    22576611.026 6  92447510.69806     -2273.814 6        37.611
G21         4.000    20948813.857 5 110086757.54305     -1983.277 5        34.124                                    20948809.157 3  85781872.30103     -1545.403 3        19.970
G08         5.000    23373966.049 6 122831007.81706     -4419.598 6        36.219                                    23373963.258 3  95712457.24203     -3443.869 3        19.373    23373966.155 5                     -3443.485 5        30.234
G02         6.000    20715791.049 8 108862211.96608      -492.437 8        48.838                                    20715783.878 6  84827674.77706      -383.723 6        40.300
G14         7.000    24547035.021 4                     -2736.426 4        29.175
E03         9.000    24009084.204 7 126168589.32207      -394.916 7        42.394                                                                    24009083.188 7  94216863.65607      -294.855 7        47.476    24009083.077 7  96674665.96807      -302.524 7        46.593
G17        10.000    23380836.815 8 122867115.68808      1606.313 8        48.259                                    23380829.935 7  95740574.47407      1251.671 7        42.823    23380831.443 6  95740587.46206      1251.293 6        40.176
E05        11.000    24881679.681 4                     -3008.587 4        24.842                                                                                                                                    24881688.515 4                     -2306.332 4        25.414
E13        12.000    24554530.060 6 129034915.74206       958.014 6        40.851                                                                    24554529.463 7  96357254.62107       715.317 7        45.424    24554529.900 8  98871002.60608       734.012 8        49.015
E21        15.000    27626002.284 5 145175740.74105     -2761.300 5        32.012                                                                    27626020.133 5 108410444.32615     -2062.019 5        32.042    27625997.298 3                     -2116.218 3        22.952
E15        16.000    23480518.777 7 123390941.25107     -1474.275 7        47.025                                                                    23480519.930 8  92142580.26908     -1100.972 8        50.286    23480518.171 7  94546339.98207     -1129.795 7        47.989
E08        19.000    25641585.683 6 134747418.70006      1985.938 6        39.219                                                                    25641580.027 6 100623104.88906      1482.949 6        40.298    25641581.644 7 103248067.24107      1521.660 7        42.705
S23        21.000    38174712.832 6 200609416.05106      -848.484 6        37.811
R06        25.000    19918748.644 6 106290253.54006     -3064.424 6        39.958
R07        27.000    19489162.136 7 104326991.00407       820.873 7        42.990                                                                    19489161.673 7  81143229.61207       638.608 7        44.894
C41        29.000                                                                                                                                    23047835.908 7 120016146.92807      1364.779 7        45.059                                                                    23047842.884 6  97522925.86106      1109.282 6        36.147
R08        30.000                                                                                                                                    22868318.387 5  95245734.91515      2526.478 5        34.514
E34        32.000    26705587.642 4                     -3259.177 4        26.850                                                                    26705590.551 4                     -2433.801 4        24.511
R22        35.000    19301900.971 8 103034848.60408       183.756 8        51.752                                                                    19301897.439 7  80138243.73407       142.914 7        46.738
C33        37.000                                                                                                                                    21965774.349 6 114381578.78006     -1520.899 6        39.580                                                                    21965785.626 7  92944412.17007     -1235.329 7        47.358
R21        39.000    20774552.690 7 111168871.81707     -3836.544 7        46.220                                                                    20774544.029 5  86464615.47715     -2983.579 5        34.867
C27        41.000                                                                                                                                    22582977.127 7 117595498.38407       954.239 7        43.644                                                                    22582973.639 5  95555998.34305       776.158 5        35.424
C14        42.000                                                                                                                                    23080652.364 5                     -2984.750 5        35.810    23080638.414 5  92936205.20305     -2308.948 5        35.210    23080642.720 7  97661777.96607     -2425.564 7        42.087
C43        48.000                                                                                                                                    25598324.461 3                     -4193.970 3        19.254
C30        49.000                                                                                                                                    26683141.443 5 138946129.55215      2401.999 5        35.024                                                                    26683146.801 4                      1952.782 4        24.391
C42        50.000                                                                                                                                    25229180.341 4                     -3841.823 4        27.114                                                                    25229185.490 5                     -3121.098 5        34.714
C28        55.000                                                                                                                                    21661990.033 8 112799760.16008     -1780.047 8        49.886                                                                    21661987.399 7  91658947.82207     -1446.308 7        46.876
I09        56.000    37151426.171 6 145790181.73206      -545.616 6        40.107
> 2025 01 02 23 47  5.0000000  0 31
G03         2.000    21198990.118 7 111401580.35207      1415.617 7        44.271                                    21198986.280 7  86806355.69107      1103.066 7        44.280    21198987.588 7  86806296.64007      1103.107 7        42.303
G32         3.000    22579391.655 6 118655441.48006     -2920.299 6        40.374                                    22579389.525 5  92458770.07905     -2275.553 5        32.198    22579389.710 5  92458883.94505     -2275.394 5        35.919
G21         4.000    20950703.387 6 110096680.79606     -1985.460 6        41.273                                    20950697.469 3  85789604.74803     -1547.174 3        20.952
G08         5.000    23378173.430 6 122853105.20906     -4419.694 6        39.835                                    23378169.011 3  95729676.01903     -3443.895 3        23.067    23378172.928 5  95729710.05215     -3444.161 5        33.138
G02         6.000    20716260.787 8 108864679.31708      -494.490 8        49.067                                    20716253.376 6  84829597.36306      -385.303 6        39.631
G14         7.000                                                                                                                                                                    24549620.234 5 100526590.42615     -2133.857 5        33.377
E03         9.000    24009460.807 6 126170569.25306      -397.033 6        40.656                                                                    24009460.982 7  94218342.19907      -296.620 7        46.603    24009459.978 8  96676183.05408      -304.292 8        48.118
G17        10.000    23379310.018 8 122859089.64408      1604.303 8        48.122                                    23379302.232 7  95734320.40107      1250.107 7        43.458    23379303.875 6  95734333.41006      1250.023 6        40.946
E05        11.000                                                                                                                                    24884545.671 5  97652323.34515     -2247.277 5        30.423    24884547.953 4 100199751.42414     -2307.889 4        28.133
E13        12.000    24553615.974 6 129030127.20906       957.393 6        40.322                                                                    24553616.661 6  96353678.78106       715.012 6        41.404    24553618.130 8  98867333.47908       733.470 8        50.246
E21        15.000    27628622.625 4 145189550.80904     -2761.030 4        25.203                                                                                                                                    27628623.849 3                     -2116.279 3        21.929
E15        16.000    23481922.070 7 123398316.04307     -1475.821 7        46.909                                                                    23481922.595 8  92148087.42008     -1101.854 8        51.082    23481921.515 7  94551990.79807     -1130.717 7        47.259
E08        19.000    25639693.953 6 134737491.91106      1984.708 6        37.974                                                                    25639690.822 6 100615692.08506      1482.208 6        38.913    25639692.774 7 103240461.05707      1520.617 7        42.902
S23        21.000    38175501.210 6 200613658.28106      -848.225 6        39.814
R06        25.000    19921621.515 6 106305583.29906     -3067.514 6        41.747
R07        27.000    19488395.728 7 104322894.88707       817.509 7        43.628                                                                    19488394.636 7  81140043.85907       635.665 7        43.283
C41        29.000                                                                                                                                    23046521.501 6 120009327.98406      1362.893 6        39.228                                                                    23046533.220 5  97517384.72305      1107.948 5        31.857
R08        30.000                                                                                                                                    22865285.483 5  95233101.89815      2525.907 5        31.215
E34        32.000    26708689.034 3                     -3259.313 3        23.943                                                                    26708694.147 3                     -2434.133 3        20.500
R23        33.000    22068983.525 6 118054551.44216      2893.198 6        37.588
R22        35.000    19301729.306 8 103033937.60208       180.496 8        53.090                                                                    19301727.651 7  80137535.14907       140.495 7        47.187
C33        37.000                                                                                                                                    21967236.090 7 114389186.28907     -1522.664 7        43.710                                                                    21967246.570 7  92950593.92207     -1237.251 7        47.851
R21        39.000    20778140.177 7 111188058.21307     -3838.626 7        42.781                                                                    20778130.320 6  86479538.10906     -2985.509 6        36.299
C27        41.000                                                                                                                                    22582061.951 8 117590731.86908       952.471 8        49.055                                                                    22582058.697 6  95552125.29106       773.879 6        39.219
C14        42.000                                                                                                                                    23083513.744 5 120201995.21215     -2987.065 5        34.405    23083519.741 5                     -2309.723 5        35.143    23083509.496 6                     -2426.562 6        39.910
C39        45.000                                                                                                                                    39275583.909 5                        35.265 5        33.587
C43        48.000                                                                                                                                    25602346.927 4                     -4194.854 4        24.150
C30        49.000                                                                                                                                    26680836.323 6 138934118.84106      2402.008 6        38.517
C42        50.000                                                                                                                                    25232872.270 5                     -3841.525 5        30.204                                                                    25232872.392 4                     -3121.672 4        27.581
C28        55.000                                                                                                                                    21663699.593 8 112808666.44208     -1782.485 8        51.464                                                                    21663698.833 8  91666184.87608     -1448.372 8        48.820
I09        56.000    37152123.438 6 145792910.20806      -545.959 6        40.570
> 2025 01 02 23 47 10.0000000  0 33
G03         2.000    21197642.614 7 111394507.11307      1413.629 7        47.364                                    21197640.362 7  86800844.07407      1101.513 7        43.553    21197641.899 7  86800785.07707      1101.676 7        43.598
G32         3.000    22582171.515 5 118670049.13505     -2922.335 5        34.457                                    22582168.455 4  92470152.65804     -2277.097 4        29.801    22582166.861 5  92470266.78305     -2277.575 5        34.262
G21         4.000    20952593.325 6 110106613.19906     -1987.621 6        36.242                                    20952587.508 3  85797344.34803     -1548.831 3        20.214
G08         5.000    23382378.636 6 122875206.49306     -4420.740 6        40.112                                    23382375.743 3  95746897.83103     -3444.747 3        22.648    23382378.828 4  95746931.72104     -3444.411 4        27.665
G02         6.000    20716732.148 8 108867156.73008      -496.457 8        48.621                                    20716724.945 6  84831527.78606      -386.834 6        41.199
G14         7.000                                                                                                                                                                    24552225.558 5 100537242.21115     -2134.875 5        32.078
E03         9.000    24009841.211 6 126172561.32906      -399.450 6        38.970                                                                    24009840.378 7  94219829.63907      -298.361 7        47.583    24009838.296 7  96677709.30407      -306.213 7        47.278
G17        10.000    23377784.216 8 122851073.57608      1602.115 8        48.788                                    23377776.725 7  95728074.14107      1248.404 7        42.301    23377777.544 6  95728087.15006      1248.399 6        36.151
E05        11.000    24887406.850 5 130784207.64115     -3011.290 5        34.348                                                                    24887408.797 5  97663532.95615     -2249.144 5        32.665
E13        12.000    24552707.883 6 129025342.49906       956.606 6        40.010                                                                    24552708.085 7  96350105.76307       714.391 7        42.216    24552708.664 8  98863667.33908       732.904 8        49.254
E21        15.000    27631272.839 5 145203314.05815     -2764.428 5        31.298                                                                    27631278.431 4                     -2064.184 4        28.246    27631280.963 5                     -2118.457 5        31.404
E15        16.000    23483327.014 7 123405697.64507     -1476.997 7        47.441                                                                    23483327.375 8  92153599.64508     -1102.972 8        49.634    23483326.191 7  94557646.80407     -1131.726 7        46.866
E08        19.000    25637807.373 5 134727570.89805      1983.251 5        34.190                                                                    25637804.521 6 100608283.53706      1481.157 6        40.360    25637805.343 7 103232859.22107      1519.938 7        43.304
S23        21.000    38176319.732 6 200617900.56406      -848.272 6        40.365
S36        23.000    38221378.368 6 200854718.29616      -850.820 6        38.228
R14        24.000    23853694.516 5 127153500.82715     -1316.706 5        33.766
R06        25.000    19924497.157 6 106320928.63806     -3070.630 6        41.108
R07        27.000    19487634.111 7 104318817.46407       813.394 7        45.326                                                                    19487634.760 7  81136872.47907       632.844 7        46.483
C41        29.000                                                                                                                                    23045215.280 5 120002518.04405      1361.424 5        35.400                                                                    23045223.439 6  97511851.32806      1106.003 6        41.001
R08        30.000    22862273.137 5                      3246.992 5        32.988                                                                    22862253.901 6  95220474.16616      2525.129 6        37.724
E34        32.000                                                                                                                                    26711798.723 4                     -2434.583 4        24.331
R23        33.000    22066283.929 5 118040088.36605      2891.212 5        30.279
R22        35.000    19301561.971 8 103033043.01008       177.208 8        50.890                                                                    19301559.273 7  80136839.37907       137.831 7        46.659
C33        37.000                                                                                                                                    21968697.841 7 114396805.10407     -1524.894 7        47.629                                                                    21968710.231 7  92956784.82507     -1239.088 7        44.614
R21        39.000    20781728.671 6 111207257.71206     -3841.280 6        39.937                                                                    20781718.751 6  86494471.10406     -2987.156 6        37.153
C27        41.000                                                                                                                                    22581150.707 7 117585975.23707       950.200 7        46.909                                                                    22581146.899 6  95548260.17806       772.221 6        40.498
C14        42.000                                                                                                                                    23086377.893 6 120216931.34706     -2988.324 6        40.052    23086394.025 6  92959298.15416     -2311.219 6        37.198    23086370.222 6                     -2427.936 6        37.433
C39        45.000                                                                                                                                    39275542.359 4                        33.806 4        28.019
C43        48.000                                                                                                                                    25606371.164 4                     -4196.293 4        26.886
C30        49.000                                                                                                                                    26678530.654 6 138922109.68606      2401.543 6        37.482
C42        50.000                                                                                                                                    25236559.972 5                     -3842.611 5        32.341                                                                    25236560.103 4                     -3122.605 4        27.054
C28        55.000                                                                                                                                    21665412.778 8 112817585.01408     -1784.967 8        50.292                                                                    21665411.643 7  91673432.01307     -1450.357 7        46.973
I09        56.000    37152819.106 6 145795639.75606      -546.083 6        41.881
> 2025 01 02 23 47 15.0000000  0 31
G03         2.000    21196299.732 7 111387442.73107      1411.906 7        43.321                                    21196296.237 7  86795339.35807      1100.205 7        43.958    21196298.245 7  86795280.32207      1100.150 7        43.972
G32         3.000    22584952.380 5 118684669.22905     -2925.063 5        33.784                                    22584949.246 4  92481544.94004     -2279.223 4        27.737    22584953.936 5  92481614.82815     -2278.828 5        33.754
G21         4.000    20954481.835 5 110116554.81805     -1989.386 5        34.214                                    20954479.447 3  85805091.07603     -1550.172 3        18.269
G08         5.000    23386585.909 6 122897311.72906     -4421.601 6        37.648                                    23386581.331 3  95764122.69303     -3445.375 3        20.857    23386580.942 5                     -3445.157 5        31.140
G02         6.000    20717205.228 8 108869644.15808      -498.648 8        50.441                                    20717198.293 6  84833466.02306      -388.556 6        41.678
G14         7.000                                                                                                                                                                    24554834.560 5 100547924.75505     -2137.035 5        30.483
E03         9.000    24010222.521 6 126174565.00206      -401.986 6        41.566                                                                    24010220.834 7  94221325.99407      -300.216 7        46.503    24010219.597 7  96679244.68707      -308.108 7        47.223
G17        10.000    23376261.015 8 122843067.32208      1600.041 8        48.720                                    23376253.190 7  95721835.49607      1246.787 7        42.753    23376256.014 6  95721848.53006      1246.939 6        40.062
E05        11.000    24890270.409 6 130799270.78506     -3013.797 6        36.117                                                                    24890276.024 5  97674795.65915     -2251.239 5        34.786    24890268.674 5 100222829.73505     -2308.822 5        32.449
E13        12.000    24551798.621 7 129020561.69807       955.689 7        42.068                                                                    24551797.924 6  96346535.69906       713.498 6        39.228    24551797.369 7  98860004.05207       732.250 7        45.968
E21        15.000    27633907.864 5 145217140.26905     -2766.592 5        31.721                                                                    27633908.670 4                     -2064.952 4        25.910
E15        16.000    23484732.491 7 123413086.08107     -1478.436 7        46.282                                                                    23484733.678 8  92159117.01208     -1104.061 8        50.298    23484732.143 7  94563308.11207     -1132.875 7        47.402
E08        19.000                                                                                                                                    25635915.918 6 100600879.23606      1480.289 6        37.970    25635919.568 7 103225261.76707      1518.992 7        46.133
S23        21.000    38177129.784 6 200622142.69206      -849.005 6        37.353
R06        25.000    19927374.863 6 106336289.31506     -3073.823 6        40.179
R07        27.000    19486879.901 7 104314758.39407       809.860 7        44.724                                                                    19486876.279 7  81133715.51507       629.848 7        47.187
C41        29.000                                                                                                                                    23043909.958 7 119995717.06507      1359.233 7        42.017                                                                    23043916.886 6  97506324.95006      1104.594 6        40.072
R08        30.000                                                                                                                                    22859221.422 5  95207851.36315      2523.859 5        34.876
E34        32.000    26714897.551 4                     -3261.293 4        29.763                                                                    26714893.757 3                     -2435.008 3        22.019
R23        33.000    22063586.934 6 118025630.11306      2890.828 6        41.070
R22        35.000    19301397.172 8 103032164.87508       174.009 8        51.064                                                                    19301395.126 7  80136156.35707       135.301 7        47.878
C33        37.000                                                                                                                                    21970163.292 7 114404435.17107     -1527.226 7        44.617                                                                    21970175.349 7  92962984.83107     -1240.859 7        46.724
R21        39.000    20785314.919 6 111226470.20206     -3844.601 6        36.125                                                                    20785311.361 5  86509414.27305     -2989.703 5        34.410
C27        41.000                                                                                                                                    22580239.820 6 117581228.36906       948.603 6        40.384                                                                    22580234.942 7  95544402.92607       770.660 7        43.975
C14        42.000                                                                                                                                    23089249.603 5 120231874.94205     -2989.995 5        34.557    23089264.233 6  92970853.63206     -2312.415 6        38.366    23089237.297 5  97698117.26215     -2429.048 5        32.814
C39        45.000                                                                                                                                    39275507.355 4                        33.910 4        29.071
C43        48.000                                                                                                                                    25610393.102 4                     -4196.535 4        24.211
C30        49.000                                                                                                                                    26676228.074 5 138910101.71005      2401.062 5        35.157                                                                    26676256.531 4                      1952.666 4        25.113
C42        50.000                                                                                                                                    25240247.935 4 131432597.35114     -3847.452 4        25.865                                                                    25240247.010 4                     -3122.849 4        29.801
C28        55.000                                                                                                                                    21667128.302 8 112826515.93808     -1787.634 8        50.760                                                                    21667127.022 8  91680689.08708     -1452.379 8        48.976
I09        56.000    37153514.457 6 145798370.35606      -546.150 6        39.270
> 2025 01 02 23 47 20.0000000  0 30
G03         2.000    21194955.802 7 111380386.62507      1410.289 7        47.674                                    21194953.726 7  86789841.07707      1098.939 7        42.292    21194954.459 7  86789782.08307      1098.880 7        42.995
G32         3.000    22587736.772 6 118699300.28806     -2927.611 6        38.225                                    22587733.434 4  92492945.75704     -2281.338 4        27.245    22587734.730 5  92493015.87205     -2281.159 5        35.500
G21         4.000    20956378.235 5 110126504.77905     -1991.321 5        32.970                                    20956373.005 3  85812844.31303     -1551.696 3        19.701
G08         5.000                                                                                                                                                                    23390791.333 4  95781377.12914     -3446.115 4        27.940
G02         6.000    20717680.783 8 108872141.04508      -500.452 8        50.938                                    20717673.403 6  84835411.64706      -389.966 6        41.497
E03         9.000    24010606.150 7 126176580.15507      -404.338 7        42.303                                                                    24010604.358 7  94222830.77207      -301.952 7        45.661    24010603.358 7  96680788.76007      -309.843 7        47.048
G17        10.000    23374739.070 8 122835070.38608      1598.445 8        48.424                                    23374731.635 7  95715604.12207      1245.546 7        42.863    23374733.841 7  95715617.14007      1245.318 7        42.258
E05        11.000    24893139.091 5 130814341.15005     -3015.031 5        34.995                                                                    24893144.485 5  97686049.38905     -2251.817 5        34.148
E13        12.000    24550889.392 6 129015784.08106       954.915 6        41.998                                                                    24550887.277 6  96342968.12406       713.022 6        38.628    24550888.198 7  98856343.34507       731.720 7        44.554
E21        15.000    27636540.907 5 145230973.71105     -2767.443 5        34.633                                                                                                                                    27636543.410 4                     -2121.093 4        25.188
E15        16.000    23486139.597 7 123420480.74707     -1479.677 7        44.847                                                                    23486141.133 8  92164639.00208     -1104.974 8        51.370    23486138.911 7  94568974.16507     -1133.755 7        46.424
E08        19.000    25634032.122 5 134707745.48305      1981.048 5        31.660                                                                    25634032.059 6 100593478.76106      1479.698 6        40.658    25634032.586 7 103217668.26907      1518.134 7        42.980
S23        21.000    38177942.511 6 200626384.11606      -848.100 6        39.859
R06        25.000    19930256.444 6 106351664.79606     -3076.667 6        39.595
R07        27.000    19486123.802 7 104310717.54307       806.218 7        42.362                                                                    19486121.166 7  81130572.54907       627.007 7        45.326
C41        29.000                                                                                                                                    23042607.276 6 119988924.39506      1357.512 6        40.956                                                                    23042611.798 5                      1102.781 5        34.752
R08        30.000    22856193.112 3                      3242.384 3        20.262                                                                    22856195.722 5                      2522.873 5        33.455
E34        32.000    26718014.661 5                     -3261.441 5        30.083                                                                    26717998.516 3                     -2434.925 3        20.881
R23        33.000    22060890.156 6 118011175.95606      2890.449 6        38.892
R22        35.000    19301235.141 8 103031302.57508       170.709 8        49.739                                                                    19301233.486 7  80135485.67107       132.783 7        47.476
C33        37.000                                                                                                                                    21971630.438 7 114412075.91107     -1529.554 7        42.282                                                                    21971642.382 7  92969193.54107     -1242.685 7        46.886
R21        39.000    20788898.220 6 111245694.95416     -3845.927 6        37.108                                                                    20788902.209 5  86524367.02715     -2992.150 5        34.257
C27        41.000                                                                                                                                    22579328.050 7 117576490.85807       946.392 7        44.527                                                                    22579325.406 7  95540553.36307       769.064 7        42.457
C14        42.000                                                                                                                                    23092119.893 6 120246825.88706     -2991.053 6        39.366                                                                    23092110.017 5  97710266.06105     -2430.327 5        35.076
C39        45.000                                                                                                                                    39275487.693 5                        31.944 5        35.810
C43        48.000                                                                                                                                    25614418.014 4                     -4196.513 4        27.880
C30        49.000                                                                                                                                    26673920.881 6 138898094.88606      2401.215 6        36.072
C42        50.000                                                                                                                                    25243937.769 4                     -3843.982 4        25.038                                                                    25243939.000 5                     -3123.408 5        34.786
C28        55.000                                                                                                                                    21668845.454 8 112835458.67608     -1789.919 8        50.666                                                                    21668844.466 8  91687955.77808     -1454.446 8        48.849
I09        56.000    37154209.876 7 145801101.69907      -546.502 7        42.013
> 2025 01 02 23 47 25.0000000  0 30
G03         2.000    21193613.872 7 111373338.93707      1408.658 7        44.309                                    21193612.467 6  86784349.35906      1097.666 6        41.495    21193612.235 7  86784290.38007      1097.692 7        42.212
G32         3.000    22590523.479 7 118713943.10307     -2929.971 7        44.807                                    22590520.109 4  92504355.81004     -2283.121 4        28.834    22590521.237 5  92504425.82905     -2282.697 5        33.509
G21         4.000    20958272.721 6 110136463.26306     -1992.718 6        36.839                                    20958268.136 3  85820604.15303     -1552.797 3        19.164
G08         5.000    23395000.449 4 122941532.28404     -4421.999 4        29.972                                    23394996.268 2  95798580.21402     -3445.689 2        16.340    23394996.346 4  95798607.27004     -3447.097 4        29.147
G02         6.000    20718156.949 8 108874647.55708      -502.297 8        50.695                                    20718150.274 6  84837364.76706      -391.407 6        41.101
E03         9.000    24010990.540 6 126178606.65506      -406.597 6        38.898                                                                    24010990.120 7  94224344.11007      -303.560 7        46.343    24010989.337 7  96682341.56307      -311.454 7        44.933
G17        10.000    23373218.902 8 122827082.90208      1596.333 8        48.703                                    23373212.026 7  95709380.12207      1243.895 7        43.058    23373213.309 6  95709393.09906      1243.754 6        41.926
E05        11.000    24896004.243 4 130829418.56004     -3015.795 4        27.832                                                                    24896009.642 4  97697308.42504     -2251.876 4        28.351    24896002.908 5                     -2311.124 5        32.048
E13        12.000    24549981.339 7 129011009.87207       954.307 7        44.432                                                                    24549978.473 6  96339402.98406       712.736 6        38.201    24549979.494 7  98852685.16407       731.164 7        42.400
E21        15.000                                                                                                                                    27639197.066 4                     -2068.132 4        25.113
E15        16.000    23487548.493 7 123427881.78007     -1480.979 7        46.200                                                                    23487549.445 8  92170165.73108     -1105.888 8        51.931    23487547.621 7  94574645.06507     -1134.789 7        46.981
E08        19.000    25632148.830 6 134697840.35506      1980.594 6        36.953                                                                    25632145.164 6 100586082.14506      1479.002 6        39.826    25632147.385 7 103210078.70807      1517.422 7        43.363
S23        21.000    38178740.811 6 200630624.87206      -848.132 6        40.913
R06        25.000    19933141.183 6 106367055.18806     -3079.740 6        40.768
R07        27.000    19485371.148 7 104306694.43107       802.758 7        45.258                                                                    19485369.742 7  81127443.49907       624.346 7        43.712
C41        29.000                                                                                                                                    23041304.037 6 119982140.31406      1355.782 6        39.829                                                                    23041307.312 5                      1101.502 5        34.938
R08        30.000    22853163.333 5 122377646.39315      3243.143 5        33.132                                                                    22853166.223 5  95182619.48215      2522.212 5        33.982
E34        32.000    26721117.713 4                     -3262.192 4        29.005                                                                    26721109.134 4                     -2436.351 4        26.156
R23        33.000    22058183.963 6 117996726.30406      2889.660 6        40.346
R22        35.000    19301076.847 8 103030456.21408       167.596 8        49.495                                                                    19301074.642 7  80134827.38007       130.267 7        45.953
C33        37.000                                                                                                                                    21973098.726 6 114419727.27806     -1531.401 6        41.211                                                                    21973111.844 8  92975410.99608     -1244.447 8        48.047
R21        39.000    20792498.869 6 111264931.78816     -3848.885 6        40.803                                                                    20792503.153 5  86539329.60515     -2993.419 5        34.129
C27        41.000                                                                                                                                    22578418.608 7 117571762.64207       944.610 7        45.723                                                                    22578416.879 7  95536711.46007       767.579 7        44.006
C14        42.000                                                                                                                                    23094993.942 6 120261784.05806     -2992.667 6        39.640    23094985.899 6  92993981.18406     -2314.154 6        38.249    23094985.821 6  97722420.77806     -2431.565 6        38.823
C39        45.000                                                                                                                                    39275454.228 5                        32.622 5        34.286
C43        48.000                                                                                                                                    25618456.962 4                     -4196.588 4        24.226
C30        49.000                                                                                                                                    26671613.947 6 138886088.76406      2400.846 6        38.096
C42        50.000                                                                                                                                    25247630.194 3                     -3844.923 3        23.924                                                                    25247628.764 5 106830983.82415     -3123.989 5        34.343
C28        55.000                                                                                                                                    21670563.591 8 112844413.18708     -1792.090 8        48.368                                                                    21670564.043 8  91695232.09708     -1456.295 8        49.127
I09        56.000    37154906.057 6 145803833.66606      -546.533 6        38.595
> 2025 01 02 23 47 30.0000000  0 29
G03         2.000    21192274.720 6 111366300.48506      1406.967 6        41.256                                    21192273.051 6  86778864.85806      1096.336 6        41.995    21192273.703 7  86778805.89007      1096.162 7        43.403
G32         3.000    22593312.061 6 118728598.04706     -2931.887 6        39.234                                    22593308.372 4  92515775.27604     -2284.654 4        25.865    22593309.156 5  92515845.35505     -2284.853 5        32.401
G21         4.000    20960170.419 6 110146431.24206     -1994.574 6        38.429                                    20960164.847 3  85828371.39903     -1554.205 3        21.000
G08         5.000    23399209.187 5 122963648.59105     -4424.003 5        34.743                                    23399204.686 2  95815813.65902     -3447.211 2        16.528    23399202.369 4  95815840.63804     -3447.141 4        24.180
G02         6.000    20718636.042 8 108877164.47208      -504.330 8        50.412                                    20718629.324 6  84839326.02806      -392.975 6        41.993
G14         7.000    24562671.722 5                     -2748.820 5        32.275
E03         9.000    24011379.317 6 126180645.44306      -408.821 6        40.665                                                                    24011378.108 7  94225866.58607      -305.457 7        46.662    24011375.947 7  96683903.72907      -313.445 7        44.626
G17        10.000    23371700.694 8 122819105.61708      1594.543 8        48.023                                    23371694.259 6  95703164.06006      1242.497 6        41.709    23371693.812 6  95703177.05806      1242.483 6        38.267
E05        11.000    24898876.453 6 130844503.98406     -3017.973 6        36.934                                                                    24898885.181 5  97708580.33815     -2253.573 5        31.494    24898873.319 4                     -2312.522 4        28.872
E13        12.000    24549072.154 7 129006239.81007       953.578 7        42.445                                                                    24549068.755 5  96335840.89105       712.165 5        34.938    24549071.461 7  98849030.14807       730.730 7        43.609
E21        15.000    27641787.623 5 145258663.25905     -2770.716 5        31.872                                                                    27641831.254 3                     -2068.196 3        23.638
E15        16.000    23488958.333 7 123435289.91207     -1482.358 7        47.554                                                                    23488958.695 8  92175697.78308     -1106.871 8        49.877    23488957.499 7  94580321.43107     -1135.822 7        46.613
E08        19.000    25630265.279 5 134687941.45805      1979.307 5        33.138                                                                    25630262.431 7 100578690.11607      1477.988 7        42.021    25630262.699 7 103202493.83807      1516.605 7        43.048
S23        21.000    38179551.566 6 200634865.98606      -848.403 6        38.378
R06        25.000    19936028.064 6 106382461.22606     -3082.639 6        39.141
R07        27.000    19484623.093 7 104302690.36507       798.978 7        44.292                                                                    19484621.017 7  81124329.17407       621.390 7        45.791
C41        29.000                                                                                                                                    23040005.062 6 119975365.47406      1354.163 6        40.739                                                                    23040004.353 5                      1100.514 5        30.287
R08        30.000    22850139.368 6 122361435.76506      3241.655 6        37.992                                                                    22850140.344 5  95170011.18305      2520.832 5        35.133
E34        32.000    26724218.649 4                     -3262.880 4        26.754                                                                    26724223.377 4                     -2436.685 4        27.054
R23        33.000    22055481.565 6 117982281.93606      2888.296 6        38.042
R22        35.000    19300921.674 8 103029626.65608       164.314 8        49.605                                                                    19300919.852 7  80134182.17607       127.778 7        46.054
C33        37.000                                                                                                                                    21974570.221 7 114427390.30107     -1533.775 7        46.081                                                                    21974583.135 7  92981637.72907     -1246.234 7        47.687
R21        39.000    20796098.015 6 111284182.82816     -3851.078 6        39.628                                                                    20796096.597 5  86554302.59815     -2995.893 5        32.006
C27        41.000                                                                                                                                    22577513.528 6 117567044.84406       942.563 6        41.507                                                                    22577509.995 7  95532877.76707       765.842 7        44.045
C14        42.000                                                                                                                                    23097868.624 6 120276749.96906     -2994.064 6        37.463    23097865.293 7  93005553.77707     -2315.194 7        43.153    23097859.491 5  97734581.87005     -2433.139 5        35.576
C30        49.000                                                                                                                                    26669314.438 6 138874084.55806      2400.611 6        36.957                                                                    26669302.411 4                      1950.661 4        26.862
C42        50.000                                                                                                                                    25251337.187 4                     -3845.915 4        26.647                                                                    25251325.473 4 106846603.83504     -3125.400 4        28.389
C28        55.000                                                                                                                                    21672285.473 8 112853380.36708     -1794.671 8        50.896                                                                    21672285.740 8  91702518.67508     -1458.398 8        49.427
I09        56.000    37155602.885 6 145806566.98006      -546.654 6        37.682
> 2025 01 02 23 47 35.0000000  0 30
G03         2.000    21190938.148 6 111359271.04906      1404.771 6        41.845                                    21190935.508 7  86773387.37807      1094.639 7        42.089    21190936.674 7  86773328.42507      1094.594 7        43.333
G32         3.000    22596102.947 6 118743265.15706     -2935.333 6        36.057                                    22596099.254 3  92527204.23503     -2287.370 3        21.071
G21         4.000    20962068.842 5 110156408.50805     -1996.636 5        35.681                                    20962063.006 3  85836145.86003     -1555.780 3        18.687
G08         5.000    23403412.136 4                     -4423.749 4        27.042                                                                                                    23403414.255 4  95833077.29804     -3447.921 4        29.422
G02         6.000    20719116.707 8 108879691.63308      -506.788 8        50.282                                    20719110.144 6  84841295.24606      -394.906 6        41.740
G14         7.000    24565291.891 4                     -2751.370 4        29.308                                                                                                    24565300.860 4                     -2143.317 4        29.488
E03         9.000    24011769.441 6 126182696.23306      -411.890 6        40.586                                                                    24011768.414 7  94227398.03407      -307.457 7        45.985    24011767.463 7  96685475.16507      -315.485 7        45.798
G17        10.000    23370184.808 8 122811138.40008      1591.953 8        49.053                                    23370178.191 7  95696955.83007      1240.473 7        42.317    23370178.867 7  95696968.82907      1240.607 7        42.174
E05        11.000    24901753.662 6 130859597.28306     -3019.859 6        38.862                                                                    24901752.161 4                     -2254.998 4        25.128    24901760.319 4                     -2313.537 4        24.180
E13        12.000    24548166.087 7 129001473.69207       952.497 7        42.929                                                                    24548164.733 6  96332281.64306       711.242 6        38.679    24548165.320 7  98845378.19407       729.868 7        45.576
E21        15.000    27644427.406 4 145272520.12804     -2772.817 4        29.185                                                                    27644457.599 4                     -2069.810 4        26.623    27644460.668 4                     -2123.463 4        24.827
E15        16.000    23490369.873 8 123442705.04008     -1484.041 8        49.367                                                                    23490369.702 8  92181235.05108     -1108.223 8        49.672    23490368.252 7  94586003.15707     -1137.106 7        46.496
E08        19.000    25628378.051 5 134678048.41905      1977.874 5        32.491                                                                    25628380.566 6 100571302.46606      1476.801 6        41.807    25628378.695 7 103194913.46607      1515.372 7        43.077
S23        21.000    38180350.573 6 200639107.36006      -848.326 6        38.946
R06        25.000    19938918.012 6 106397882.84106     -3086.165 6        41.356
R07        27.000    19483878.098 6 104298704.76906       794.975 6        41.733                                                                    19483876.166 7  81121229.28407       618.342 7        45.490
C41        29.000                                                                                                                                    23038704.889 7 119968599.74707      1351.835 7        45.097                                                                    23038706.095 6  97484309.01316      1098.611 6        38.820
R08        30.000    22847111.871 6 122345231.77306      3239.660 6        36.673                                                                    22847113.791 5  95157408.13205      2519.651 5        33.778
E34        32.000    26727318.744 4                     -3262.798 4        27.305                                                                    26727329.223 3                     -2436.731 3        22.838
R23        33.000    22052780.192 6 117967842.62506      2886.892 6        38.586
R22        35.000    19300769.570 8 103028813.68508       160.517 8        48.918                                                                    19300767.580 7  80133549.85707       124.946 7        46.940
C33        37.000                                                                                                                                    21976045.428 7 114435064.54407     -1536.346 7        45.824                                                                    21976056.974 7  92987873.72107     -1248.340 7        46.048
R21        39.000    20799703.216 7 111303447.10707     -3854.524 7        43.247                                                                    20799695.002 5  86569285.86905     -2998.095 5        35.710
C27        41.000                                                                                                                                    22576607.577 7 117562337.00207       940.313 7        42.582                                                                    22576606.914 7  95529052.19907       764.044 7        42.332
C14        42.000                                                                                                                                    23100743.834 6 120291723.78206     -2995.689 6        41.540    23100741.652 7  93017132.38507     -2316.611 7        42.519    23100733.638 5  97746749.27205     -2434.698 5        32.826
C43        48.000                                                                                                                                    25626535.852 4                     -4197.557 4        25.068
C30        49.000                                                                                                                                    26667016.925 6 138862081.93006      2400.010 6        36.983                                                                    26666997.549 5                      1950.315 5        30.589
C42        50.000                                                                                                                                    25255026.928 5                     -3846.623 5        32.054                                                                    25255008.442 5 106862226.24405     -3125.200 5        32.234
C28        55.000                                                                                                                                    21674010.090 8 112862360.04708     -1797.486 8        50.376                                                                    21674009.941 8  91709815.38208     -1460.563 8        48.184
I09        56.000    37156299.458 6 145809301.42106      -547.259 6        40.417
> 2025 01 02 23 47 40.0000000  0 31
G03         2.000    21189602.385 7 111352251.14807      1402.802 7        45.442                                    21189599.584 6  86767917.33506      1093.070 6        41.850    21189599.413 6  86767858.35506      1093.227 6        41.964
G32         3.000    22598897.760 6 118757944.83506     -2937.273 6        38.700                                    22598893.303 3  92538642.94803     -2288.846 3        20.119    22598896.523 5                     -2288.737 5        32.084
G21         4.000    20963970.165 5 110166395.40105     -1998.619 5        33.737                                    20963963.530 3  85843927.89703     -1557.378 3        18.388
G08         5.000    23407623.917 5                     -4425.761 5        30.596                                                                                                    23407620.338 4                     -3448.186 4        26.922
G02         6.000    20719600.246 8 108882229.47708      -508.830 8        50.374                                    20719592.936 6  84843272.78506      -396.490 6        41.321
G14         7.000    24567910.516 5 129105231.53115     -2752.856 5        30.679                                                                                                    24567917.747 5 100601514.82715     -2145.408 5        33.695
E03         9.000    24012162.442 6 126184759.60706      -414.016 6        40.293                                                                    24012160.682 7  94228938.86607      -309.191 7        43.704    24012160.451 7  96687056.18107      -317.195 7        46.377
G17        10.000    23368670.952 7 122803181.71407      1590.189 7        47.953                                    23368663.938 6  95690755.82706      1239.107 6        41.800    23368663.758 7  95690768.86607      1238.972 7        42.049
E05        11.000    24904623.048 5 130874698.83905     -3021.250 5        32.790
E13        12.000    24547259.178 6 128996712.05306       951.535 6        39.802                                                                    24547261.931 7  96328725.91907       710.595 7        43.780    24547259.256 8  98841729.70508       729.163 8        49.367
E21        15.000                                                                                                                                                                                                    27647099.091 4                     -2125.062 4        24.992
E15        16.000    23491781.719 7 123450127.64907     -1485.465 7        46.624                                                                    23491782.114 8  92186777.89608     -1109.253 8        50.096    23491780.259 7  94591690.57807     -1138.143 7        46.226
E08        19.000    25626499.495 5 134668161.55705      1976.625 5        30.558                                                                    25626499.493 7 100563919.54407      1475.985 7        43.255    25626497.212 7 103187337.95807      1514.467 7        42.142
S23        21.000    38181152.711 5 200643349.14205      -848.892 5        35.738
R06        25.000    19941812.170 7 106413320.37707     -3089.163 7        42.237
R14        26.000    23861206.386 5 127193733.40915     -1341.447 5        31.509
R07        27.000    19483134.466 7 104294738.57407       791.068 7        46.968                                                                    19483134.926 6  81118144.47606       615.280 6        39.835
C41        29.000                                                                                                                                    23037409.145 7 119961843.54407      1350.128 7        45.273                                                                    23037403.946 5  97478819.05205      1097.233 5        33.311
R08        30.000    22844091.224 6 122329034.92706      3238.514 6        37.440                                                                    22844087.822 5  95144810.59605      2518.839 5        34.852
E34        32.000    26730427.725 4                     -3264.393 4        29.848
R23        33.000    22050083.575 6 117953408.79606      2886.168 6        40.727
R22        35.000    19300620.429 8 103028017.80708       157.323 8        48.858                                                                    19300617.955 7  80132930.88907       122.294 7        47.457
C33        37.000                                                                                                                                    21977520.672 7 114442750.65707     -1538.734 7        45.592                                                                    21977533.076 7  92994119.35607     -1250.236 7        47.448
R21        39.000    20803302.389 6 111322725.07906     -3856.983 6        41.187                                                                    20803293.430 5  86584279.77505     -3000.514 5        32.102
C27        41.000                                                                                                                                    22575706.463 7 117557639.69507       938.093 7        46.938                                                                    22575705.730 6  95525235.26006       762.476 6        41.774
C14        42.000                                                                                                                                    23103620.520 6 120306705.80306     -2997.501 6        39.120    23103617.029 5  93028717.22305     -2317.730 5        32.988    23103607.444 5  97758923.46805     -2435.421 5        33.671
C39        45.000                                                                                                                                    39275365.345 5                        28.527 5        31.645
C30        49.000                                                                                                                                    26664706.455 6 138850081.42106      2399.781 6        37.516                                                                    26664700.289 5                      1950.204 5        30.657
C42        50.000                                                                                                                                    25258721.548 4                     -3846.167 4        24.346                                                                    25258707.556 5 106877851.48505     -3125.360 5        34.300
C28        55.000                                                                                                                                    21675738.544 8 112871352.62708     -1799.951 8        51.656                                                                    21675737.220 8  91717122.61508     -1462.670 8        48.390
I09        56.000    37156997.879 6 145812037.46906      -547.288 6        38.670
> 2025 01 02 23 47 45.0000000  0 31
G03         2.000    21188269.626 7 111345240.23507      1401.104 7        47.527                                    21188265.221 7  86762454.28907      1091.745 7        43.712    21188265.949 7  86762395.30507      1091.874 7        43.664
G32         3.000    22601691.959 6 118772673.49616     -2939.535 6        36.696                                    22601685.393 3  92550121.01513     -2290.600 3        21.976    22601692.011 5  92550151.04315     -2290.266 5        34.210
G21         4.000    20965871.525 6 110176391.42306     -2000.383 6        39.706                                    20965865.817 3  85851716.98903     -1558.762 3        22.343
G08         5.000    23411838.085 5 123030032.35715     -4426.273 5        34.505                                    23411835.276 2  95867554.44012     -3449.071 2        16.226    23411837.149 4                     -3449.595 4        26.084
G02         6.000    20720085.029 8 108884777.49708      -510.736 8        50.379                                    20720077.624 6  84845258.24906      -397.976 6        41.056
G14         7.000    24570527.115 4 129119000.02404     -2753.936 4        29.611
E03         9.000    24012557.755 7 126186834.99807      -416.492 7        44.641                                                                    24012555.899 7  94230488.64907      -310.913 7        45.968    24012554.747 7  96688646.39407      -319.030 7        44.384
G17        10.000    23367158.573 7 122795235.05607      1588.283 7        47.950                                    23367151.895 7  95684563.65207      1237.625 7        42.641    23367151.857 6  95684576.65606      1237.664 6        39.012
E05        11.000    24907502.007 5 130889809.04005     -3022.893 5        35.643                                                                    24907500.906 4                     -2256.862 4        29.346
E13        12.000    24546356.027 7 128991954.40207       951.009 7        42.700                                                                    24546353.544 7  96325173.08807       710.250 7        43.782    24546354.605 8  98838084.18508       728.703 8        48.216
E21        15.000    27649709.527 4                     -2775.322 4        27.545                                                                                                                                    27649732.595 4                     -2126.436 4        26.754
E15        16.000    23493194.786 7 123457557.16707     -1486.639 7        47.030                                                                    23493196.375 8  92192325.93808     -1110.135 8        50.927    23493194.216 7  94597383.34007     -1139.103 7        46.667
E08        19.000                                                                                                                                    25624618.749 6 100556540.97306      1475.281 6        39.556    25624618.987 6 103179766.93006      1513.631 6        40.908
S23        21.000    38181968.701 6 200647591.11006      -848.573 6        40.319
R06        25.000    19944706.412 6 106428773.31806     -3092.193 6        41.633
R07        27.000    19482398.465 7 104290790.88107       787.433 7        46.550                                                                    19482396.946 6  81115073.97906       612.685 6        39.375
C41        29.000                                                                                                                                    23036112.278 7 119955096.53107      1348.410 7        46.593
R08        30.000    22841066.351 5 122312844.62805      3237.341 5        35.600                                                                    22841059.916 4  95132218.09304      2517.564 4        27.964
E34        32.000    26733537.926 3                     -3265.402 3        23.676
R23        33.000    22047387.690 5 117938980.25705      2884.390 5        34.871
R22        35.000    19300474.417 8 103027238.53408       154.092 8        49.425                                                                    19300472.655 7  80132324.80507       119.867 7        47.474
C33        37.000                                                                                                                                    21979000.602 7 114450447.98007     -1540.725 7        46.814                                                                    21979010.611 7  93000374.15807     -1251.916 7        43.992
R21        39.000    20806905.155 6 111342016.05006     -3860.060 6        39.075                                                                    20806903.595 5  86599283.86205     -3001.549 5        32.120
C27        41.000                                                                                                                                    22574808.669 7 117552952.38107       936.372 7        45.881                                                                    22574802.240 6  95521426.43606       760.951 6        41.478
C14        42.000                                                                                                                                    23106502.012 5 120321695.77705     -2999.165 5        33.090    23106493.771 6  93040308.34506     -2318.990 6        39.673    23106494.074 6  97771103.86706     -2436.886 6        36.930
C39        45.000                                                                                                                                    39275337.823 5 204517034.53815        26.739 5        32.072
C43        48.000                                                                                                                                    25634581.790 3                     -4203.225 3        21.857
C30        49.000                                                                                                                                    26662394.678 6 138838082.43406      2399.633 6        36.280                                                                    26662395.856 5                      1949.793 5        31.887
C42        50.000                                                                                                                                    25262416.758 4                     -3847.520 4        28.701                                                                    25262400.568 5 106893479.06505     -3125.680 5        33.449
C28        55.000                                                                                                                                    21677467.168 8 112880357.70108     -1802.467 8        50.787                                                                    21677466.264 8  91724439.90408     -1464.508 8        49.247
I09        56.000    37157695.045 6 145814774.59306      -547.676 6        40.005
> 2025 01 02 23 47 50.0000000  0 32
G03         2.000    21186936.101 7 111338238.27007      1399.144 7        46.398                                    21186932.789 7  86756998.20907      1090.224 7        44.015    21186933.691 7  86756939.23207      1090.343 7        42.783
G32         3.000    22604490.329 7 118787377.28607     -2942.380 7        42.227                                    22604484.472 3  92561578.51903     -2292.743 3        21.571
G21         4.000    20967774.754 6 110186396.55506     -2002.272 6        39.186                                    20967769.717 3  85859513.24203     -1560.202 3        18.567
G08         5.000    23416048.127 5                     -4426.533 5        30.166                                                                                                    23416047.173 3                     -3450.013 3        23.429
G02         6.000    20720571.674 8 108887335.65308      -512.899 8        48.846                                    20720564.146 6  84847251.63606      -399.656 6        40.169
G14         7.000                                                                                                                                                                    24573142.376 5 100622980.20005     -2147.910 5        33.006
E03         9.000    24012954.723 7 126188922.27507      -418.962 7        45.272                                                                    24012951.692 7  94232047.37207      -312.896 7        43.208    24012953.508 7  96690245.77207      -320.972 7        46.073
G17        10.000    23365648.225 7 122787298.43707      1586.000 7        47.796                                    23365641.613 7  95678379.26707      1235.843 7        42.483    23365642.101 7  95678392.26507      1235.923 7        43.270
E05        11.000                                                                                                                                    24910382.563 5  97753687.27515     -2258.746 5        34.152    24910374.989 5 100303759.49615     -2317.878 5        30.740
E13        12.000    24545451.035 7 128987200.58707       950.182 7        42.978                                                                    24545449.892 6  96321623.17906       709.588 6        41.805    24545448.407 7  98834441.65807       727.978 7        46.010
E21        15.000                                                                                                                                    27652346.275 3                     -2072.313 3        23.124
E15        16.000    23494610.706 7 123464993.53207     -1488.263 7        47.044                                                                    23494611.088 8  92197879.06608     -1111.309 8        50.019    23494609.611 7  94603081.34907     -1140.303 7        47.229
E08        19.000                                                                                                                                    25622736.978 6 100549166.78906      1474.186 6        36.919    25622738.798 6 103172200.29406      1512.898 6        36.522
S23        21.000    38182781.231 6 200651833.36806      -848.596 6        41.802
S36        23.000    38227859.569 6 200888776.20316      -850.630 6        36.699
R06        25.000    19947605.642 7 106444241.66607     -3095.363 7        43.029
R14        26.000                                                                                                                                    23863712.574 4                     -1047.599 4        26.240
R07        27.000    19481666.095 7 104286861.85707       783.715 7        46.684                                                                    19481663.268 6  81112018.13806       609.498 6        39.267
C41        29.000                                                                                                                                    23034815.269 7 119948358.61907      1346.479 7        45.013
R08        30.000    22838042.560 6 122296660.98206      3235.806 6        37.508                                                                    22838042.568 5  95119630.87205      2516.570 5        30.777
E34        32.000                                                                                                                                    26736618.250 3                     -2439.179 3        22.038
R23        33.000    22044689.074 6 117924556.46206      2884.073 6        40.856
R22        35.000    19300331.039 8 103026475.75608       150.600 8        49.595                                                                    19300328.837 7  80131731.52207       117.219 7        46.649
C33        37.000                                                                                                                                    21980480.556 7 114458156.63507     -1543.049 7        45.397                                                                    21980491.388 7  93006638.06507     -1253.890 7        45.019
R21        39.000    20810514.541 6 111361320.15206     -3862.436 6        40.701                                                                    20810508.812 5  86614298.27105     -3003.796 5        35.048
C27        41.000                                                                                                                                                                                                                                                                    22573905.234 6  95517625.71006       759.236 6        40.501
C14        42.000                                                                                                                                    23109383.960 6 120336694.05906     -3000.640 6        38.087    23109369.496 5  93051905.29105     -2320.027 5        35.095    23109374.944 6  97783290.47906     -2438.102 6        39.378
C39        45.000                                                                                                                                    39275310.740 5 204516898.14105        26.927 5        33.210
C30        49.000                                                                                                                                    26660087.558 5 138826085.07405      2399.428 5        34.148                                                                    26660089.344 5                      1949.705 5        30.075
C42        50.000                                                                                                                                    25266096.260 5                     -3847.183 5        33.443                                                                    25266092.566 5 106909108.93205     -3126.307 5        34.233
C28        55.000                                                                                                                                    21679198.925 8 112889375.06508     -1805.007 8        51.928                                                                    21679198.200 8  91731767.30208     -1466.598 8        48.036
I09        56.000    37158393.007 5 145817512.87905      -548.151 5        35.243
> 2025 01 02 23 47 55.0000000  0 31
G03         2.000    21185604.797 7 111331245.06407      1397.900 7        46.176                                    21185601.654 7  86751548.96307      1089.268 7        43.221    21185602.261 6  86751489.96006      1089.133 6        41.883
G32         3.000    22607292.962 6 118802092.70206     -2944.255 6        40.126                                    22607285.492 3  92573045.04203     -2294.249 3        21.667    22607294.838 4                     -2294.132 4        29.962
G21         4.000    20969681.130 5 110196410.64905     -2003.607 5        35.924                                    20969675.179 3  85867316.37003     -1561.261 3        19.642
G08         5.000    23420262.770 5 123074309.48715     -4427.724 5        34.586
G02         6.000    20721059.783 8 108889903.78008      -514.445 8        48.651                                    20721052.796 6  84849252.78006      -400.857 6        39.625
G14         7.000    24575792.406 5                     -2758.596 5        31.147                                                                                                    24575765.455 5 100633724.27905     -2149.312 5        33.132
E03         9.000    24013353.844 7 126191021.34907      -420.854 7        45.735                                                                    24013351.854 7  94233614.83207      -314.330 7        42.927    24013353.028 7  96691854.14107      -322.409 7        44.736
G17        10.000    23364139.259 8 122779371.64508      1584.454 8        49.176                                    23364133.603 7  95672202.57007      1234.655 7        42.216    23364133.489 6  95672215.50106      1234.733 6        41.313
E05        11.000    24913249.309 4                     -3026.250 4        26.228                                                                                                                                    24913247.962 5 100315348.53905     -2318.346 5        31.819
E13        12.000    24544546.179 7 128982450.54707       949.664 7        42.254                                                                    24544544.993 7  96318076.04207       709.144 7        43.936    24544545.042 7  98830801.99807       727.845 7        47.843
E21        15.000    27654987.204 4                     -2778.591 4        24.962                                                                    27654988.749 4                     -2074.795 4        29.981
E15        16.000    23496026.866 7 123472436.63307     -1489.205 7        47.707                                                                    23496027.479 8  92203437.21708     -1112.075 8        49.876    23496026.714 7  94608784.46007     -1141.109 7        47.858
E08        19.000                                                                                                                                    25620857.312 5 100541796.77105      1473.806 5        35.495    25620859.711 6 103164638.04706      1511.992 6        37.127
S23        21.000    38183579.648 6 200656075.30906      -848.145 6        40.343
S36        23.000    38228663.557 6 200893028.36006      -850.574 6        36.095
R06        25.000    19950507.923 7 106459725.13607     -3098.151 7        42.444
R14        26.000    23864956.680 4 127213934.45614     -1351.620 4        29.118
R07        27.000    19480935.780 8 104282951.19308       780.451 8        49.840                                                                    19480931.754 6  81108976.44806       606.902 6        37.267
C41        29.000                                                                                                                                    23033523.693 7 119941629.42407      1344.969 7        43.554
R08        30.000    22835022.190 5 122280483.68505      3234.988 5        35.795                                                                    22835024.635 5  95107048.56105      2515.824 5        32.371
E34        32.000    26739740.075 4                     -3266.426 4        28.303
R23        33.000    22041995.071 6 117910137.63906      2883.062 6        40.510
R22        35.000    19300191.270 8 103025729.36808       147.739 8        50.330                                                                    19300189.465 7  80131151.01007       114.856 7        45.881
C33        37.000                                                                                                                                    21981964.088 7 114465876.30007     -1544.922 7        46.618                                                                    21981973.369 7  93012910.95807     -1255.495 7        44.169
R21        39.000    20814126.976 6 111380637.03406     -3864.383 6        36.620                                                                    20814119.238 5  86629322.40705     -3005.294 5        32.024
C27        41.000                                                                                                                                    22573012.451 7 117543607.39007       932.796 7        45.392                                                                    22573009.095 6  95513832.86806       758.062 6        40.553
C14        42.000                                                                                                                                    23112262.426 5 120351699.01305     -3001.973 5        34.986                                                                    23112255.540 7  97795483.24407     -2438.969 7        42.186
C30        49.000                                                                                                                                    26657789.343 5 138814089.03505      2398.771 5        34.029                                                                    26657785.649 5                      1949.376 5        31.155
C42        50.000                                                                                                                                    25269792.798 4                     -3848.185 4        29.687                                                                    25269788.774 5 106924740.98005     -3126.553 5        32.138
C28        55.000                                                                                                                                    21680932.414 8 112898404.63508     -1807.066 8        50.438                                                                    21680931.843 7  91739104.58607     -1468.376 7        47.741
I09        56.000    37159090.680 6 145820252.11106      -547.674 6        36.008
> 2025 01 02 23 48  0.0000000  0 31
G03         2.000    21184276.016 7 111324261.25107      1395.794 7        44.381                                    21184272.419 7  86746107.07107      1087.654 7        42.191    21184273.457 7  86746048.02507      1087.615 7        42.527
G32         3.000    22610093.825 6 118816820.51006     -2947.026 6        40.131                                    22610088.430 3  92584521.25503     -2296.372 3        22.971    22610090.456 4                     -2296.089 4        26.072
G21         4.000    20971587.997 5 110206434.35805     -2005.443 5        35.129                                    20971582.160 3  85875127.10703     -1562.661 3        19.313
G08         5.000    23424477.667 5 123096450.22005     -4428.792 5        30.581                                    23424474.237 1  95919308.43711     -3450.993 1        10.741
G02         6.000    20721550.803 8 108892482.52408      -516.735 8        48.529                                    20721543.476 6  84851262.16306      -402.646 6        38.991
G14         7.000    24578415.326 5                     -2760.698 5        31.260                                                                                                    24578391.971 5 100644476.28705     -2151.025 5        30.951
E03         9.000    24013755.538 7 126193132.77307      -423.384 7        44.638                                                                    24013753.613 7  94235191.61507      -316.365 7        43.299    24013754.616 7  96693472.05107      -324.521 7        46.485
G17        10.000    23362633.347 7 122771455.30207      1582.295 7        47.715                                    23362627.163 6  95666033.97006      1232.942 6        41.266    23362626.245 6  95666046.99706      1233.046 6        41.070
E05        11.000    24916131.918 5                     -3027.051 5        30.528                                                                    24916144.553 4                     -2260.514 4        29.791    24916131.103 3                     -2319.660 3        23.238
E13        12.000    24543643.999 7 128977704.76107       948.791 7        42.044                                                                    24543642.431 6  96314532.18306       708.385 6        40.279    24543642.128 7  98827165.67307       727.001 7        47.923
E21        15.000    27657638.447 5                     -2779.776 5        32.329                                                                    27657640.537 5                     -2076.210 5        31.909    27657632.248 5 111365821.71315     -2131.337 5        34.600
E15        16.000    23497444.174 7 123479887.00207     -1490.802 7        45.275                                                                    23497445.494 8  92209000.85108     -1113.217 8        49.756    23497443.350 7  94614493.19607     -1142.301 7        45.243
E08        19.000    25618988.329 5 134628692.10715      1972.128 5        31.517                                                                    25618982.222 6 100534431.44706      1472.739 6        38.628    25618983.335 6 103157080.47706      1511.064 6        38.973
S23        21.000    38184389.911 6 200660317.93306      -848.624 6        37.043
R06        25.000    19953411.991 7 106475224.36807     -3101.390 7        42.186
R14        26.000                                                                                                                                    23866238.611 5                     -1054.506 5        31.970
R07        27.000    19480209.503 8 104279059.59008       776.486 8        48.139                                                                    19480206.840 6  81105949.67706       603.890 6        41.082
C41        29.000                                                                                                                                    23032233.884 7 119934909.72807      1342.745 7        43.903                                                                    23032244.867 4                      1091.011 4        24.226
R08        30.000    22832004.747 5 122264313.62505      3233.547 5        34.200
E34        32.000    26742843.645 4                     -3267.277 4        26.539
R23        33.000    22039300.933 6 117895724.30506      2882.048 6        38.817
R22        35.000    19300054.811 8 103025000.00208       144.244 8        50.245                                                                    19300052.114 7  80130583.67307       112.081 7        46.518
C33        37.000                                                                                                                                    21983449.145 7 114473607.72607     -1547.385 7        46.049                                                                    21983458.746 7  93019193.26007     -1257.394 7        45.994
R21        39.000    20817740.816 6 111399968.50306     -3867.856 6        36.590                                                                    20817732.454 6  86644357.38406     -3008.350 6        36.779
C27        41.000                                                                                                                                    22572112.716 7 117538950.32407       930.558 7        46.567                                                                    22572112.515 6  95510048.66606       755.730 6        36.896
C14        42.000                                                                                                                                    23115145.040 6 120366711.86506     -3003.295 6        40.305    23115141.765 6  93075117.29806     -2322.627 6        41.576    23115133.939 6  97807682.59806     -2440.574 6        37.709
C39        45.000                                                                                                                                    39275254.073 4                        24.978 4        24.481
C30        49.000                                                                                                                                                                                                                                                                    26655483.823 5                      1949.125 5        33.647
C42        50.000                                                                                                                                    25273485.889 4                     -3848.556 4        29.052                                                                    25273484.215 5 106940375.58505     -3126.880 5        34.905
C28        55.000                                                                                                                                    21682668.710 8 112907447.04508     -1809.762 8        52.504                                                                    21682668.595 8  91746452.28908     -1470.552 8        49.088
I09        56.000    37159789.614 6 145822992.78806      -548.301 6        40.672
> 2025 01 02 23 48  5.0000000  0 32
G03         2.000    21182949.135 6 111317286.54806      1394.114 6        41.764                                    21182944.911 7  86740672.23507      1086.286 7        42.226    21182946.539 6  86740613.23906      1086.470 6        41.120
G32         3.000    22612898.194 7 118831560.39107     -2949.170 7        42.491                                    22612895.371 4  92596006.83604     -2298.125 4        26.120    22612899.677 5  92596029.99015     -2297.859 5        30.309
G21         4.000    20973497.014 6 110216467.32506     -2007.291 6        38.099                                    20973491.105 3  85882944.96203     -1564.152 3        20.310
G08         5.000    23428691.013 5 123118594.79905     -4429.104 5        32.120                                    23428687.417 2  95936563.99602     -3451.262 2        12.788    23428684.689 3                     -3451.768 3        23.867
G02         6.000    20722042.788 7 108895071.60607      -518.533 7        47.719                                    20722036.266 6  84853279.64406      -404.042 6        38.694
G14         7.000    24581039.855 4                     -2762.876 4        26.862                                                                                                    24581020.626 4 100655236.13404     -2153.126 4        28.284
E03         9.000    24014159.430 7 126195256.40707      -425.762 7        43.401                                                                    24014158.296 7  94236777.41107      -317.780 7        44.557    24014159.252 7  96695099.25507      -326.172 7        46.343
G17        10.000    23361128.584 7 122763549.26007      1580.523 7        47.256                                    23361122.677 6  95659873.42706      1231.599 6        40.603    23361121.439 5  95659886.42205      1231.404 5        35.452
E05        11.000    24919013.499 5                     -3029.045 5        30.392                                                                    24919029.433 4                     -2261.916 4        29.100
E13        12.000    24542740.950 7 128972963.18807       948.161 7        43.209                                                                    24542739.046 6  96310991.46006       708.129 6        40.579    24542740.505 7  98823532.49107       726.583 7        45.673
E21        15.000    27660280.926 4 145355770.44014     -2781.210 4        26.048                                                                                                                                    27660278.340 5 111376476.05505     -2131.611 5        30.340
E15        16.000    23498863.802 7 123487344.47207     -1491.986 7        47.660                                                                    23498864.921 8  92214569.76608     -1114.046 8        49.550    23498862.080 7  94620207.37907     -1143.250 7        45.577
E08        19.000    25617113.342 4                      1970.523 4        28.512                                                                    25617105.862 6 100527070.59906      1471.903 6        37.403    25617104.759 5 103149527.57205      1510.569 5        32.599
S23        21.000    38185199.891 6 200664560.41706      -848.276 6        39.372
R06        25.000    19956320.166 7 106490739.13907     -3104.132 7        42.176
R14        26.000    23867515.750 5                     -1359.763 5        31.728
R07        27.000    19479486.520 7 104275186.72107       772.963 7        46.808                                                                    19479483.266 7  81102937.43707       601.329 7        45.052
C41        29.000                                                                                                                                    23030945.983 7 119928199.29407      1341.580 7        44.391                                                                    23030955.550 5                      1089.489 5        35.562
R08        30.000    22828983.751 6 122248150.30606      3232.531 6        36.015                                                                    22828980.899 5  95081900.24005      2514.214 5        30.158
E34        32.000    26745947.090 5                     -3268.064 5        31.902
R23        33.000    22036604.674 5 117881316.36205      2880.312 5        35.071
R22        35.000    19299921.373 8 103024287.41208       141.009 8        49.799                                                                    19299918.532 7  80130029.42207       109.737 7        44.862
C33        37.000                                                                                                                                    21984935.445 7 114481350.45107     -1549.294 7        44.011                                                                    21984946.074 7  93025484.90307     -1259.228 7        46.643
R21        39.000    20821347.357 6 111419311.96706     -3870.292 6        41.576
C27        41.000                                                                                                                                    22571225.612 7 117534303.34907       928.383 7        43.797                                                                    22571222.726 6  95506272.58406       754.454 6        41.952
C14        42.000                                                                                                                                    23118037.175 5 120381732.93805     -3004.410 5        33.257    23118024.722 7  93086732.25807     -2323.536 7        44.346    23118016.893 6  97819888.33406     -2441.668 6        36.072
C39        45.000                                                                                                                                    39275229.716 4                        24.012 4        28.483
C43        48.000                                                                                                                                    25650722.858 4                     -4200.970 4        27.581
C30        49.000                                                                                                                                                                                                                                                                    26653179.137 5                      1948.740 5        33.150
C42        50.000                                                                                                                                                                                                                                                                    25277175.283 5 106956012.80905     -3127.943 5        32.281
C28        55.000                                                                                                                                    21684407.037 8 112916501.99308     -1811.971 8        49.538                                                                    21684407.362 8  91753810.16108     -1472.501 8        49.038
I09        56.000    37160488.318 6 145825734.72106      -548.256 6        39.877
> 2025 01 02 23 48 10.0000000  0 31
G03         2.000    21181622.909 7 111310320.72007      1392.383 7        42.021                                    21181619.196 6  86735244.30706      1084.969 6        40.279    21181621.398 6  86735185.27206      1085.022 6        39.676
G32         3.000    22615705.864 6 118846312.00706     -2951.802 6        37.527                                    22615703.496 4  92607501.57304     -2300.160 4        26.347    22615705.741 5  92607535.63815     -2299.649 5        33.293
G21         4.000    20975409.798 6 110226509.22706     -2009.294 6        36.212                                    20975401.646 3  85890769.77703     -1565.709 3        20.619
G08         5.000    23432908.094 5                     -4430.007 5        34.886                                                                                                    23432905.709 4                     -3452.276 4        26.934
G02         6.000    20722538.537 7 108897670.62607      -520.641 7        47.755                                    20722530.949 6  84855304.85206      -405.681 6        39.411
G14         7.000    24583668.802 5                     -2764.368 5        30.800                                                                                                    24583655.085 5 100666003.50105     -2154.149 5        33.443
E03         9.000    24014566.160 7 126197391.85507      -428.214 7        46.073                                                                    24014563.531 7  94238372.07807      -319.676 7        43.964    24014565.159 7  96696735.44707      -328.028 7        45.493
G17        10.000    23359625.946 8 122755653.02008      1578.295 8        48.009                                    23359619.711 6  95653720.51706      1229.806 6        40.853    23359619.642 6  95653733.54706      1229.923 6        38.468
E05        11.000    24921897.713 5                     -3030.370 5        32.329                                                                    24921905.541 5                     -2262.586 5        30.241
E13        12.000    24541839.892 6 128968225.32906       947.156 6        41.759                                                                    24541833.857 6  96307453.44506       707.598 6        37.656    24541838.651 7  98819902.15807       725.750 7        45.503
E21        15.000    27662927.666 5                     -2783.076 5        30.566                                                                                                                                    27662924.711 4 111387136.23404     -2132.948 4        27.305
E15        16.000    23500284.296 7 123494808.67507     -1493.407 7        47.097                                                                    23500285.002 8  92220143.69308     -1115.222 8        48.651    23500282.935 7  94625926.73407     -1144.284 7        46.061
E08        19.000    25615249.958 5 134609047.24715      1969.647 5        32.030                                                                    25615233.713 6 100519713.96306      1470.959 6        38.222    25615232.450 6 103141979.14306      1509.397 6        37.807
S23        21.000    38185997.052 6 200668802.73506      -848.078 6        38.015
R06        25.000    19959230.412 7 106506268.93007     -3107.406 7        42.743
R07        27.000    19478766.415 8 104271332.17408       769.068 8        52.323                                                                    19478762.666 7  81099939.50307       598.194 7        42.466
C41        29.000                                                                                                                                    23029658.548 7 119921497.72307      1339.438 7        46.047                                                                    23029669.450 6                      1088.446 6        36.355
R08        30.000    22825964.328 5 122231993.33005      3230.806 5        35.424                                                                    22825967.609 4  95069333.83304      2513.657 4        26.790
E34        32.000    26749058.087 5                     -3268.458 5        30.181
R23        33.000    22033913.382 6 117866913.16506      2880.264 6        38.835
R22        35.000    19299791.047 8 103023591.26708       137.622 8        50.606                                                                    19299788.781 7  80129487.99707       106.994 7        46.441
C33        37.000                                                                                                                                    21986424.908 7 114489104.27707     -1551.834 7        43.378                                                                    21986434.870 7  93031785.54807     -1260.938 7        46.166
R21        39.000    20824964.474 5 111438668.52405     -3871.055 5        30.392                                                                    20824964.842 5  86674457.56305     -3011.646 5        34.010
C27        41.000                                                                                                                                    22570336.269 6 117529666.22306       926.500 6        41.063                                                                    22570332.134 6  95502504.51106       752.969 6        41.230
C14        42.000                                                                                                                                    23120924.424 5                     -3006.467 5        35.314    23120910.442 7  93098353.09607     -2324.840 7        43.204    23120905.698 5  97832100.01605     -2443.192 5        34.686
C39        45.000                                                                                                                                    39275230.383 5                        21.977 5        32.808
C43        48.000                                                                                                                                    25654744.841 4                     -4201.342 4        24.150
C30        49.000                                                                                                                                                                                                                                                                    26650875.135 5 112768574.35015      1948.542 5        34.062
C42        50.000                                                                                                                                                                                                                                                                    25280867.573 5                     -3128.102 5        32.868
C28        55.000                                                                                                                                    21686148.677 8 112925569.14408     -1814.500 8        48.798                                                                    21686148.995 8  91761177.97108     -1474.421 8        49.066
I09        56.000    37161186.469 6 145828477.69306      -548.575 6        38.156
> 2025 01 02 23 48 15.0000000  0 31
G03         2.000    21180299.264 7 111303363.31907      1390.751 7        43.325                                    21180295.144 6  86729822.94306      1083.681 6        41.180    21180297.049 6  86729763.95406      1083.673 6        41.433
G32         3.000    22618514.604 6 118861075.26106     -2953.547 6        41.042                                    22618513.576 4  92619005.51804     -2301.393 4        24.647    22618517.030 5  92619038.29705     -2301.264 5        34.500
G21         4.000    20977319.552 5 110236559.76105     -2010.924 5        34.667                                    20977314.038 2  85898601.34902     -1566.933 2        17.811
G08         5.000    23437120.896 5 123162908.20415     -4430.458 5        34.438                                    23437116.484 1  95971076.75411     -3452.420 1         8.952    23437116.520 3                     -3452.521 3        23.219
G02         6.000    20723035.211 7 108900279.29907      -522.661 7        47.504                                    20723027.437 6  84857337.58306      -407.284 6        39.874
G14         7.000                                                                                                                                                                    24586288.313 4                     -2155.248 4        26.527
E03         9.000    24014974.592 7 126199538.74807      -430.576 7        42.734                                                                    24014972.552 6  94239975.29006      -321.434 6        41.545    24014973.564 7  96698380.49607      -329.750 7        47.987
G17        10.000    23358124.901 8 122747766.45108      1576.543 8        48.329                                    23358118.533 6  95647575.15606      1228.492 6        39.973    23358118.582 6  95647588.11406      1228.443 6        39.111
E05        11.000    24924782.616 4                     -3031.699 4        27.066                                                                    24924784.032 5                     -2264.121 5        30.174    24924778.112 5                     -2325.669 5        34.352
E13        12.000    24540939.403 7 128963490.96807       946.692 7        43.577                                                                    24540934.414 5  96303917.99405       706.801 5        35.952    24540937.631 7  98816274.54407       725.280 7        45.279
E21        15.000    27665575.295 5                     -2784.911 5        30.596                                                                    27665594.682 5 108565720.25315     -2079.238 5        34.938    27665577.880 5 111397801.98805     -2133.595 5        30.060
E15        16.000    23501706.300 7 123502279.34507     -1494.648 7        46.334                                                                    23501706.677 8  92225722.43508     -1116.168 8        49.949    23501705.046 7  94631651.01607     -1145.268 7        45.189
E08        19.000                                                                                                                                    25613358.320 6 100512361.37506      1470.331 6        37.444    25613360.576 6 103134434.71806      1508.417 6        36.616
S23        21.000    38186811.616 6 200673044.62206      -848.082 6        38.856
R06        25.000    19962142.660 6 106521813.68306     -3110.474 6        40.810
R14        26.000                                                                                                                                    23870069.540 4                     -1064.944 4        26.719
R07        27.000    19478048.836 8 104267495.90608       765.587 8        48.958                                                                    19478044.809 6  81096955.71806       595.559 6        39.574
C41        29.000                                                                                                                                    23028373.528 7 119914804.76207      1337.773 7        47.880                                                                    23028381.975 5                      1087.160 5        33.772
R08        30.000    22822949.435 6 122215842.68206      3229.537 6        36.423                                                                    22822947.698 5  95056772.21405      2511.972 5        30.475
E34        32.000    26752167.014 5                     -3269.268 5        30.626
R23        33.000    22031223.249 6 117852514.79006      2879.292 6        41.914
R22        35.000    19299663.666 8 103022911.23208       134.465 8        52.189                                                                    19299661.381 7  80128959.07807       104.586 7        47.365
C33        37.000                                                                                                                                    21987915.397 7 114496868.86307     -1553.951 7        47.591                                                                    21987926.004 7  93038094.93307     -1262.740 7        45.147
R21        39.000    20828585.542 4                     -3875.848 4        28.322                                                                    20828584.231 6                     -3013.921 6        38.099
C27        41.000                                                                                                                                    22569447.692 6 117525038.72906       924.559 6        39.414                                                                    22569444.104 6  95498744.29606       751.310 6        41.037
C14        42.000                                                                                                                                    23123814.868 5 120411798.04115     -3007.545 5        32.713    23123798.777 6  93109979.53806     -2325.847 6        41.142    23123793.155 6  97844317.47106     -2443.947 6        38.715
C43        48.000                                                                                                                                    25658774.551 3                     -4200.888 3        22.609
C30        49.000                                                                                                                                    26648588.061 3                      2398.306 3        20.048                                                                    26648572.727 5 112758831.58305      1948.449 5        33.204
C42        50.000                                                                                                                                    25284567.544 5                     -3850.400 5        30.921                                                                    25284570.287 5 106987292.30215     -3128.274 5        32.790
C28        55.000                                                                                                                                    21687893.409 8 112934648.25508     -1816.945 8        51.060                                                                    21687892.466 8  91768555.46808     -1476.469 8        48.337
I09        56.000    37161885.717 6 145831221.35706      -548.613 6        38.784
