     3.04           OBSERVATION DATA    M                   RINEX VERSION / TYPE
ssrcrin-15.6.1x                         20250102 020000 UTC PGM / RUN BY / DATE 
(00000000023479385599111004) Septentrio proprietary         COMMENT             
ract                                                        MARKER NAME         
01                                                          MARKER NUMBER       
geodetic                                                    MARKER TYPE         
NFB                 CLIMERS@TUW                             OBSERVER / AGENCY   
3296359             SEPT ASTERX SB3 PROB4.14.4              REC # / TYPE / VERS 
Unknown             Unknown                                 ANT # / TYPE        
  4127446.2641  1206914.4629  4695543.2054                  APPROX POSITION XYZ 
        0.0000        0.0000        0.0000                  ANTENNA: DELTA H/E/N
G   23 X1  C1C L1C D1C S1C C1W S1W C2W L2W D2W S2W C2L L2L  SYS / # / OBS TYPES 
       D2L S2L C5Q L5Q D5Q S5Q C1L L1L D1L S1L              SYS / # / OBS TYPES 
E   21 X1  C1C L1C D1C S1C C6C L6C D6C S6C C5Q L5Q D5Q S5Q  SYS / # / OBS TYPES 
       C7Q L7Q D7Q S7Q C8Q L8Q D8Q S8Q                      SYS / # / OBS TYPES 
S    9 X1  C1C L1C D1C S1C C5I L5I D5I S5I                  SYS / # / OBS TYPES 
R   17 X1  C1C L1C D1C S1C C2P L2P D2P S2P C2C L2C D2C S2C  SYS / # / OBS TYPES 
       C3Q L3Q D3Q S3Q                                      SYS / # / OBS TYPES 
C   25 X1  C1P L1P D1P S1P C5P L5P D5P S5P C2I L2I D2I S2I  SYS / # / OBS TYPES 
       C7I L7I D7I S7I C6I L6I D6I S6I C7D L7D D7D S7D      SYS / # / OBS TYPES 
J   17 X1  C1C L1C D1C S1C C2L L2L D2L S2L C5Q L5Q D5Q S5Q  SYS / # / OBS TYPES 
       C1L L1L D1L S1L                                      SYS / # / OBS TYPES 
I    5 X1  C5A L5A D5A S5A                                  SYS / # / OBS TYPES 
SEPTENTRIO RECEIVERS OUTPUT ALIGNED CARRIER PHASES.         COMMENT             
NO FURTHER PHASE SHIFT APPLIED IN THE RINEX ENCODER.        COMMENT             
G L1C                                                       SYS / PHASE SHIFT   
G L2W                                                       SYS / PHASE SHIFT   
G L2L  0.00000                                              SYS / PHASE SHIFT   
G L5Q  0.00000                                              SYS / PHASE SHIFT   
G L1L  0.00000                                              SYS / PHASE SHIFT   
E L1C  0.00000                                              SYS / PHASE SHIFT   
E L6C  0.00000                                              SYS / PHASE SHIFT   
E L5Q  0.00000                                              SYS / PHASE SHIFT   
E L7Q  0.00000                                              SYS / PHASE SHIFT   
E L8Q  0.00000                                              SYS / PHASE SHIFT   
S L1C                                                       SYS / PHASE SHIFT   
S L5I                                                       SYS / PHASE SHIFT   
R L1C                                                       SYS / PHASE SHIFT   
R L2P  0.00000                                              SYS / PHASE SHIFT   
R L2C                                                       SYS / PHASE SHIFT   
R L3Q  0.00000                                              SYS / PHASE SHIFT   
C L1P  0.00000                                              SYS / PHASE SHIFT   
C L5P  0.00000                                              SYS / PHASE SHIFT   
C L2I                                                       SYS / PHASE SHIFT   
C L7I                                                       SYS / PHASE SHIFT   
C L6I                                                       SYS / PHASE SHIFT   
C L7D                                                       SYS / PHASE SHIFT   
J L1C                                                       SYS / PHASE SHIFT   
J L2L  0.00000                                              SYS / PHASE SHIFT   
J L5Q  0.00000                                              SYS / PHASE SHIFT   
J L1L  0.00000                                              SYS / PHASE SHIFT   
I L5A                                                       SYS / PHASE SHIFT   
  2025     1     2     2     0    0.0000000     GPS         TIME OF FIRST OBS   
 C1C    0.000 C2C    0.000 C2P    0.000                     GLONASS COD/PHS/BIS 
DBHZ                                                        SIGNAL STRENGTH UNIT
    18                                                      LEAP SECONDS        
 24 R01  1 R02 -4 R03  5 R04  6 R05  1 R06 -4 R07  5 R08  6 GLONASS SLOT / FRQ #
    R09 -2 R10 -7 R11  0 R12 -1 R13 -2 R14 -7 R15  0 R16 -1 GLONASS SLOT / FRQ #
    R17  4 R18 -3 R19  3 R20  2 R21  4 R22 -3 R23  3 R24  2 GLONASS SLOT / FRQ #
                                                            END OF HEADER       
> 2025 01 02 02 00  0.0000000  0 37
G03         1.000    20184850.509 7 106072089.36907     -1649.580 7        45.354                                    20184847.809 7  82653586.21107     -1285.387 7        42.677    20184849.290 7  82653613.22307     -1285.262 7        43.983
G19         2.000    22394684.928 6 117684837.02206      -925.220 6        40.303                                    22394677.635 1  91702426.86501      -720.984 1         8.190
G28         3.000    23816379.134 4                     -2780.943 4        24.917                                                                                                    23816400.091 4  97524390.12104     -2168.308 4        27.305
G02         4.000    22774349.960 7 119680094.62107     -3757.194 7        43.263                                    22774344.676 4  93257184.11804     -2927.690 4        27.485
E07         5.000    27678814.670 3                     -3650.199 3        23.886                                                                    27678817.176 4                     -2725.890 4        26.168
G09         6.000    22100800.204 6 116140473.66006      2116.932 6        39.829                                    22100792.926 5  90499082.09705      1649.552 5        30.370    22100797.783 6  90499068.07706      1649.456 6        36.333
G21         8.000    24507607.368 5                     -4089.589 5        30.574
G31        10.000    22325537.628 7 117321504.85207     -1101.011 7        43.911                                    22325531.957 6  91419274.31106      -857.931 6        37.516    22325532.132 6  91419345.29606      -857.896 6        41.802
G17        11.000    22891511.086 6 120296348.09706     -2625.577 6        37.425                                    22891503.260 3  93736912.97403     -2045.911 3        20.333
G04        12.000    20564077.299 7 108064998.36607       646.322 7        42.724                                    20564070.899 4  84206414.43104       503.626 4        26.527    20564072.706 6  84206438.43706       503.494 6        40.396
E12        13.000    24461857.087 6 128547969.76706       458.673 6        38.315                                                                    24461856.572 6  95993577.71306       342.481 6        41.139    24461857.563 5  98497831.46405       351.476 5        34.076
E29        14.000    23801930.749 8 125079979.46308     -1839.040 8        51.187                                                                    23801928.082 8  93403873.83908     -1373.304 8        51.774    23801927.950 8  95840541.45408     -1409.154 8        52.182
G06        15.000    23522378.108 6 123610964.16606      2349.113 6        37.482                                    23522375.830 5  96320251.89505      1830.485 5        34.505    23522379.416 6  96320244.90706      1830.300 6        37.633
E11        16.000    28081227.517 6 147567849.23706      2066.052 6        36.223                                                                    28081223.090 6 110196759.27706      1542.627 6        36.745    28081222.353 5 113071485.77405      1583.011 5        34.033
R08        18.000    22279273.019 4 119304556.24004      2291.096 4        29.943
E19        20.000    23548577.109 6 123748606.75406       634.602 6        41.273                                                                    23548574.166 7  92409684.79007       473.799 7        42.116    23548573.392 6  94820359.35406       486.259 6        41.342
R06        21.000    20642604.333 6 110152910.58706     -3444.434 6        36.155
S36        23.000    38317032.540 6 201357392.97206      -851.486 6        36.393
S23        24.000    38264296.031 6 201080187.12806      -847.572 6        41.240
E33        28.000    24030799.894 7 126282696.85307     -2524.160 7        44.959                                                                    24030798.051 7  94302060.81307     -1884.937 7        45.645    24030796.246 7  96762068.97907     -1934.132 7        43.289
E10        29.000    25801079.220 7 135585823.34107      1483.240 7        44.969                                                                    25801077.988 7 101249045.87407      1107.617 7        46.695    25801077.821 8 103890265.11808      1136.494 8        48.502
R21        30.000    22170675.919 7 118640027.38207     -5153.200 7        43.046                                                                    22170673.994 7  92275382.75307     -4008.115 7        42.089
C20        31.000                                                                                                                                    23299455.416 7 121326526.24907      1094.585 7        46.858                                                                    23299447.688 7  98587595.98207       889.478 7        44.661
C25        32.000                                                                                                                                    25499918.957 4                      -804.071 4        24.466
R23        33.000    21214674.552 8 113484162.26408      2151.117 8        48.700
R07        34.000    19500935.138 8 104389992.76908      -330.908 8        48.519                                                                    19500931.310 6  81192252.71606      -257.375 6        38.249
R22        35.000    19550060.462 8 104359551.38408     -1569.544 8        51.817                                                                    19550058.022 7  81168527.56907     -1220.721 7        44.786
C32        36.000                                                                                                                                    22146697.132 8 115323626.87808     -1781.525 8        50.775                                                                    22146696.780 7  93709941.82207     -1447.672 7        46.993
C30        38.000                                                                                                                                    23504600.272 5 122394638.11705     -3489.959 5        34.819                                                                    23504601.913 6  99455656.21306     -2835.753 6        40.279
C35        41.000                                                                                                                                                                                                                                                                    26786693.362 5                      1699.216 5        30.770
C16        45.000                                                                                                                                    38846246.196 5 202282705.53605      -969.000 5        34.433                                                                    38846239.739 4                      -787.522 4        27.952
C39        46.000                                                                                                                                    39175721.421 5 203998350.07705     -1396.692 5        34.971                                                                    39175762.886 3                     -1132.818 3        23.505
C09        47.000                                                                                                                                    38713708.334 6 201592444.80606      -353.081 6        37.860    38713705.648 7 155884068.78807      -272.826 7        44.382    38713703.388 7 163810340.15007      -286.755 7        42.190
C41        49.000                                                                                                                                    25747567.229 5 134074326.20705     -3627.737 5        32.952                                                                    25747547.316 3                     -2947.932 3        22.019
C06        50.000                                                                                                                                    38371354.138 5 199809703.16505      -864.506 5        35.795    38371345.293 6 154505649.87306      -668.493 6        38.339    38371345.270 6 162361718.26406      -702.544 6        36.344
C29        54.000                                                                                                                                    23057065.085 6 120064170.69906      -399.716 6        40.403                                                                    23057059.448 6  97561993.82406      -324.755 6        38.129
I09        58.000    37364452.694 5 146626137.22905      -819.568 5        34.557
> 2025 01 02 02 00  5.0000000  0 37
G03         1.000    20186420.655 7 106080342.59407     -1651.575 7        45.607                                    20186418.306 7  82660017.30107     -1286.945 7        43.107    20186419.868 7  82660044.33407     -1286.958 7        44.132
G19         2.000    22395566.470 6 117689472.40806      -928.830 6        39.330                                    22395559.555 1  91706038.83901      -723.752 1        11.037
G28         3.000                                                                                                                                                                    23819054.147 4  97535235.64004     -2170.199 4        28.123
G02         4.000    22777925.128 7 119698885.11607     -3758.752 7        43.805                                    22777920.538 4  93271826.07204     -2928.898 4        27.904
E07         5.000    27682284.711 3                     -3650.651 3        22.876                                                                    27682289.239 4                     -2725.777 4        26.000
G09         6.000    22098786.320 6 116129893.22706      2115.491 6        38.471                                    22098779.981 4  90490837.60504      1648.427 4        29.431    22098784.887 6  90490823.59906      1648.218 6        36.306
G21         8.000    24511497.447 5                     -4090.213 5        30.143
G31        10.000    22326587.065 7 117327019.15607     -1104.638 7        43.304                                    22326581.612 6  91423571.18506      -860.764 6        36.926    22326581.089 6  91423642.17406      -860.812 6        40.720
G17        11.000    22894008.107 5 120309482.79105     -2627.816 5        35.305                                    22894002.969 3  93747147.81803     -2047.714 3        19.224
G04        12.000    20563464.492 7 108061773.88707       643.648 7        42.176                                    20563456.865 4  84203901.85904       501.542 4        26.934    20563459.480 6  84203925.85506       501.359 6        39.453
E12        13.000    24461421.953 6 128545681.41606       456.717 6        38.823                                                                    24461421.041 6  95991868.86306       341.181 6        40.815    24461421.952 5  98496078.04205       350.236 5        34.029
E29        14.000    23803681.431 8 125089179.60208     -1840.857 8        51.315                                                                    23803678.832 8  93410744.06808     -1374.645 8        51.786    23803678.612 8  95847590.90508     -1410.525 8        52.081
G06        15.000    23520144.063 6 123599222.00906      2347.584 6        37.909                                    23520141.437 5  96311102.15505      1829.291 5        34.505    23520143.831 6  96311095.13506      1829.699 6        38.405
E11        16.000    28079262.325 5 147557520.88905      2065.576 5        35.995                                                                    28079258.002 6 110189046.55106      1542.597 6        36.896    28079257.201 5 113063571.84005      1582.765 5        34.262
R08        18.000    22277145.022 5 119293106.53705      2289.179 5        34.848
E19        20.000    23547974.145 6 123745438.84306       632.844 6        41.759                                                                    23547971.284 6  92407319.14306       472.449 6        41.874    23547970.871 6  94817932.01206       484.721 6        41.194
R06        21.000    20645831.843 6 110170136.99606     -3445.967 6        36.707
R15        22.000                                                                                                                                    23355592.888 4                     -1189.868 4        27.617
S36        23.000    38317846.353 6 201361651.65706      -852.006 6        36.507
S23        24.000    38265101.119 6 201084425.52906      -847.694 6        41.275
E33        28.000    24033202.786 7 126295322.88007     -2526.011 7        45.005                                                                    24033200.488 7  94311489.33207     -1886.302 7        45.163    24033198.742 7  96771743.46207     -1935.617 7        43.145
E10        29.000    25799668.795 7 135578410.39307      1482.032 7        45.312                                                                    25799667.348 7 101243510.21907      1106.684 7        46.732    25799667.147 8 103884585.05108      1135.603 8        48.383
R21        30.000    22175488.691 6 118665798.09006     -5155.000 6        41.359                                                                    22175489.481 6  92295426.63706     -4009.332 6        41.905
C20        31.000                                                                                                                                    23298405.218 7 121321057.29607      1093.160 7        46.118                                                                    23298397.383 7  98583151.98707       888.302 7        44.611
R23        33.000    21212666.358 8 113473414.68308      2148.044 8        49.290
R07        34.000    19501245.960 8 104391654.70108      -333.712 8        48.701                                                                    19501239.533 5  81193545.30905      -259.532 5        34.581
R22        35.000    19551532.726 8 104367410.62208     -1574.043 8        51.628                                                                    19551530.251 7  81174640.31207     -1224.245 7        45.108
C32        36.000                                                                                                                                    22148408.608 8 115332538.57008     -1783.053 8        50.840                                                                    22148408.167 7  93717183.27007     -1448.744 7        47.099
C30        38.000                                                                                                                                    23507953.095 5 122412092.64905     -3491.738 5        35.681                                                                    23507953.877 6  99469839.44306     -2837.269 6        40.396
C35        41.000                                                                                                                                                                                                                                                                    26784685.966 5                      1698.287 5        32.126
C16        45.000                                                                                                                                    38847176.622 5 202287553.53205      -970.052 5        34.638                                                                    38847171.048 4                      -788.213 4        28.455
C39        46.000                                                                                                                                    39177063.859 5 204005337.03605     -1397.832 5        35.181                                                                    39177105.589 4                     -1134.438 4        24.180
C09        47.000                                                                                                                                    38714047.659 6 201594211.83306      -353.622 6        38.679    38714044.775 7 155885435.17507      -273.550 7        44.438    38714042.764 7 163811775.99807      -287.474 7        42.197
C41        49.000                                                                                                                                    25751047.390 5 134092466.09005     -3627.704 5        31.638                                                                    25751035.674 3                     -2949.408 3        22.038
C06        50.000                                                                                                                                    38372183.801 6 199814028.56806      -865.512 6        36.223    38372175.838 6 154508994.54806      -669.144 6        38.264    38372175.901 6 162365233.00106      -703.307 6        36.140
C29        54.000                                                                                                                                    23057453.220 6 120066177.20606      -402.805 6        40.696                                                                    23057445.118 6  97563624.28206      -327.225 6        38.126
I09        58.000    37365498.102 5 146630235.49105      -819.643 5        34.548
> 2025 01 02 02 00 10.0000000  0 35
G03         1.000    20187992.532 7 106088606.28407     -1653.682 7        45.678                                    20187990.792 7  82666456.54307     -1288.586 7        43.505    20187992.400 7  82666483.56907     -1288.504 7        44.081
G19         2.000    22396453.090 6 117694126.19706      -932.373 6        39.664                                    22396445.089 2  91709665.17302      -726.559 2        13.273
G02         4.000    22781501.967 7 119717683.90807     -3760.362 7        44.281                                    22781498.087 4  93286474.48904     -2930.157 4        28.455
E07         5.000    27685760.168 3                     -3651.452 3        22.686                                                                    27685763.099 4                     -2726.476 4        25.549
G09         6.000    22096774.030 6 116119321.75206      2113.533 6        36.355                                    22096768.998 4  90482600.09404      1646.909 4        28.332    22096773.189 6  90482586.05906      1647.035 6        36.571
G21         8.000    24515388.680 4                     -4090.889 4        29.393
G31        10.000    22327640.153 7 117332552.16807     -1108.406 7        43.225                                    22327634.541 6  91427882.63806      -863.699 6        36.257    22327633.900 6  91427953.62806      -863.582 6        39.955
G04        12.000    20562853.892 7 108058562.99507       640.970 7        42.595                                    20562845.536 4  84201399.87804       499.453 4        27.665    20562849.034 6  84201423.85806       499.463 6        39.676
E12        13.000    24460987.923 6 128543402.19706       455.195 6        38.168                                                                    24460987.120 6  95990166.85106       339.811 6        40.653    24460989.884 5  98494331.66205       348.476 5        33.653
E29        14.000    23805433.988 8 125098388.91508     -1842.676 8        51.187                                                                    23805431.294 8  93417621.15508     -1375.996 8        51.963    23805431.111 8  95854647.39608     -1411.915 8        52.046
G06        15.000    23517912.638 6 123587486.35006      2346.568 6        39.604                                    23517908.246 5  96301957.49105      1828.499 5        34.324    23517911.059 6  96301950.48906      1828.494 6        38.937
E11        16.000    28077297.177 5 147547194.13205      2065.384 5        35.676                                                                    28077292.723 6 110181335.01906      1542.264 6        36.684    28077292.175 5 113055659.12805      1582.491 5        34.019
R08        18.000    22275007.676 6 119281664.84106      2287.616 6        37.887                                                                    22275075.579 4                      1779.660 4        26.108
E19        20.000    23547372.749 6 123742280.29906       630.930 6        41.478                                                                    23547370.208 6  92404960.48606       471.148 6        41.914    23547370.122 6  94815511.83106       483.382 6        41.440
R06        21.000    20649061.816 6 110187371.62306     -3447.485 6        37.070
R15        22.000                                                                                                                                    23357028.212 4                     -1193.719 4        27.234
S36        23.000    38318657.121 6 201365910.06506      -851.676 6        36.420
S23        24.000    38265910.470 6 201088664.59006      -847.744 6        41.209
E33        28.000    24035607.490 7 126307958.51107     -2527.861 7        44.725                                                                    24035604.869 7  94320925.02907     -1887.693 7        44.926    24035602.973 7  96781425.30607     -1936.997 7        43.054
E10        29.000    25798259.447 7 135571003.19307      1481.014 7        45.258                                                                    25798257.805 7 101237978.87807      1105.947 7        46.892    25798257.575 8 103878909.41208      1134.838 8        48.288
R21        30.000    22180307.693 6 118691577.80006     -5156.497 6        38.958                                                                    22180306.929 6  92315477.53606     -4010.736 6        41.628
C20        31.000                                                                                                                                    23297356.510 7 121315595.33307      1091.871 7        45.860                                                                    23297348.482 7  98578713.69407       887.229 7        44.655
R23        33.000    21210661.060 8 113462683.04308      2144.886 8        50.508
R07        34.000    19501558.194 8 104393330.77208      -336.518 8        49.055                                                                    19501552.978 5  81194848.94405      -261.472 5        30.536
R22        35.000    19553009.364 8 104375292.70808     -1578.575 8        51.197                                                                    19553006.557 7  81180770.82507     -1227.744 7        45.180
C32        36.000                                                                                                                                    22150121.547 8 115341458.22308     -1784.610 8        50.814                                                                    22150121.077 7  93724431.22907     -1450.151 7        47.219
C30        38.000                                                                                                                                    23511308.609 6 122429556.45006     -3493.609 6        37.977                                                                    23511307.575 6  99484030.22106     -2838.846 6        40.534
C35        41.000                                                                                                                                                                                                                                                                    26782680.948 5                      1697.147 5        32.162
C16        45.000                                                                                                                                    38848108.588 5 202292406.19005      -970.718 5        33.820                                                                    38848103.279 4                      -789.071 4        28.559
C39        46.000                                                                                                                                    39178406.577 5 204012328.26005     -1398.386 5        35.481                                                                    39178447.188 3                     -1137.119 3        22.552
C09        47.000                                                                                                                                    38714388.067 6 201595983.63306      -354.568 6        38.814    38714385.218 7 155886805.24207      -274.302 7        44.549    38714383.092 7 163813215.72607      -288.184 7        42.353
C41        49.000                                                                                                                                    25754531.350 5 134110607.48805     -3628.179 5        31.608                                                                    25754526.920 3                     -2948.713 3        23.200
C06        50.000                                                                                                                                    38373014.743 6 199818358.85706      -866.207 6        36.344    38373008.220 6 154512343.01506      -669.976 6        38.486    38373007.484 6 162368751.74106      -704.454 6        36.060
C29        54.000                                                                                                                                    23057842.771 6 120068198.54706      -405.656 6        40.200                                                                    23057833.471 6  97565266.80506      -329.561 6        38.625
I09        58.000    37366542.409 5 146634334.89605      -819.815 5        34.190
> 2025 01 02 02 00 15.0000000  0 37
G03         1.000    20189567.179 7 106096879.21007     -1655.442 7        46.074                                    20189565.040 7  82672902.98207     -1289.955 7        44.018    20189566.395 7  82672930.00707     -1289.993 7        43.854
G19         2.000    22397343.484 6 117698797.10606      -935.767 6        41.440                                    22397333.922 2  91713304.84602      -729.164 2        15.429
G28         3.000    23824371.570 4                     -2790.625 4        27.808
G02         4.000    22785080.544 7 119736489.77707     -3761.816 7        44.730                                    22785076.999 4  93301128.41704     -2931.286 4        28.995
E07         5.000    27689234.646 3                     -3651.641 3        20.738                                                                    27689236.477 4                     -2726.753 4        26.024
G09         6.000    22094763.930 5 116108757.96505      2111.969 5        34.381                                    22094759.599 4  90474368.56104      1645.686 4        26.874    22094763.311 6  90474354.59306      1645.683 6        36.397
G21         8.000    24519280.051 4                     -4091.051 4        29.175
G31        10.000    22328696.563 7 117338102.63507     -1111.727 7        43.441                                    22328690.635 5  91432207.70505      -866.284 5        35.719    22328690.689 6  91432278.66906      -866.305 6        39.318
G17        11.000                                                                                                                                                                    22899007.103 5  93767630.46315     -2051.323 5        34.148
G04        12.000    20562246.001 7 108055364.46407       638.541 7        44.439                                    20562236.765 4  84198907.53304       497.550 4        28.237    20562240.593 6  84198931.54306       497.503 6        40.605
E12        13.000    24460555.539 6 128541130.92806       453.441 6        37.497                                                                    24460554.534 6  95988470.76606       338.608 6        40.143    24460559.259 5  98492591.31405       347.495 5        33.701
E29        14.000    23807188.046 8 125107606.17308     -1844.155 8        51.002                                                                    23807185.257 8  93424504.18108     -1377.146 8        52.015    23807185.084 8  95861709.97808     -1413.084 8        52.066
G06        15.000    23515681.961 6 123575756.04006      2345.542 6        41.085                                    23515676.070 5  96292816.99405      1827.695 5        34.457    23515677.874 6  96292810.00306      1827.736 6        39.207
E11        16.000    28075332.065 5 147536867.82505      2065.409 5        35.348                                                                    28075327.843 6 110173623.78606      1542.455 6        36.752    28075327.489 5 113047746.74905      1582.715 5        34.362
R08        18.000    22272868.249 6                      2286.235 6        37.459                                                                    22272932.299 4                      1778.436 4        27.629
E19        20.000    23546772.292 6 123739129.86406       629.341 6        40.720                                                                    23546770.612 6  92402607.90806       470.024 6        41.740    23546770.800 6  94813097.86806       482.238 6        41.595
R06        21.000    20652293.529 6 110204613.34706     -3449.197 6        37.569
S36        23.000    38319464.902 6 201370168.47806      -851.629 6        36.386
S23        24.000    38266714.593 6 201092902.85006      -847.422 6        40.927
E33        28.000    24038013.668 7 126320602.52707     -2529.643 7        44.528                                                                    24038010.929 7  94330366.99107     -1889.017 7        44.840    24038008.842 7  96791113.57807     -1938.319 7        43.058
E10        29.000    25796850.822 7 135563600.60807      1480.151 7        45.023                                                                    25796849.056 7 101232450.96907      1105.309 7        46.874    25796848.878 8 103873237.28508      1134.187 8        48.252
R21        30.000    22185127.517 6 118717365.23606     -5158.403 6        37.070                                                                    22185125.713 6  92335534.43706     -4012.015 6        40.832
C20        31.000                                                                                                                                    23296308.597 7 121310139.17107      1090.725 7        45.652                                                                    23296300.914 7  98574280.11207       886.152 7        44.399
C25        32.000                                                                                                                                    25502280.779 4                      -812.375 4        25.263
R23        33.000    21208658.440 8 113451966.36508      2141.910 8        50.985
R07        34.000    19501874.227 8 104395019.76108      -339.073 8        49.648                                                                    19501872.396 5  81196162.57505      -263.613 5        30.875
R22        35.000    19554489.660 8 104383196.37508     -1582.788 8        51.069                                                                    19554487.015 7  81186918.14107     -1231.102 7        45.347
C32        36.000                                                                                                                                    22151835.802 8 115350384.62908     -1785.882 8        50.833                                                                    22151835.263 7  93731684.67307     -1451.361 7        47.004
C30        38.000                                                                                                                                    23514666.659 6 122447028.23406     -3495.153 6        40.696                                                                    23514662.799 6  99498227.50506     -2840.074 6        40.243
C35        41.000                                                                                                                                    26780670.966 5                      2087.610 5        34.000                                                                    26780675.587 5                      1696.272 5        32.659
C16        45.000                                                                                                                                    38849041.039 5 202297262.37605      -971.797 5        33.269                                                                    38849036.676 4                      -789.669 4        28.645
C39        46.000                                                                                                                                    39179751.098 5 204019322.57705     -1399.097 5        35.781                                                                    39179788.415 3                     -1136.178 3        21.667
C09        47.000                                                                                                                                    38714729.437 6 201597758.99606      -355.413 6        39.036    38714726.123 7 155888178.07307      -274.820 7        44.396    38714724.065 7 163814658.35807      -288.865 7        42.182
C41        49.000                                                                                                                                    25758015.702 5 134128749.12405     -3628.601 5        32.257                                                                    25758009.638 3                     -2948.500 3        21.357
C06        50.000                                                                                                                                    38373846.978 6 199822692.82606      -867.075 6        36.718    38373840.322 6 154515694.32306      -670.831 6        38.165    38373839.957 5 162372273.43905      -704.828 5        35.543
C29        54.000                                                                                                                                    23058232.880 6 120070233.49006      -408.269 6        39.799                                                                    23058224.614 6  97566920.36606      -331.703 6        38.871
I09        58.000    37367587.409 5 146638434.52905      -820.136 5        34.281
> 2025 01 02 02 00 20.0000000  0 37
G03         1.000    20191143.777 7 106105162.03407     -1657.802 7        46.525                                    20191141.243 7  82679357.13207     -1291.792 7        44.333    20191142.854 7  82679384.16107     -1291.837 7        43.954
G19         2.000    22398236.749 7 117703485.87807      -939.731 7        43.084                                    22398226.297 2  91716958.41902      -732.295 2        17.094
G28         3.000    23827037.627 5                     -2793.545 5        32.719
G02         4.000    22788660.635 7 119755303.39807     -3763.764 7        45.081                                    22788657.302 4  93315788.38404     -2932.799 4        28.872
E07         5.000    27692708.095 3                     -3651.769 3        20.476                                                                    27692710.798 4                     -2727.059 4        25.248
G09         6.000    22092759.306 5 116098202.56005      2110.049 5        35.567                                    22092751.894 4  90466143.60204      1644.185 4        25.729    22092755.364 6  90466129.61606      1644.349 6        36.091
G21         8.000    24523171.669 4                     -4092.562 4        28.540
G31        10.000    22329755.829 7 117343671.29307     -1115.863 7        44.355                                    22329750.075 5  91436546.94305      -869.509 5        35.543    22329750.085 6  91436617.91106      -869.707 6        38.991
G17        11.000    22901552.322 7 120348957.79907     -2635.375 7        43.791                                    22901516.337 4  93777907.70904     -2053.537 4        24.571    22901517.828 5  93777892.74305     -2053.622 5        33.802
G04        12.000    20561639.268 7 108052179.02607       635.554 7        45.982                                    20561630.744 4  84196425.38404       495.232 4        29.346    20561634.574 6  84196449.38606       495.148 6        41.280
E12        13.000    24460125.253 6 128538868.27606       451.407 6        37.134                                                                    24460123.474 6  95986781.12006       337.067 6        39.688    24460130.246 5  98490857.63105       345.641 5        33.677
E29        14.000    23808943.521 8 125116832.07708     -1846.340 8        50.577                                                                    23808940.804 8  93431393.65408     -1378.738 8        52.230    23808940.716 8  95868779.17708     -1414.698 8        52.144
G06        15.000    23513451.238 7 123564031.81107      2343.999 7        42.493                                    23513445.079 5  96283681.22005      1826.493 5        34.767    23513446.529 6  96283674.22206      1826.581 6        38.817
E11        16.000    28073366.819 5 147526542.61205      2064.541 5        35.500                                                                    28073363.012 6 110165913.41706      1541.738 6        36.692    28073362.836 5 113039835.22305      1582.031 5        34.443
E19        20.000    23546174.578 6 123735988.30106       627.194 6        39.655                                                                    23546172.820 6  92400261.94006       468.223 6        41.793    23546173.284 6  94810690.70606       480.569 6        41.864
R06        21.000    20655526.156 6 110221862.81406     -3450.988 6        37.955
R15        22.000                                                                                                                                    23359892.756 4                     -1199.950 4        28.218
S36        23.000    38320275.209 6 201374426.58406      -851.713 6        36.231
S23        24.000    38267521.658 6 201097141.07306      -847.898 6        40.913
E33        28.000    24040421.553 7 126333255.60407     -2531.732 7        44.293                                                                    24040418.704 7  94339815.72107     -1890.623 7        44.837    24040416.635 7  96800808.79707     -1939.948 7        43.287
E10        29.000    25795443.152 7 135556203.28807      1478.651 7        44.606                                                                    25795441.365 7 101226926.99407      1104.162 7        46.950    25795441.302 8 103867569.21108      1132.974 8        48.295
R21        30.000    22189946.539 6 118743161.02306     -5160.082 6        36.665                                                                    22189946.275 6  92355597.86806     -4013.572 6        40.296
C20        31.000                                                                                                                                    23295260.662 7 121304689.47407      1089.067 7        44.951                                                                    23295254.471 7  98569851.75907       884.978 7        44.384
C25        32.000                                                                                                                                    25503068.321 4                      -815.434 4        27.772
R23        33.000    21206657.103 8 113441265.06108      2138.497 8        50.708
R07        34.000    19502192.372 8 104396722.55308      -342.153 8        49.485                                                                    19502188.090 5  81197486.98205      -266.132 5        32.605
R22        35.000    19555974.629 8 104391122.35408     -1587.685 8        51.438                                                                    19555971.333 7  81193082.79007     -1234.956 7        44.579
C32        36.000                                                                                                                                    22153551.524 8 115359318.46408     -1787.832 8        50.782                                                                    22153550.806 7  93738944.11107     -1452.673 7        47.097
C30        38.000                                                                                                                                    23518024.534 7 122464508.73807     -3497.239 7        42.751                                                                    23518019.835 6  99512431.86306     -2841.755 6        40.012
C35        41.000                                                                                                                                                                                                                                                                    26778671.888 5                      1695.167 5        33.293
C16        45.000                                                                                                                                    38849974.481 5 202302122.68605      -972.814 5        32.395                                                                    38849969.381 4                      -790.338 4        29.156
C39        46.000                                                                                                                                    39181095.221 5 204026320.62805     -1400.178 5        35.790                                                                    39181128.377 3                     -1135.206 3        22.000
C09        47.000                                                                                                                                    38715071.468 6 201599538.55506      -356.733 6        39.631    38715067.559 7 155889554.13107      -275.708 7        44.271    38715065.892 7 163816104.38007      -289.715 7        42.277
C41        49.000                                                                                                                                    25761500.833 5 134146891.68305     -3628.977 5        32.186                                                                    25761484.040 3                     -2947.981 3        23.143
C06        50.000                                                                                                                                    38374680.111 6 199827031.13406      -868.331 6        36.771    38374673.904 6 154519048.94306      -671.396 6        38.360    38374673.198 5 162375798.64405      -705.365 5        35.590
C29        54.000                                                                                                                                    23058625.914 6 120072282.73306      -411.474 6        39.414                                                                    23058618.074 6  97568585.52106      -334.281 6        39.237
I09        58.000    37368631.426 5 146642534.87605      -820.609 5        34.038
> 2025 01 02 02 00 25.0000000  0 37
G03         1.000    20192721.907 7 106113453.98107     -1659.213 7        46.049                                    20192719.238 7  82685818.39407     -1292.892 7        44.594    20192721.038 7  82685845.41207     -1292.853 7        44.507
G19         2.000    22399132.048 7 117708191.70507      -942.640 7        43.247                                    22399122.120 2  91720625.29902      -734.522 2        17.962
G28         3.000    23829695.161 5                     -2796.027 5        32.832
G02         4.000    22792241.866 7 119774123.97607     -3764.785 7        45.157                                    22792238.898 4  93330453.77104     -2933.599 4        28.246
E07         5.000    27696182.528 3                     -3649.406 3        20.048                                                                    27696184.864 4                     -2726.803 4        25.083
G09         6.000    22090762.023 6 116087654.73206      2108.912 6        37.667                                    22090745.611 4  90457924.61404      1643.306 4        27.389    22090748.807 6  90457910.59406      1643.386 6        37.051
G21         8.000    24527065.052 4                     -4092.376 4        27.880
G31        10.000    22330818.774 7 117349257.34507     -1118.814 7        45.026                                    22330812.890 5  91440899.72905      -871.807 5        35.395    22330813.738 6  91440970.68606      -871.950 6        39.180
G17        11.000    22904059.625 7 120362138.65007     -2637.096 7        42.402                                    22904025.024 4  93788178.50204     -2054.884 4        24.992    22904026.178 5  93788163.51205     -2054.824 5        33.018
G04        12.000    20561034.881 7 108049005.86607       633.544 7        46.696                                    20561027.298 5  84193952.80405       493.667 5        30.302    20561030.867 7  84193976.80107       493.526 7        42.290
E12        13.000    24459697.523 6 128536613.46106       450.260 6        36.594                                                                    24459694.085 6  95985097.31606       336.313 6        39.009    24459703.177 5  98489129.89205       345.102 5        33.359
E29        14.000    23810700.458 8 125126065.82108     -1847.416 8        50.180                                                                    23810697.878 8  93438288.99208     -1379.521 8        52.096    23810697.866 8  95875854.39308     -1415.549 8        52.102
G06        15.000    23511220.021 7 123552312.83807      2343.497 7        43.560                                    23511215.085 5  96274549.55105      1826.109 5        34.995    23511215.846 6  96274542.55506      1826.075 6        38.520
E11        16.000    28071402.045 5 147516217.68405      2064.915 5        34.443                                                                    28071398.370 6 110158203.22506      1541.981 6        36.696    28071397.759 5 113031923.93705      1582.074 5        34.786
R08        18.000    22268620.452 5 119247381.67515      2283.846 5        31.774
E19        20.000    23545578.586 6 123732854.80606       625.965 6        38.997                                                                    23545576.619 6  92397921.98806       467.401 6        41.628    23545577.332 6  94808289.72606       479.548 6        41.998
R06        21.000    20658759.880 6 110239119.08506     -3451.681 6        38.192
R15        22.000                                                                                                                                    23361334.501 4                     -1203.201 4        27.054
S36        23.000    38321085.239 6 201378683.85506      -851.193 6        36.522
S23        24.000    38268329.219 6 201101378.64806      -847.360 6        40.927
E33        28.000    24042831.150 7 126345916.96907     -2533.041 7        44.253                                                                    24042828.200 7  94349270.62507     -1891.554 7        44.760    24042826.170 7  96810510.36507     -1940.829 7        43.486
E10        29.000    25794036.438 7 135548810.45907      1478.136 7        44.209                                                                    25794034.505 7 101221406.37007      1103.880 7        46.643    25794034.434 8 103861904.56908      1132.637 8        48.265
R21        30.000    22194766.887 6 118768964.42406     -5161.341 6        37.815                                                                    22194768.078 6  92375667.16106     -4014.444 6        40.298
C20        31.000                                                                                                                                    23294212.999 7 121299245.48807      1088.307 7        44.504                                                                    23294209.160 7  98565428.07507       884.301 7        44.474
R23        33.000    21204658.486 8 113430578.46508      2135.986 8        50.135
R07        34.000    19502512.914 8 104398438.03808      -344.289 8        49.285                                                                    19502507.450 5  81198821.28705      -267.805 5        34.805
R22        35.000    19557463.764 8 104399069.80808     -1591.530 8        52.053                                                                    19557459.777 7  81199264.13807     -1237.849 7        43.765
C32        36.000                                                                                                                                    22155268.622 8 115368258.93508     -1788.635 8        51.003                                                                    22155267.645 7  93746208.99407     -1453.498 7        47.233
C30        38.000                                                                                                                                    23521383.639 7 122481997.16607     -3498.323 7        44.218                                                                    23521378.338 6  99526642.67706     -2842.761 6        39.745
C35        41.000                                                                                                                                    26776678.312 6 139433120.07316      2085.437 6        36.159                                                                    26776669.098 5                      1694.441 5        33.611
C16        45.000                                                                                                                                    38850907.623 5 202306986.37405      -972.901 5        31.608                                                                    38850904.303 4                      -790.781 4        29.640
C39        46.000                                                                                                                                    39182439.095 6 204033321.61506     -1400.299 6        36.238
C09        47.000                                                                                                                                    38715414.239 6 201601321.57406      -356.841 6        40.169    38715409.827 7 155890932.87407      -275.866 7        44.051    38715408.212 7 163817553.25907      -290.039 7        42.396
C41        49.000                                                                                                                                    25764983.448 5 134165034.35005     -3628.277 5        33.371                                                                    25764967.425 4                     -2948.767 4        24.030
C06        50.000                                                                                                                                    38375513.434 6 199831373.06406      -868.762 6        37.229    38375508.079 6 154522406.38506      -671.499 6        38.060    38375506.623 5 162379326.82005      -705.689 5        35.695
C29        54.000                                                                                                                                    23059019.394 6 120074345.49306      -413.823 6        39.829                                                                    23059013.879 6  97570261.68806      -336.260 6        39.159
I09        58.000    37369677.191 5 146646635.34905      -820.156 5        34.095
> 2025 01 02 02 00 30.0000000  0 36
G03         1.000    20194301.655 7 106121755.71607     -1661.480 7        45.381                                    20194299.187 7  82692287.28107     -1294.660 7        45.117    20194300.952 7  82692314.30007     -1294.723 7        44.766
G19         2.000    22400029.067 7 117712915.24507      -946.602 7        42.853                                    22400021.135 3  91724305.99703      -737.612 3        18.716
G02         4.000    22795825.110 7 119792952.14307     -3766.465 7        45.207                                    22795821.714 4  93345125.06104     -2934.918 4        27.401
E07         5.000                                                                                                                                    27699660.911 4                     -2727.582 4        24.632
G09         6.000    22088758.373 6 116077115.26206      2106.986 6        36.760                                    22088741.126 4  90449712.05104      1641.810 4        28.370    22088744.179 6  90449698.04906      1641.839 6        37.716
G21         8.000    24530957.005 4                     -4092.744 4        27.653
G31        10.000    22331884.678 7 117354861.42107     -1122.785 7        45.011                                    22331879.251 5  91445266.56005      -874.902 5        35.333    22331880.143 6  91445337.51906      -874.860 6        38.976
G17        11.000    22906563.864 6 120375331.18406     -2639.863 6        38.982                                    22906535.648 4  93798458.36304     -2057.035 4        24.180    22906536.918 5  93798443.40005     -2057.111 5        31.721
G04        12.000    20560433.373 7 108045845.62807       630.659 7        46.851                                    20560426.518 5  84191490.29605       491.420 5        31.396    20560429.481 7  84191514.29507       491.400 7        42.760
E12        13.000    24459271.350 6 128534367.15006       448.325 6        37.138                                                                    24459266.620 6  95983419.86506       334.825 6        38.375    24459277.078 5  98487408.68405       343.404 5        32.880
E29        14.000    23812458.996 8 125135308.06108     -1849.456 8        49.896                                                                    23812456.544 8  93445190.66808     -1381.052 8        52.149    23812456.651 8  95882936.11308     -1417.062 8        52.170
G06        15.000    23508991.163 7 123540599.79207      2341.936 7        44.375                                    23508986.245 5  96265422.50305      1824.882 5        35.376    23508987.124 6  96265415.50506      1824.988 6        37.822
E11        16.000    28069437.443 5 147505893.71405      2064.627 5        34.267                                                                    28069433.866 6 110150493.77906      1541.529 6        36.359    28069433.649 5 113024013.36105      1581.815 5        35.114
E19        20.000    23544984.184 6 123729729.96606       623.851 6        38.523                                                                    23544982.073 6  92395588.49106       465.846 6        41.685    23544983.036 7  94805895.35407       478.080 7        42.326
R06        21.000    20661994.333 6 110256382.94206     -3453.706 6        37.474
R15        22.000                                                                                                                                    23362776.366 4                     -1206.033 4        27.162
S36        23.000    38321894.021 6 201382941.38106      -851.660 6        36.692
S23        24.000    38269134.509 6 201105616.35806      -847.434 6        41.046
E33        28.000    24045242.346 7 126358587.25307     -2535.148 7        44.870                                                                    24045239.371 7  94358732.19407     -1893.048 7        45.109    24045237.508 7  96820218.76507     -1942.487 7        43.951
E10        29.000    25792630.716 7 135541422.77607      1476.862 7        44.315                                                                    25792628.662 7 101215889.59407      1102.858 7        46.643    25792628.656 8 103856243.87708      1131.684 8        48.324
R21        30.000    22199591.262 6 118794776.10706     -5163.282 6        40.288                                                                    22199592.505 6  92395742.89306     -4015.739 6        40.367
C20        31.000                                                                                                                                    23293167.720 7 121293807.81907      1086.814 7        44.382                                                                    23293164.835 7  98561009.50107       883.139 7        44.384
C25        32.000                                                                                                                                    25504665.616 3                      -821.536 3        22.000
R23        33.000    21202663.781 8 113419907.30408      2132.565 8        49.831
R07        34.000    19502835.560 7 104400167.34907      -347.367 7        47.895                                                                    19502830.583 5  81200166.34205      -270.017 5        33.964
R22        35.000    19558956.568 8 104407039.43608     -1596.301 8        51.772                                                                    19558953.014 7  81205462.74207     -1241.545 7        43.645
C32        36.000                                                                                                                                    22156987.204 8 115377206.68608     -1790.377 8        50.564                                                                    22156985.993 7  93753479.75107     -1454.687 7        47.284
C30        38.000                                                                                                                                    23524744.322 7 122499494.15607     -3500.363 7        44.184                                                                    23524738.420 6  99540860.40406     -2844.240 6        39.637
C35        41.000                                                                                                                                    26774678.888 6 139422696.36406      2083.935 6        36.113                                                                    26774667.304 5                      1693.560 5        33.772
C16        45.000                                                                                                                                    38851840.427 5 202311854.11905      -974.049 5        30.958                                                                    38851839.328 4                      -791.567 4        29.943
C39        46.000                                                                                                                                    39183784.733 6 204040326.23806     -1401.452 6        36.299                                                                    39183797.690 4                     -1138.141 4        24.556
C09        47.000                                                                                                                                    38715757.343 6 201603108.71406      -357.972 6        40.224    38715752.871 7 155892314.81807      -276.785 7        43.848    38715751.404 7 163819005.44007      -290.873 7        42.318
C41        49.000                                                                                                                                    25768465.454 5 134183177.77805     -3628.870 5        33.575                                                                    25768455.367 4                     -2948.056 4        24.722
C06        50.000                                                                                                                                    38376348.231 6 199835719.18006      -869.547 6        37.323    38376342.724 6 154525767.08506      -672.497 6        38.126    38376340.946 5 162382858.40205      -706.701 5        35.376
C29        54.000                                                                                                                                    23059424.492 6 120076422.37906      -416.924 6        40.198                                                                    23059412.469 6  97571949.31906      -338.682 6        39.072
I09        58.000    37370721.606 5 146650736.48105      -820.403 5        33.623
> 2025 01 02 02 00 35.0000000  0 37
G03         1.000    20195883.369 7 106130067.23607     -1663.294 7        46.039                                    20195881.060 7  82698763.79007     -1296.072 7        45.628    20195882.249 7  82698790.81007     -1296.109 7        44.773
G19         2.000    22400930.576 6 117717656.50606      -949.956 6        41.819                                    22400923.540 3  91728000.51203      -740.248 3        18.627
G28         3.000    23835010.446 5 125253824.62015     -2801.454 5        34.433
G02         4.000    22799409.543 7 119811787.91707     -3767.879 7        45.290                                    22799405.701 4  93359802.27304     -2936.000 4        26.395
E07         5.000                                                                                                                                    27703136.059 4                     -2727.858 4        25.248
G09         6.000                                                                                                                                                                    22086740.129 6  90441491.96706      1640.531 6        38.129
G21         8.000    24534852.553 4                     -4093.340 4        27.305
G31        10.000    22332953.943 7 117360483.56507     -1126.176 7        44.164                                    22332948.988 5  91449647.46605      -877.544 5        35.043    22332950.037 6  91449718.42606      -877.499 6        38.072
G17        11.000    22909068.471 5 120388535.47105     -2641.974 5        34.681                                    22909048.298 3  93808747.35903     -2058.655 3        22.019    22909050.337 5  93808732.33905     -2058.661 5        30.543
G04        12.000    20559833.736 7 108042698.36807       628.159 7        46.912                                    20559828.313 5  84189037.90705       489.472 5        32.150    20559830.900 7  84189061.90707       489.421 7        43.302
E12        13.000    24458845.749 6 128532129.39306       446.698 6        37.732                                                                    24458840.761 6  95981748.81606       333.617 6        37.713    24458852.235 5  98485694.05505       341.981 5        31.819
E29        14.000    23814219.260 8 125144558.82408     -1851.039 8        49.606                                                                    23814216.880 8  93452098.70208     -1382.257 8        52.127    23814217.084 8  95890024.36108     -1418.291 8        52.196
G06        15.000    23506763.304 7 123528892.73007      2340.765 7        45.488                                    23506758.644 5  96256300.11605      1823.972 5        35.938    23506759.559 6  96256293.13006      1824.047 6        37.172
E11        16.000    28067472.703 5 147495570.77205      2064.439 5        33.581                                                                    28067469.418 6 110142785.06606      1541.454 6        36.079    28067468.936 5 113016103.56805      1581.959 5        35.210
R08        18.000                                                                                                                                    22264308.319 5                      1773.734 5        30.717
E19        20.000    23544391.271 6 123726613.92406       622.258 6        38.240                                                                    23544389.149 6  92393261.57406       464.709 6        41.528    23544390.352 7  94803507.73507       476.907 7        42.370
R06        21.000    20665231.500 6 110273654.41106     -3454.885 6        36.836
R15        22.000                                                                                                                                    23364231.213 4                     -1209.502 4        29.517
S36        23.000    38322702.795 6 201387198.51706      -851.392 6        36.200
S23        24.000    38269938.682 6 201109853.94906      -847.546 6        40.498
E33        28.000    24047655.123 7 126371266.48407     -2536.741 7        45.494                                                                    24047652.310 7  94368200.45807     -1894.269 7        45.360    24047650.615 7  96829934.02707     -1943.614 7        44.167
E10        29.000    25791225.844 7 135534040.28007      1476.047 7        44.621                                                                    25791223.791 7 101210376.69907      1102.172 7        46.430    25791223.845 8 103850587.16408      1130.936 8        48.278
R21        30.000    22204416.372 6 118820596.03806     -5164.923 6        41.726                                                                    22204416.576 6  92415825.03406     -4017.047 6        40.546
C20        31.000                                                                                                                                    23292124.957 7 121288376.50107      1085.656 7        45.040                                                                    23292121.787 7  98556596.12507       882.186 7        44.521
R23        33.000    21200672.531 8 113409251.49908      2129.644 8        50.078
R07        34.000    19503160.918 7 104401910.07507      -349.942 7        47.535                                                                    19503158.430 5  81201521.82105      -272.202 5        33.635
R22        35.000    19560453.347 8 104415031.21208     -1600.605 8        51.846                                                                    19560450.432 7  81211678.57207     -1244.899 7        43.052
C32        36.000                                                                                                                                    22158707.118 8 115386161.75908     -1791.774 8        50.707                                                                    22158705.783 7  93760756.49607     -1455.993 7        47.565
C30        38.000                                                                                                                                    23528105.687 7 122516999.74607     -3502.090 7        43.276                                                                    23528100.095 6  99555085.15306     -2845.832 6        39.204
C35        41.000                                                                                                                                    26772678.252 5 139412278.43105      2082.869 5        35.790                                                                    26772666.379 5                      1692.702 5        33.940
C16        45.000                                                                                                                                    38852776.117 5 202316725.91705      -974.699 5        30.287                                                                    38852774.903 4                      -791.979 4        29.450
C39        46.000                                                                                                                                    39185131.236 6 204047334.49106     -1402.161 6        36.503                                                                    39185147.932 4                     -1140.089 4        25.323
C09        47.000                                                                                                                                    38716101.554 6 201604899.99206      -358.735 6        40.825    38716096.918 7 155893699.94307      -277.328 7        44.092    38716095.367 7 163820461.01207      -291.564 7        42.409
C41        49.000                                                                                                                                    25771950.510 5 134201322.03705     -3629.164 5        33.719                                                                    25771939.302 4                     -2948.877 4        25.805
C06        50.000                                                                                                                                    38377182.913 6 199840069.57006      -870.612 6        37.939    38377177.797 6 154529131.08606      -673.163 6        37.875    38377176.670 5 162386393.44905      -707.412 5        35.695
C29        54.000                                                                                                                                    23059835.210 6 120078513.51406      -419.599 6        40.911                                                                    23059814.037 6  97573648.51506      -340.921 6        38.994
I09        58.000    37371766.453 5 146654838.22905      -820.454 5        33.671
> 2025 01 02 02 00 40.0000000  0 37
G03         1.000    20197467.647 7 106138388.83707     -1665.268 7        46.986                                    20197464.891 7  82705248.15907     -1297.610 7        46.100    20197465.764 7  82705275.16807     -1297.529 7        44.968
G19         2.000    22401836.572 7 117722415.75307      -953.651 7        42.239                                    22401829.034 3  91731709.04303      -743.105 3        18.478
G28         3.000    23837678.691 5 125267840.12105     -2804.668 5        34.776                                                                                                    23837675.490 5                     -2185.382 5        31.585
G02         4.000    22802995.579 7 119830631.56507     -3769.536 7        45.329                                    22802990.637 4  93374485.62304     -2937.284 4        25.534
E07         5.000                                                                                                                                    27706611.315 4                     -2727.407 4        24.842
G09         6.000    22084731.921 5 116056061.81805      2103.446 5        32.168                                    22084736.823 4  90433306.60504      1639.061 4        25.774    22084737.402 6  90433292.58106      1639.275 6        38.054
G21         8.000    24538744.394 4                     -4094.229 4        26.778
G31        10.000    22334027.425 7 117366124.06407     -1129.838 7        43.882                                    22334022.039 5  91454042.66805      -880.401 5        34.529    22334023.181 6  91454113.64906      -880.531 6        37.255
G17        11.000    22911575.808 5 120401751.65505     -2644.061 5        34.133                                    22911563.169 3  93819045.59003     -2060.294 3        19.104    22911565.472 4  93819030.61604     -2060.312 4        28.967
G04        12.000    20559237.251 7 108039564.34707       625.587 7        47.381                                    20559232.545 5  84186595.82505       487.468 5        32.539    20559233.900 7  84186619.81907       487.480 7        43.640
E12        13.000    24458421.874 6 128529900.42406       444.975 6        38.123                                                                    24458416.377 6  95980084.34906       332.102 6        36.514    24458427.929 5  98483986.09005       340.999 5        30.098
E29        14.000    23815981.133 8 125153818.35808     -1852.762 8        48.854                                                                    23815978.946 8  93459013.29408     -1383.551 8        51.928    23815979.142 8  95897119.33708     -1419.640 8        52.339
G06        15.000    23504536.441 7 123517191.92307      2339.511 7        46.091                                    23504532.219 6  96247182.60706      1822.995 6        36.034    23504533.234 6  96247175.59606      1823.205 6        36.465
E11        16.000    28065508.077 5 147485249.08905      2064.290 5        32.695                                                                    28065505.191 5 110135077.31205      1541.464 5        35.852    28065504.900 5 113008194.75805      1581.753 5        35.395
R08        18.000    22262188.077 5 119213164.07415      2278.777 5        35.557
E19        20.000    23543799.936 6 123723506.90306       620.240 6        37.357                                                                    23543797.910 6  92390941.38006       463.323 6        41.561    23543799.192 7  94801127.01707       475.534 7        42.796
R06        21.000    20668469.435 6 110290933.69606     -3456.587 6        37.104
R15        22.000                                                                                                                                    23365695.249 5                     -1212.825 5        30.166
S36        23.000    38323514.399 6 201391455.87606      -851.615 6        36.299
S23        24.000    38270746.261 6 201114091.66606      -847.478 6        40.501
E33        28.000    24050069.724 7 126383954.95507     -2538.615 7        45.701                                                                    24050067.128 7  94377675.60607     -1895.692 7        45.880    24050065.447 7  96839656.37407     -1945.118 7        44.697
E10        29.000    25789821.989 7 135526663.25407      1474.859 7        44.780                                                                    25789819.931 7 101204867.88107      1101.406 7        46.031    25789819.996 8 103844934.63108      1130.156 8        48.273
R21        30.000    22209241.057 7 118846424.51607     -5166.469 7        42.487                                                                    22209243.166 6  92435913.84206     -4018.269 6        39.859
C20        31.000                                                                                                                                    23291083.679 7 121282951.81507      1084.229 7        45.238                                                                    23291079.967 7  98552188.13607       881.110 7        44.485
R23        33.000    21198683.548 8 113398611.45208      2126.472 8        50.324
R07        34.000    19503490.070 7 104403666.63007      -352.590 7        47.001                                                                    19503487.535 5  81202888.03805      -274.374 5        34.190
R22        35.000    19561954.754 8 104423045.44208     -1605.050 8        51.669                                                                    19561951.992 7  81217911.85707     -1248.457 7        42.023
C32        36.000                                                                                                                                    22160428.807 8 115395124.39708     -1793.255 8        50.871                                                                    22160426.973 7  93768039.36707     -1457.072 7        47.782
C30        38.000                                                                                                                                    23531470.181 6 122534514.17406     -3503.706 6        40.980                                                                    23531463.599 6  99569317.05006     -2847.010 6        38.658
C35        41.000                                                                                                                                    26770677.281 5 139401866.53305      2081.943 5        35.348                                                                    26770668.040 5 113275452.39515      1691.916 5        34.243
C16        45.000                                                                                                                                    38853710.103 4 202321602.03904      -975.311 4        29.232                                                                    38853711.436 5                      -792.580 5        30.008
C39        46.000                                                                                                                                    39186477.993 6 204054346.62906     -1402.735 6        36.703                                                                    39186495.840 4                     -1140.136 4        25.639
C09        47.000                                                                                                                                    38716446.364 6 201606695.65706      -359.625 6        41.066    38716441.528 7 155895088.45807      -278.029 7        44.113    38716440.154 7 163821920.11107      -292.000 7        42.174
C41        49.000                                                                                                                                    25775435.921 5 134219467.39105     -3629.403 5        32.868                                                                    25775423.975 4                     -2948.841 4        27.329
C06        50.000                                                                                                                                    38378019.559 6 199844424.44806      -871.388 6        38.243    38378013.970 6 154532498.55306      -673.911 6        38.144    38378012.795 5 162389932.13705      -708.139 5        35.343
C29        54.000                                                                                                                                    23060242.559 6 120080619.08206      -422.544 6        40.574                                                                    23060218.581 6  97575359.44806      -343.364 6        38.276
I09        58.000    37372811.783 5 146658940.82605      -820.743 5        33.222
> 2025 01 02 02 00 45.0000000  0 37
G03         1.000    20199053.139 7 106146721.03007     -1667.496 7        47.681                                    20199050.738 7  82711740.77707     -1299.348 7        46.558    20199051.480 7  82711767.78307     -1299.347 7        44.963
G19         2.000    22402746.211 7 117727193.50507      -957.420 7        42.315                                    22402738.191 3  91735431.98203      -746.055 3        18.358
G28         3.000    23840351.202 5 125281870.24205     -2807.439 5        34.943                                                                                                    23840348.058 5                     -2187.602 5        33.461
G02         4.000    22806583.583 7 119849483.62307     -3771.241 7        45.299                                    22806576.596 4  93389175.50904     -2938.631 4        24.797
E07         5.000                                                                                                                                    27710088.153 4                     -2728.401 4        24.421
G09         6.000    22082733.875 5 116045548.46505      2101.594 5        30.679                                    22082736.689 4  90425114.34004      1637.624 4        24.541    22082735.542 6  90425100.31406      1637.831 6        37.508
G21         8.000    24542641.229 4                     -4095.607 4        26.335
G31        10.000    22335104.692 7 117371783.45407     -1133.731 7        43.782                                    22335098.381 5  91458452.58805      -883.429 5        34.014    22335099.201 5  91458523.56305      -883.292 5        35.690
G17        11.000    22914089.522 5 120414980.32005     -2646.976 5        30.106                                    22914080.443 2  93829353.53602     -2062.602 2        14.714    22914082.437 4  93829338.57204     -2062.865 4        29.498
G04        12.000    20558643.734 7 108036444.08907       622.688 7        47.750                                    20558639.304 5  84184164.46205       485.209 5        32.976    20558640.344 7  84184188.46607       485.224 7        43.757
E12        13.000    24457999.761 6 128527680.80806       442.986 6        38.345                                                                    24457993.897 5  95978426.83505       330.776 5        35.519    24458005.391 4  98482285.36904       339.094 4        28.682
E29        14.000    23817744.654 8 125163087.19008     -1854.695 8        48.477                                                                    23817742.710 8  93465934.82508     -1385.021 8        51.840    23817742.956 8  95904221.42908     -1421.135 8        52.379
G06        15.000    23502310.844 7 123505497.88507      2338.144 7        46.311                                    23502307.050 6  96238070.36806      1821.919 6        36.060    23502307.973 5  96238063.41005      1821.759 5        35.943
E11        16.000    28063544.184 5 147474929.24305      2063.703 5        30.747                                                                    28063541.440 5 110127370.91905      1541.090 5        34.824    28063541.024 5 113000287.33005      1581.274 5        35.681
R08        18.000    22260063.366 4 119201774.08414      2277.250 4        29.365                                                                    22260068.505 4                      1771.370 4        29.062
E19        20.000    23543210.294 6 123720409.38006       618.288 6        36.839                                                                    23543208.583 6  92388628.29206       461.785 6        41.168    23543209.844 7  94798753.59807       473.925 7        42.904
R06        21.000    20671709.545 6 110308221.29306     -3458.509 6        37.618
R15        22.000                                                                                                                                    23367155.708 4                     -1216.358 4        27.569
S36        23.000    38324325.833 6 201395713.72206      -851.618 6        36.215
S23        24.000    38271552.821 6 201118330.07706      -847.645 6        40.455
E33        28.000    24052485.941 7 126396653.14707     -2540.588 7        45.597                                                                    24052483.698 7  94387158.02307     -1897.252 7        46.264    24052482.122 7  96849386.17207     -1946.696 7        45.037
E10        29.000    25788419.677 7 135519292.20307      1473.631 7        44.662                                                                    25788417.095 7 101199363.53807      1100.446 7        45.667    25788417.344 8 103839286.69508      1129.136 8        48.293
R21        30.000    22214069.879 7 118872262.00307     -5168.322 7        42.925                                                                    22214071.747 6  92456009.66506     -4019.766 6        39.309
C20        31.000                                                                                                                                    23290043.353 7 121277534.29007      1082.822 7        45.368                                                                    23290039.804 7  98547785.94707       879.864 7        44.591
R23        33.000    21196697.998 8 113387987.66408      2123.142 8        50.711
R07        34.000    19503820.937 7 104405437.45007      -355.651 7        46.233                                                                    19503817.185 5  81204265.33305      -276.602 5        34.152
R22        35.000    19563459.784 8 104431082.61008     -1609.655 8        51.211                                                                    19563457.641 6  81224162.98806     -1252.036 6        40.343
C32        36.000                                                                                                                                    22162151.691 8 115404095.10908     -1794.931 8        51.114                                                                    22162149.806 8  93775328.79508     -1458.560 8        48.018
C30        38.000                                                                                                                                    23534839.105 6 122552037.97606     -3505.612 6        38.318                                                                    23534828.631 6  99583556.50806     -2848.778 6        38.408
C35        41.000                                                                                                                                    26768676.467 5 139391461.17505      2080.483 5        35.071                                                                    26768669.692 5 113266997.18705      1690.455 5        34.033
C16        45.000                                                                                                                                    38854647.884 4 202326482.96904      -976.943 4        29.137                                                                    38854648.965 5                      -793.694 5        30.023
C39        46.000                                                                                                                                    39187824.556 6 204061363.17906     -1403.776 6        37.025                                                                    39187841.959 4                     -1140.102 4        24.962
C09        47.000                                                                                                                                    38716791.683 6 201608496.21306      -360.586 6        41.101    38716787.053 7 155896480.77207      -278.766 7        43.977    38716785.810 7 163823383.20907      -293.016 7        42.121
C41        49.000                                                                                                                                    25778922.452 5 134237614.31005     -3629.583 5        32.677                                                                    25778909.336 4                     -2949.255 4        27.545
C06        50.000                                                                                                                                    38378856.957 6 199848784.36706      -872.545 6        38.553    38378851.927 6 154535869.92106      -674.753 6        38.120    38378849.631 5 162393474.92805      -708.999 5        35.248
C29        54.000                                                                                                                                                                                                                                                                    23060625.784 6  97577082.53906      -345.799 6        37.868
I09        58.000    37373858.180 5 146663044.62805      -820.690 5        33.030
> 2025 01 02 02 00 50.0000000  0 38
G03         1.000    20200640.331 8 106155062.64808     -1669.504 8        48.730                                    20200638.347 7  82718240.74607     -1300.912 7        47.053    20200638.860 7  82718267.74707     -1300.889 7        44.673
G19         2.000    22403658.528 6 117731988.62806      -961.127 6        41.776                                    22403650.635 3  91739168.45803      -748.935 3        18.687
G28         3.000    23843030.475 5 125295913.83005     -2810.359 5        33.323                                                                                                    23843023.399 5  97633188.54015     -2189.969 5        34.529
G02         4.000    22810172.465 7 119868342.94107     -3772.873 7        45.242                                    22810163.298 4  93403871.04704     -2939.892 4        24.301
E07         5.000                                                                                                                                    27713564.299 4                     -2729.042 4        24.045
G09         6.000    22080733.043 5 116035043.09205      2099.735 5        32.713                                    22080737.802 3  90416928.28003      1636.192 3        23.943    22080736.612 6  90416914.26406      1636.335 6        36.624
G21         8.000    24546538.172 4                     -4095.677 4        27.449
G31        10.000    22336185.947 7 117377460.54507     -1137.464 7        43.822                                    22336177.706 5  91462876.29405      -886.337 5        33.772    22336180.295 5  91462947.25405      -886.144 5        33.910
G17        11.000                                                                                                                                                                    22916602.165 4  93839655.26204     -2063.933 4        29.848
G04        12.000    20558052.137 7 108033336.44007       620.000 7        47.469                                    20558048.514 5  84181742.92605       483.117 5        33.168    20558049.397 7  84181766.91107       483.153 7        44.274
E12        13.000    24457578.220 6 128525469.38306       441.125 6        37.834                                                                    24457572.458 5  95976775.45405       329.279 5        34.533    24457583.732 4  98480590.80804       338.433 4        27.090
E29        14.000    23819509.953 8 125172364.15608     -1856.539 8        48.016                                                                    23819508.089 8  93472862.43208     -1386.366 8        51.847    23819508.313 8  95911329.76108     -1422.558 8        52.378
G06        15.000    23500086.500 7 123493809.51007      2336.807 7        45.991                                    23500082.905 5  96228962.54905      1820.891 5        35.933    23500083.645 6  96228955.56706      1820.811 6        36.147
E11        16.000    28061580.904 5 147464610.06905      2063.194 5        30.272                                                                    28061578.063 5 110119665.02805      1541.038 5        34.619    28061577.548 6 112992380.42606      1580.932 6        36.102
R08        18.000                                                                                                                                    22257939.722 4                      1769.938 4        28.313
E19        20.000    23542622.768 6 123717320.18806       616.738 6        37.595                                                                    23542620.787 6  92386321.42106       460.643 6        41.342    23542621.997 7  94796386.57507       472.491 7        43.316
R06        21.000    20674952.062 6 110325516.12306     -3460.103 6        37.667
R15        22.000    23368670.397 3                     -1569.017 3        22.286                                                                    23368614.629 4                     -1219.642 4        28.218
S36        23.000    38325134.280 5 201399971.26205      -851.717 5        35.862
S23        24.000    38272361.720 6 201122568.12306      -847.911 6        40.532
E33        28.000    24054903.617 7 126409359.95207     -2542.505 7        44.767                                                                    24054901.974 7  94396646.86607     -1898.661 7        46.697    24054900.365 7  96859122.55807     -1948.186 7        45.655
E10        29.000    25787017.898 7 135511926.00907      1472.325 7        44.626                                                                    25787015.306 7 101193862.81307      1099.559 7        45.556    25787015.582 8 103833642.46708      1128.243 8        48.278
R21        30.000    22218900.170 7 118898107.28307     -5170.045 7        42.720                                                                    22218901.180 6  92476111.54906     -4021.229 6        39.138
C20        31.000                                                                                                                                    23289004.807 7 121272122.78107      1081.334 7        45.150                                                                    23289000.733 7  98543388.67507       878.768 7        44.873
C25        32.000                                                                                                                                    25507790.954 5                      -831.659 5        30.317
R23        33.000    21194714.781 8 113377379.03608      2119.859 8        50.664
R07        34.000    19504153.242 7 104407221.50607      -358.524 7        44.408                                                                    19504150.336 5  81205652.92005      -278.637 5        34.971
R22        35.000    19564969.400 8 104439141.60408     -1614.282 8        50.894                                                                    19564968.311 6  81230431.07506     -1255.511 6        40.870
C32        36.000                                                                                                                                    22163875.514 8 115413072.78108     -1796.511 8        51.037                                                                    22163874.024 8  93782623.90008     -1459.776 8        48.583
C30        38.000                                                                                                                                    23538211.456 6 122569570.05306     -3507.364 6        38.372                                                                    23538195.868 6  99597802.65706     -2850.004 6        38.916
C35        41.000                                                                                                                                    26766678.532 5 139381061.29305      2079.253 5        33.401                                                                    26766672.568 5 113258546.41505      1689.563 5        34.238
C16        45.000                                                                                                                                    38855584.189 4 202331367.57104      -977.694 4        28.569                                                                    38855587.491 5                      -794.316 5        30.385
C39        46.000                                                                                                                                    39189172.804 6 204068383.01806     -1404.612 6        37.176                                                                    39189190.945 4                     -1140.480 4        24.677
C09        47.000                                                                                                                                    38717138.399 6 201610300.57406      -361.601 6        41.097    38717133.690 7 155897876.00307      -279.534 7        44.000    38717132.343 7 163824849.40007      -293.681 7        42.159
C41        49.000                                                                                                                                    25782407.885 5 134255761.68405     -3629.590 5        31.132                                                                    25782393.571 4                     -2949.348 4        28.341
C06        50.000                                                                                                                                    38379694.645 6 199853148.20206      -873.561 6        38.513    38379689.374 6 154539244.31006      -675.377 6        37.996    38379687.815 5 162397020.89305      -709.807 5        35.395
C29        54.000                                                                                                                                                                                                                                                                    23061035.391 6  97578816.91406      -348.253 6        37.550
I09        58.000    37374904.531 5 146667148.87105      -821.333 5        33.473
> 2025 01 02 02 00 55.0000000  0 37
G03         1.000    20202229.683 8 106163414.27408     -1671.343 8        49.995                                    20202227.813 7  82724748.51107     -1302.345 7        47.409    20202227.944 7  82724775.51507     -1302.321 7        44.307
G19         2.000    22404573.745 7 117736801.68507      -964.401 7        42.296                                    22404566.611 3  91742918.91403      -751.484 3        19.403
G28         3.000    23845712.583 5 125309971.50705     -2813.045 5        30.860                                                                                                    23845698.911 5  97644142.60405     -2192.166 5        34.214
G02         4.000    22813762.376 7 119887210.06507     -3774.248 7        45.077                                    22813751.717 4  93418572.67504     -2940.973 4        24.451
E07         5.000                                                                                                                                    27717041.714 4                     -2726.698 4        24.150
G09         6.000                                                                                                                                                                    22078738.327 5  90408734.84005      1635.237 5        35.752
G21         8.000    24550436.099 4                     -4095.485 4        27.521
G31        10.000    22337270.165 7 117383155.88507     -1140.931 7        43.736                                    22337260.612 5  91467314.22005      -889.035 5        33.880    22337263.599 5  91467385.20105      -888.897 5        34.214
G17        11.000    22919154.515 5                     -2651.542 5        32.174                                                                                                    22919124.739 5  93849981.21405     -2066.178 5        31.615
G04        12.000    20557462.652 7 108030241.98907       617.507 7        46.239                                    20557459.981 5  84179331.66305       481.177 5        32.862    20557460.373 7  84179355.65707       481.171 7        44.966
E12        13.000    24457158.251 6 128523266.73906       439.597 6        37.361                                                                    24457153.213 5  95975130.61705       328.457 5        33.653    24457165.537 4  98478903.06604       336.667 4        27.054
E29        14.000    23821277.170 7 125181649.81907     -1858.081 7        47.448                                                                    23821275.128 8  93479796.53708     -1387.511 8        51.826    23821275.316 8  95918444.75608     -1423.710 8        52.306
G06        15.000    23497863.439 7 123482127.34907      2335.733 7        44.539                                    23497859.851 5  96219859.56105      1820.045 5        35.552    23497860.623 6  96219852.55206      1820.355 6        36.688
E11        16.000    28059617.139 4 147454292.07504      2063.226 4        29.858                                                                    28059614.516 5 110111960.05805      1540.827 5        34.248    28059614.397 6 112984474.43706      1581.200 6        36.113
R08        18.000                                                                                                                                    22255805.019 4                      1768.346 4        28.114
E19        20.000    23542036.975 6 123714239.97406       615.230 6        38.033                                                                    23542034.646 6  92384021.29806       459.305 6        41.240    23542035.833 7  94794026.42607       471.398 7        43.689
R06        21.000    20678193.985 6 110342818.62206     -3461.445 6        36.526
R15        22.000    23370141.297 4                     -1572.954 4        26.251                                                                    23370075.494 4                     -1222.714 4        27.317
S36        23.000    38325949.291 6 201404229.81706      -852.015 6        36.060
S23        24.000    38273165.789 6 201126806.48006      -847.727 6        40.563
E33        28.000    24057322.991 7 126422075.91407     -2544.211 7        44.113                                                                    24057321.780 7  94406142.53807     -1899.858 7        47.001    24057320.214 7  96868865.95007     -1949.412 7        46.060
E10        29.000    25785617.078 7 135504565.24207      1471.565 7        44.761                                                                    25785614.540 7 101188366.13007      1098.899 7        45.365    25785614.856 8 103828002.39808      1127.572 8        48.256
R21        30.000    22223731.027 7 118923960.98107     -5171.588 7        42.063                                                                    22223733.218 6  92496219.98806     -4022.339 6        38.838
C20        31.000                                                                                                                                    23287968.771 7 121266717.85507      1080.214 7        45.812                                                                    23287962.718 7  98538996.74707       877.772 7        44.885
R23        33.000    21192734.666 8 113366786.17908      2116.979 8        50.804
R07        34.000    19504487.994 7 104409019.27907      -361.070 7        43.735                                                                    19504487.644 5  81207051.22305      -280.689 5        35.686
R22        35.000    19566483.239 8 104447222.97108     -1618.563 8        50.419                                                                    19566482.188 7  81236716.58507     -1258.919 7        42.497
C32        36.000                                                                                                                                    22165600.751 8 115422057.95108     -1797.826 8        50.723                                                                    22165599.604 8  93789925.09208     -1460.943 8        48.953
C30        38.000                                                                                                                                    23541579.108 6 122587110.78506     -3508.945 6        39.841                                                                    23541564.665 6  99612055.89506     -2851.533 6        38.730
C35        41.000                                                                                                                                    26764682.013 5 139370667.46805      2077.995 5        31.404                                                                    26764676.788 5 113250100.54805      1688.582 5        34.143
C16        45.000                                                                                                                                    38856522.570 4 202336256.48204      -978.234 4        28.559                                                                    38856526.152 5                      -794.936 5        30.943
C39        46.000                                                                                                                                    39190523.689 6 204075406.66506     -1405.111 6        37.002                                                                    39190540.195 4                     -1141.028 4        24.677
C09        47.000                                                                                                                                    38717485.845 6 201612109.23206      -362.151 6        41.240    38717481.200 7 155899274.57507      -279.969 7        43.892    38717479.720 7 163826319.09007      -294.284 7        42.135
C41        49.000                                                                                                                                    25785892.340 4 134273910.10904     -3630.173 4        29.791                                                                    25785878.896 4                     -2949.463 4        28.085
C06        50.000                                                                                                                                    38380533.662 6 199857516.42806      -874.082 6        38.715    38380528.016 6 154542622.12606      -676.190 6        38.075    38380526.791 5 162400570.45605      -710.289 5        35.152
C29        54.000                                                                                                                                    23061441.533 6 120087022.70706      -431.265 6        37.743                                                                    23061447.967 6  97580562.99006      -350.468 6        37.327
I09        58.000    37375950.702 5 146671253.87005      -821.140 5        33.275
> 2025 01 02 02 01  0.0000000  0 36
G03         1.000    20203821.003 8 106171775.60508     -1673.503 8        50.311                                    20203819.102 7  82731263.84407     -1304.031 7        47.912    20203819.329 7  82731290.85407     -1304.045 7        44.390
G19         2.000    22405493.127 7 117741632.41807      -968.126 7        43.202                                    22405485.963 3  91746683.14603      -754.402 3        20.714
G28         3.000    23848397.327 5 125324042.96105     -2816.326 5        31.638                                    23848389.163 1  97655164.30511     -2194.465 1         5.429    23848378.138 5  97655107.30705     -2194.193 5        32.952
G02         4.000    22817354.135 7 119906084.69107     -3775.894 7        44.980                                    22817342.238 4  93433280.15404     -2942.253 4        24.526
E07         5.000                                                                                                                                    27720519.608 3                     -2729.305 3        23.657
G09         6.000    22076761.196 6 116014057.57706      2096.769 6        37.134                                    22076744.294 4  90400575.83504      1633.843 4        26.707    22076742.914 5  90400561.89905      1634.092 5        34.748
G21         8.000    24554335.144 4                     -4095.783 4        26.802
G31        10.000    22338357.744 7 117388869.19407     -1144.727 7        44.310                                    22338347.270 5  91471766.14705      -891.998 5        34.676    22338351.776 6  91471837.16106      -891.927 6        36.439
G17        11.000    22921675.831 5                     -2653.889 5        34.271                                                                                                    22921648.006 5  93860316.09405     -2068.215 5        34.076
G04        12.000    20556876.465 7 108027160.41407       614.757 7        44.728                                    20556873.872 5  84176930.43905       479.027 5        32.377    20556873.882 7  84176954.44807       479.026 7        44.906
E12        13.000    24456740.214 6 128521072.56406       437.711 6        36.847                                                                    24456735.333 5  95973492.13505       326.835 5        33.796    24456749.568 4  98477221.81404       335.027 4        27.976
E29        14.000    23823045.607 7 125190943.88807     -1859.879 7        46.710                                                                    23823043.859 8  93486736.91808     -1388.876 8        51.787    23823043.843 8  95925566.18708     -1425.081 8        52.133
G06        15.000    23495641.671 7 123470451.13907      2334.462 7        43.378                                    23495637.835 5  96210761.22205      1819.061 5        35.300    23495638.938 6  96210754.23406      1818.912 6        36.431
E11        16.000    28057653.303 4 147443975.07304      2063.023 4        29.981                                                                    28057651.263 5 110104255.74405      1540.717 5        33.257    28057650.988 5 112976569.17405      1580.966 5        35.871
R08        18.000                                                                                                                                    22253681.870 4                      1767.372 4        24.060
E19        20.000    23541451.745 6 123711168.41806       613.147 6        37.732                                                                    23541450.208 6  92381727.57706       457.819 6        41.128    23541451.372 7  94791672.88207       469.860 7        43.856
R06        21.000    20681436.204 5 110360128.57205     -3462.948 5        34.986
S36        23.000    38326755.493 5 201408487.81305      -851.737 5        35.924
S23        24.000    38273973.798 6 201131044.72906      -847.833 6        40.675
E33        28.000    24059744.509 7 126434800.71207     -2546.126 7        43.287                                                                    24059743.254 7  94415644.80807     -1901.301 7        47.210    24059741.877 7  96878616.11207     -1950.858 7        46.262
E10        29.000    25784217.431 7 135497209.60907      1470.414 7        44.710                                                                    25784214.777 7 101182873.27807      1098.100 7        45.210    25784215.140 8 103822366.25708      1126.642 8        48.066
R21        30.000    22228563.857 7 118949822.76307     -5173.413 7        42.472                                                                    22228565.465 6  92516334.70006     -4023.680 6        38.682
C20        31.000                                                                                                                                    23286934.119 7 121261319.20307      1078.883 7        46.237                                                                    23286925.842 7  98534609.87907       876.637 7        44.751
R23        33.000    21190757.913 8 113356208.59408      2113.753 8        50.612
R07        34.000    19504824.953 6 104410830.59206      -363.766 6        41.669                                                                    19504825.863 5  81208460.01305      -283.088 5        35.414
R22        35.000    19568001.092 8 104455326.42808     -1623.140 8        50.033                                                                    19568000.023 7  81243019.26707     -1262.492 7        42.241
C32        36.000                                                                                                                                    22167327.378 8 115431050.31908     -1799.422 8        50.355                                                                    22167326.558 8  93797232.09608     -1462.147 8        49.160
C30        38.000                                                                                                                                    23544945.450 6 122604659.89606     -3510.697 6        40.276                                                                    23544934.971 6  99626315.95206     -2852.890 6        38.387
C35        41.000                                                                                                                                    26762682.570 4 139360279.32004      2076.455 4        28.919                                                                    26762681.691 5 113241659.25705      1687.426 5        34.276
C16        45.000                                                                                                                                    38857463.288 4 202341149.32604      -978.801 4        28.246                                                                    38857466.168 5                      -795.421 5        30.702
C39        46.000                                                                                                                                    39191874.729 6 204082433.85106     -1405.825 6        36.510                                                                    39191889.422 3                     -1141.950 3        23.600
C09        47.000                                                                                                                                    38717834.538 6 201613921.94406      -363.057 6        41.008    38717829.455 7 155900676.28807      -280.800 7        43.960    38717827.741 6 163827792.03806      -295.025 6        41.945
C41        49.000                                                                                                                                    25789378.754 4 134292059.20204     -3630.485 4        27.653                                                                    25789363.686 4                     -2949.625 4        28.569
C06        50.000                                                                                                                                    38381373.729 6 199861888.81706      -875.071 6        38.598    38381368.061 6 154546003.11306      -676.791 6        38.381    38381366.350 5 162404123.34705      -711.120 5        35.248
C29        54.000                                                                                                                                    23061864.075 6 120089185.57706      -434.153 6        39.844                                                                    23061862.931 6  97582320.46706      -352.811 6        36.900
I09        58.000    37376997.039 5 146675359.41405      -821.285 5        32.473
> 2025 01 02 02 01  5.0000000  0 37
G03         1.000    20205413.488 8 106180147.46208     -1675.446 8        49.567                                    20205412.408 8  82737787.37708     -1305.542 8        48.219    20205412.734 7  82737814.37507     -1305.521 7        44.569
G19         2.000    22406416.595 7 117746481.57907      -971.594 7        44.000                                    22406409.045 3  91750461.73203      -757.084 3        21.024
G28         3.000    23851080.459 4 125338128.93904     -2818.628 4        28.626                                    23851068.223 1  97666140.27001     -2196.110 1         4.143    23851057.062 5  97666083.32905     -2196.229 5        31.102
G02         4.000    22820946.905 7 119924967.61407     -3777.360 7        44.238                                    22820935.012 4  93447994.12204     -2943.405 4        25.023
E07         5.000                                                                                                                                    27723996.617 3                     -2728.436 3        23.276
G09         6.000                                                                                                                                                                    22074749.603 5  90392396.04905      1632.210 5        34.057
G21         8.000    24558233.062 4                     -4096.133 4        25.489
G31        10.000    22339448.852 7 117394601.29707     -1148.257 7        45.833                                    22339438.149 5  91476232.72205      -894.748 5        35.800    22339441.898 6  91476303.74806      -894.647 6        38.772
G17        11.000    22924194.816 5 120467496.35815     -2656.113 5        33.180                                    22924187.262 2  93870714.47812     -2069.733 2        12.061    22924173.921 5  93870660.56905     -2069.767 5        35.586
G04        12.000    20556293.418 7 108024092.56707       612.225 7        42.874                                    20556290.339 5  84174539.90805       477.055 5        31.796    20556289.907 7  84174563.92507       477.085 7        44.531
E12        13.000    24456324.242 6 128518887.66806       436.226 6        36.087                                                                    24456319.680 5  95971860.58205       325.599 5        33.443    24456335.081 4  98475547.65004       333.971 4        28.436
E29        14.000    23824815.807 7 125200247.17507     -1861.540 7        46.135                                                                    23824814.242 8  93493684.17908     -1390.097 8        51.777    23824814.122 8  95932694.68508     -1426.353 8        52.146
G06        15.000    23493421.665 7 123458781.69307      2333.199 7        42.624                                    23493416.990 5  96201668.14905      1818.078 5        35.133    23493417.691 6  96201661.14806      1818.073 6        37.278
E11        16.000    28055688.821 5 147433659.81305      2063.104 5        30.785                                                                    28055688.499 5 110096552.79305      1540.583 5        32.719    28055687.748 6 112968665.27006      1580.722 6        36.132
R08        18.000    22251703.028 6 119156288.33516      2271.070 6        39.715
E19        20.000    23540868.448 6 123708106.31206       611.473 6        37.267                                                                    23540867.399 6  92379440.94206       456.659 6        41.013    23540868.562 7  94789326.60607       468.573 7        44.235
R06        21.000    20684679.397 5 110377446.65905     -3464.135 5        31.992
R15        22.000    23373076.881 3                     -1579.247 3        21.738                                                                    23373005.945 4                     -1229.786 4        25.985
S36        23.000    38327567.674 5 201412745.84505      -851.473 5        35.914
S23        24.000    38274781.060 6 201135283.44406      -847.854 6        40.608
E33        28.000    24062167.759 7 126447535.19707     -2547.833 7        43.344                                                                    24062166.520 7  94425154.31407     -1902.605 7        47.370    24062165.048 7  96888373.70007     -1952.156 7        46.600
E10        29.000    25782818.619 7 135489859.93707      1469.333 7        44.780                                                                    25782816.100 7 101177384.89207      1097.235 7        45.211    25782816.545 8 103816734.68908      1125.914 8        48.190
R21        30.000    22233399.203 7 118975693.39607     -5175.029 7        42.959                                                                    22233399.907 6  92536456.28206     -4024.948 6        39.045
C20        31.000                                                                                                                                    23285899.314 7 121255927.67407      1077.599 7        45.740                                                                    23285890.194 7  98530228.82007       875.676 7        44.579
R23        33.000    21188783.047 8 113345647.39908      2110.633 8        49.688
R07        34.000    19505165.671 6 104412656.05406      -366.515 6        38.679                                                                    19505167.620 5  81209879.81405      -284.999 5        35.200
R22        35.000    19569524.033 8 104463452.77208     -1627.495 8        50.398                                                                    19569521.216 6  81249339.74706     -1265.812 6        40.763
C32        36.000                                                                                                                                    22169055.585 8 115440050.69708     -1800.810 8        50.021                                                                    22169055.078 8  93804545.65708     -1463.333 8        49.432
C30        38.000                                                                                                                                    23548315.872 6 122622218.25506     -3512.525 6        40.074                                                                    23548306.492 6  99640583.55406     -2854.347 6        37.792
C35        41.000                                                                                                                                    26760684.702 4 139349897.66304      2076.038 4        27.150                                                                    26760688.013 5 113233223.32705      1686.951 5        34.157
C16        45.000                                                                                                                                    38858404.446 4 202346046.97604      -980.034 4        29.175                                                                    38858406.434 5                      -796.436 5        30.566
C39        46.000                                                                                                                                    39193225.484 6 204089465.39206     -1406.699 6        36.866                                                                    39193238.644 3                     -1143.377 3        23.619
C09        47.000                                                                                                                                    38718183.393 6 201615739.50206      -363.858 6        40.949    38718178.927 7 155902081.74707      -281.414 7        44.137    38718176.628 6 163829268.99306      -295.787 6        41.692
C41        49.000                                                                                                                                    25792864.436 4 134310209.92204     -3630.680 4        25.414                                                                    25792849.937 4                     -2949.584 4        28.995
C06        50.000                                                                                                                                    38382213.672 6 199866266.17706      -875.879 6        38.483    38382208.789 6 154549387.97906      -677.333 6        38.321    38382206.961 5 162407680.33205      -711.644 5        35.229
C29        54.000                                                                                                                                    23062288.599 6 120091363.37806      -436.969 6        41.542                                                                    23062281.002 6  97584090.12806      -354.879 6        36.476
I09        58.000    37378042.580 5 146679466.21505      -821.714 5        32.605
> 2025 01 02 02 01 10.0000000  0 36
G03         1.000    20207008.364 8 106188529.08008     -1677.237 8        49.189                                    20207007.606 8  82744318.51808     -1306.939 8        48.391    20207007.642 7  82744345.51607     -1306.927 7        44.680
G19         2.000    22407342.800 7 117751348.44407      -975.176 7        44.384                                    22407335.663 3  91754254.11503      -759.875 3        21.476
G28         3.000    23853765.093 4 125352228.74804     -2821.535 4        26.850                                    23853750.195 1  97677127.00001     -2198.462 1         2.600    23853740.481 4  97677070.17004     -2198.567 4        27.605
G02         4.000    22824541.596 7 119943858.09907     -3778.814 7        44.208                                    22824529.960 4  93462713.97204     -2944.522 4        25.459
E07         5.000                                                                                                                                    27727474.399 3                     -2728.604 3        23.048
G09         6.000    22072755.491 6 115993106.80706      2093.217 6        39.090                                    22072757.306 4  90384250.57404      1631.075 4        25.053    22072758.114 5  90384236.68305      1631.157 5        32.946
G21         8.000    24562131.132 3                     -4096.926 3        22.152
G31        10.000    22340542.971 7 117400351.42307     -1151.829 7        46.866                                    22340532.932 6  91480713.34906      -897.534 6        36.979    22340535.670 6  91480784.38906      -897.626 6        40.892
G17        11.000    22926718.519 5 120480783.31405     -2659.019 5        31.170                                    22926712.486 2  93881068.04402     -2071.943 2        15.238    22926701.997 6  93881014.02806     -2071.378 6        36.265
G04        12.000    20555712.679 6 108021037.70406       609.596 6        41.533                                    20555709.238 5  84172159.49705       475.013 5        31.042    20555708.891 7  84172183.49207       475.094 7        44.181
E12        13.000    24455909.355 5 128516711.33105       434.385 5        34.224                                                                    24455905.942 5  95970235.40605       324.457 5        33.587    24455920.370 4  98473880.03604       332.874 4        28.370
E29        14.000    23826588.254 7 125209558.91607     -1863.197 7        45.561                                                                    23826586.306 8  93500637.74908     -1391.321 8        51.706    23826585.974 8  95939829.65708     -1427.651 8        52.081
G06        15.000    23491202.027 7 123447118.27507      2332.099 7        42.849                                    23491197.236 5  96192579.76905      1817.220 5        34.824    23491198.616 6  96192572.77506      1817.239 6        37.505
E11        16.000    28053726.823 5 147423345.58505      2062.828 5        31.857                                                                    28053725.433 5 110088850.61405      1540.564 5        31.532    28053724.773 6 112960762.15006      1580.525 6        36.072
E19        20.000    23540286.849 6 123705052.97806       609.848 6        36.662                                                                    23540286.434 6  92377160.85306       455.305 6        40.675    23540287.477 7  94786987.03707       467.250 7        44.653
R06        21.000    20687926.217 5 110394772.41205     -3466.050 5        30.513
R15        22.000    23374553.840 5                     -1584.537 5        31.283
S36        23.000    38328372.356 5 201417003.63205      -851.589 5        35.510
S23        24.000    38275585.697 6 201139522.02706      -847.676 6        40.522
E33        28.000    24064593.218 7 126460278.61007     -2549.593 7        44.078                                                                    24064591.399 7  94434670.48207     -1903.934 7        47.253    24064589.898 7  96898138.12607     -1953.607 7        46.946
E10        29.000    25781420.956 7 135482515.47907      1468.324 7        44.987                                                                    25781418.526 7 101171900.38907      1096.510 7        44.886    25781418.969 8 103811107.11808      1125.120 8        48.431
R21        30.000    22238236.102 7 119001572.17807     -5176.517 7        43.416                                                                    22238236.755 6  92556584.21406     -4026.234 6        38.895
C20        31.000                                                                                                                                    23284865.035 7 121250542.50807      1076.351 7        45.141                                                                    23284855.762 7  98525852.91907       874.651 7        44.363
R23        33.000    21186809.102 8 113335101.74908      2107.530 8        48.683
R07        34.000    19505508.714 6 104414495.17706      -369.157 6        40.002                                                                    19505508.872 5  81211310.20205      -287.099 5        34.667
R22        35.000    19571051.042 8 104471601.26608     -1631.979 8        50.819                                                                    19571047.965 6  81255677.46306     -1269.286 6        39.084
C32        36.000                                                                                                                                    22170785.283 8 115449058.34208     -1802.313 8        49.946                                                                    22170785.028 8  93811865.09508     -1464.428 8        49.622
C30        38.000                                                                                                                                    23551689.199 6 122639785.10806     -3514.334 6        38.114                                                                    23551679.127 6  99654858.00906     -2855.430 6        37.410
C35        41.000                                                                                                                                    26758689.509 4 139339521.81904      2074.730 4        27.629                                                                    26758695.154 5 113224792.12305      1685.872 5        33.695
C16        45.000                                                                                                                                    38859347.120 5 202350948.61405      -980.906 5        30.936                                                                    38859348.502 5                      -796.712 5        30.558
C39        46.000                                                                                                                                    39194577.689 6 204096500.52606     -1407.404 6        36.491                                                                    39194588.068 4                     -1144.744 4        24.391
C09        47.000                                                                                                                                    38718532.974 6 201617561.17906      -364.768 6        40.951    38718528.507 7 155903490.38507      -281.990 7        44.125    38718526.608 6 163830749.24106      -296.260 6        41.614
C41        49.000                                                                                                                                    25796352.444 4 134328361.35404     -3630.338 4        25.278                                                                    25796335.540 4                     -2949.844 4        28.370
C06        50.000                                                                                                                                    38383054.608 6 199870647.77306      -876.703 6        38.625    38383050.178 6 154552776.08706      -677.780 6        38.664    38383048.516 5 162411240.74205      -712.453 5        35.310
C29        54.000                                                                                                                                    23062709.458 6 120093555.36306      -439.837 6        41.576                                                                    23062702.054 6  97585871.30306      -357.391 6        36.469
I09        58.000    37379089.479 5 146683573.61705      -821.711 5        32.383
> 2025 01 02 02 01 15.0000000  0 37
G03         1.000    20208605.496 8 106196920.31508     -1679.413 8        49.070                                    20208604.659 8  82750857.14608     -1308.636 8        48.380    20208604.407 7  82750884.14307     -1308.615 7        45.041
G19         2.000    22408272.404 7 117756232.81407      -978.826 7        43.803                                    22408265.980 3  91758060.14603      -762.719 3        21.714
G28         3.000    23856449.773 5 125366342.21205     -2824.557 5        30.491                                    23856436.473 1  97688124.35801     -2200.814 1         1.778    23856428.402 4  97688067.62304     -2200.804 4        25.805
G02         4.000    22828137.586 7 119962755.93407     -3780.505 7        43.983                                    22828126.714 4  93477439.56804     -2945.843 4        25.895
E07         5.000                                                                                                                                    27730952.279 4                     -2728.605 4        24.150
G09         6.000    22070766.662 7 115982643.75407      2091.740 7        42.303                                    22070765.775 4  90376097.53804      1629.924 4        25.068    22070767.876 5  90376083.61405      1630.221 5        31.668
G21         8.000    24566028.455 3                     -4097.607 3        18.716
G31        10.000    22341640.066 7 117406119.42207     -1155.531 7        46.996                                    22341631.417 6  91485207.90606      -900.419 6        38.072    22341633.699 6  91485278.93706      -900.435 6        41.447
G17        11.000                                                                                                                                                                    22929231.009 6  93891376.38806     -2073.495 6        36.408
G04        12.000    20555133.447 6 108017995.59606       606.924 6        40.465                                    20555130.391 5  84169789.02205       472.929 5        30.566    20555129.773 7  84169813.03607       473.004 7        44.597
E12        13.000    24455496.346 5 128514543.43105       432.360 5        31.887                                                                    24455496.383 5  95968616.53305       323.155 5        34.843    24455505.683 4  98472218.97704       330.944 4        28.512
E29        14.000    23828362.360 7 125218878.92407     -1864.962 7        45.157                                                                    23828359.867 8  93507597.49708     -1392.639 8        51.883    23828359.414 8  95946970.96508     -1428.995 8        52.032
G06        15.000    23488984.659 7 123435460.71207      2330.867 7        44.075                                    23488978.569 5  96183495.95805      1816.260 5        34.781    23488980.232 6  96183488.94806      1816.197 6        37.550
E11        16.000    28051764.823 5 147413032.19805      2062.448 5        33.335                                                                    28051762.327 5 110081149.08905      1540.161 5        30.589    28051761.942 5 112952859.68905      1580.371 5        35.748
R08        18.000                                                                                                                                    22247327.564 5                      1764.022 5        30.355
E19        20.000    23539707.399 6 123702008.21306       608.086 6        36.049                                                                    23539707.084 6  92374887.15206       454.097 6        40.625    23539708.039 7  94784654.03707       465.913 7        45.041
R06        21.000    20691175.146 4 110412105.29904     -3467.199 4        29.621
R15        22.000    23376025.067 5 124914389.86215     -1588.618 5        34.405                                                                    23375988.495 3                     -1235.972 3        22.286
S36        23.000    38329185.807 6 201421261.58706      -851.816 6        36.057
S23        24.000    38276391.027 6 201143760.27706      -847.740 6        40.687
E33        28.000    24067019.916 7 126473030.73807     -2551.419 7        44.506                                                                    24067018.074 7  94444193.17107     -1905.261 7        47.259    24067016.516 7  96907909.23507     -1954.992 7        47.179
E10        29.000    25780024.017 7 135475176.05007      1467.307 7        45.284                                                                    25780021.749 7 101166419.65007      1095.712 7        45.079    25780022.449 8 103805483.40408      1124.284 8        48.523
R21        30.000    22243074.042 7 119027458.85107     -5178.148 7        43.371                                                                    22243073.539 6  92576718.28606     -4027.470 6        38.682
C20        31.000                                                                                                                                    23283831.168 7 121245163.50507      1075.031 7        44.825                                                                    23283822.848 7  98521482.00907       873.643 7        44.628
R23        33.000    21184839.812 8 113324571.45008      2104.418 8        48.399
R07        34.000    19505856.158 6 104416347.62906      -371.951 6        41.261                                                                    19505853.708 5  81212750.98405      -289.450 5        33.257
R22        35.000    19572581.776 8 104479771.69608     -1636.379 8        51.501                                                                    19572579.351 6  81262032.22006     -1272.818 6        39.018
C32        36.000                                                                                                                                    22172516.641 8 115458073.04808     -1803.784 8        49.935                                                                    22172516.327 8  93819190.27008     -1465.689 8        50.148
C30        38.000                                                                                                                                    23555062.632 5 122657360.24505     -3516.163 5        34.643                                                                    23555052.964 6  99669139.21806     -2856.931 6        36.941
C35        41.000                                                                                                                                    26756703.027 4 139329151.61504      2073.396 4        29.299                                                                    26756704.069 5 113216365.46705      1684.936 5        33.832
C16        45.000                                                                                                                                    38860290.467 5 202355854.10305      -981.301 5        31.381                                                                    38860290.462 5                      -797.577 5        31.313
C39        46.000                                                                                                                                    39195928.981 5 204103539.09505     -1408.211 5        35.467                                                                    39195934.492 4                     -1143.790 4        25.158
C09        47.000                                                                                                                                    38718883.862 6 201619386.74106      -365.630 6        41.335    38718879.374 7 155904902.02907      -282.726 7        44.441    38718877.078 6 163832232.65206      -297.154 6        41.812
C41        49.000                                                                                                                                    25799844.706 4 134346513.48604     -3630.777 4        24.947                                                                    25799822.596 4                     -2950.612 4        27.473
C06        50.000                                                                                                                                    38383897.592 6 199875033.36106      -877.598 6        39.084    38383892.498 6 154556167.32706      -678.703 6        39.132    38383890.910 5 162414804.38505      -713.380 5        35.519
C29        54.000                                                                                                                                    23063129.192 6 120095761.36406      -442.699 6        41.232                                                                    23063125.834 6  97587663.85406      -359.776 6        36.681
I09        58.000    37380136.769 5 146687681.51705      -821.737 5        31.970
> 2025 01 02 02 01 20.0000000  0 36
G03         1.000    20210204.408 8 106205321.51308     -1681.117 8        48.731                                    20210203.533 8  82757403.54008     -1309.963 8        48.288    20210202.841 7  82757430.53207     -1309.896 7        44.649
G19         2.000    22409204.517 7 117761135.07107      -982.016 7        42.622                                    22409199.655 3  91761880.08903      -765.225 3        21.452
G28         3.000    23859137.097 5 125380469.46305     -2826.709 5        31.509                                                                                                    23859115.463 3  97699075.95603     -2201.859 3        23.543
G02         4.000    22831735.091 7 119981661.49507     -3781.745 7        43.553                                    22831725.230 4  93492171.17604     -2946.811 4        26.922
E07         5.000                                                                                                                                    27734430.790 4                     -2729.423 4        24.617
G09         6.000    22068781.937 7 115972189.32907      2090.130 7        43.274                                    22068775.514 4  90367951.20904      1628.674 4        24.782    22068779.071 4  90367937.38504      1628.896 4        28.749
G31        10.000    22342740.756 7 117411905.66407     -1158.862 7        46.909                                    22342733.426 6  91489716.67606      -903.011 6        38.895    22342734.518 6  91489787.69706      -902.989 6        41.824
G17        11.000    22931763.766 5 120507391.82505     -2663.271 5        30.347                                    22931770.732 3  93901801.89003     -2075.299 3        19.075    22931763.675 6  93901747.89906     -2074.963 6        36.231
G04        12.000    20554557.282 6 108014966.68906       604.689 6        40.603                                    20554554.021 4  84167428.83304       471.189 4        29.763    20554553.704 7  84167452.84807       471.123 7        45.171
E12        13.000    24455084.911 5 128512384.28605       431.052 5        30.362                                                                    24455090.649 5  95967004.25505       321.894 5        35.800    24455091.108 4  98470564.56404       330.192 4        28.256
E29        14.000    23830137.852 7 125228207.59307     -1866.466 7        45.412                                                                    23830135.105 8  93514563.71708     -1393.755 8        51.756    23830134.552 8  95954118.91108     -1430.134 8        51.890
G06        15.000    23486767.259 7 123423809.41007      2329.771 7        44.307                                    23486761.114 5  96174417.02905      1815.404 5        35.005    23486762.359 6  96174410.02306      1815.335 6        37.493
E11        16.000    28049802.719 5 147402720.06505      2062.252 5        34.319                                                                    28049799.146 4 110073448.48704      1539.959 4        29.754    28049798.944 6 112944958.19606      1580.151 6        36.057
R08        18.000                                                                                                                                    22245209.706 5                      1763.013 5        32.874
E19        20.000    23539130.331 5 123698972.35805       606.343 5        34.905                                                                    23539129.683 6  92372620.11206       452.766 6        40.656    23539130.258 7  94782327.83807       464.705 7        45.064
R06        21.000    20694425.420 4 110429445.94804     -3468.826 4        29.384
S36        23.000    38329999.750 6 201425519.99806      -851.347 6        36.382
S23        24.000    38277197.547 6 201147998.82806      -847.535 6        40.336
E33        28.000    24069447.425 7 126485791.99807     -2552.941 7        44.360                                                                    24069446.504 7  94453722.67807     -1906.470 7        47.063    24069444.800 7  96917687.33707     -1956.240 7        47.323
E10        29.000    25778628.259 7 135467842.07707      1466.396 7        45.546                                                                    25778626.176 7 101160942.99107      1094.958 7        45.106    25778626.937 8 103799863.87008      1123.598 8        48.585
R21        30.000    22247913.500 7 119053353.79307     -5179.577 7        43.261                                                                    22247911.924 6  92596858.79806     -4028.516 6        38.225
C20        31.000                                                                                                                                    23282799.268 7 121239791.07007      1073.936 7        43.863                                                                    23282791.298 7  98517116.46607       872.541 7        44.506
R23        33.000    21182874.825 7 113314056.90507      2101.483 7        47.897
R07        34.000    19506204.874 7 104418213.58007      -374.364 7        42.155                                                                    19506203.377 5  81214202.28405      -291.377 5        32.090
R22        35.000    19574116.423 8 104487964.48208     -1640.624 8        52.270                                                                    19574114.931 6  81268404.39106     -1276.069 6        41.425
C32        36.000                                                                                                                                    22174249.398 8 115467095.22708     -1805.038 8        49.729                                                                    22174249.005 8  93826521.53408     -1466.922 8        50.287
C30        38.000                                                                                                                                    23558435.581 5 122674943.99905     -3517.446 5        32.030                                                                    23558429.254 5  99683427.49205     -2858.483 5        35.905
C35        41.000                                                                                                                                    26754715.173 5 139318787.52105      2072.732 5        31.268                                                                    26754713.735 5 113207943.81205      1683.641 5        33.257
C16        45.000                                                                                                                                    38861231.792 5 202360763.86305      -982.672 5        31.192                                                                    38861233.474 5                      -798.023 5        30.966
C39        46.000                                                                                                                                    39197280.582 5 204110581.40005     -1408.706 5        35.167                                                                    39197288.056 4                     -1144.047 4        24.782
C09        47.000                                                                                                                                    38719235.283 6 201621216.64906      -366.248 6        41.409    38719231.022 7 155906317.03307      -283.190 7        44.220    38719228.645 6 163833719.61206      -297.769 6        41.855
C41        49.000                                                                                                                                    25803325.848 4 134364666.42704     -3630.834 4        26.503                                                                    25803309.067 4                     -2950.051 4        28.123
C06        50.000                                                                                                                                    38384740.688 6 199879423.41606      -878.462 6        38.550    38384735.370 6 154559561.96806      -679.203 6        39.249    38384733.723 5 162418371.66205      -713.866 5        35.395
C29        54.000                                                                                                                                    23063553.812 6 120097981.74706      -445.271 6        41.747                                                                    23063552.492 6  97589468.08906      -361.968 6        36.741
I01        57.000   378046059.315 6 180393135.03716     -2942.047 6        39.267
I09        58.000    37381183.613 5 146691790.16405      -821.776 5        32.078
> 2025 01 02 02 01 25.0000000  0 37
G03         1.000    20211805.196 8 106213732.57708     -1683.248 8        48.607                                    20211804.150 7  82763957.62107     -1311.620 7        47.935    20211803.349 7  82763984.60107     -1311.502 7        43.704
G19         2.000    22410140.646 7 117766055.12707      -985.811 7        42.758                                    22410136.768 3  91765713.91003      -768.165 3        20.810
G28         3.000                                                                                                                                                                    23861790.155 3                     -2205.439 3        22.533
G02         4.000    22835334.023 7 120000574.66707     -3783.439 7        43.225                                    22835325.463 4  93506908.72604     -2948.133 4        27.569
E07         5.000                                                                                                                                    27737908.514 4                     -2729.235 4        24.737
G09         6.000    22066794.993 7 115961743.32207      2088.298 7        43.534                                    22066787.046 3  90359811.45203      1627.257 3        23.314    22066794.772 4  90359797.60504      1626.909 4        26.383
G31        10.000    22343845.046 7 117417710.07107     -1162.728 7        46.724                                    22343838.753 6  91494239.60306      -906.024 6        39.255    22343838.469 6  91494310.60706      -906.128 6        41.137
G17        11.000    22934304.379 5 120520713.51805     -2665.292 5        32.647                                    22934304.353 3  93912182.46903     -2076.849 3        20.262    22934299.043 5  93912128.48805     -2077.071 5        35.748
G04        12.000    20553983.473 6 108011950.82806       601.911 6        41.182                                    20553980.146 4  84165078.81204       469.025 4        28.919    20553979.499 7  84165102.83507       469.002 7        44.930
E12        13.000    24454675.018 4 128510233.91004       428.613 4        26.922                                                                    24454682.660 6  95965398.40106       320.371 6        37.153    24454675.682 4  98468916.77904       329.130 4        29.071
E29        14.000    23831914.640 7 125237544.80907     -1868.323 7        45.661                                                                    23831911.916 8  93521536.31308     -1395.209 8        51.867    23831911.246 8  95961273.40508     -1431.576 8        51.527
G06        15.000    23484551.124 7 123412164.27007      2328.337 7        44.936                                    23484544.969 5  96165342.90005      1814.287 5        35.295    23484546.533 6  96165335.88006      1814.464 6        37.267
E11        16.000    28047840.572 5 147392409.04805      2062.090 5        34.790                                                                    28047836.468 4 110065748.71604      1540.073 4        29.194    28047836.749 5 112937057.58905      1579.851 5        35.881
R08        18.000                                                                                                                                    22243093.264 5  92641703.15915      1761.787 5        34.562
E19        20.000    23538553.832 5 123695945.29405       604.655 5        33.796                                                                    23538553.511 6  92370359.63006       451.529 6        40.443    23538554.064 7  94780008.39307       463.190 7        44.932
R06        21.000    20697675.704 5 110446794.14205     -3470.375 5        30.136
R15        22.000    23378990.188 5 124930319.49905     -1597.174 5        32.754
S36        23.000    38330806.399 6 201429777.83106      -851.527 6        36.620
S23        24.000    38278005.095 6 201152237.35706      -847.791 6        40.548
E33        28.000    24071877.108 7 126498562.28707     -2555.100 7        43.661                                                                    24071876.480 7  94463258.91407     -1908.012 7        47.027    24071874.938 7  96927472.34507     -1957.748 7        47.180
E10        29.000    25777233.883 7 135460513.42807      1465.109 7        45.666                                                                    25777231.648 7 101155470.30107      1094.059 7        45.321    25777232.398 8 103794248.42108      1122.682 8        48.488
R21        30.000    22252753.326 7 119079256.87307     -5181.404 7        43.081                                                                    22252752.595 6  92617005.63006     -4030.154 6        38.405
C20        31.000                                                                                                                                    23281768.026 7 121234425.10507      1072.517 7        42.781                                                                    23281761.056 7  98512756.17007       871.438 7        44.330
R23        33.000    21180911.945 7 113303558.11007      2098.074 7        47.126
R07        34.000    19506557.334 7 104420093.34207      -377.513 7        44.260                                                                    19506552.600 5  81215664.27105      -293.626 5        31.026
R22        35.000    19575655.543 8 104496179.50808     -1645.264 8        52.602                                                                    19575653.219 7  81274793.85707     -1279.641 7        43.081
C32        36.000                                                                                                                                    22175983.475 8 115476124.75908     -1806.746 8        49.300                                                                    22175982.973 8  93833858.76908     -1468.106 8        50.344
C30        38.000                                                                                                                                    23561813.346 4 122692536.28004     -3519.429 4        29.981                                                                    23561807.843 5  99697722.72505     -2859.784 5        35.648
C35        41.000                                                                                                                                    26752726.708 5 139308429.28005      2071.156 5        31.917                                                                    26752724.752 5 113199526.94305      1682.786 5        32.383
C16        45.000                                                                                                                                    38862174.606 5 202365677.65505      -983.285 5        32.240    38862172.694 4                      -761.190 4        24.526    38862177.098 5                      -799.000 5        31.238
C39        46.000                                                                                                                                    39198633.853 5 204117627.46605     -1409.693 5        35.210                                                                    39198639.671 4                     -1144.893 4        24.677
C09        47.000                                                                                                                                    38719587.878 6 201623050.76806      -367.343 6        41.485    38719583.250 7 155907735.29607      -284.099 7        44.182    38719580.948 6 163835209.99506      -298.490 6        41.750
C41        49.000                                                                                                                                    25806809.323 4 134382820.26704     -3630.534 4        26.036                                                                    25806795.474 4                     -2950.114 4        28.360
C06        50.000                                                                                                                                    38385583.827 6 199883817.75606      -879.499 6        38.366    38385579.665 6 154562959.96606      -680.001 6        39.547    38385577.118 5 162421942.43205      -714.479 5        35.433
C29        54.000                                                                                                                                    23063984.282 6 120100216.42306      -448.381 6        41.232                                                                    23063981.922 6  97591283.95306      -364.374 6        36.518
I01        57.000   378049808.588 6 180407846.18606     -2942.431 6        39.772
I09        58.000    37382230.835 5 146695899.56405      -821.712 5        31.215
> 2025 01 02 02 01 30.0000000  0 37
G03         1.000    20213407.600 8 106222153.46608     -1685.190 8        48.556                                    20213406.377 7  82770519.35007     -1313.133 7        47.307    20213405.527 7  82770546.33507     -1313.104 7        42.408
G19         2.000    22411081.267 7 117770992.91807      -989.347 7        42.540                                    22411076.998 3  91769561.55203      -770.910 3        19.612
G28         3.000                                                                                                                                                                    23864490.130 3                     -2206.886 3        22.438
G02         4.000    22838933.923 7 120019495.43907     -3784.973 7        42.188                                    22838927.109 4  93521652.19104     -2949.339 4        27.569
E07         5.000                                                                                                                                    27741386.650 4                     -2729.728 4        24.376
G09         6.000    22064806.655 7 115951305.73107      2086.734 7        43.729                                    22064800.380 3  90351678.26403      1626.028 3        20.667    22064810.539 3  90351664.33503      1626.328 3        22.552
G31        10.000    22344952.802 7 117423532.60607     -1166.366 7        46.716                                    22344947.251 6  91498776.65306      -908.858 6        39.252    22344946.446 6  91498847.64306      -908.790 6        40.019
G17        11.000    22936843.491 5 120534046.85905     -2667.585 5        32.275                                    22936840.590 3  93922572.08703     -2078.652 3        19.552    22936836.114 5  93922518.08105     -2078.623 5        34.005
G04        12.000    20553411.403 6 108008948.03706       599.134 6        40.865                                    20553408.740 4  84162738.96004       466.865 4        27.796    20553407.174 7  84162762.98307       466.943 7        44.491
E12        13.000    24454266.036 4 128508092.05304       427.151 4        24.632                                                                    24454273.274 6  95963798.97206       319.151 6        37.565    24454264.417 4  98467275.59104       327.695 4        29.498
E29        14.000    23833692.750 7 125246890.52007     -1870.021 7        46.088                                                                    23833690.344 8  93528515.25408     -1396.438 8        51.902    23833689.701 8  95968434.40508     -1432.868 8        51.256
G06        15.000    23482336.018 7 123400525.25907      2327.286 7        45.311                                    23482330.107 5  96156273.55105      1813.469 5        35.738    23482331.937 6  96156266.53606      1813.395 6        36.658
E11        16.000    28045878.671 5 147382099.17305      2061.723 5        35.186                                                                    28045873.381 4 110058049.79804      1539.715 4        28.275    28045874.884 5 112929157.79205      1579.746 5        35.281
R08        18.000    22240950.140 4 119099601.20104      2263.918 4        27.844                                                                    22240979.101 6  92632896.75506      1760.903 6        36.605
E19        20.000    23537978.876 5 123692927.00105       603.043 5        33.144                                                                    23537979.056 6  92368105.70106       449.999 6        40.243    23537979.518 7  94777695.65607       461.781 7        44.721
R06        21.000    20700930.472 5 110464149.84105     -3471.941 5        32.437
R15        22.000    23380482.367 5 124938315.63905     -1601.501 5        30.875
S36        23.000    38331624.523 6 201434035.05006      -851.407 6        36.994
S23        24.000    38278811.548 6 201156475.85006      -847.686 6        40.572
E33        28.000    24074308.764 7 126511341.52107     -2556.671 7        43.187                                                                    24074308.195 7  94472801.85107     -1909.289 7        46.866    24074306.798 7  96937264.22407     -1959.118 7        47.184
E10        29.000    25775840.150 7 135453190.09607      1464.145 7        45.424                                                                    25775838.098 7 101150001.57407      1093.381 7        45.633    25775838.908 8 103788637.04108      1121.821 8        48.411
R21        30.000    22257595.651 7 119105168.02507     -5183.076 7        43.778                                                                    22257594.311 6  92637158.72306     -4031.288 6        38.453
C20        31.000                                                                                                                                    23280738.057 7 121229065.52907      1071.301 7        43.170                                                                    23280731.752 7  98508401.08107       870.257 7        44.421
R23        33.000    21178951.938 7 113293074.93307      2095.078 7        46.889
R07        34.000    19506913.809 7 104421986.69607      -380.014 7        46.062                                                                    19506908.938 5  81217136.87005      -295.762 5        31.185
R22        35.000    19577198.473 8 104504416.71408     -1649.697 8        52.166                                                                    19577195.785 7  81281200.57507     -1283.106 7        44.116
C32        36.000                                                                                                                                    22177718.997 8 115485161.59208     -1808.116 8        49.037                                                                    22177718.304 8  93841201.93808     -1469.316 8        50.364
C30        38.000                                                                                                                                    23565200.082 5 122710137.16905     -3520.773 5        30.966                                                                    23565187.990 5  99712024.81905     -2860.804 5        35.076
C35        41.000                                                                                                                                    26750736.773 5 139298077.03305      2069.760 5        31.804                                                                    26750736.541 5 113191114.86705      1681.691 5        32.491
C16        45.000                                                                                                                                    38863118.964 5 202370595.61705      -984.055 5        32.485    38863115.911 4                      -760.965 4        25.308    38863121.429 5                      -799.729 5        31.117
C39        46.000                                                                                                                                    39199993.133 5 204124677.19105     -1410.474 5        34.662                                                                    39199992.261 4                     -1147.033 4        24.241
C09        47.000                                                                                                                                    38719942.059 7 201624889.04407      -368.130 7        42.106    38719936.347 7 155909156.75907      -284.695 7        44.050    38719933.766 6 163836703.74706      -299.183 6        41.957
C41        49.000                                                                                                                                    25810292.203 4 134400975.00404     -3630.944 4        25.865                                                                    25810283.514 4                     -2950.226 4        28.825
C06        50.000                                                                                                                                    38386429.036 6 199888216.38006      -880.227 6        38.784    38386424.054 6 154566361.24506      -680.558 6        39.952    38386421.912 5 162425516.65205      -715.110 5        35.733
C29        54.000                                                                                                                                    23064415.091 6 120102465.35006      -451.165 6        38.661                                                                    23064414.267 6  97593111.40806      -366.760 6        36.340
I01        57.000   378053556.708 6 180422557.83406     -2942.404 6        39.456
I09        58.000    37383277.870 5 146700009.61705      -821.746 5        31.781
> 2025 01 02 02 01 35.0000000  0 36
G03         1.000    20215011.859 8 106230584.47608     -1686.766 8        48.261                                    20215010.272 7  82777088.96707     -1314.362 7        46.751    20215010.144 6  82777115.95406     -1314.342 6        41.147
G19         2.000    22412023.932 6 117775948.73806      -992.604 6        41.933                                    22412020.345 3  91773423.27103      -773.450 3        18.119
G28         3.000    23867186.193 3                     -2836.579 3        20.143
G02         4.000    22842535.032 6 120038424.09906     -3786.091 6        40.687                                    22842530.280 4  93536401.81004     -2950.209 4        27.162
E07         5.000                                                                                                                                    27744863.546 4                     -2729.882 4        24.962
G09         6.000    22062821.276 7 115940876.91407      2085.296 7        43.264                                    22062814.519 2  90343551.96402      1624.908 2        17.019
G31        10.000    22346064.427 7 117429373.53707     -1169.603 7        45.296                                    22346058.941 6  91503328.03406      -911.377 6        38.727    22346057.342 6  91503399.01806      -911.237 6        38.658
G17        11.000    22939382.647 5 120547392.04005     -2669.828 5        33.156                                    22939379.421 3  93932970.91803     -2080.397 3        20.667    22939376.387 5  93932916.96605     -2080.650 5        33.120
G04        12.000    20552842.717 6 108005958.55706       597.007 6        39.063                                    20552839.766 4  84160409.50804       465.206 4        26.778    20552838.403 7  84160433.52807       465.256 7        44.268
E12        13.000    24453860.976 3 128505959.24903       425.012 3        22.667                                                                    24453866.969 6  95962206.24506       318.211 6        37.561    24453860.194 5  98465641.31805       326.701 5        30.966
E29        14.000    23835472.581 7 125256245.02107     -1871.396 7        46.766                                                                    23835470.543 8  93535500.76108     -1397.388 8        51.936    23835469.815 8  95975602.14508     -1433.868 8        51.110
G06        15.000    23480122.079 7 123388892.70107      2326.335 7        45.369                                    23480116.408 6  96147209.23506      1812.730 6        36.060    23480118.190 5  96147202.21905      1812.660 5        35.805
E11        16.000    28043917.033 5 147371790.69405      2061.921 5        34.619                                                                    28043910.923 4 110050351.88604      1539.909 4        27.760    28043912.894 5 112921259.09805      1580.214 5        35.386
R08        18.000                                                                                                                                    22238867.544 6  92624096.60116      1759.739 6        37.172
E19        20.000    23537407.153 5 123689917.81505       601.417 5        33.072                                                                    23537406.062 6  92365858.56406       449.089 6        39.655    23537406.770 7  94775389.89307       460.769 7        44.575
R06        21.000    20704185.219 5 110481513.33605     -3473.031 5        35.367
S36        23.000    38332431.087 6 201438293.11106      -850.916 6        36.703
S23        24.000    38279617.433 6 201160714.43406      -847.354 6        40.932
E33        28.000    24076742.718 7 126524130.02707     -2558.235 7        42.385                                                                    24076741.620 7  94482351.70707     -1910.278 7        46.647    24076740.627 7  96947063.21107     -1960.196 7        47.384
E10        29.000    25774447.761 7 135445872.37607      1463.390 7        45.043                                                                    25774445.606 7 101144537.04307      1092.822 7        45.664    25774446.442 8 103783029.95208      1121.372 8        48.330
R21        30.000    22262439.683 7 119131087.58507     -5184.212 7        43.473                                                                    22262438.295 6  92657318.37306     -4032.074 6        38.030
C20        31.000                                                                                                                                    23279709.545 7 121223712.65807      1070.301 7        43.827                                                                    23279703.695 7  98504051.40507       869.674 7        44.301
R23        33.000    21176995.854 7 113282607.76507      2092.309 7        47.714
R07        34.000    19507270.635 7 104423893.68507      -382.405 7        46.556                                                                    19507267.016 5  81218620.05605      -297.355 5        30.513
R22        35.000    19578745.037 8 104512676.40808     -1653.732 8        51.777                                                                    19578742.848 7  81287624.79707     -1286.250 7        44.819
C32        36.000                                                                                                                                    22179456.058 8 115494206.02808     -1809.220 8        48.439                                                                    22179455.100 8  93848551.24308     -1470.309 8        50.288
C30        38.000                                                                                                                                    23568587.627 5 122727746.84105     -3522.699 5        31.698                                                                    23568569.413 5  99726334.09405     -2862.439 5        35.143
C35        41.000                                                                                                                                    26748748.531 5 139287730.96005      2069.003 5        31.630                                                                    26748749.629 5 113182707.78805      1681.254 5        32.000
C16        45.000                                                                                                                                    38864064.998 5 202375517.86505      -984.716 5        32.880    38864062.545 4                      -761.922 4        26.240    38864066.448 5                      -800.156 5        30.423
C39        46.000                                                                                                                                    39201350.931 5 204131730.85905     -1410.744 5        34.314                                                                    39201347.342 3                     -1147.167 3        23.867
C09        47.000                                                                                                                                    38720296.929 6 201626731.77706      -368.435 6        41.697    38720289.957 7 155910581.68407      -285.023 7        43.846    38720287.835 7 163838201.09107      -299.651 7        42.140
C41        49.000                                                                                                                                    25813773.282 4 134419130.74204     -3630.867 4        26.036                                                                    25813772.341 4                     -2950.572 4        29.554
C06        50.000                                                                                                                                    38387274.454 6 199892619.55406      -880.593 6        38.649    38387270.106 6 154569766.08406      -681.040 6        40.021    38387267.663 5 162429094.59705      -715.611 5        35.586
C29        54.000                                                                                                                                    23064846.256 5 120104728.83805      -453.773 5        34.386                                                                    23064849.099 6  97594950.62606      -368.860 6        36.125
I01        57.000   378057305.838 6 180437270.27906     -2942.243 6        40.067
I09        58.000    37384325.701 5 146704120.55605      -821.720 5        32.503
> 2025 01 02 02 01 40.0000000  0 35
G03         1.000    20216618.011 7 106239025.00707     -1688.993 7        47.757                                    20216615.772 7  82783666.00507     -1316.098 7        46.065    20216616.862 6  82783692.99306     -1315.987 6        40.176
G19         2.000    22412970.170 7 117780922.00307      -996.462 7        42.072                                    22412967.252 2  91777298.58402      -776.481 2        16.340
G02         4.000    22846138.731 6 120057359.97106     -3787.926 6        39.610                                    22846134.546 4  93551157.06004     -2951.636 4        26.311
E07         5.000                                                                                                                                    27748342.670 4                     -2730.143 4        25.624
G09         6.000    22060837.571 7 115930456.19207      2083.336 7        42.246                                    22060829.982 2  90335432.12802      1623.336 2        14.429
G31        10.000    22347178.577 7 117435232.28107     -1173.538 7        42.754                                    22347173.712 6  91507893.29106      -914.443 6        37.822    22347173.493 6  91507964.27506      -914.440 6        38.958
G17        11.000    22941925.006 6 120560748.53206     -2672.333 6        36.646                                    22941919.929 3  93943378.56703     -2082.346 3        22.762    22941918.163 5  93943324.56705     -2082.408 5        32.844
G04        12.000    20552275.610 6 108002981.80106       594.101 6        38.189                                    20552273.105 4  84158089.97104       462.935 4        26.060    20552271.004 7  84158113.99307       462.905 7        43.886
E12        13.000    24453455.901 3                       424.807 3        23.410                                                                    24453462.387 6  95960619.71706       316.560 6        37.607    24453457.549 5  98464013.40705       324.905 5        33.012
E29        14.000    23837253.974 7 125265607.70907     -1873.329 7        47.799                                                                    23837252.244 8  93542492.37108     -1398.941 8        51.952    23837251.451 8  95982776.14208     -1435.404 8        50.811
G06        15.000    23477909.823 7 123377265.98807      2324.812 7        45.270                                    23477903.907 6  96138149.46806      1811.542 6        36.261    23477906.142 5  96138142.46005      1811.568 5        34.790
E11        16.000    28041955.970 5 147361483.03905      2061.448 5        35.181                                                                    28041948.821 4 110042654.62404      1539.792 4        26.994    28041951.433 5 112913361.04005      1579.411 5        35.162
R08        18.000    22236758.821 5                      2260.781 5        32.976                                                                    22236757.032 6  92615301.98306      1758.438 6        36.987
E19        20.000    23536836.597 5 123686917.10205       599.077 5        34.705                                                                    23536834.877 6  92363617.77206       447.422 6        39.375    23536835.432 7  94773090.63707       459.116 7        44.457
R06        21.000    20707441.801 6 110498883.95606     -3474.715 6        37.569
S36        23.000    38333244.153 6 201442550.99206      -851.429 6        37.414
S23        24.000    38280427.785 6 201164952.70206      -847.550 6        41.013
E33        28.000    24079178.377 7 126536927.19007     -2560.305 7        42.396                                                                    24079176.733 7  94491908.01707     -1911.850 7        46.601    24079176.050 7  96956868.82007     -1961.716 7        47.741
E10        29.000    25773055.970 7 135438559.65707      1462.061 7        45.220                                                                    25773054.222 7 101139076.24207      1091.742 7        45.768    25773054.971 8 103777426.70008      1120.302 8        48.367
R21        30.000    22267284.097 7 119157014.91707     -5186.156 7        42.963                                                                    22267283.307 6  92677484.05906     -4033.709 6        38.405
C20        31.000                                                                                                                                    23278682.576 7 121218365.91407      1068.736 7        44.432                                                                    23278676.822 7  98499706.76307       868.467 7        44.194
R23        33.000    21175043.408 8 113272155.87108      2088.859 8        48.971
R07        34.000    19507628.057 7 104425813.96007      -385.313 7        47.321                                                                    19507626.701 5  81220113.57405      -299.420 5        30.045
R22        35.000    19580296.498 8 104520957.96908     -1658.480 8        52.100                                                                    19580294.682 7  81294065.98707     -1289.929 7        45.860
C32        36.000                                                                                                                                    22181194.204 8 115503257.44208     -1810.999 8        48.248                                                                    22181193.182 8  93855906.27608     -1471.509 8        50.296
C30        38.000                                                                                                                                    23571975.659 5 122745364.57905     -3524.188 5        33.222                                                                    23571952.729 5  99740650.04205     -2864.006 5        34.757
C35        41.000                                                                                                                                    26746763.596 5 139277390.46805      2067.419 5        31.245                                                                    26746762.613 5 113174305.34705      1680.230 5        31.509
C16        45.000                                                                                                                                    38865011.758 5 202380443.84605      -985.367 5        32.754    38865008.293 4                      -762.192 4        26.647    38865012.129 5                      -800.850 5        30.460
C39        46.000                                                                                                                                    39202707.712 5 204138787.83105     -1411.703 5        33.796                                                                    39202700.732 3                     -1141.872 3        21.190
C09        47.000                                                                                                                                    38720651.595 6 201628578.34206      -369.711 6        41.440    38720644.717 7 155912009.56507      -285.834 7        43.962    38720642.408 7 163839701.59907      -300.437 7        42.013
C41        49.000                                                                                                                                    25817261.110 4 134437287.10104     -3632.007 4        26.623                                                                    25817260.587 5                     -2950.702 5        30.792
C06        50.000                                                                                                                                    38388121.451 6 199897026.69506      -881.820 6        38.492    38388116.300 6 154573173.96806      -681.882 6        40.136    38388114.052 5 162432675.78605      -716.431 5        35.929
C29        54.000                                                                                                                                    23065282.487 5 120107006.28105      -456.986 5        31.585                                                                    23065286.650 5  97596801.24305      -371.456 5        35.448
I01        57.000   378061055.527 6 180451982.96806     -2942.351 6        40.036
I09        58.000    37385373.757 5 146708231.96805      -822.482 5        32.018
> 2025 01 02 02 01 45.0000000  0 39
G03         1.000    20218226.067 7 106247475.77407     -1691.184 7        47.307                                    20218223.146 7  82790251.01707     -1317.803 7        45.276    20218225.619 6  82790277.99806     -1317.877 6        40.636
G19         2.000    22413920.097 6 117785913.39706     -1000.080 6        40.901                                    22413917.758 2  91781188.03002      -779.287 2        14.667
G28         3.000                                                                                                                                                                    23872617.491 4                     -2214.090 4        25.534
G02         4.000    22849743.572 6 120076303.81806     -3789.488 6        39.784                                    22849740.127 4  93565918.52004     -2952.858 4        26.192
E07         5.000                                                                                                                                    27751821.194 4                     -2730.495 4        25.023
G09         6.000    22058855.423 6 115920044.32006      2081.452 6        41.573                                    22058847.180 2  90327319.09202      1621.887 2        17.019
G31        10.000    22348296.731 6 117441109.50706     -1177.383 6        41.957                                    22348291.805 6  91512472.95106      -917.449 6        36.699    22348292.507 6  91512543.96806      -917.564 6        39.411
G17        11.000    22944468.856 6 120574116.91406     -2674.879 6        38.411                                    22944462.578 4  93953795.49304     -2084.327 4        24.211    22944462.109 5  93953741.50405     -2084.147 5        33.467
G04        12.000    20551711.381 6 108000018.49806       591.240 6        37.059                                    20551708.875 4  84155780.91104       460.706 4        25.053    20551706.266 7  84155804.92007       460.717 7        43.293
E12        13.000    24453053.146 3                       422.250 3        20.381                                                                    24453058.862 6  95959039.95106       315.262 6        36.941    24453055.821 5  98462392.45905       323.415 5        34.295
E29        14.000    23839037.276 7 125274979.27107     -1875.246 7        47.643                                                                    23839035.665 8  93549490.61508     -1400.354 8        51.796    23839034.898 8  95989956.95208     -1436.905 8        50.448
G06        15.000    23475698.459 7 123365645.83407      2323.224 7        45.323                                    23475692.596 6  96129094.80806      1810.303 6        36.465    23475695.637 5  96129087.79205      1810.452 5        34.971
E11        16.000    28039995.059 5 147351176.90005      2061.078 5        34.895                                                                    28039987.580 4 110034958.56204      1538.429 4        27.114    28039990.217 5 112905464.11705      1579.438 5        34.657
R08        18.000    22234650.943 6 119065537.22016      2259.021 6        36.268                                                                    22234645.768 6  92606513.50706      1757.016 6        37.497
E19        20.000    23536268.067 5 123683925.61105       597.334 5        34.805                                                                    23536265.514 6  92361383.87306       446.023 6        38.991    23536266.070 7  94770798.45807       457.685 7        44.042
R06        21.000    20710699.028 6 110516262.43806     -3476.527 6        38.342
R15        22.000    23384979.455 5                     -1613.793 5        31.698
S36        23.000    38334049.309 6 201446809.76306      -851.943 6        36.934
S23        24.000    38281229.806 6 201169191.40206      -847.833 6        41.159
R16        26.000    23100646.335 5 123399527.53615      1623.442 5        35.214
E33        28.000    24081615.402 7 126549733.72507     -2562.334 7        42.916                                                                    24081613.859 7  94501471.34307     -1913.434 7        46.396    24081613.167 7  96966681.62207     -1963.347 7        47.743
E10        29.000    25771665.329 7 135431252.67107      1460.720 7        45.425                                                                    25771663.847 7 101133619.72507      1090.855 7        45.877    25771664.711 8 103771827.84308      1119.300 8        48.199
R21        30.000    22272130.081 7 119182950.73407     -5188.068 7        42.847                                                                    22272130.297 6  92697656.34306     -4035.198 6        38.997
C20        31.000                                                                                                                                    23277656.745 7 121213025.96707      1067.216 7        45.258                                                                    23277651.312 7  98495367.61607       867.284 7        44.214
R23        33.000    21173092.762 8 113261720.23708      2085.442 8        48.621
R07        34.000    19507988.895 8 104427748.24308      -388.299 8        48.177                                                                    19507985.825 5  81221618.05905      -302.438 5        30.400
R22        35.000    19581852.466 8 104529262.11908     -1663.135 8        52.385                                                                    19581850.206 7  81300524.79407     -1293.529 7        46.226
C32        36.000                                                                                                                                    22182933.758 8 115512316.54308     -1812.654 8        48.306                                                                    22182932.877 8  93863267.52908     -1472.883 8        50.296
C25        37.000                                                                                                                                    25516691.844 5                      -861.335 5        32.629
C30        38.000                                                                                                                                    23575360.436 4 122762991.18004     -3526.318 4        29.460                                                                    23575337.988 5  99754973.14905     -2865.634 5        34.776
C35        41.000                                                                                                                                    26744778.744 5 139267056.31705      2065.975 5        30.891                                                                    26744777.520 5 113165908.00605      1678.635 5        30.679
C16        45.000                                                                                                                                    38865958.810 5 202385374.40505      -986.653 5        33.772    38865956.800 4                      -763.237 4        29.270    38865958.485 5                      -801.619 5        30.151
C39        46.000                                                                                                                                    39204066.181 5 204145848.85305     -1412.791 5        33.269
C09        47.000                                                                                                                                    38721006.843 6 201630429.47106      -370.760 6        41.893    38721000.612 7 155913440.98007      -286.799 7        43.994    38720998.092 6 163841205.78506      -301.180 6        41.921
C41        49.000                                                                                                                                    25820747.258 4 134455444.52004     -3631.792 4        27.557                                                                    25820749.012 5                     -2950.832 5        31.547
C06        50.000                                                                                                                                    38388968.479 6 199901438.52906      -883.002 6        38.898    38388963.640 6 154576585.45206      -682.564 6        40.200    38388961.627 5 162436260.74405      -717.421 5        35.995
C29        54.000                                                                                                                                    23065724.217 5 120109298.34305      -460.177 5        33.695                                                                    23065726.585 5  97598663.71405      -373.709 5        34.224
I01        57.000   378064805.059 6 180466696.54506     -2942.835 6        40.331
I09        58.000    37386421.049 5 146712344.29905      -822.468 5        32.174
> 2025 01 02 02 01 50.0000000  0 37
G03         1.000    20219835.987 7 106255936.00307     -1693.120 7        47.130                                    20219832.412 7  82796843.39907     -1319.310 7        44.441    20219834.955 6  82796870.38406     -1319.356 6        40.932
G19         2.000    22414872.953 6 117790922.21606     -1003.521 6        40.203                                    22414871.434 2  91785091.06802      -781.947 2        12.545
G28         3.000    23875292.453 4                     -2843.961 4        25.684                                                                                                    23875327.791 4                     -2215.437 4        29.232
G02         4.000    22853350.870 6 120095254.83306     -3791.045 6        40.362                                    22853346.835 4  93580685.58004     -2954.062 4        25.925
E07         5.000                                                                                                                                    27755299.128 3                     -2731.035 3        22.895
G09         6.000    22056875.426 6 115909640.60406      2079.807 6        40.877                                    22056866.009 3  90319212.30603      1620.636 3        19.463
G31        10.000    22349419.869 6 117447004.48006     -1180.875 6        39.604                                    22349413.132 5  91517066.43705      -920.168 5        35.133    22349414.364 6  91517137.42906      -920.240 6        39.721
G17        11.000    22947014.617 6 120587496.45406     -2677.149 6        39.438                                    22947007.584 4  93964221.13304     -2086.089 4        25.233    22947008.736 5  93964167.08805     -2085.785 5        33.533
G04        12.000    20551150.622 6 107997067.89706       588.698 6        38.619                                    20551146.613 4  84153481.75404       458.725 4        24.647    20551144.249 6  84153505.75506       458.840 6        41.342
E12        13.000    24452644.569 3                       421.593 3        22.362                                                                    24452656.880 6  95957466.41006       314.077 6        36.854    24452654.996 5  98460777.87305       322.054 5        35.248
E29        14.000    23840822.132 7 125284358.97907     -1876.880 7        47.962                                                                    23840820.506 8  93556494.94108     -1401.558 8        51.971    23840819.817 8  95997143.99608     -1438.099 8        50.304
G06        15.000    23473488.401 7 123354031.53607      2322.134 7        45.728                                    23473482.568 6  96120044.70906      1809.454 6        36.692    23473486.993 6  96120037.69306      1809.409 6        36.246
E11        16.000    28038034.073 5 147340871.55305      2061.001 5        33.856                                                                    28038027.166 4 110027262.99204      1539.105 4        27.102    28038029.425 5 112897567.81605      1579.162 5        34.467
R08        18.000    22232546.535 6 119054244.89406      2257.893 6        37.989                                                                    22232539.723 6  92597730.61806      1756.010 6        37.395
E19        20.000    23535700.542 5 123680942.60805       595.710 5        35.495                                                                    23535697.431 6  92359156.28506       444.859 6        38.550    23535698.286 7  94768512.74107       456.409 7        43.932
R06        21.000    20713956.288 6 110533648.02406     -3478.050 6        38.342
S36        23.000    38334860.855 6 201451067.97406      -851.746 6        37.361
S23        24.000    38282038.199 6 201173429.90106      -847.960 6        40.951
E33        28.000    24084054.387 7 126562548.89107     -2564.159 7        42.895                                                                    24084052.459 7  94511041.09507     -1914.684 7        46.490    24084051.954 8  96976501.02308     -1964.632 8        48.128
E10        29.000    25770276.023 7 135423950.67107      1459.796 7        45.812                                                                    25770274.364 7 101128166.94007      1090.077 7        46.152    25770275.176 8 103766232.81208      1118.534 8        48.456
R21        30.000    22276979.274 7 119208894.21607     -5189.551 7        42.411                                                                    22276978.624 6  92717834.60506     -4036.354 6        40.038
C20        31.000                                                                                                                                    23276632.582 7 121207692.12607      1066.092 7        46.069                                                                    23276626.883 7  98491033.45707       866.323 7        44.163
R23        33.000    21171143.322 7 113251300.01407      2082.433 7        47.698
R07        34.000    19508352.947 8 104429695.67108      -390.864 8        49.427                                                                    19508351.341 5  81223132.68005      -303.949 5        31.540
R22        35.000    19583412.330 8 104537588.15008     -1667.480 8        52.793                                                                    19583409.971 7  81307000.59207     -1296.913 7        46.582
C32        36.000                                                                                                                                    22184674.504 8 115521382.61008     -1814.015 8        48.948                                                                    22184673.944 8  93870634.47208     -1474.088 8        50.223
C25        37.000                                                                                                                                    25517515.781 5                      -864.021 5        33.707
C30        38.000                                                                                                                                                                                                                                                                    23578724.267 5  99769302.90005     -2866.623 5        35.181
C35        41.000                                                                                                                                    26742798.697 5 139256727.77105      2065.056 5        31.042                                                                    26742793.665 4 113157515.29204      1677.817 4        29.479
C16        45.000                                                                                                                                    38866907.101 5 202390308.60705      -987.162 5        34.095    38866905.996 5                      -763.413 5        31.162    38866906.532 5                      -801.890 5        30.181
C39        46.000                                                                                                                                    39205423.512 5 204152913.17705     -1413.230 5        33.006                                                                    39205394.209 4                     -1148.259 4        26.287
C09        47.000                                                                                                                                    38721364.283 6 201632284.40906      -371.341 6        41.821    38721356.731 7 155914875.33207      -287.306 7        43.791    38721354.265 6 163842713.09606      -301.900 6        41.816
C41        49.000                                                                                                                                    25824233.511 3 134473602.55403     -3632.759 3        23.581                                                                    25824236.493 5                     -2950.926 5        32.377
C06        50.000                                                                                                                                    38389816.813 6 199905854.29006      -883.673 6        39.312    38389811.918 6 154579999.99706      -683.243 6        40.400    38389809.255 5 162439848.93005      -718.025 5        35.681
C29        54.000                                                                                                                                    23066169.778 6 120111604.34406      -462.653 6        36.820                                                                    23066169.715 5  97600537.54205      -376.074 5        33.641
I01        57.000   378068554.734 6 180481410.51106     -2942.886 6        40.036
I09        58.000    37387469.016 5 146716457.08205      -822.495 5        32.623
> 2025 01 02 02 01 55.0000000  0 38
G03         1.000    20221447.602 7 106264405.89707     -1694.896 7        46.867                                    20221443.654 7  82803443.31107     -1320.694 7        43.858    20221446.687 6  82803470.30006     -1320.699 6        41.592
G19         2.000    22415829.645 6 117795948.64306     -1007.013 6        38.979                                    22415828.361 1  91789007.81401      -784.684 1        11.630
G28         3.000    23878001.666 5                     -2846.201 5        30.823                                                                                                    23878032.841 5                     -2217.685 5        31.849
G02         4.000    22856959.474 6 120114213.23806     -3792.397 6        41.411                                    22856954.665 4  93595458.37904     -2955.122 4        25.970
E07         5.000                                                                                                                                    27758778.042 3                     -2731.186 3        23.657
G09         6.000    22054896.804 6 115899245.17906      2078.298 6        39.640                                    22054886.981 3  90311111.96803      1619.458 3        20.524
G31        10.000    22350544.812 6 117452917.39006     -1184.365 6        37.932                                    22350537.960 5  91521673.89605      -922.880 5        33.725    22350539.610 6  91521744.88806      -922.984 6        39.775
G17        11.000    22949563.072 6 120600887.36006     -2679.203 6        40.124                                    22949555.188 4  93974655.61904     -2087.685 4        26.156    22949556.723 5  93974601.61005     -2087.824 5        34.595
G04        12.000    20550593.513 6 107994130.17006       586.217 6        40.934                                    20550586.690 4  84151192.62704       456.784 4        24.331    20550585.310 6  84151216.61706       456.775 6        39.838
E12        13.000    24452243.290 4                       418.765 4        26.503                                                                    24452256.560 6  95955899.23706       312.755 6        36.333    24452256.207 5  98459169.80805       320.872 5        35.552
E29        14.000    23842608.551 7 125293747.00007     -1878.512 7        47.804                                                                    23842606.970 8  93563505.47108     -1402.749 8        51.857    23842606.313 8  96004337.40708     -1439.368 8        49.930
G06        15.000    23471279.353 7 123342423.24707      2321.148 7        46.374                                    23471273.806 6  96110999.29906      1808.687 6        37.153    23471279.173 6  96110992.27806      1808.674 6        37.319
E11        16.000    28036073.446 5 147330567.19205      2060.776 5        33.509                                                                    28036067.263 4 110019568.18404      1538.779 4        26.754    28036069.063 5 112889672.27505      1578.844 5        34.029
R08        18.000    22230441.281 6 119042959.99406      2256.285 6        38.312                                                                    22230435.291 6  92588953.47306      1754.936 6        36.178
E19        20.000    23535134.270 6 123677968.14806       593.857 6        36.306                                                                    23535131.120 6  92356935.08806       443.516 6        37.921    23535132.039 7  94766233.59307       455.061 7        43.367
R06        21.000    20717213.439 6 110551040.91906     -3479.229 6        37.127
R15        22.000    23388027.398 5 124978497.89015     -1622.245 5        32.210
S36        23.000    38335671.180 6 201455326.37006      -851.756 6        36.612
S23        24.000    38282848.327 6 201177668.19406      -847.456 6        40.760
E33        28.000    24086495.290 7 126575372.84607     -2565.701 7        44.298                                                                    24086492.738 7  94520617.42007     -1915.899 7        46.331    24086492.433 8  96986327.16408     -1965.900 8        48.236
E10        29.000    25768887.765 7 135416653.84807      1458.857 7        46.351                                                                    25768885.956 7 101122718.02007      1089.407 7        46.324    25768886.716 8 103760641.75108      1117.872 8        48.270
R21        30.000    22281828.456 6 119234845.56206     -5191.173 6        41.192                                                                    22281829.220 6  92738018.99606     -4037.532 6        40.818
C20        31.000                                                                                                                                    23275609.780 7 121202364.56507      1064.873 7        46.147                                                                    23275603.717 7  98486704.38607       865.099 7        43.998
R23        33.000    21169198.393 7 113240895.42507      2079.324 7        46.975
R07        34.000    19508719.811 8 104431656.43408      -393.549 8        48.605                                                                    19508719.249 5  81224657.68205      -305.959 5        34.257
R22        35.000    19584975.956 8 104545936.16808     -1671.825 8        52.226                                                                    19584974.340 7  81313493.48607     -1300.326 7        47.535
C32        36.000                                                                                                                                    22186416.669 8 115530455.79208     -1815.377 8        49.569                                                                    22186416.363 8  93878007.18108     -1475.238 8        50.131
C25        37.000                                                                                                                                    25518342.317 5                      -866.272 5        35.295
C30        38.000                                                                                                                                                                                                                                                                    23582112.066 5  99783639.35805     -2868.065 5        34.800
C35        41.000                                                                                                                                    26740821.332 4 139246405.02904      2064.075 4        29.630                                                                    26740810.439 4 113149127.24704      1677.057 4        28.351
C16        45.000                                                                                                                                    38867856.500 5 202395246.78605      -987.744 5        33.964    38867855.348 5                      -764.029 5        32.210    38867854.954 4                      -802.985 4        29.052
C39        46.000                                                                                                                                    39206781.138 5 204159981.00205     -1413.622 5        31.034                                                                    39206756.422 4                     -1148.600 4        27.760
C09        47.000                                                                                                                                    38721721.742 6 201634143.37706      -372.165 6        41.600    38721713.625 7 155916312.80307      -287.800 7        43.672    38721711.241 6 163844223.65706      -302.508 6        41.821
C41        49.000                                                                                                                                    25827725.756 3                     -3631.944 3        22.990                                                                    25827722.503 5                     -2951.256 5        32.497
C06        50.000                                                                                                                                    38390665.120 6 199910274.14306      -884.441 6        39.447    38390661.293 6 154583417.71806      -683.955 6        40.272    38390658.212 5 162443440.42105      -718.787 5        35.681
C29        54.000                                                                                                                                    23066616.843 6 120113924.42806      -465.451 6        38.622                                                                    23066615.627 5  97602422.78505      -378.398 5        33.072
I01        57.000   378072304.834 6 180496124.81606     -2942.914 6        40.365
I09        58.000    37388516.524 5 146720570.39905      -822.525 5        32.695
> 2025 01 02 02 02  0.0000000  0 39
G03         1.000    20223061.004 7 106272885.89707     -1697.158 7        46.116                                    20223057.015 7  82810051.10107     -1322.465 7        43.179    20223059.798 7  82810078.11307     -1322.441 7        42.129
G19         2.000    22416789.717 6 117800993.09706     -1010.808 6        38.051                                    22416788.620 1  91792938.58501      -787.711 1        10.593
G28         3.000    23880712.704 5                     -2848.962 5        34.538                                                                                                    23880736.791 5                     -2220.054 5        32.635
G02         4.000    22860568.120 7 120133179.46407     -3794.160 7        42.502                                    22860563.842 4  93610237.27504     -2956.486 4        26.623
E07         5.000                                                                                                                                    27762256.307 3                     -2729.855 3        23.219
G09         6.000    22052918.445 6 115888858.50806      2076.489 6        38.793                                    22052910.197 3  90303018.43503      1618.054 3        20.762    22052910.175 4                      1618.154 4        28.076
G21         8.000    24601132.820 3                     -4100.847 3        21.476
G31        10.000    22351672.282 6 117458848.65806     -1188.169 6        37.773                                    22351666.400 5  91526295.66605      -925.838 5        33.473    22351668.544 6  91526366.64606      -925.891 6        40.462
G17        11.000    22952113.763 6 120614290.04206     -2681.916 6        41.595                                    22952105.484 4  93985099.27204     -2089.811 4        26.958    22952107.286 5  93985045.27505     -2089.885 5        34.181
G04        12.000    20550035.855 7 107991205.79107       583.404 7        42.673                                    20550029.249 4  84148913.89304       454.599 4        24.586    20550029.247 6  84148937.89106       454.598 6        40.226
E12        13.000                                                                                                                                    24451857.633 6  95954338.75006       311.143 6        36.340    24451858.804 6  98457568.62306       319.211 6        36.045
E29        14.000    23844396.583 7 125303143.76307     -1880.345 7        47.357                                                                    23844395.085 8  93570522.53708     -1404.158 8        51.885    23844394.478 8  96011537.52208     -1440.799 8        49.704
G06        15.000    23469071.700 7 123330821.44907      2319.607 7        46.815                                    23469066.425 6  96101958.94206      1807.483 6        37.660    23469070.887 6  96101951.90806      1807.493 6        37.747
E11        16.000    28034113.138 5 147320264.23405      2060.492 5        33.030                                                                    28034107.103 4 110011874.40904      1538.680 4        27.701    28034108.816 5 112881777.81805      1578.692 5        33.401
R08        18.000    22228338.871 6 119031682.81606      2254.440 6        38.417                                                                    22228329.040 5  92580182.37405      1753.312 5        34.276
E19        20.000    23534570.162 6 123675002.75406       591.814 6        38.069                                                                    23534566.426 6  92354720.65606       442.048 6        36.843    23534567.633 7  94763961.37607       453.598 7        42.779
R06        21.000    20720473.947 6 110568441.51206     -3481.098 6        37.244
R15        22.000    23389545.435 5 124986619.04305     -1626.272 5        30.453                                                                    23389576.124 4                     -1265.131 4        26.503
S36        23.000    38336480.808 6 201459584.89406      -851.926 6        36.582
S23        24.000    38283649.620 6 201181906.79406      -847.839 6        40.658
E33        28.000    24088937.964 7 126588206.03307     -2567.696 7        45.290                                                                    24088934.777 7  94530200.65007     -1917.425 7        46.099    24088934.608 8  96996160.38208     -1967.389 8        48.233
E10        29.000    25767500.249 7 135409362.65907      1457.585 7        46.646                                                                    25767498.612 7 101117273.31007      1088.420 7        46.697    25767499.251 8 103755055.00408      1116.806 8        48.292
R21        30.000    22286679.471 6 119260805.13906     -5192.746 6        40.605                                                                    22286681.334 6  92758209.78106     -4038.930 6        40.961
C20        31.000                                                                                                                                    23274588.445 7 121197043.68107      1063.380 7        46.408                                                                    23274581.839 7  98482380.72507       864.060 7        44.044
R23        33.000    21167257.814 7 113230506.93807      2075.894 7        47.301
R07        34.000    19509087.626 8 104433631.19508      -396.425 8        48.094                                                                    19509086.639 6  81226193.63406      -308.415 6        36.087
R22        35.000    19586543.413 8 104554306.63108     -1676.465 8        51.745                                                                    19586542.401 8  81320003.84808     -1303.915 8        48.276
C32        36.000                                                                                                                                    22188160.463 8 115539536.53908     -1817.072 8        50.057                                                                    22188160.305 8  93885386.02008     -1476.562 8        50.202
C25        37.000                                                                                                                                    25519175.200 5 132885068.67615      -869.327 5        35.457
C30        38.000                                                                                                                                                                                                                                                                    23585501.599 5  99797982.90705     -2869.665 5        34.771
C35        41.000                                                                                                                                                                                                                                                                    26738828.657 4 113140744.28604      1676.312 4        28.351
C16        45.000                                                                                                                                    38868804.993 5 202400189.31905      -989.001 5        33.485    38868805.550 5                      -764.801 5        33.222    38868803.663 4                      -803.478 4        29.318
C39        46.000                                                                                                                                    39208139.336 5 204167052.73205     -1415.001 5        30.370                                                                    39208115.867 4                     -1149.701 4        29.327
C09        47.000                                                                                                                                    38722079.808 6 201636006.77306      -373.290 6        41.383    38722071.583 7 155917753.69207      -288.599 7        43.674    38722068.936 6 163845737.79506      -303.256 6        41.950
C41        49.000                                                                                                                                    25831212.218 4                     -3630.206 4        24.241                                                                    25831210.784 5                     -2951.283 5        32.323
C06        50.000                                                                                                                                    38391514.785 6 199914698.55906      -885.573 6        39.294    38391510.873 6 154586838.94506      -684.721 6        40.145    38391507.978 5 162447035.60605      -719.419 5        35.795
C29        54.000                                                                                                                                    23067063.394 6 120116259.11006      -468.634 6        39.231                                                                    23067065.701 5  97604319.82605      -380.630 5        32.377
I01        57.000   378076053.589 6 180510839.83406     -2943.195 6        40.246
I09        58.000    37389566.208 5 146724684.62305      -823.057 5        32.527
> 2025 01 02 02 02  5.0000000  0 39
G03         1.000    20224676.732 7 106281376.64307     -1699.297 7        44.432                                    20224672.670 7  82816667.26107     -1324.134 7        42.290    20224674.936 6  82816694.28606     -1324.050 6        41.745
G19         2.000    22417752.844 6 117806056.23306     -1014.486 6        37.138                                    22417752.357 1  91796883.95801      -790.532 1        10.518
G28         3.000    23883424.674 5 125508241.95715     -2851.964 5        35.524                                                                                                    23883443.124 5                     -2222.208 5        32.760
G02         4.000    22864178.438 7 120152154.18407     -3795.797 7        43.291                                    22864174.672 4  93625022.77604     -2957.762 4        26.754
E07         5.000                                                                                                                                    27765735.931 4                     -2731.849 4        24.526
G09         6.000    22050943.647 6 115878481.29906      2074.484 6        38.258                                    22050935.323 3  90294932.24803      1616.511 3        21.048    22050937.403 5                      1616.770 5        31.132
G21         8.000    24605041.904 3                     -4105.136 3        20.524
G31        10.000    22352805.624 6 117464798.94706     -1191.961 6        39.823                                    22352798.651 5  91530932.25105      -928.800 5        33.760    22352800.861 6  91531003.22806      -928.813 6        41.154
G17        11.000    22954666.904 7 120627705.21907     -2684.268 7        42.817                                    22954658.575 4  93995552.64004     -2091.642 4        27.389    22954661.007 5  93995498.64405     -2091.671 5        33.874
G04        12.000    20549481.213 7 107988295.39507       580.783 7        43.126                                    20549474.638 4  84146646.07004       452.563 4        24.857    20549475.767 6  84146670.06106       452.444 6        41.800
E12        13.000                                                                                                                                    24451460.599 6  95952785.42606       309.848 6        36.117    24451462.180 6  98455974.80006       318.070 6        36.794
E29        14.000    23846186.887 7 125312549.93907     -1882.114 7        47.387                                                                    23846184.959 8  93577546.62608     -1405.485 8        51.858    23846184.318 8  96018744.84908     -1442.160 8        49.500
G06        15.000    23466865.306 7 123319226.81807      2318.373 7        46.693                                    23466860.493 6  96092924.17306      1806.522 6        37.849    23466863.277 6  96092917.16006      1806.581 6        38.048
E11        16.000    28032153.361 5 147309963.40505      2059.882 5        33.114                                                                    28032148.624 4 110004182.25204      1538.372 4        28.768    28032148.901 5 112873884.98105      1577.965 5        33.311
R08        18.000    22226235.697 6 119020414.26906      2253.058 6        39.477                                                                    22226225.307 5  92571417.95605      1752.303 5        32.311
E19        20.000    23534008.911 6 123672047.12506       590.092 6        39.378                                                                    23534003.591 6  92352513.56106       440.585 6        36.008    23534005.114 7  94761696.66807       452.237 7        42.527
R06        21.000    20723737.244 6 110585850.51006     -3482.667 6        37.248
R15        22.000    23391060.978 5 124994761.97905     -1630.685 5        35.605                                                                    23391102.522 4                     -1266.762 4        24.962
S36        23.000    38337291.750 6 201463844.61406      -851.787 6        36.609
S23        24.000    38284459.270 6 201186146.20006      -847.827 6        40.620
E33        28.000    24091381.939 7 126601049.13707     -2569.557 7        46.277                                                                    24091378.745 7  94539791.27607     -1918.837 7        46.067    24091378.548 8  97006001.21008     -1968.995 8        48.238
E10        29.000    25766114.005 7 135402077.78007      1456.385 7        47.007                                                                    25766112.483 7 101111833.30207      1087.523 7        46.824    25766113.019 8 103749473.08108      1115.984 8        48.290
R21        30.000    22291533.255 6 119286773.69506     -5194.478 6        40.231                                                                    22291534.016 6  92778407.54006     -4040.458 6        40.653
C20        31.000                                                                                                                                    23273568.890 7 121191730.14707      1062.088 7        46.712                                                                    23273561.165 7  98478063.06407       862.844 7        43.708
R23        33.000    21165320.285 8 113220135.19508      2072.767 8        48.405
R07        34.000    19509457.881 7 104435620.33407      -399.251 7        46.482                                                                    19509456.924 6  81227740.76106      -310.427 6        36.004
R22        35.000    19588116.593 8 104562700.24608     -1681.019 8        52.699                                                                    19588114.954 8  81326532.21808     -1307.450 8        48.461
C32        36.000                                                                                                                                    22189905.474 8 115548625.50108     -1818.566 8        49.688                                                                    22189905.842 8  93892771.54608     -1477.740 8        50.194
C25        37.000                                                                                                                                    25520010.903 5 132889422.44905      -872.063 5        34.100
C30        38.000                                                                                                                                                                                                                                                                    23588892.775 5  99812334.11105     -2871.063 5        34.514
C35        41.000                                                                                                                                    26736884.576 4 139225779.05604      2061.426 4        26.647                                                                    26736848.354 4 113132366.95204      1674.837 4        27.234
C16        45.000                                                                                                                                    38869754.973 5 202405136.84605      -989.857 5        33.838    38869756.704 5                      -765.648 5        33.982    38869753.136 4                      -804.549 4        28.427
C39        46.000                                                                                                                                    39209499.913 4 204174128.98604     -1415.591 4        28.967                                                                    39209472.870 4                     -1149.997 4        29.697
C09        47.000                                                                                                                                    38722437.912 6 201637875.26706      -374.061 6        40.777    38722430.284 7 155919198.54507      -289.367 7        43.719    38722427.846 6 163847256.11106      -303.996 6        41.859
C41        49.000                                                                                                                                    25834698.621 3                     -3630.731 3        20.810                                                                    25834700.979 5                     -2951.645 5        32.413
C06        50.000                                                                                                                                    38392365.767 6 199919128.14006      -886.207 6        39.225    38392361.283 6 154590264.19306      -685.470 6        39.943    38392358.516 5 162450634.99905      -720.219 5        35.490
C29        54.000                                                                                                                                    23067513.561 6 120118608.94206      -471.527 6        39.874                                                                    23067517.338 5  97606229.24305      -383.227 5        31.819
I01        57.000   378079804.126 6 180525556.09606     -2943.348 6        40.350
I09        58.000    37390614.861 5 146728800.19505      -823.119 5        32.407
> 2025 01 02 02 02 10.0000000  0 40
G03         1.000    20226294.649 7 106289877.03307     -1700.830 7        42.523                                    20226290.329 6  82823290.93806     -1325.324 6        41.297    20226292.052 6  82823317.95706     -1325.280 6        41.228
G19         2.000    22418718.757 6 117811136.85906     -1017.592 6        37.758                                    22418719.444 1  91800842.81701      -793.024 1         9.810
G28         3.000    23886139.193 5 125522507.85305     -2854.093 5        34.290                                                                                                    23886154.019 5                     -2224.282 5        31.502
G02         4.000    22867790.395 7 120171136.21907     -3796.911 7        43.492                                    22867786.496 4  93639813.97704     -2958.626 4        26.647
E07         5.000                                                                                                                                    27769216.119 4                     -2730.806 4        24.541
G09         6.000    22048969.377 6 115868112.33106      2073.265 6        38.042                                    22048962.542 3  90286852.50103      1615.545 3        22.895    22048966.848 5                      1615.339 5        33.138
G21         8.000    24608943.833 3                     -4104.639 3        19.940
G31        10.000    22353941.671 6 117470767.14306     -1195.106 6        40.400                                    22353934.398 5  91535582.78605      -931.252 5        34.352    22353936.432 6  91535653.77606      -931.313 6        41.826
G17        11.000    22957223.206 7 120641131.64807     -2686.150 7        43.600                                    22957214.121 4  94006014.78504     -2093.111 4        27.725    22957218.519 5  94005960.82005     -2093.145 5        34.005
G04        12.000    20548929.142 7 107985397.85007       578.544 7        42.969                                    20548922.853 4  84144388.25604       450.809 4        25.564    20548923.775 7  84144412.23407       450.833 7        42.273
E12        13.000                                                                                                                                    24451065.910 6  95951238.45806       308.982 6        36.571    24451067.302 6  98454387.51306       316.961 6        37.293
E29        14.000    23847978.761 7 125321964.37107     -1883.495 7        47.439                                                                    23847976.359 8  93584576.88608     -1406.510 8        51.891    23847975.766 8  96025958.50108     -1443.198 8        49.241
G06        15.000    23464659.793 7 123307638.21007      2317.461 7        46.465                                    23464655.697 6  96083894.09206      1805.811 6        37.985    23464658.259 6  96083887.10406      1805.862 6        38.459
E11        16.000    28030193.983 5 147299663.52105      2059.863 5        33.461                                                                    28030196.675 5 109996490.82405      1538.667 5        30.377    28030188.898 5 112865992.85805      1578.245 5        33.174
R08        18.000    22224131.544 6 119009153.01206      2251.724 6        39.553                                                                    22224131.377 5  92562659.14905      1751.000 5        30.415
E26        19.000    27915525.677 3                     -3880.408 3        20.405
E19        20.000    23533448.370 6 123669100.13606       588.780 6        40.577                                                                    23533442.744 5  92350312.87605       439.820 5        35.905    23533444.234 7  94759438.58307       451.264 7        42.136
R06        21.000    20727000.675 6 110603266.69106     -3483.716 6        37.361
R15        22.000    23392578.920 6 125002925.51516     -1634.377 6        37.210                                                                    23392626.969 4                     -1271.697 4        28.464
S36        23.000    38338100.805 6 201468104.49406      -851.442 6        36.684
S23        24.000    38285263.925 6 201190385.44406      -847.652 6        40.944
E33        28.000    24093827.408 7 126613900.99007     -2571.017 7        46.439                                                                    24093824.278 7  94549388.44507     -1919.874 7        46.018    24093824.278 8  97015848.73608     -1969.938 8        48.154
E10        29.000    25764728.530 7 135394798.05607      1455.655 7        47.298                                                                    25764727.266 7 101106397.14307      1087.053 7        47.062    25764727.686 8 103743895.12008      1115.346 8        48.318
R21        30.000    22296387.726 6 119312750.05706     -5195.801 6        39.607                                                                    22296387.108 6  92798611.35706     -4041.249 6        39.652
C20        31.000                                                                                                                                    23272550.403 7 121186422.87607      1061.143 7        46.789                                                                    23272541.625 7  98473750.45507       862.191 7        43.488
R23        33.000    21163385.021 8 113209779.00408      2069.947 8        48.966
R07        34.000    19509831.120 7 104437622.73807      -401.605 7        43.632                                                                    19509830.351 5  81229298.14805      -312.327 5        34.376
R22        35.000    19589694.074 8 104571115.83808     -1685.070 8        52.996                                                                    19589691.273 8  81333077.67108     -1310.626 8        48.500
C32        36.000                                                                                                                                    22191651.533 8 115557721.55308     -1819.691 8        49.176                                                                    22191652.648 8  93900162.80808     -1478.650 8        50.370
C25        37.000                                                                                                                                    25520846.893 5 132893789.59405      -874.910 5        32.593
C30        38.000                                                                                                                                                                                                                                                                    23592285.366 5  99826691.92005     -2871.841 5        34.619
C35        41.000                                                                                                                                    26734907.930 3 139215475.27403      2060.443 3        23.829                                                                    26734868.589 4 113123994.31104      1674.101 4        26.742
C16        45.000                                                                                                                                    38870705.908 5 202410088.26405      -990.739 5        34.081    38870708.055 5 156516229.48715      -765.972 5        35.471    38870703.257 4                      -805.418 4        28.995
C39        46.000                                                                                                                                    39210860.305 4 204181208.76804     -1416.504 4        27.737                                                                    39210832.306 5                     -1150.826 5        30.453
C09        47.000                                                                                                                                    38722796.300 6 201639747.71106      -374.649 6        40.584    38722789.808 7 155920646.44107      -289.626 7        43.685    38722787.481 6 163848777.60106      -304.484 6        41.981
C41        49.000                                                                                                                                    25838182.096 3                     -3631.978 3        20.833                                                                    25838191.608 5                     -2951.553 5        32.587
C06        50.000                                                                                                                                    38393217.502 6 199923561.82006      -886.920 6        39.447    38393212.298 6 154593692.58806      -685.809 6        39.628    38393210.202 6 162454237.70806      -720.726 6        36.091
C29        54.000                                                                                                                                    23067967.790 6 120120972.84506      -474.064 6        39.934                                                                    23067969.930 5  97608150.04805      -385.324 5        32.677
I01        57.000   378083554.402 6 180540272.74806     -2943.203 6        40.646
I09        58.000    37391663.227 5 146732916.32505      -823.443 5        32.748
> 2025 01 02 02 02 15.0000000  0 39
G03         1.000    20227913.953 7 106298386.54307     -1703.108 7        42.089                                    20227909.799 6  82829921.72806     -1327.098 6        40.193    20227912.199 6  82829948.73106     -1327.059 6        41.173
G19         2.000    22419689.333 6 117816234.52106     -1021.499 6        36.435                                    22419689.750 1  91804815.12201      -795.917 1         8.286
G28         3.000    23888854.644 5 125536786.77605     -2856.984 5        32.838                                                                                                    23888865.883 4                     -2226.399 4        27.784
G02         4.000    22871403.191 7 120190125.03007     -3798.552 7        43.623                                    22871399.240 4  93654610.45004     -2959.907 4        26.431
E07         5.000                                                                                                                                    27772697.022 4                     -2731.388 4        24.782
G09         6.000    22046997.812 6 115857751.12906      2071.320 6        38.553                                    22046991.768 4  90278778.83504      1614.018 4        25.759    22046995.238 5  90278760.79315      1614.218 5        34.695
G21         8.000    24612853.283 3                     -4101.812 3        21.738
G31        10.000    22355080.305 6 117476752.71906     -1198.975 6        40.379                                    22355073.598 5  91540246.86605      -934.265 5        34.838    22355074.913 7  91540317.85107      -934.296 7        42.256
G17        11.000    22959780.389 7 120654568.81807     -2688.594 7        43.968                                    22959771.889 4  94016485.29604     -2095.005 4        27.808    22959780.695 5  94016431.36605     -2095.106 5        34.219
G04        12.000    20548380.439 6 107982512.66006       575.806 6        41.678                                    20548373.514 4  84142140.06404       448.665 4        26.311    20548374.871 7  84142164.04607       448.588 7        42.508
E12        13.000                                                                                                                                    24450672.026 6  95949697.48706       307.403 6        36.745    24450674.294 6  98452806.34006       315.420 6        37.970
E29        14.000    23849771.801 7 125331386.54107     -1885.323 7        47.720                                                                    23849769.284 8  93591612.91808     -1407.886 8        51.891    23849768.644 8  96033178.08408     -1444.608 8        49.137
G06        15.000    23462455.333 7 123296055.13307      2316.004 7        45.698                                    23462451.992 6  96074868.32606      1804.675 6        37.909    23462454.329 6  96074861.33306      1804.577 6        38.778
E11        16.000    28028233.422 5 147289364.06705      2059.738 5        34.014                                                                    28028245.334 5 109988799.75005      1538.136 5        31.064    28028228.690 5 112858101.06405      1578.192 5        33.024
R08        18.000    22222030.136 6 118997898.58106      2250.033 6        38.483                                                                    22222039.121 4  92553905.49904      1750.322 4        28.777
E19        20.000    23532888.936 6 123666161.19006       586.748 6        41.588                                                                    23532883.614 5  92348118.21305       438.392 5        35.538    23532884.921 6  94757186.66406       449.592 6        41.802
R06        21.000    20730266.805 6 110620689.56606     -3485.330 6        37.595
R15        22.000    23394104.027 6 125011109.32006     -1638.846 6        38.471                                                                    23394147.495 5                     -1274.599 5        31.215
S36        23.000    38338909.323 6 201472363.24806      -851.713 6        36.507
S23        24.000    38286072.622 6 201194623.96306      -847.549 6        41.063
E33        28.000    24096274.209 7 126626761.07707     -2572.986 7        45.986                                                                    24096271.556 7  94558991.75507     -1921.324 7        45.848    24096271.432 8  97025702.57008     -1971.476 8        48.097
E10        29.000    25763343.999 7 135387522.98507      1454.425 7        47.719                                                                    25763342.966 7 101100964.46607      1086.135 7        47.241    25763343.146 8 103738320.71608      1114.433 8        48.384
R21        30.000    22301243.609 6 119338733.58606     -5197.540 6        38.252                                                                    22301242.755 6  92818820.76906     -4042.443 6        39.339
C20        31.000                                                                                                                                    23271531.820 7 121181121.31907      1059.664 7        46.775                                                                    23271523.204 7  98469442.51307       861.191 7        43.365
R23        33.000    21161451.308 8 113199437.90308      2066.618 8        49.125
R07        34.000    19510207.404 6 104439637.88506      -404.337 6        41.580                                                                    19510206.780 5  81230865.48605      -314.511 5        35.105
R22        35.000    19591274.288 8 104579552.87808     -1689.670 8        52.419                                                                    19591271.919 8  81339639.81808     -1314.204 8        48.473
C32        36.000                                                                                                                                    22193399.631 8 115566824.16808     -1821.306 8        48.863                                                                    22193400.749 8  93907559.42908     -1479.846 8        50.351
C25        37.000                                                                                                                                    25521686.593 5 132898169.45905      -877.315 5        32.018
C30        38.000                                                                                                                                                                                                                                                                    23595680.207 5  99841056.06605     -2873.466 5        35.138
C35        41.000                                                                                                                                    26732930.837 3                      2060.110 3        22.152                                                                    26732890.980 4 113115625.92704      1673.646 4        27.090
C16        45.000                                                                                                                                    38871658.196 5 202415043.01005      -991.306 5        34.186    38871660.501 6 156520060.83006      -766.734 6        36.567    38871655.239 4                      -805.449 4        28.550
C39        46.000                                                                                                                                    39212229.665 4 204188291.49804     -1416.435 4        26.922                                                                    39212193.025 5                     -1151.351 5        31.147
C09        47.000                                                                                                                                    38723155.706 6 201641623.62706      -375.695 6        40.443    38723150.063 7 155922097.01107      -290.375 7        43.805    38723147.828 7 163850301.93607      -305.136 7        42.021
C41        49.000                                                                                                                                    25841661.487 3                     -3631.575 3        23.314                                                                    25841680.315 5                     -2951.610 5        32.892
C06        50.000                                                                                                                                    38394070.073 6 199927999.04206      -887.930 6        39.748    38394064.362 6 154597123.73506      -686.734 6        39.480    38394062.474 6 162457843.31906      -721.411 6        36.079
C29        54.000                                                                                                                                    23068426.577 6 120123350.30806      -476.857 6        41.187                                                                    23068425.841 5  97610081.90005      -387.420 5        33.048
I01        57.000   378087303.915 6 180554989.40806     -2943.528 6        40.369
I09        58.000    37392711.223 5 146737032.53005      -823.358 5        32.042
> 2025 01 02 02 02 20.0000000  0 39
G03         1.000    20229535.867 7 106306905.99107     -1704.845 7        42.629                                    20229531.133 6  82836560.25706     -1328.447 6        39.538    20229533.069 6  82836587.28006     -1328.464 6        40.956
G19         2.000    22420661.322 6 117821350.08306     -1024.879 6        36.832                                    22420663.504 1  91808801.31301      -798.553 1         7.375
G28         3.000    23891577.637 5 125551079.62705     -2860.149 5        32.695                                                                                                    23891584.979 4                     -2228.781 4        26.563
G02         4.000    22875017.886 7 120209121.51707     -3799.997 7        43.376                                    22875013.532 4  93669412.90204     -2961.033 4        26.084
E07         5.000                                                                                                                                    27776177.250 4                     -2732.170 4        24.571
G09         6.000    22045029.300 6 115847398.59406      2069.652 6        39.294                                    22045022.805 4  90270711.90004      1612.724 4        28.142    22045025.388 6  90270693.90006      1612.743 6        36.253
G21         8.000    24616765.372 3                     -4103.220 3        23.295
G31        10.000    22356221.963 6 117482756.53306     -1202.528 6        40.188                                    22356216.299 5  91544925.16005      -937.036 5        35.457    22356217.074 7  91544996.15107      -936.983 7        42.385
G17        11.000    22962339.152 7 120668017.62907     -2690.858 7        42.428                                    22962332.032 4  94026964.88604     -2096.774 4        26.695    22962340.048 5  94026910.92705     -2096.763 5        32.760
G04        12.000    20547834.124 6 107979640.67906       573.118 6        41.328                                    20547826.948 4  84139902.17404       446.574 4        26.790    20547829.552 7  84139926.14107       446.609 7        42.916
E12        13.000    24450280.208 5                       410.169 5        31.962                                                                    24450280.715 6  95948163.12306       306.139 6        36.991    24450282.761 6  98451231.96006       314.124 6        38.171
E29        14.000    23851566.487 7 125340817.33407     -1886.927 7        47.920                                                                    23851563.823 8  93598655.39108     -1409.092 8        51.645    23851563.101 8  96040404.26408     -1445.900 8        48.891
G06        15.000    23460252.538 7 123284478.45507      2314.715 7        45.077                                    23460249.553 6  96065847.54106      1803.675 6        37.701    23460251.340 6  96065840.53306      1803.740 6        39.063
E11        16.000    28026273.413 5 147279065.95005      2059.582 5        33.748                                                                    28026283.446 5 109981109.58905      1538.080 5        31.985    28026269.221 5 112850210.29305      1578.326 5        33.054
R08        18.000    22219928.795 6 118986651.76206      2248.563 6        38.102                                                                    22219937.747 5  92545157.98105      1748.830 5        30.709
E19        20.000    23532330.844 6 123663231.20406       584.970 6        41.857                                                                    23532326.456 5  92345930.24505       436.957 5        35.357    23532327.350 6  94754941.58506       448.411 6        41.626
R06        21.000    20733533.092 6 110638120.07106     -3486.855 6        37.036
R15        22.000    23395639.474 6 125019314.00016     -1642.904 6        38.685                                                                    23395675.163 4                     -1277.856 4        29.611
S36        23.000    38339719.206 6 201476620.76706      -851.434 6        36.480
S23        24.000    38286879.321 6 201198862.63206      -847.752 6        41.027
E33        28.000    24098722.615 7 126639630.27407     -2574.709 7        44.718                                                                    24098720.595 7  94568601.87207     -1922.590 7        45.618    24098720.190 7  97035563.38507     -1972.771 7        47.698
E10        29.000    25761960.720 7 135380253.44807      1453.432 7        47.393                                                                    25761959.548 7 101095535.92307      1085.345 7        47.278    25761959.715 8 103732750.55508      1113.682 8        48.341
R21        30.000    22306100.485 6 119364725.21306     -5199.347 6        36.726                                                                    22306099.536 6  92839036.47006     -4043.815 6        38.700
C20        31.000                                                                                                                                    23270515.032 7 121175826.35307      1058.406 7        47.253                                                                    23270506.116 7  98465139.93707       860.029 7        42.954
R23        33.000    21159520.240 8 113189112.94908      2063.519 8        49.027
R07        34.000    19510587.757 7 104441666.92407      -407.171 7        42.144                                                                    19510587.352 6  81232443.62606      -316.598 6        38.195
R22        35.000    19592858.703 8 104588012.24608     -1694.074 8        52.086                                                                    19592856.771 8  81346219.32308     -1317.621 8        48.530
C32        36.000                                                                                                                                    22195149.002 8 115575934.20308     -1822.675 8        48.495                                                                    22195150.057 8  93914962.07208     -1481.039 8        50.244
C25        37.000                                                                                                                                    25522529.770 5 132902563.01105      -880.037 5        31.608
C30        38.000                                                                                                                                                                                                                                                                    23599078.125 5  99855427.14305     -2874.937 5        35.729
C35        41.000                                                                                                                                    26730960.430 4                      2057.806 4        24.767                                                                    26730914.039 4 113107262.68904      1672.375 4        26.742
C16        45.000                                                                                                                                    38872611.039 5 202420001.97005      -992.144 5        34.414    38872613.881 6 156523895.42106      -767.223 6        37.474    38872606.661 4                      -806.200 4        27.401
C39        46.000                                                                                                                                    39213596.726 4 204195377.96604     -1416.000 4        24.617                                                                    39213553.847 5                     -1151.965 5        31.804
C09        47.000                                                                                                                                    38723516.784 6 201643503.83406      -376.377 6        40.234    38723511.152 7 155923550.93307      -291.110 7        43.863    38723508.796 6 163851829.77606      -305.927 6        41.979
C41        49.000                                                                                                                                                                                                                                                                    25845168.623 5                     -2951.768 5        32.629
C06        50.000                                                                                                                                    38394923.404 6 199932440.68806      -888.738 6        39.736    38394917.105 6 154600558.28906      -687.124 6        39.219    38394915.350 5 162461452.53605      -722.079 5        35.924
C29        54.000                                                                                                                                    23068887.943 7 120125742.22107      -479.834 7        42.954                                                                    23068885.425 5  97612025.53805      -390.113 5        34.671
I01        57.000   378091054.793 6 180569706.73306     -2943.445 6        40.434
I09        58.000    37393760.297 5 146741149.55905      -823.406 5        32.234
> 2025 01 02 02 02 25.0000000  0 39
G03         1.000    20231158.522 7 106315435.03607     -1706.804 7        43.863                                    20231154.296 6  82843206.25906     -1329.972 6        39.363    20231156.427 6  82843233.28506     -1329.985 6        40.906
G19         2.000    22421640.444 6 117826483.11106     -1028.348 6        38.165                                    22421640.433 1  91812801.13501      -801.147 1         8.000
G28         3.000    23894305.643 5 125565385.88705     -2862.610 5        32.287                                                                                                    23894305.286 4                     -2231.083 4        27.317
G02         4.000    22878634.077 7 120228125.24807     -3801.598 7        43.281                                    22878629.121 4  93684220.98104     -2962.280 4        25.699
E07         5.000                                                                                                                                    27779658.923 3                     -2731.846 3        23.143
G09         6.000    22043061.460 6 115837054.30706      2068.001 6        37.853                                    22043055.408 5  90262651.40605      1611.434 5        30.000    22043058.336 6  90262633.40606      1611.594 6        37.512
G21         8.000    24620670.860 3                     -4104.436 3        22.590
G31        10.000    22357368.145 6 117488778.30306     -1206.228 6        40.005                                    22357362.411 6  91549617.44206      -939.914 6        36.261    22357363.256 7  91549688.42307      -939.781 7        42.855
G17        11.000    22964899.088 6 120681477.71006     -2693.328 6        40.029                                    22964894.544 4  94037453.24404     -2098.687 4        25.669    22964895.192 5  94037399.23305     -2098.617 5        32.719
G04        12.000    20547290.474 6 107976781.52606       570.523 6        41.299                                    20547283.002 4  84137674.25704       444.563 4        27.844    20547285.929 7  84137698.23307       444.506 7        43.344
E12        13.000    24449900.795 5                       408.363 5        32.802                                                                    24449891.606 6  95946635.08106       304.803 6        36.854    24449893.038 6  98449664.06906       312.966 6        38.441
E29        14.000    23853362.814 8 125350256.32508     -1888.688 8        48.469                                                                    23853359.990 8  93605703.98308     -1410.338 8        51.423    23853359.217 8  96047636.73308     -1447.118 8        48.728
G06        15.000    23458050.321 7 123272907.81707      2313.476 7        44.301                                    23458048.213 6  96056831.45406      1802.714 6        37.531    23458049.460 6  96056824.46306      1802.642 6        39.510
E11        16.000    28024314.117 5 147268768.76605      2059.337 5        34.157                                                                    28024316.695 5 109973420.12605      1537.925 5        32.539    28024309.869 5 112842320.27505      1577.985 5        32.311
R08        18.000    22217830.851 6 118975412.31906      2247.131 6        39.664                                                                    22217837.545 5  92536416.17605      1747.864 5        34.067
E19        20.000    23531774.872 7 123660309.79007       583.333 7        42.288                                                                    23531770.381 5  92343748.68005       435.681 5        35.343    23531771.462 6  94752703.11606       446.908 6        41.483
R06        21.000    20736800.048 6 110655557.68306     -3488.424 6        36.117
R15        22.000    23397183.423 6 125027539.25406     -1646.927 6        36.117
S36        23.000    38340533.475 6 201480877.80506      -851.695 6        36.503
S23        24.000    38287681.852 6 201203100.93506      -847.558 6        40.968
E33        28.000    24101172.872 7 126652508.18007     -2576.422 7        44.248                                                                    24101171.287 7  94578218.50407     -1924.000 7        45.395    24101170.633 7  97045430.89407     -1974.217 7        47.313
E10        29.000    25760578.461 7 135372989.07807      1452.290 7        47.708                                                                    25760577.236 7 101090111.22707      1084.620 7        47.380    25760577.219 8 103727184.35208      1112.799 8        48.238
R21        30.000    22310959.001 6 119390724.44806     -5200.461 6        36.624                                                                    22310958.462 6  92859258.09106     -4044.759 6        38.174
C20        31.000                                                                                                                                    23269499.117 7 121170537.57507      1057.087 7        46.597                                                                    23269490.174 7  98460842.38507       858.929 7        42.726
R23        33.000    21157593.195 8 113178803.57908      2060.267 8        48.945
R07        34.000    19510969.229 6 104443709.05706      -409.896 6        40.651                                                                    19510967.962 6  81234031.95706      -318.654 6        39.492
R22        35.000    19594447.463 8 104596493.56408     -1698.478 8        51.872                                                                    19594445.448 8  81352815.90508     -1321.033 8        48.444
C32        36.000                                                                                                                                    22196899.557 8 115585051.27308     -1824.127 8        48.101                                                                    22196900.778 8  93922370.45908     -1482.374 8        49.991
C25        37.000                                                                                                                                    25523375.931 4 132906969.85904      -882.816 4        29.848
C30        38.000                                                                                                                                    23602471.905 5 122904308.25605     -3539.469 5        35.481                                                                    23602477.342 6  99869804.86806     -2876.238 6        37.221
C35        41.000                                                                                                                                    26728988.082 4                      2056.401 4        28.578                                                                    26728938.390 4 113098904.07704      1671.037 4        27.126
C16        45.000                                                                                                                                    38873563.222 5 202424964.78105      -992.885 5        34.676    38873568.016 6 156527733.00206      -767.793 6        38.276    38873559.703 4                      -807.371 4        26.898
C39        46.000                                                                                                                                    39214963.045 3                     -1417.469 3        23.295                                                                    39214915.837 5                     -1152.666 5        32.359
C09        47.000                                                                                                                                    38723879.392 6 201645387.95906      -377.170 6        40.086    38723873.265 7 155925007.86907      -291.844 7        43.930    38723870.630 6 163853360.79506      -306.601 6        41.948
C41        49.000                                                                                                                                                                                                                                                                    25848656.435 5                     -2952.078 5        32.641
C06        50.000                                                                                                                                    38395776.467 6 199936886.36406      -889.539 6        39.495    38395770.976 6 154603995.97906      -687.908 6        39.123    38395768.938 5 162465065.01605      -722.914 5        35.943
C29        54.000                                                                                                                                    23069349.970 7 120128148.20207      -482.671 7        43.653                                                                    23069348.022 5  97613980.55405      -392.303 5        35.838
I01        57.000   378094805.778 6 180584424.41706     -2943.703 6        40.577
I09        58.000    37394810.211 5 146745267.12805      -823.633 5        33.000
> 2025 01 02 02 02 30.0000000  0 39
G03         1.000    20232783.155 7 106323973.94607     -1708.630 7        44.767                                    20232779.351 6  82849859.95206     -1331.399 6        39.198    20232780.637 6  82849886.97606     -1331.432 6        41.247
G19         2.000    22422625.712 6 117831633.90606     -1031.809 6        37.183                                    22422620.792 1  91816814.74701      -804.096 1         6.500
G28         3.000    23897032.684 5 125579705.92005     -2865.150 5        32.922                                                                                                    23897035.806 4                     -2232.635 4        27.305
G02         4.000    22882252.369 7 120247136.50807     -3802.893 7        43.719                                    22882246.248 4  93699034.94504     -2963.275 4        25.383
E07         5.000                                                                                                                                    27783139.911 4                     -2732.662 4        24.602
G09         6.000    22041094.236 6 115826718.56906      2066.366 6        37.093                                    22041089.530 5  90254597.58805      1610.151 5        31.057    22041090.930 6  90254579.61306      1610.172 6        37.803
G21         8.000    24624589.365 4                     -4105.066 4        24.271
G31        10.000    22358518.050 6 117494818.15806     -1209.757 6        39.652                                    22358511.923 6  91554323.81506      -942.662 6        36.662    22358512.561 7  91554394.79207      -942.579 7        43.183
G17        11.000    22967462.212 6 120694949.24706     -2695.371 6        39.210                                    22967459.458 3  94047950.52203     -2100.273 3        23.962    22967456.575 5  94047896.52905     -2100.236 5        32.120
G04        12.000    20546748.854 6 107973935.51206       568.057 6        41.487                                    20546741.712 4  84135456.57204       442.649 4        28.294    20546744.601 7  84135480.54707       442.552 7        43.714
E12        13.000    24449512.864 5                       406.684 5        32.796                                                                    24449504.126 6  95945113.58106       303.617 6        37.353    24449504.709 6  98448102.87906       311.735 6        38.691
E29        14.000    23855160.755 8 125359703.80408     -1890.222 8        48.767                                                                    23855157.743 8  93612758.92008     -1411.552 8        51.245    23855156.910 8  96054875.70908     -1448.373 8        48.647
G06        15.000    23455849.794 7 123261343.51407      2312.219 7        43.139                                    23455848.050 6  96047820.30606      1801.730 6        36.911    23455849.150 6  96047813.29106      1801.972 6        40.062
E11        16.000    28022354.308 5 147258472.84605      2059.370 5        35.019                                                                    28022353.984 5 109965731.60205      1537.922 5        33.096    28022350.130 5 112834431.19505      1577.817 5        32.234
R08        18.000    22215735.844 6 118964180.52006      2245.745 6        39.805                                                                    22215740.423 5  92527680.32405      1747.086 5        34.295
E19        20.000    23531220.834 7 123657397.24007       581.841 7        42.709                                                                    23531216.370 5  92341573.73005       434.316 5        35.595    23531217.328 6  94750471.41906       445.765 6        41.573
R06        21.000    20740068.623 5 110673002.73005     -3489.461 5        35.148
R15        22.000    23398731.532 5                     -1651.097 5        33.234                                                                    23398772.888 4                     -1284.855 4        26.156
S36        23.000    38341342.910 6 201485136.01206      -851.809 6        36.752
S23        24.000    38288489.534 6 201207339.11406      -847.523 6        40.658
E33        28.000    24103624.983 7 126665395.12107     -2578.219 7        43.873                                                                    24103623.598 7  94587841.86007     -1925.299 7        45.264    24103622.810 7  97055305.29207     -1975.490 7        46.628
E10        29.000    25759197.490 7 135365730.15507      1451.288 7        47.454                                                                    25759195.963 7 101084690.61107      1083.763 7        47.509    25759195.802 8 103721622.31608      1112.047 8        48.180
R21        30.000    22315818.508 6 119416731.68606     -5202.145 6        38.405                                                                    22315818.356 6  92879485.91406     -4045.967 6        37.338
C20        31.000                                                                                                                                    23268484.015 7 121165255.28807      1055.923 7        45.794                                                                    23268475.739 7  98456550.10207       858.069 7        42.470
R23        33.000    21155668.767 8 113168510.14508      2057.238 8        48.266
R07        34.000    19511351.128 6 104445764.84706      -412.347 6        38.895                                                                    19511350.431 6  81235630.92506      -320.753 6        39.141
R22        35.000    19596040.411 8 104604997.11208     -1702.830 8        51.844                                                                    19596038.196 8  81359429.78108     -1324.452 8        48.289
C32        36.000                                                                                                                                    22198652.308 8 115594175.65308     -1825.506 8        48.120                                                                    22198652.872 8  93929784.76408     -1483.374 8        49.678
C25        37.000                                                                                                                                    25524223.041 4 132911390.16504      -885.239 4        29.147
C30        38.000                                                                                                                                                                                                                                                                    23605877.862 6  99884189.43706     -2877.518 6        38.574
C35        41.000                                                                                                                                    26727011.509 5                      2055.480 5        30.951                                                                    26726964.240 4 113090550.35704      1670.027 4        26.970
C16        45.000                                                                                                                                    38874518.391 5 202429931.71805      -993.685 5        35.109    38874521.767 6 156531573.74506      -768.402 6        39.036    38874513.093 4                      -807.345 4        27.066
C39        46.000                                                                                                                                    39216328.917 3                     -1418.315 3        20.381                                                                    39216277.893 5                     -1153.021 5        32.419
C09        47.000                                                                                                                                    38724242.595 6 201647276.34606      -378.006 6        40.162    38724235.794 7 155926468.06907      -292.348 7        43.835    38724233.410 6 163854895.23606      -307.087 6        41.735
C41        49.000                                                                                                                                                                                                                                                                    25852144.672 5                     -2951.927 5        32.305
C06        50.000                                                                                                                                    38396630.670 6 199941336.36606      -890.448 6        39.456    38396625.455 6 154607436.99306      -688.586 6        39.096    38396623.350 5 162468680.99605      -723.455 5        35.590
C29        54.000                                                                                                                                    23069813.557 7 120130568.51307      -485.303 7        43.674                                                                    23069813.040 6  97615947.21906      -394.224 6        37.350
I01        57.000   378098556.020 6 180599142.68706     -2943.608 6        40.586
I09        58.000    37395859.443 5 146749385.34705      -823.768 5        33.096
> 2025 01 02 02 02 35.0000000  0 38
G03         1.000    20234409.570 7 106332522.26307     -1710.706 7        44.792                                    20234406.257 6  82856520.98106     -1333.017 6        38.979    20234407.337 6  82856548.02106     -1332.985 6        40.772
G19         2.000    22423611.544 6 117836802.04706     -1035.377 6        37.890                                    22423604.307 1  91820842.10701      -806.863 1         5.000
G28         3.000    23899761.623 5 125594039.23405     -2867.983 5        35.205
G02         4.000    22885871.868 7 120266154.86707     -3804.455 7        43.793                                    22885865.011 4  93713854.43204     -2964.506 4        25.519
E07         5.000                                                                                                                                    27786622.540 4                     -2732.540 4        24.632
G09         6.000    22039129.481 6 115816390.95506      2064.609 6        37.565                                    22039125.008 5  90246550.11305      1608.790 5        31.675    22039125.759 6  90246532.12806      1608.790 6        38.093
G31        10.000    22359670.633 6 117500875.70306     -1213.392 6        38.718                                    22359664.720 6  91559043.96506      -945.498 6        36.892    22359665.123 7  91559114.94707      -945.457 7        43.202
G17        11.000    22970029.791 6 120708431.86706     -2697.743 6        38.874                                    22970026.402 3  94058456.47803     -2102.142 3        21.548    22970026.549 5  94058402.46805     -2101.987 5        31.691
G04        12.000    20546209.620 6 107971102.14606       565.282 6        41.490                                    20546202.855 4  84133248.75904       440.486 4        28.559    20546205.703 7  84133272.72807       440.546 7        45.130
E12        13.000    24449122.854 5                       404.960 5        32.958                                                                    24449118.036 6  95943598.31306       302.380 6        37.754    24449118.781 6  98446548.08206       310.393 6        38.868
E29        14.000    23856959.876 8 125369159.32208     -1892.019 8        48.944                                                                    23856957.106 8  93619819.85808     -1412.869 8        50.966    23856956.087 8  96062120.83808     -1449.699 8        48.694
G06        15.000    23453649.966 7 123249785.07407      2311.021 7        42.392                                    23453648.955 6  96038813.72206      1800.793 6        36.147    23453649.589 6  96038806.73706      1800.606 6        40.241
E11        16.000    28020394.762 5 147248177.72005      2058.957 5        34.586                                                                    28020397.068 5 109958043.66505      1537.739 5        33.689    28020391.165 5 112826542.70205      1577.611 5        31.857
R08        18.000    22213640.373 6 118952955.96106      2243.967 6        39.637                                                                    22213645.889 5  92518950.11005      1745.707 5        34.543
E19        20.000    23530668.216 7 123654493.08607       579.812 7        42.946                                                                    23530663.721 5  92339405.07805       432.684 5        35.895    23530664.968 6  94748246.15506       444.425 6        41.847
R06        21.000    20743338.882 6 110690454.72206     -3491.227 6        36.246
R15        22.000    23400284.445 5 125044051.73315     -1655.555 5        33.353                                                                    23400321.053 3                     -1287.843 3        23.371
S36        23.000    38342153.110 6 201489394.73006      -851.681 6        36.537
S23        24.000    38289297.056 6 201211577.05706      -847.576 6        40.799
E33        28.000    24106078.931 7 126678290.57907     -2580.055 7        43.522                                                                    24106077.471 7  94597471.59307     -1926.716 7        44.992    24106076.704 7  97065186.23807     -1976.933 7        46.029
E10        29.000    25757817.019 7 135358476.21707      1450.202 7        47.260                                                                    25757815.581 7 101079273.71607      1082.881 7        47.338    25757815.416 8 103716064.11208      1111.172 8        48.203
R21        30.000    22320680.168 6 119442746.42006     -5203.647 6        38.805                                                                    22320679.926 6  92899719.61306     -4047.368 6        37.974
C20        31.000                                                                                                                                    23267471.465 7 121159979.04407      1054.561 7        45.717                                                                    23267462.608 7  98452262.73307       856.948 7        42.411
R23        33.000    21153746.888 8 113158232.20308      2053.943 8        48.052
R07        34.000    19511734.181 5 104447833.46705      -415.122 5        30.060                                                                    19511737.564 6  81237239.94506      -323.007 6        39.357
R22        35.000    19597637.659 8 104613522.38308     -1707.306 8        52.004                                                                    19597635.398 8  81366060.54408     -1327.982 8        48.344
C32        36.000                                                                                                                                    22200406.716 8 115603306.89108     -1826.992 8        48.353                                                                    22200406.212 8  93937204.66208     -1484.569 8        49.137
C25        37.000                                                                                                                                    25525075.858 4 132915823.59204      -887.893 4        27.389
C30        38.000                                                                                                                                    23609289.215 6 122939721.00906     -3543.035 6        40.498                                                                    23609279.447 6  99898580.51606     -2879.001 6        39.483
C35        41.000                                                                                                                                    26725035.830 5                      2054.237 5        32.293                                                                    26724990.996 4 113082201.28104      1669.551 4        27.569
C16        45.000                                                                                                                                    38875472.565 5 202434902.32405      -994.755 5        34.376    38875476.945 6 156535417.34606      -769.179 6        39.550    38875467.574 4                      -807.717 4        25.699
C39        46.000                                                                                                                                                                                                                                                                    39217640.436 5                     -1153.740 5        32.832
C09        47.000                                                                                                                                    38724606.375 6 201649168.46706      -378.826 6        39.907    38724598.620 7 155927931.18707      -293.027 7        43.674    38724596.599 6 163856432.76506      -307.724 6        41.764
C41        49.000                                                                                                                                    25855652.264 4                     -3632.874 4        25.068                                                                    25855634.330 5                     -2952.129 5        31.577
C06        50.000                                                                                                                                    38397486.582 6 199945790.20406      -891.426 6        39.354    38397480.804 6 154610880.96606      -689.164 6        39.207    38397478.585 5 162472300.10205      -724.072 5        35.329
C29        54.000                                                                                                                                    23070280.507 7 120133002.70707      -488.317 7        44.150                                                                    23070280.451 6  97617925.24206      -396.914 6        38.270
I01        57.000   378102306.560 6 180613861.19606     -2943.865 6        40.434
I09        58.000    37396908.837 5 146753503.94205      -823.725 5        32.742
> 2025 01 02 02 02 40.0000000  0 39
G03         1.000    20236037.312 7 106341080.88707     -1712.907 7        43.886                                    20236035.153 6  82863190.05206     -1334.735 6        38.544    20236035.835 6  82863217.09606     -1334.767 6        40.210
G19         2.000    22424599.017 6 117841988.37506     -1039.348 6        36.715                                    22424591.266 1  91824883.38401      -809.903 1         6.750
G28         3.000    23902496.853 5 125608386.73605     -2871.323 5        34.852
G02         4.000    22889492.974 7 120285181.18507     -3806.317 7        44.131                                    22889485.411 4  93728680.12404     -2965.959 4        25.398
E07         5.000                                                                                                                                    27790105.514 3                     -2732.403 3        23.543
G09         6.000    22037166.828 6 115806072.35206      2062.631 6        38.970                                    22037161.908 5  90238509.64505      1607.247 5        32.844    22037161.411 6  90238491.65606      1607.271 6        38.081
G21         8.000    24632426.805 4                     -4105.841 4        25.489
G31        10.000    22360826.816 6 117506951.82106     -1217.417 6        38.724                                    22360820.970 6  91563778.59606      -948.632 6        36.881    22360820.982 7  91563849.59107      -948.552 7        43.162
G17        11.000    22972599.156 6 120721926.41206     -2700.324 6        37.849                                    22972595.689 3  94068971.72203     -2104.159 3        19.463    22972601.117 4  94068917.71504     -2103.722 4        29.791
G04        12.000    20545672.459 6 107968282.33506       562.416 6        41.211                                    20545666.649 4  84131051.49604       438.253 4        28.872    20545669.335 7  84131075.47507       438.265 7        46.313
E12        13.000    24448736.474 5                       403.012 5        32.030                                                                    24448733.433 6  95942089.91606       300.876 6        37.750    24448734.131 6  98445000.35506       308.643 6        38.535
E29        14.000    23858760.898 8 125378623.75108     -1893.945 8        48.840                                                                    23858758.235 8  93626887.45408     -1414.375 8        50.800    23858757.041 8  96069372.80308     -1451.241 8        48.621
G06        15.000    23451451.572 7 123238233.41807      2309.510 7        42.125                                    23451451.112 5  96029812.43705      1799.623 5        35.243    23451450.971 6  96029805.44606      1799.699 6        39.730
E11        16.000    28018436.082 5 147237884.27605      2058.322 5        35.171                                                                    28018439.542 5 109950357.02605      1536.984 5        33.904    28018431.723 5 112818655.51705      1577.330 5        30.634
R08        18.000    22211543.315 6 118941739.39306      2242.217 6        39.036                                                                    22211553.137 5  92510226.12605      1743.979 5        33.455
E19        20.000    23530116.791 7 123651598.24307       577.806 7        42.754                                                                    23530113.048 6  92337243.33606       431.504 6        36.397    23530114.240 6  94746028.04206       442.706 6        41.993
R06        21.000    20746611.225 6 110707914.64406     -3493.031 6        36.953
R15        22.000    23401837.202 5                     -1659.955 5        35.119                                                                    23401872.224 3                     -1291.592 3        23.257
S36        23.000    38342963.095 6 201493653.62806      -851.928 6        36.144
S23        24.000    38290100.199 6 201215815.53706      -847.978 6        40.760
E33        28.000    24108535.174 7 126691195.48507     -2582.159 7        43.500                                                                    24108533.129 7  94607108.37707     -1928.215 7        44.710    24108532.520 7  97075074.42507     -1978.525 7        45.236
E10        29.000    25756437.540 7 135351228.18807      1448.765 7        47.097                                                                    25756436.348 7 101073861.22307      1081.879 7        47.442    25756436.135 8 103710510.42108      1110.130 8        48.078
R21        30.000    22325543.270 6 119468769.44906     -5205.733 6        38.153                                                                    22325542.321 6  92919959.74806     -4048.857 6        37.924
C20        31.000                                                                                                                                    23266460.649 7 121154709.71707      1053.039 7        45.309                                                                    23266450.990 7  98447980.97307       855.531 7        42.590
R23        33.000    21151828.643 8 113147970.71808      2050.371 8        48.056
R07        34.000    19512123.740 5 104449916.45005      -418.394 5        33.114                                                                    19512127.679 6  81238860.02706      -325.338 6        39.159
R22        35.000    19599239.186 8 104622070.33308     -1712.076 8        52.133                                                                    19599236.535 8  81372708.95308     -1331.613 8        48.094
C32        36.000                                                                                                                                    22202162.234 8 115612445.87908     -1828.764 8        48.270                                                                    22202161.058 8  93944630.83308     -1486.035 8        48.804
C25        37.000                                                                                                                                    25525929.478 4 132920270.90904      -889.914 4        24.060
C30        38.000                                                                                                                                    23612691.900 6 122957440.14006     -3544.904 6        41.774                                                                    23612682.557 6  99912978.73806     -2880.512 6        40.293
C35        41.000                                                                                                                                    26723061.447 5                      2052.982 5        33.078                                                                    26723019.091 4 113073857.40304      1668.373 4        28.076
C16        45.000                                                                                                                                    38876427.098 5 202439877.48005      -995.571 5        34.519    38876432.808 6 156539264.43906      -769.871 6        39.556    38876422.275 4                      -808.867 4        26.024
C39        46.000                                                                                                                                                                                                                                                                    39219004.245 5                     -1154.320 5        33.437
C09        47.000                                                                                                                                    38724970.256 6 201651065.23206      -380.055 6        39.513    38724963.197 7 155929397.89707      -293.902 7        43.409    38724960.826 6 163857974.03806      -308.709 6        41.855
C41        49.000                                                                                                                                    25859135.493 4                     -3631.744 4        25.444                                                                    25859123.569 5                     -2952.254 5        31.479
C06        50.000                                                                                                                                    38398342.752 6 199950248.78006      -892.365 6        39.489    38398336.950 6 154614328.64306      -690.148 6        39.078    38398335.042 5 162475923.06805      -725.159 5        35.476
C29        54.000                                                                                                                                    23070751.148 7 120135451.64007      -491.456 7        45.058                                                                    23070750.017 6  97619915.21506      -399.397 6        38.901
I01        57.000   378106057.477 6 180628580.59806     -2944.251 6        40.424
I09        58.000    37397959.402 5 146757623.59805      -824.051 5        32.910
