     3.04           OBSERVATION DATA    M                   RINEX VERSION / TYPE
ssrcrin-15.6.1x                         20250102 034500 UTC PGM / RUN BY / DATE 
(00000000023479385599111004) Septentrio proprietary         COMMENT             
ract                                                        MARKER NAME         
01                                                          MARKER NUMBER       
geodetic                                                    MARKER TYPE         
NFB                 CLIMERS@TUW                             OBSERVER / AGENCY   
3296359             SEPT ASTERX SB3 PROB4.14.4              REC # / TYPE / VERS 
Unknown             Unknown                                 ANT # / TYPE        
  4127446.4280  1206914.8552  4695542.8799                  APPROX POSITION XYZ 
        0.0000        0.0000        0.0000                  ANTENNA: DELTA H/E/N
G   23 X1  C1C L1C D1C S1C C1W S1W C2W L2W D2W S2W C2L L2L  SYS / # / OBS TYPES 
       D2L S2L C5Q L5Q D5Q S5Q C1L L1L D1L S1L              SYS / # / OBS TYPES 
E   21 X1  C1C L1C D1C S1C C6C L6C D6C S6C C5Q L5Q D5Q S5Q  SYS / # / OBS TYPES 
       C7Q L7Q D7Q S7Q C8Q L8Q D8Q S8Q                      SYS / # / OBS TYPES 
S    9 X1  C1C L1C D1C S1C C5I L5I D5I S5I                  SYS / # / OBS TYPES 
R   17 X1  C1C L1C D1C S1C C2P L2P D2P S2P C2C L2C D2C S2C  SYS / # / OBS TYPES 
       C3Q L3Q D3Q S3Q                                      SYS / # / OBS TYPES 
C   25 X1  C1P L1P D1P S1P C5P L5P D5P S5P C2I L2I D2I S2I  SYS / # / OBS TYPES 
       C7I L7I D7I S7I C6I L6I D6I S6I C7D L7D D7D S7D      SYS / # / OBS TYPES 
J   17 X1  C1C L1C D1C S1C C2L L2L D2L S2L C5Q L5Q D5Q S5Q  SYS / # / OBS TYPES 
       C1L L1L D1L S1L                                      SYS / # / OBS TYPES 
I    5 X1  C5A L5A D5A S5A                                  SYS / # / OBS TYPES 
SEPTENTRIO RECEIVERS OUTPUT ALIGNED CARRIER PHASES.         COMMENT             
NO FURTHER PHASE SHIFT APPLIED IN THE RINEX ENCODER.        COMMENT             
G L1C                                                       SYS / PHASE SHIFT   
G L2W                                                       SYS / PHASE SHIFT   
G L2L  0.00000                                              SYS / PHASE SHIFT   
G L5Q  0.00000                                              SYS / PHASE SHIFT   
G L1L  0.00000                                              SYS / PHASE SHIFT   
E L1C  0.00000                                              SYS / PHASE SHIFT   
E L6C  0.00000                                              SYS / PHASE SHIFT   
E L5Q  0.00000                                              SYS / PHASE SHIFT   
E L7Q  0.00000                                              SYS / PHASE SHIFT   
E L8Q  0.00000                                              SYS / PHASE SHIFT   
S L1C                                                       SYS / PHASE SHIFT   
S L5I                                                       SYS / PHASE SHIFT   
R L1C                                                       SYS / PHASE SHIFT   
R L2P  0.00000                                              SYS / PHASE SHIFT   
R L2C                                                       SYS / PHASE SHIFT   
R L3Q  0.00000                                              SYS / PHASE SHIFT   
C L1P  0.00000                                              SYS / PHASE SHIFT   
C L5P  0.00000                                              SYS / PHASE SHIFT   
C L2I                                                       SYS / PHASE SHIFT   
C L7I                                                       SYS / PHASE SHIFT   
C L6I                                                       SYS / PHASE SHIFT   
C L7D                                                       SYS / PHASE SHIFT   
J L1C                                                       SYS / PHASE SHIFT   
J L2L  0.00000                                              SYS / PHASE SHIFT   
J L5Q  0.00000                                              SYS / PHASE SHIFT   
J L1L  0.00000                                              SYS / PHASE SHIFT   
I L5A                                                       SYS / PHASE SHIFT   
  2025     1     2     3    45    0.0000000     GPS         TIME OF FIRST OBS   
 C1C    0.000 C2C    0.000 C2P    0.000                     GLONASS COD/PHS/BIS 
DBHZ                                                        SIGNAL STRENGTH UNIT
    18                                                      LEAP SECONDS        
 24 R01  1 R02 -4 R03  5 R04  6 R05  1 R06 -4 R07  5 R08  6 GLONASS SLOT / FRQ #
    R09 -2 R10 -7 R11  0 R12 -1 R13 -2 R14 -7 R15  0 R16 -1 GLONASS SLOT / FRQ #
    R17  4 R18 -3 R19  3 R20  2 R21  4 R22 -3 R23  3 R24  2 GLONASS SLOT / FRQ #
                                                            END OF HEADER       
> 2025 01 02 03 45  0.0000000  0 39
G03         1.000    22338278.574 6 117388437.55506     -3804.376 6        40.825                                    22338277.347 5  91471484.13505     -2964.450 5        32.677    22338276.810 6  91471520.10806     -2964.555 6        38.120
G20         4.000    24730566.532 5 129960089.29105      2589.493 5        31.909
G07         5.000    22543914.127 6 118469061.70506      2008.600 6        41.995                                    22543908.101 1  92313525.44901      1565.100 1         8.286    22543955.683 3                      1565.925 3        20.524
G09         6.000    19912092.219 8 104638749.20508      -590.208 8        50.780                                    19912090.436 7  81536701.86307      -459.900 7        46.652    19912089.189 6  81536688.85806      -459.951 6        41.793
G31        10.000    24789287.123 3                     -4456.478 3        23.562                                                                                                    24789247.668 3                     -3473.464 3        19.224
E06        11.000    27287138.775 5                      1710.190 5        31.570                                                                    27287112.595 4                      1276.272 4        26.551
G04        12.000    20513617.535 7 107799829.04307     -2384.862 7        43.602                                    20513612.021 5  83999789.40905     -1858.334 5        32.880    20513613.333 7  83999813.42607     -1858.298 7        46.182
E12        13.000    24289267.784 6 127640989.06206     -2286.448 6        40.496                                                                    24289265.513 6  95316303.91706     -1707.441 6        40.808    24289266.215 6  97802838.38906     -1751.928 6        37.652
E29        14.000    25766278.104 6 135402696.59106     -3162.686 6        39.997                                                                    25766275.870 6 101112394.62306     -2361.644 6        39.072    25766276.690 7 103750154.11307     -2423.329 7        42.318
G06        15.000    21109012.873 8 110928602.17008      -818.585 8        50.760                                    21109008.754 7  86437862.26007      -637.856 7        44.877    21109010.924 7  86437960.27307      -637.896 7        42.233
E11        16.000    25002316.732 6 131388409.10606       675.104 6        41.452                                                                    25002311.099 7  98114465.35307       504.051 7        42.354    25002311.144 6 100673955.09506       517.258 6        41.452
E04        17.000    25081275.665 7 131802984.02007      1162.318 7        43.378                                                                    25081270.727 6  98424366.25806       867.748 6        37.043    25081270.347 6 100991902.22206       890.488 6        39.207
R08        18.000    19665448.403 8 105307746.49908        30.402 8        48.915                                                                    19665445.386 7  81905996.12707        23.692 7        42.019
E19        20.000    22887942.298 7 120276950.80907     -1433.945 7        44.396                                                                    22887938.592 7  89817215.11307     -1070.855 7        45.061    22887938.683 7  92160259.89907     -1098.856 7        47.068
S36        23.000    38139314.019 5 200423543.07105      -851.963 5        34.905
S23        24.000    38081629.636 6 200120275.61506      -847.972 6        39.919
G11        25.000    23027714.282 6 121011433.67006      1600.712 6        41.764                                    23027708.585 4  94294658.27904      1247.310 4        27.808    23027709.237 6  94294627.26206      1247.410 6        41.919
R16        26.000    22862279.806 6 122126141.71906     -3380.907 6        36.457                                                                    22862309.614 5                     -2629.606 5        34.362
E33        28.000    26978417.714 5 141772500.86905     -4106.621 5        32.910                                                                    26978407.429 5 105869084.09305     -3066.420 5        31.977    26978406.064 3                     -3146.221 3        21.786
E10        29.000    24050191.472 7 126384699.08407      -877.156 7        47.023                                                                    24050190.196 8  94378167.88608      -654.969 8        50.395    24050189.496 8  96840294.26108      -672.077 8        50.022
C20        31.000                                                                                                                                    21803424.840 7 113536311.88607      -633.864 7        46.830                                                                    21803419.013 7  92257431.88207      -515.000 7        46.931
R23        33.000    20546053.484 7 109907773.33607     -3258.453 7        44.709
R07        34.000    20403169.033 8 109219756.54208     -2949.271 8        49.206                                                                    20403164.707 4  84948881.60404     -2293.551 4        29.251
R22        35.000    22897842.567 4 122230227.31104     -5310.986 4        29.081                                                                    22897859.643 4  95068040.81104     -4131.696 4        24.617
C32        36.000                                                                                                                                                                                                                                                                    24011533.253 5 101600749.65605     -2545.304 5        31.132
R09        37.000    21067451.987 4                       312.618 4        29.469                                                                    21067460.191 3                       242.652 3        20.714
C23        40.000                                                                                                                                    24521474.979 6 127689760.70606     -1573.534 6        40.660                                                                    24521467.041 7 103758414.86207     -1278.680 7        42.398
C35        41.000                                                                                                                                    24509209.787 6 127625985.63506      -674.168 6        36.813                                                                    24509217.993 5 103706500.71705      -547.821 5        30.823
C37        42.000                                                                                                                                    23861263.225 6 124251992.39506      1208.783 6        41.828                                                                    23861268.706 6 100964801.85006       982.178 6        36.276
R24        43.000    21679972.379 6 115932368.10906      1222.254 6        39.057                                                                    21679960.415 7  90169701.46807       950.685 7        42.921
R01        44.000    23196206.840 5 123997060.19305      2361.335 5        34.548
C16        45.000                                                                                                                                    39340626.003 5 204857007.23105     -1728.214 5        32.275    39340608.002 5 158408334.98705     -1336.594 5        33.533
C39        46.000                                                                                                                                    40096161.279 4                     -1990.175 4        25.564                                                                    40096143.899 4                     -1617.090 4        27.198
C09        47.000                                                                                                                                    38526230.423 5 200616211.89805     -1252.760 5        32.162    38526244.470 5 155129278.01305      -968.403 5        33.371    38526227.920 5 163017085.70605     -1017.736 5        30.166
C19        48.000                                                                                                                                    24081577.434 7 125399075.65907      1473.527 7        44.305                                                                    24081572.444 7 101897004.77607      1197.301 7        42.631
C06        50.000                                                                                                                                                                                                    38776755.479 5 156137782.69105     -1307.099 5        32.006    38776720.531 5                     -1373.329 5        30.000
C29        54.000                                                                                                                                    24382854.333 5 126968126.05805     -3456.449 5        34.819                                                                    24382833.585 3                     -2806.658 3        20.643
I09        58.000    37608904.001 6 147585414.73706      -973.362 6        37.501
I06        59.000    37931893.003 6 148852899.06106      -588.500 6        36.181
> 2025 01 02 03 45  5.0000000  0 38
G03         1.000    22341899.111 6 117407462.18906     -3805.615 6        40.343                                    22341897.850 5  91486308.53205     -2965.419 5        33.030    22341897.635 6  91486344.53406     -2965.455 6        38.486
G20         4.000    24728104.380 5 129947140.50705      2589.632 5        31.668
G07         5.000    22542002.384 6 118459021.92006      2007.146 6        41.774                                    22541997.739 1  92305702.28001      1564.046 1        10.074
G09         6.000    19912654.565 8 104641705.32408      -592.469 8        50.799                                    19912652.935 7  81539005.33307      -461.663 7        46.295    19912652.274 6  81538992.30906      -461.603 6        41.740
G31        10.000    24793529.615 4                     -4459.185 4        24.150
E06        11.000    27285514.216 5                      1709.659 5        30.166                                                                    27285485.693 4                      1276.784 4        25.338
G04        12.000    20515887.272 7 107811756.87307     -2386.631 7        43.592                                    20515881.714 5  84009083.82305     -1859.714 5        33.581    20515882.968 7  84009107.83407     -1859.654 7        46.173
E12        13.000    24291444.068 6 127652426.13006     -2288.432 6        40.083                                                                    24291442.115 6  95324844.59506     -1708.928 6        40.381    24291442.009 6  97811601.85206     -1753.486 6        37.845
E29        14.000    25769287.387 6 135418510.35306     -3163.101 6        40.157                                                                    25769285.159 6 101124203.58606     -2362.017 6        39.276    25769286.191 7 103762271.14607     -2423.695 7        42.017
G06        15.000    21109793.125 8 110932702.82908      -821.870 8        51.047                                    21109789.602 7  86441057.57607      -640.417 7        45.357    21109791.500 7  86441155.58007      -640.422 7        42.954
E11        16.000    25001675.200 6 131385038.11506       672.983 6        41.654                                                                    25001669.572 7  98111948.06207       502.537 7        42.438    25001669.841 6 100671372.13406       515.725 6        41.845
E04        17.000    25080169.564 7 131797174.80107      1161.359 7        42.789                                                                    25080165.378 6  98420028.22006       867.205 6        37.198    25080164.599 6 100987450.99806       889.873 6        38.276
R08        18.000    19665420.228 8 105307598.77108        28.538 8        48.818                                                                    19665417.684 7  81905881.24107        22.220 7        42.527
E19        20.000    22889307.020 7 120284123.70107     -1435.310 7        44.370                                                                    22889303.649 7  89822571.49007     -1071.881 7        45.270    22889303.727 7  92165756.00107     -1099.768 7        47.260
S36        23.000    38140126.227 5 200427802.60405      -852.138 5        34.671
S23        24.000    38082437.770 6 200124514.18206      -847.669 6        40.241
G11        25.000    23026192.389 6 121003435.48506      1598.417 6        41.092                                    23026186.646 4  94288425.91904      1245.523 4        27.617    23026187.297 7  94288394.91407      1245.554 7        42.510
R16        26.000                                                                                                                                    22865468.929 5  95000321.61515     -2632.080 5        33.281
E33        28.000    26982327.896 5 141793034.29105     -4106.935 5        32.461                                                                    26982314.864 5 105884417.50005     -3066.801 5        31.691    26982315.550 3                     -3147.139 3        23.886
E10        29.000    24051026.952 7 126389090.21607      -879.479 7        46.674                                                                    24051025.852 8  94381446.98108      -656.752 8        50.493    24051025.108 8  96843658.89708      -673.898 8        50.080
C20        31.000                                                                                                                                    21804033.861 7 113539483.86007      -635.190 7        46.735                                                                    21804028.192 7  92260009.36407      -516.045 7        47.143
R23        33.000    20549100.246 7 109924074.42707     -3262.267 7        44.539
R07        34.000    20405924.486 8 109234505.62108     -2950.585 8        50.064                                                                    20405920.751 4  84960353.14704     -2295.260 4        29.583
R22        35.000    22902816.833 4 122256786.60614     -5311.830 4        24.647
C32        36.000                                                                                                                                                                                                                                                                    24014541.857 5 101613478.41805     -2546.381 5        31.509
R09        37.000    21067166.706 6 112497472.13816       308.481 6        38.676                                                                    21067170.841 4                       239.888 4        28.787
C23        40.000                                                                                                                                    24522989.110 6 127697635.03406     -1576.278 6        40.381                                                                    24522979.721 7 103764813.39407     -1280.830 7        42.648
C35        41.000                                                                                                                                    24509859.548 6 127629362.26306      -676.836 6        39.949                                                                    24509871.476 5 103709244.51605      -549.672 5        31.502
C37        42.000                                                                                                                                    23860103.163 6 124245953.20006      1206.738 6        40.708                                                                    23860108.375 5 100959894.48805       980.564 5        35.329
R24        43.000    21678828.442 6 115926265.75806      1218.616 6        38.420                                                                    21678820.311 7  90164955.24407       947.649 7        43.799
C16        45.000                                                                                                                                    39342283.771 5 204865648.87105     -1728.607 5        32.425    39342267.379 5 158415017.22805     -1336.651 5        33.958
C39        46.000                                                                                                                                    40098061.141 4                     -1991.274 4        24.917                                                                    40098055.299 4                     -1617.366 4        27.006
C09        47.000                                                                                                                                    38527433.701 5 200622476.09105     -1253.182 5        31.283                                                                    38527430.630 5 163022175.93305     -1018.706 5        30.241
C19        48.000                                                                                                                                    24080162.183 7 125391709.45807      1472.834 7        44.081                                                                    24080157.540 6 101891019.10606      1196.822 6        41.983
C06        50.000                                                                                                                                                                                                    38778378.279 5 156144317.99705     -1307.565 5        31.313    38778343.811 4                     -1373.674 4        29.886
C29        54.000                                                                                                                                    24386176.215 5 126985411.34705     -3457.727 5        35.862                                                                    24386153.317 3                     -2810.034 3        19.582
I09        58.000    37610144.213 6 147590281.62706      -973.462 6        37.369
I06        59.000    37932642.945 6 148855841.13006      -588.506 6        36.212
> 2025 01 02 03 45 10.0000000  0 38
G03         1.000    22345520.707 6 117426493.04006     -3806.865 6        39.550                                    22345519.489 5  91501137.77505     -2966.395 5        33.257    22345518.671 6  91501173.75206     -2966.453 6        39.018
G20         4.000    24725639.187 5 129934191.77205      2589.605 5        31.479
G07         5.000    22540093.307 6 118448989.46306      2005.640 6        41.943                                    22540088.848 2  92297884.79202      1562.849 2        14.048
G09         6.000    19913218.920 8 104644672.43308      -594.620 8        50.631                                    19913217.321 7  81541317.36007      -463.343 7        46.051    19913215.770 6  81541304.35006      -463.474 6        41.263
G31        10.000    24797763.588 3                     -4459.943 3        23.924
E06        11.000    27283883.523 4                      1709.576 4        29.194                                                                    27283862.034 4                      1276.355 4        24.662
G04        12.000    20518158.383 7 107823693.50307     -2388.359 7        44.518                                    20518153.160 5  84018385.10205     -1861.061 5        34.081    20518154.143 7  84018409.10907     -1860.985 7        45.991
E12        13.000    24293622.863 6 127663874.03206     -2290.790 6        39.480                                                                    24293620.536 6  95333393.37206     -1710.691 6        39.766    24293620.264 6  97820373.63606     -1755.486 6        38.183
E29        14.000    25772297.115 6 135434326.03006     -3163.468 6        39.904                                                                    25772294.827 6 101136013.99006     -2362.391 6        39.847    25772295.527 6 103774389.64506     -2423.970 6        41.619
G06        15.000    21110576.474 8 110936820.24308      -825.226 8        50.660                                    21110573.571 7  86444265.94507      -643.032 7        45.783    21110575.167 7  86444363.94607      -643.080 7        43.081
E11        16.000    25001035.236 6 131381676.98406       671.094 6        41.893                                                                    25001030.001 7  98109438.13507       501.083 7        42.385    25001030.491 6 100668796.73506       514.116 6        41.945
E04        17.000    25079064.843 7 131791370.32307      1160.161 7        42.083                                                                    25079060.694 6  98415693.71606       866.534 6        37.112    25079060.179 6 100983003.39706       889.011 6        37.743
R08        18.000    19665393.878 8 105307460.44508        26.531 8        49.114                                                                    19665391.746 7  81905773.67107        20.684 7        44.134
E19        20.000    22890673.109 7 120291302.89307     -1436.593 7        44.272                                                                    22890669.866 7  89827932.56807     -1072.754 7        45.467    22890669.967 7  92171256.94207     -1100.775 7        47.392
S36        23.000    38140935.130 5 200432061.89105      -852.418 5        34.938
S23        24.000    38083246.405 6 200128752.52406      -847.698 6        40.150
G11        25.000    23024671.999 6 120995448.94506      1595.967 6        41.600                                    23024666.884 4  94282202.63804      1243.611 4        27.222    23024667.620 7  94282171.64107      1243.646 7        42.840
R16        26.000    22868646.011 5 122159983.44005     -3388.095 5        32.491
E33        28.000    26986236.298 5 141813569.78905     -4107.559 5        31.336                                                                    26986222.668 5 105899752.41005     -3067.188 5        31.381    26986223.721 4                     -3147.064 4        25.173
E10        29.000    24051864.647 7 126393493.38607      -882.018 7        46.467                                                                    24051863.819 8  94384735.07208      -658.680 8        50.598    24051862.947 8  96847032.76008      -675.846 8        50.061
C20        31.000                                                                                                                                    21804644.179 7 113542662.73607      -636.594 7        47.267                                                                    21804638.783 7  92262592.48907      -517.372 7        47.151
R23        33.000    20552151.277 7 109940395.00307     -3266.221 7        44.376
R07        34.000    20408682.120 8 109249261.29708     -2951.961 8        50.426                                                                    20408677.944 5  84971829.75005     -2296.071 5        31.306
C32        36.000                                                                                                                                    24017554.770 6 125065742.96216     -3134.139 6        37.161                                                                    24017551.165 5 101626210.00905     -2546.951 5        31.909
R09        37.000    21066881.303 7 112495939.64917       304.243 7        42.624                                                                    21066889.782 5                       236.668 5        34.924
C23        40.000                                                                                                                                    24524503.561 6 127705522.82806     -1578.991 6        39.769                                                                    24524494.925 7 103771222.89007     -1283.091 7        42.770
C35        41.000                                                                                                                                    24510514.660 7 127632752.64007      -679.637 7        42.783                                                                    24510526.866 5 103711999.53205      -552.134 5        31.253
C37        42.000                                                                                                                                    23858945.416 6 124239924.16706      1204.650 6        39.706                                                                    23858949.995 5 100954995.41205       978.979 5        34.433
R24        43.000    21677689.801 6 115920182.96406      1214.423 6        38.640                                                                    21677682.994 7  90160224.21507       944.560 7        43.661
R01        44.000    23191775.811 5 123973449.55805      2360.573 5        34.133
C16        45.000                                                                                                                                    39343942.489 5 204874291.92605     -1728.788 5        32.593    39343928.002 5 158421700.57005     -1336.842 5        34.133
C39        46.000                                                                                                                                    40099971.047 4                     -1990.194 4        25.098                                                                    40099966.958 4                     -1617.152 4        27.150
C09        47.000                                                                                                                                    38528635.263 5 200628742.61805     -1253.429 5        31.155    38528672.658 5 155138967.63905      -969.565 5        33.635    38528633.855 5 163027267.94705     -1018.602 5        30.725
C19        48.000                                                                                                                                    24078747.703 7 125384346.34307      1472.136 7        44.480                                                                    24078743.190 6 101885035.98606      1196.206 6        41.056
C06        50.000                                                                                                                                    38780016.232 4                     -1690.859 4        25.729    38780003.268 5 156150854.66205     -1307.778 5        30.943    38779967.917 4                     -1373.912 4        29.772
C29        54.000                                                                                                                                    24389497.776 6 127002703.29706     -3459.099 6        36.783                                                                    24389469.267 3                     -2805.899 3        18.716
I09        58.000    37611384.058 6 147595148.83006      -973.569 6        36.983
I06        59.000    37933392.721 6 148858783.14106      -588.382 6        36.242
> 2025 01 02 03 45 15.0000000  0 40
G03         1.000    22349143.887 6 117445530.46706     -3808.333 6        39.847                                    22349142.326 5  91515972.13905     -2967.535 5        33.222    22349141.237 6  91516008.11906     -2967.527 6        39.024
G19         2.000    24511846.233 3                     -3949.468 3        20.548
G20         4.000    24723176.629 5 129921243.47005      2589.485 5        31.019
G07         5.000    22538186.780 6 118438964.66706      2004.114 6        41.700                                    22538181.562 2  92290073.22802      1561.645 2        16.491    22538166.211 3                      1560.712 3        23.714
G09         6.000    19913785.477 8 104647650.92608      -597.052 8        49.971                                    19913783.634 7  81543638.25807      -465.233 7        45.562    19913782.043 6  81543625.22606      -465.115 6        39.928
G31        10.000    24802006.899 4                     -4461.909 4        25.880
E06        11.000    27282250.383 4                      1708.848 4        29.943
G04        12.000    20520431.337 7 107835639.29507     -2390.242 7        44.507                                    20520426.407 5  84027693.52105     -1862.527 5        34.310    20520427.650 7  84027717.52707     -1862.506 7        46.018
E12        13.000    24295803.467 6 127675333.09206     -2293.056 6        38.772                                                                    24295801.064 6  95341950.46606     -1712.340 6        38.805    24295801.021 6  97829153.94106     -1757.144 6        38.165
E29        14.000    25775306.776 6 135450143.96206     -3163.917 6        39.474                                                                    25775304.640 6 101147826.06506     -2362.716 6        40.286    25775305.420 6 103786509.86706     -2424.396 6        41.101
G06        15.000    21111363.086 8 110940954.77608      -828.775 8        49.938                                    21111360.648 7  86447487.65307      -645.797 7        45.893    21111361.148 7  86447585.65407      -645.757 7        42.252
E11        16.000    25000397.584 6 131378326.12206       669.065 6        41.294                                                                    25000392.233 7  98106935.86707       499.684 7        42.324    25000393.084 7 100666229.18707       512.642 7        42.144
E04        17.000    25077961.695 6 131785570.92706      1159.098 6        41.120                                                                    25077956.392 6  98411363.02006       865.579 6        37.202    25077957.364 6 100978559.68606       888.343 6        37.395
R08        18.000    19665369.826 8 105307331.76808        24.582 8        48.619                                                                    19665367.489 7  81905673.59907        19.079 7        43.854
E19        20.000    22892040.556 7 120298488.75107     -1437.998 7        44.032                                                                    22892037.513 7  89833298.63207     -1073.818 7        45.753    22892037.393 7  92176762.99107     -1101.821 7        47.503
S36        23.000    38141746.613 5 200436322.02105      -852.542 5        35.133
S23        24.000    38084051.248 6 200132990.76106      -847.810 6        40.362
G11        25.000    23023154.452 7 120987474.42607      1593.556 7        42.607                                    23023149.265 4  94275988.72404      1241.732 4        26.455    23023149.710 7  94275957.72707      1241.696 7        42.307
R16        26.000    22871821.321 4 122176930.59104     -3391.954 4        26.228
E33        28.000    26990145.644 4 141834107.59204     -4108.077 4        29.697                                                                    26990130.549 5 105915089.11205     -3067.467 5        30.958    26990132.787 4                     -3147.765 4        27.078
E10        29.000    24052704.800 7 126397908.95707      -884.561 7        45.815                                                                    24052704.152 8  94388032.42208      -660.524 8        50.799    24052703.230 8  96850416.12708      -677.775 8        49.786
C20        31.000                                                                                                                                    21805256.392 7 113545848.89007      -638.111 7        47.337                                                                    21805250.682 7  92265181.51307      -518.492 7        47.164
R23        33.000    20555205.869 7 109956735.32507     -3270.214 7        45.123
R07        34.000    20411440.876 8 109264024.18008     -2953.452 8        49.850                                                                    20411435.110 5  84983312.01905     -2297.195 5        34.981
R22        35.000    22912744.581 4                     -5314.084 4        26.850                                                                    22912767.253 4                     -4132.947 4        25.970
C32        36.000                                                                                                                                    24020566.126 6 125081414.90706     -3134.894 6        38.318                                                                    24020561.377 5 101638944.71405     -2547.212 5        31.525
R09        37.000    21066603.415 7 112494428.45107       299.943 7        44.745                                                                    21066603.335 6  87495722.81516       233.456 6        36.873
C23        40.000                                                                                                                                    24526021.568 6 127713424.43906     -1581.888 6        39.808                                                                    24526012.856 7 103777643.58807     -1285.459 7        42.904
C35        41.000                                                                                                                                    24511172.775 7 127636157.10207      -682.466 7        43.234                                                                    24511183.279 4 103714765.97604      -554.503 4        29.498
C37        42.000                                                                                                                                    23857788.343 6 124233905.63706      1202.448 6        39.486                                                                    23857794.256 5 100950104.90305       976.655 5        34.124
R24        43.000    21676553.972 6 115914120.08106      1210.232 6        38.685                                                                    21676548.378 7  90155508.63707       941.350 7        43.191
R01        44.000    23189571.543 5 123961647.73105      2360.003 5        32.748
C16        45.000                                                                                                                                    39345602.910 5 204882936.81205     -1729.383 5        32.784    39345587.964 5 158428385.30905     -1337.166 5        34.057
C39        46.000                                                                                                                                    40101884.258 4                     -1990.681 4        24.541                                                                    40101878.643 4                     -1617.327 4        27.593
C09        47.000                                                                                                                                    38529840.158 5 200635011.85905     -1254.418 5        31.721    38529880.260 5 155143815.40505      -969.920 5        34.162    38529838.237 5 163032362.22905     -1019.110 5        30.445
C19        48.000                                                                                                                                    24077334.485 7 125376986.66207      1471.371 7        45.058                                                                    24077329.579 6 101879055.63406      1195.664 6        40.036
C06        50.000                                                                                                                                                                                                    38781626.721 5 156157392.92705     -1307.899 5        30.596    38781591.617 4                     -1374.539 4        29.242
C29        54.000                                                                                                                                    24392820.177 6 127020002.33606     -3460.785 6        36.533
I09        58.000    37612625.046 6 147600016.66106      -973.663 6        36.805
I06        59.000    37934142.284 6 148861725.34806      -588.615 6        36.408
> 2025 01 02 03 45 20.0000000  0 39
G03         1.000    22352768.117 6 117464574.50706     -3809.335 6        40.491                                    22352766.433 5  91530811.65905     -2968.315 5        33.683    22352765.751 6  91530847.63106     -2968.256 6        39.441
G20         4.000    24720711.924 5 129908295.60705      2589.927 5        30.204
G07         5.000    22536280.771 6 118428947.63906      2002.790 6        40.930                                    22536275.904 3  92282267.71803      1560.629 3        18.866
G09         6.000    19914354.529 8 104650640.82908      -599.065 8        49.388                                    19914351.986 7  81545968.05407      -466.803 7        45.299    19914351.595 6  81545955.02506      -466.762 6        39.024
G31        10.000    24806258.236 4                     -4463.117 4        26.299
E06        11.000    27280621.693 5                      1708.347 5        31.751                                                                    27280638.727 5                      1275.845 5        30.121
G04        12.000    20522706.288 7 107847594.33207     -2391.802 7        44.506                                    20522701.479 5  84037009.13205     -1863.742 5        34.276    20522702.857 7  84037033.13407     -1863.756 7        45.964
E12        13.000    24297986.313 6 127686803.38906     -2295.179 6        39.504                                                                    24297983.818 6  95350515.95406     -1713.979 6        37.917    24297983.692 6  97837942.85906     -1758.636 6        38.210
E29        14.000    25778317.183 6 135465964.22906     -3164.046 6        39.411                                                                    25778315.022 6 101159639.88706     -2362.802 6        40.398    25778316.017 6 103798631.89606     -2424.700 6        40.815
G06        15.000    21112153.378 8 110945106.49008      -831.947 8        49.864                                    21112150.757 7  86450722.75307      -648.271 7        46.024    21112151.248 6  86450820.75706      -648.301 6        40.987
E11        16.000    24999761.850 6 131374985.56706       667.174 6        40.913                                                                    24999756.692 7  98104441.30707       498.179 7        42.205    24999757.784 7 100663669.54407       511.259 7        42.188
E04        17.000    25076858.990 6 131779776.70006      1158.353 6        40.934                                                                    25076853.635 6  98407036.19706       864.738 6        37.263    25076855.453 6 100974119.94806       887.480 6        37.176
R08        18.000    19665346.934 7 105307212.87507        22.883 7        47.914                                                                    19665343.912 6  81905581.12306        17.795 6        41.838
E19        20.000    22893409.263 7 120305681.24607     -1439.028 7        44.399                                                                    22893406.227 7  89838669.65107     -1074.664 7        45.992    22893406.169 7  92182274.12207     -1102.688 7        47.671
S36        23.000    38142558.539 5 200440581.69605      -851.579 5        35.138
S23        24.000    38084857.504 6 200137228.97306      -847.560 6        40.236
G11        25.000    23021639.019 7 120979512.02507      1591.330 7        42.741                                    23021633.792 4  94269784.25904      1239.994 4        26.096    23021634.096 6  94269753.24906      1240.012 6        41.642
R16        26.000                                                                                                                                    22874956.957 5  95039864.96105     -2640.221 5        33.311
E33        28.000    26994054.173 4 141854647.91104     -4108.101 4        27.437                                                                    26994039.555 5 105930427.65205     -3068.194 5        31.011    26994041.088 4                     -3148.185 4        27.928
E10        29.000    24053547.229 7 126402337.01307      -886.816 7        45.648                                                                    24053546.844 8  94391339.09008      -662.253 8        50.923    24053545.903 8  96853809.06208      -679.535 8        49.707
C20        31.000                                                                                                                                    21805869.389 7 113549042.40307      -639.324 7        47.209                                                                    21805863.915 7  92267776.49607      -519.609 7        47.121
R23        33.000    20558265.498 7 109973095.42607     -3273.961 7        46.707
R07        34.000    20414199.108 8 109278794.22308     -2954.638 8        49.300                                                                    20414193.472 6  84994799.81606     -2298.119 6        36.336
R22        35.000                                                                                                                                    22917746.896 5                     -4133.554 5        30.898
C32        36.000                                                                                                                                    24023577.998 6 125097090.78106     -3135.437 6        38.703                                                                    24023570.956 5 101651682.65705     -2547.830 5        31.977
R09        37.000    21066327.898 7 112492938.68807       295.889 7        44.861                                                                    21066320.200 6  87494564.14406       230.067 6        36.386
C23        40.000                                                                                                                                    24527543.836 6 127721339.91306     -1584.318 6        41.285                                                                    24527533.005 7 103784075.55607     -1287.512 7        43.151
C35        41.000                                                                                                                                    24511826.925 7 127639575.71707      -685.112 7        43.426                                                                    24511841.779 4 103717543.95404      -557.021 4        27.808
C37        42.000                                                                                                                                    23856633.719 6 124227897.68806      1200.631 6        39.192                                                                    23856640.356 5 100945222.94905       975.463 5        34.281
R24        43.000    21675423.798 6 115908077.09506      1206.600 6        37.921                                                                    21675417.729 7  90150808.56107       938.409 7        42.286
R01        44.000    23187368.995 5 123949848.49305      2359.397 5        31.351
C16        45.000                                                                                                                                    39347263.979 5 204891583.46905     -1729.217 5        33.096    39347248.121 5 158435071.50305     -1337.495 5        34.467
C39        46.000                                                                                                                                    40103793.399 4                     -1991.458 4        24.015                                                                    40103790.530 4                     -1618.074 4        27.605
C09        47.000                                                                                                                                    38531044.641 5 200641283.84905     -1254.416 5        31.826    38531082.036 5 155148665.33205      -970.448 5        33.748    38531042.417 5 163037458.72505     -1019.197 5        30.717
C19        48.000                                                                                                                                    24075922.016 7 125369630.50607      1470.965 7        45.830                                                                    24075916.711 6 101873078.14406      1195.193 6        39.354
C06        50.000                                                                                                                                    38783245.409 4                     -1691.137 4        26.467    38783250.391 5 156163932.95905     -1308.622 5        30.325    38783216.985 4                     -1374.515 4        29.166
C29        54.000                                                                                                                                    24396144.184 6 127037308.49006     -3461.890 6        37.025
I09        58.000    37613865.687 6 147604885.10806      -973.703 6        36.722
I06        59.000    37934891.028 6 148864667.84306      -588.600 6        36.302
> 2025 01 02 03 45 25.0000000  0 39
G03         1.000    22356393.119 6 117483625.05306     -3810.434 6        41.681                                    22356391.796 5  91545656.24105     -2969.167 5        34.143    22356391.838 6  91545692.21006     -2969.046 6        39.874
G20         4.000    24718246.978 5 129895348.16005      2589.946 5        30.377
G07         5.000    22534375.740 6 118418938.25306      2001.343 6        40.717                                    22534371.588 3  92274468.17303      1559.485 3        21.857    22534373.452 5                      1559.366 5        30.000
G09         6.000    19914925.876 8 104653642.02008      -601.145 8        48.946                                    19914922.386 7  81548306.63307      -468.424 7        44.901    19914922.737 6  81548293.61606      -468.395 6        38.363
G31        10.000    24810514.094 4                     -4463.562 4        27.413
E06        11.000    27278996.048 5                      1707.728 5        32.305                                                                    27279009.040 5                      1275.240 5        30.921
G04        12.000    20524982.371 7 107859558.44007     -2393.462 7        44.954                                    20524978.300 5  84046331.82305     -1865.035 5        33.826    20524979.611 7  84046355.81507     -1865.015 7        46.185
E12        13.000    24300171.226 6 127698284.76906     -2297.001 6        40.069                                                                    24300169.257 6  95359089.72806     -1715.465 6        37.119    24300168.807 6  97846740.29606     -1760.167 6        38.423
E29        14.000    25781327.902 6 135481786.67406     -3164.354 6        39.432                                                                    25781325.689 6 101171455.35906     -2363.117 6        40.412    25781327.033 6 103810755.59006     -2424.779 6        40.651
G06        15.000    21112947.117 8 110949275.23108      -835.138 8        50.220                                    21112943.898 7  86453971.12407      -650.757 7        45.947    21112945.544 6  86454069.12606      -650.671 6        40.596
E11        16.000    24999128.053 6 131371655.22106       665.505 6        40.086                                                                    24999123.020 7  98101954.35007       496.922 7        42.114    24999124.307 7 100661117.72007       509.843 7        42.387
E04        17.000    25075757.397 6 131773987.51706      1157.703 6        40.331                                                                    25075752.295 6  98402713.10106       864.537 6        37.202    25075753.285 6 100969684.07106       887.002 6        36.699
R08        18.000    19665326.426 7 105307103.58207        21.121 7        47.814                                                                    19665323.585 6  81905496.10706        16.486 6        41.335
E19        20.000    22894779.071 7 120312880.37507     -1440.127 7        44.316                                                                    22894776.251 7  89844045.61507     -1075.476 7        46.200    22894776.180 7  92187790.34007     -1103.532 7        47.969
S36        23.000    38143372.951 5 200444841.11805      -851.758 5        35.505
S23        24.000    38085663.523 6 200141467.32906      -847.747 6        40.448
G11        25.000    23020125.521 6 120971561.59406      1589.068 6        41.838                                    23020120.577 4  94263589.12204      1238.239 4        24.962    23020121.845 6  94263558.10806      1238.330 6        41.046
R16        26.000    22878215.280 4                     -3397.683 4        27.102                                                                    22878140.747 5  95053073.56615     -2643.014 5        34.467
E33        28.000                                                                                                                                    26997949.871 5 105945767.92005     -3068.053 5        31.147    26997950.051 4                     -3148.076 4        28.199
E10        29.000    24054391.944 7 126406777.41007      -889.055 7        45.329                                                                    24054391.863 8  94394654.96908      -663.844 8        51.115    24054390.840 8  96857211.44008      -681.196 8        49.691
C20        31.000                                                                                                                                    21806483.699 7 113552243.13407      -640.589 7        46.759                                                                    21806478.461 7  92270377.35007      -520.672 7        46.901
R23        33.000    20561328.813 7 109989475.25007     -3277.680 7        46.864
R07        34.000    20416957.707 8 109293571.48408     -2955.841 8        48.602                                                                    20416952.911 6  85006293.24206     -2299.042 6        36.212
R22        35.000    22922733.135 5                     -5315.207 5        32.030                                                                    22922727.971 5                     -4134.061 5        33.551
C32        36.000                                                                                                                                    24026589.152 6 125112770.45706     -3135.988 6        38.384                                                                    24026582.316 5 101664423.69105     -2548.716 5        31.947
R09        37.000    21066048.917 7 112491469.99407       291.929 7        44.001                                                                    21066040.561 5  87493421.78705       227.031 5        35.100
C23        40.000                                                                                                                                    24529068.425 7 127729269.11107     -1586.946 7        43.060                                                                    24529055.550 7 103790518.70507     -1289.779 7        42.916
C35        41.000                                                                                                                                    24512481.144 7 127643008.35307      -687.643 7        43.877                                                                    24512501.972 4 103720333.31804      -559.370 4        25.504
C37        42.000                                                                                                                                    23855481.356 6 124221900.19606      1198.741 6        39.252                                                                    23855488.706 5 100940349.53605       973.652 5        34.271
R24        43.000    21674294.724 5 115902054.04105      1202.425 5        34.786                                                                    21674291.630 7  90146123.98307       935.674 7        42.226
R01        44.000    23185161.289 4 123938051.78904      2359.236 4        28.389
C16        45.000                                                                                                                                    39348924.725 5 204900231.92205     -1730.009 5        33.168    39348908.873 5 158441759.00005     -1337.500 5        34.648
C39        46.000                                                                                                                                    40105705.277 3                     -1990.780 3        23.352                                                                    40105702.426 4                     -1617.858 4        26.970
C09        47.000                                                                                                                                    38532250.398 5 200647558.50005     -1255.006 5        31.487    38532284.248 5 155153517.28605      -970.733 5        33.425    38532247.835 5 163042557.37505     -1019.917 5        30.808
C19        48.000                                                                                                                                    24074509.949 7 125362277.74107      1470.453 7        46.251                                                                    24074504.614 6 101867103.43406      1194.565 6        38.378
C06        50.000                                                                                                                                    38784871.018 4                     -1692.077 4        26.347    38784874.457 5 156170474.41705     -1308.306 5        30.574    38784842.151 4                     -1375.339 4        29.498
C29        54.000                                                                                                                                    24399468.889 6 127054621.60606     -3463.124 6        37.456
I09        58.000    37615105.878 6 147609754.13906      -973.628 6        36.408
I06        59.000    37935641.501 6 148867610.45106      -588.097 6        36.185
> 2025 01 02 03 45 30.0000000  0 38
G03         1.000    22360019.922 7 117502682.58007     -3811.968 7        42.904                                    22360018.434 5  91560506.26605     -2970.359 5        35.024    22360017.785 6  91560542.23606     -2970.400 6        39.868
G20         4.000    24715783.463 4 129882401.59304      2589.082 4        29.564                                    24715772.305 1 101206956.66911      2017.446 1         5.857
G07         5.000    22532473.420 6 118408936.95106      1999.595 6        40.541                                    22532469.020 3  92266674.94203      1558.122 3        23.638    22532470.160 5                      1557.953 5        32.371
G09         6.000    19915499.384 8 104656654.97108      -603.565 8        49.278                                    19915495.063 7  81550654.38307      -470.310 7        45.094    19915496.841 6  81550641.35806      -470.226 6        38.084
G31        10.000    24814763.987 4                     -4465.101 4        26.180
E06        11.000    27277370.390 5                      1707.102 5        33.629                                                                    27277381.343 5                      1274.683 5        31.638
G04        12.000    20527260.240 7 107871532.10907     -2395.513 7        44.694                                    20527257.052 5  84055661.95505     -1866.634 5        33.311    20527258.107 7  84055685.95507     -1866.545 7        46.169
E12        13.000    24302358.680 6 127709777.72306     -2299.729 6        40.520                                                                    24302357.428 6  95367672.14306     -1717.241 6        36.261    24302356.119 6  97855546.56606     -1761.984 6        38.607
E29        14.000    25784339.284 6 135497611.79806     -3165.014 6        39.811                                                                    25784337.050 6 101183272.81006     -2363.575 6        40.629    25784338.474 6 103822881.31806     -2425.110 6        40.830
G06        15.000    21113744.053 8 110953461.51908      -838.740 8        50.244                                    21113740.254 7  86457233.16407      -653.563 7        46.306    21113742.495 6  86457331.16606      -653.444 6        40.751
E11        16.000    24998496.013 6 131368335.55606       663.251 6        39.408                                                                    24998491.442 6  98099475.37506       495.155 6        41.800    24998492.908 7 100658574.06907       508.214 7        42.326
E04        17.000    25074657.355 6 131768203.83206      1156.492 6        40.219                                                                    25074652.715 6  98398394.12406       863.513 6        37.561    25074651.708 5 100965252.40405       886.064 5        35.886
R08        18.000    19665308.427 7 105307004.39807        19.088 7        47.851                                                                    19665305.717 7  81905418.98207        14.789 7        42.540
E19        20.000    22896150.334 7 120320086.57607     -1441.611 7        44.187                                                                    22896147.572 7  89849426.86907     -1076.585 7        46.306    22896147.425 8  92193311.96808     -1104.699 8        48.285
S36        23.000    38144182.435 5 200449100.20905      -851.454 5        35.752
S23        24.000    38086467.163 6 200145706.12206      -847.558 6        40.110
G11        25.000    23018614.224 6 120963623.63306      1586.653 6        39.775                                    23018609.638 4  94257403.68704      1236.350 4        24.316    23018611.029 6  94257372.67906      1236.250 6        40.722
R16        26.000                                                                                                                                    22881328.971 5                     -2645.624 5        35.505
E33        28.000                                                                                                                                    27001861.787 5 105961110.26105     -3068.567 5        31.268    27001859.532 4                     -3148.862 4        29.697
E10        29.000    24055239.694 7 126411230.63707      -891.662 7        45.285                                                                    24055239.247 8  94397980.42908      -665.836 8        51.132    24055238.108 8  96860623.64808      -683.178 8        49.733
C20        31.000                                                                                                                                    21807099.745 7 113555451.53407      -642.165 7        46.699                                                                    21807094.516 7  92272984.43507      -521.827 7        46.618
R23        33.000    20564393.600 7 110005875.09907     -3281.785 7        46.579
R07        34.000    20419717.937 7 109308356.11507     -2957.471 7        47.250                                                                    20419715.374 5  85017792.44605     -2300.219 5        35.829
R22        35.000    22927714.720 5                     -5316.120 5        32.557                                                                    22927708.044 5  95191960.11815     -4134.437 5        34.986
C32        36.000                                                                                                                                    24029601.587 6 125128454.41306     -3136.910 6        37.429                                                                    24029593.782 5 101677168.17605     -2549.039 5        31.834
R09        37.000    21065772.890 7 112490022.87307       287.401 7        42.148                                                                    21065769.962 5  87492296.24105       223.569 5        35.010
C23        40.000                                                                                                                                    24530594.655 7 127737212.54307     -1589.937 7        44.805                                                                    24530580.419 7 103796973.39507     -1291.790 7        42.406
C35        41.000                                                                                                                                    24513141.674 7 127646455.48207      -690.568 7        44.131
C37        42.000                                                                                                                                    23854331.180 6 124215913.66706      1196.518 6        39.964                                                                    23854339.753 5 100935485.02505       972.004 5        34.643
R24        43.000    21673172.906 5 115896051.14205      1198.623 5        31.555                                                                    21673169.115 7  90141455.14807       932.339 7        42.762
C16        45.000                                                                                                                                    39350586.148 5 204908882.51905     -1729.852 5        32.563    39350570.642 5 158448448.16305     -1337.643 5        34.429
C39        46.000                                                                                                                                    40107617.620 3                     -1992.820 3        23.543                                                                    40107615.024 4                     -1618.314 4        26.826
C09        47.000                                                                                                                                    38533457.399 5 200653836.22205     -1255.586 5        32.629    38533489.567 5 155158371.63505      -970.966 5        33.150    38533453.140 5 163047658.50805     -1020.211 5        31.328
C19        48.000                                                                                                                                    24073098.623 7 125354928.84007      1469.618 7        46.436                                                                    24073093.099 6 101861131.82406      1194.302 6        37.656
C06        50.000                                                                                                                                    38786492.652 4                     -1692.375 4        27.198    38786498.535 5 156177017.88805     -1308.705 5        30.075    38786466.705 5                     -1375.266 5        30.211
C29        54.000                                                                                                                                    24402794.848 6 127071942.10106     -3464.626 6        38.601
I09        58.000    37616347.347 6 147614624.04206      -973.728 6        36.431
I06        59.000    37936391.897 6 148870553.58806      -588.336 6        36.200
> 2025 01 02 03 45 35.0000000  0 38
G03         1.000    22363647.409 7 117521746.37907     -3813.351 7        43.325                                    22363646.168 5  91575361.17305     -2971.442 5        35.643    22363645.693 6  91575397.14806     -2971.439 6        39.817
G20         4.000    24713317.841 4 129869455.14704      2589.099 4        28.550                                    24713308.458 1 101196868.56901      2017.477 1         6.625
G07         5.000    22530574.983 6 118398943.08206      1998.095 6        39.793                                    22530567.936 4  92258887.51404      1556.955 4        24.586    22530569.099 5                      1556.768 5        34.033
G09         6.000    19916075.009 8 104659679.02008      -605.964 8        49.812                                    19916069.993 7  81553010.78007      -472.183 7        45.222    19916072.765 6  81552997.76706      -472.144 6        38.994
G31        10.000    24819009.864 4                     -4465.853 4        25.218
E06        11.000    27275747.441 5                      1706.590 5        33.060                                                                    27275757.388 5                      1274.506 5        31.540
G04        12.000    20529540.165 7 107883514.66407     -2397.503 7        43.251                                    20529537.486 5  84064999.02105     -1868.185 5        32.449    20529538.386 7  84065023.02007     -1868.196 7        46.153
E12        13.000    24304547.752 6 127721281.55606     -2301.934 6        40.827                                                                    24304547.866 5  95376262.67905     -1718.827 5        35.810    24304545.098 6  97864361.19306     -1763.716 6        39.012
E29        14.000    25787351.289 6 135513438.90206     -3165.666 6        39.712                                                                    25787348.734 6 101195091.75006     -2363.961 6        40.791    25787350.503 6 103835008.58206     -2425.603 6        40.865
G06        15.000    21114543.799 8 110957664.65908      -842.359 8        50.352                                    21114539.775 7  86460508.33907      -656.385 7        46.368    21114541.839 6  86460606.35006      -656.386 6        41.466
E11        16.000    24997865.932 6 131365025.91906       660.969 6        39.414                                                                    24997861.697 6  98097003.87906       493.531 6        41.735    24997863.106 7 100656038.10307       506.397 7        42.341
E04        17.000    25073557.941 6 131762425.00106      1155.217 6        40.067                                                                    25073553.609 6  98394078.78606       862.705 6        38.033    25073551.353 5 100960824.48405       885.131 5        35.400
R08        18.000    19665290.990 7 105306914.64607        16.960 7        47.333                                                                    19665289.164 7  81905349.18907        13.188 7        43.026
E19        20.000    22897522.531 7 120327299.18307     -1443.195 7        44.211                                                                    22897520.019 7  89854812.90207     -1077.726 7        46.274    22897520.096 8  92198838.51508     -1105.808 8        48.562
S36        23.000    38144994.004 5 200453359.11805      -852.025 5        35.767
S23        24.000    38087275.802 6 200149944.63406      -847.700 6        40.651
G11        25.000    23017106.731 6 120955697.50206      1583.906 6        37.588                                    23017101.051 3  94251227.49403      1234.222 3        23.600    23017102.777 6  94251196.45206      1234.385 6        40.586
R16        26.000                                                                                                                                    22884520.524 5  95079532.28715     -2648.704 5        34.752
E33        28.000                                                                                                                                    27005776.500 5 105976454.18705     -3068.962 5        31.555    27005769.233 4                     -3148.926 4        29.583
E10        29.000    24056090.056 7 126415696.01907      -894.307 7        45.088                                                                    24056088.990 8  94401314.97608      -667.853 8        50.989    24056087.792 8  96864045.18208      -685.254 8        49.781
C20        31.000                                                                                                                                    21807717.837 7 113558666.96407      -643.842 7        46.801                                                                    21807711.878 7  92275597.27007      -523.326 7        46.237
R23        33.000    20567462.301 7 110022294.37207     -3285.831 7        46.503
R07        34.000    20422480.442 7 109323147.66907     -2959.000 7        46.360                                                                    20422479.610 5  85029296.99505     -2301.410 5        35.700
R22        35.000    22932688.434 5                     -5316.708 5        32.228                                                                    22932686.383 6  95212634.90006     -4135.238 6        36.514
C32        36.000                                                                                                                                    24032613.141 6 125144141.97406     -3138.042 6        36.514                                                                    24032606.699 5 101689915.62005     -2549.852 5        32.156
R09        37.000    21065504.220 6 112488596.64906       283.021 6        41.547                                                                    21065502.116 5  87491186.98005       220.110 5        34.062
C23        40.000                                                                                                                                    24532122.158 7 127745169.53007     -1592.750 7        45.648                                                                    24532107.559 6 103803439.14406     -1294.491 6        41.795
C35        41.000                                                                                                                                    24513805.481 7 127649916.42407      -693.624 7        43.412
C37        42.000                                                                                                                                    23853183.597 6 124209937.46906      1194.054 6        40.210                                                                    23853192.238 5 100930628.92305       970.252 5        35.457
R24        43.000    21672057.990 6 115890068.15206      1194.597 6        38.706                                                                    21672050.162 7  90136801.66007       929.086 7        42.986
C16        45.000                                                                                                                                    39352246.520 5 204917534.70405     -1730.490 5        33.251    39352232.225 5 158455138.56405     -1337.926 5        34.776
C39        46.000                                                                                                                                    40109528.224 4                     -1991.493 4        24.135                                                                    40109527.707 4                     -1618.445 4        26.635
C09        47.000                                                                                                                                    38534663.518 5 200660116.35505     -1256.429 5        33.311    38534698.756 5 155163227.82905      -971.353 5        32.180    38534658.864 5 163052761.66505     -1020.820 5        31.653
C19        48.000                                                                                                                                    24071687.443 7 125347583.12707      1468.769 7        46.533                                                                    24071682.189 6 101855162.89006      1193.354 6        36.881
C06        50.000                                                                                                                                    38788118.400 4                     -1693.066 4        26.683    38788122.979 4 156183562.72704     -1308.771 4        29.858    38788092.712 4                     -1375.766 4        29.640
C29        54.000                                                                                                                                    24406125.389 6 127089269.32706     -3466.282 6        38.186
I09        58.000    37617587.383 6 147619494.41706      -974.163 6        36.219
I06        59.000    37937142.280 6 148873496.74906      -588.595 6        36.367
> 2025 01 02 03 45 40.0000000  0 40
G03         1.000    22367276.916 7 117540817.20207     -3814.809 7        44.045                                    22367275.252 6  91590221.55206     -2972.577 6        36.544    22367274.714 6  91590257.53206     -2972.465 6        39.991
G19         2.000    24530617.156 4                     -3950.309 4        24.376
G20         4.000    24710856.795 4 129856509.61904      2589.250 4        29.564                                    24710846.092 1 101186781.25601      2017.573 1         6.000
G07         5.000    22528680.190 6 118388957.39606      1996.506 6        38.180                                    22528668.328 4  92251106.49204      1555.714 4        24.436    22528669.881 5  92251132.47615      1555.542 5        35.014
G09         6.000    19916653.050 8 104662714.89108      -608.251 8        50.305                                    19916647.373 7  81555376.39507      -473.964 7        45.886    19916650.673 6  81555363.39406      -473.881 6        40.760
G31        10.000    24823259.045 4                     -4467.500 4        24.992
E06        11.000    27274125.875 5                      1706.045 5        32.778                                                                    27274134.341 5                      1274.129 5        31.064
G04        12.000    20531821.458 6 107895506.81406     -2399.307 6        41.645                                    20531819.838 5  84074343.55805     -1869.584 5        31.434    20531820.567 7  84074367.54707     -1869.524 7        46.381
E12        13.000    24306738.681 6 127732796.98406     -2304.147 6        40.868                                                                    24306740.483 5  95384861.88705     -1720.678 5        35.338    24306736.568 6  97873184.71206     -1765.497 6        39.504
E29        14.000    25790363.650 6 135529268.73406     -3166.047 6        39.477                                                                    25790360.923 6 101206912.71706     -2364.344 6        40.467    25790362.934 6 103847137.92606     -2425.991 6        41.056
G06        15.000    21115347.169 8 110961885.38108      -845.781 8        50.773                                    21115342.704 7  86463797.21507      -659.049 7        46.624    21115345.213 6  86463895.21806      -659.067 6        41.709
E11        16.000    24997237.794 6 131361727.00206       658.717 6        39.655                                                                    24997233.917 6  98094540.40106       491.911 6        41.342    24997234.957 7 100653510.36607       504.737 7        42.421
E04        17.000    25072459.385 6 131756651.75306      1154.175 6        39.709                                                                    25072455.482 6  98389767.59406       861.891 6        38.417    25072452.146 5 100956400.82605       884.022 5        34.690
R08        18.000    19665276.433 8 105306835.05608        15.044 8        48.023                                                                    19665274.310 7  81905287.29407        11.694 7        43.050
E19        20.000    22898896.033 7 120334518.93607     -1444.602 7        43.911                                                                    22898893.937 7  89860204.27207     -1078.691 7        46.317    22898893.958 8  92204370.53108     -1106.885 8        48.669
S36        23.000    38145801.610 5 200457619.12005      -852.509 5        35.719
S23        24.000    38088084.674 6 200154183.55506      -848.098 6        40.389
G11        25.000    23015601.999 6 120947783.90406      1581.628 6        37.675                                    23015594.754 3  94245061.05303      1232.431 3        22.895    23015596.795 6  94245030.01806      1232.299 6        40.396
R16        26.000                                                                                                                                    22887704.918 5  95092782.51115     -2651.492 5        32.383
E33        28.000                                                                                                                                    27009694.427 5 105991800.21205     -3069.286 5        31.977    27009680.378 5                     -3149.417 5        30.249
E10        29.000    24056942.090 7 126420174.29607      -896.852 7        44.515                                                                    24056941.109 8  94404659.13808      -669.718 8        50.796    24056939.897 8  96867476.58308      -687.179 8        49.713
C20        31.000                                                                                                                                    21808336.500 7 113561890.14907      -645.301 7        46.253                                                                    21808330.778 7  92278216.33407      -524.346 7        46.111
R23        33.000    20570535.914 7 110038733.72607     -3289.822 7        46.154
R07        34.000    20425245.392 7 109337946.68407     -2960.469 7        46.856                                                                    20425245.458 5  85040807.35705     -2302.786 5        35.933
R22        35.000    22937665.068 5                     -5317.668 5        30.755                                                                    22937666.193 6  95233312.82006     -4136.088 6        37.595
C32        36.000                                                                                                                                    24035625.818 6 125159833.82806     -3138.642 6        36.053                                                                    24035620.313 5 101702666.52405     -2550.632 5        33.024
R09        37.000    21065242.027 6 112487192.34206       278.957 6        40.474                                                                    21065239.419 5  87490094.73605       216.802 5        33.790
C23        40.000                                                                                                                                    24533650.395 7 127753140.79107     -1595.549 7        45.949                                                                    24533637.551 6 103809916.39806     -1296.606 6        41.061
C35        41.000                                                                                                                                    24514472.237 7 127653391.92107      -696.532 7        42.627
C37        42.000                                                                                                                                    23852038.473 6 124203972.30206      1191.973 6        40.596                                                                    23852047.407 6 100925781.73206       968.372 6        36.624
R24        43.000    21670945.819 7 115884105.64907      1190.579 7        42.857                                                                    21670935.132 7  90132164.12507       925.984 7        43.399
R01        44.000    23178570.496 5 123902677.34005      2357.509 5        30.385
C16        45.000                                                                                                                                    39353908.172 5 204926189.10405     -1731.222 5        33.335    39353893.874 5 158461830.69605     -1338.471 5        34.795
C39        46.000                                                                                                                                    40111440.513 4                     -1991.839 4        24.150                                                                    40111440.247 4                     -1618.546 4        26.695
C09        47.000                                                                                                                                    38535870.491 5 200666399.61705     -1256.616 5        34.171    38535908.151 5 155168086.50405      -972.111 5        32.683    38535865.934 5 163057867.33705     -1021.531 5        31.570
C19        48.000                                                                                                                                    24070277.736 7 125340241.32807      1468.075 7        46.934                                                                    24070271.802 6 101849197.06806      1192.719 6        36.435
C06        50.000                                                                                                                                    38789743.616 4                     -1693.924 4        26.970    38789749.396 4 156190109.59704     -1309.735 4        29.071    38789718.916 5                     -1376.135 5        30.030
C29        54.000                                                                                                                                    24409459.426 6 127106604.01506     -3467.607 6        36.106
I09        58.000    37618829.274 6 147624365.71006      -974.292 6        36.042
I06        59.000    37937892.065 6 148876440.44506      -588.690 6        36.291
> 2025 01 02 03 45 45.0000000  0 38
G03         1.000    22370906.677 7 117559894.44607     -3816.080 7        44.442                                    22370905.503 6  91605086.92606     -2973.568 6        37.255    22370904.992 6  91605122.91306     -2973.642 6        39.883
G20         4.000    24708393.485 5 129843564.50305      2589.015 5        30.453                                    24708382.416 1 101176694.07001      2017.419 1         6.750
G07         5.000    22526786.806 6 118378979.26006      1994.890 6        36.442                                    22526770.236 4  92243331.39204      1554.444 4        24.135    22526772.368 5  92243357.36805      1554.478 5        34.638
G09         6.000    19917232.766 8 104665761.96808      -610.442 8        50.375                                    19917227.137 7  81557750.74207      -475.670 7        46.636    19917230.121 6  81557737.74506      -475.677 6        41.712
G31        10.000    24827507.901 4                     -4468.861 4        24.872
E06        11.000    27272504.849 5                      1705.648 5        32.138                                                                    27272510.762 5                      1273.696 5        30.294
G04        12.000    20534105.489 6 107907507.94206     -2401.097 6        39.030                                    20534103.902 5  84083695.10105     -1870.993 5        30.475    20534104.433 7  84083719.09207     -1870.890 7        46.360
E12        13.000    24308931.994 6 127744323.45206     -2306.409 6        40.689                                                                    24308935.241 5  95393469.33405     -1722.392 5        34.433    24308930.078 6  97882016.66706     -1767.144 6        39.991
E29        14.000    25793376.653 6 135545100.65106     -3166.463 6        39.012                                                                    25793373.598 6 101218735.25706     -2364.613 6        40.646    25793375.500 6 103859268.88106     -2426.217 6        41.340
G06        15.000    21116153.572 8 110966123.08708      -849.154 8        50.568                                    21116148.960 7  86467099.32307      -661.679 7        46.793    21116151.267 7  86467197.34007      -661.689 7        42.203
E11        16.000    24996611.924 6 131358438.24006       656.729 6        40.067                                                                    24996608.239 6  98092084.51206       490.403 6        41.204    24996608.768 7 100650990.42207       503.200 7        42.201
E04        17.000    25071361.655 6 131750883.46306      1153.231 6        39.562                                                                    25071358.399 6  98385460.10906       861.159 6        38.670    25071354.481 5 100951980.95005       883.371 5        33.581
R08        18.000    19665264.071 7 105306765.04407        13.124 7        47.809                                                                    19665261.041 7  81905232.82907        10.191 7        42.660
E19        20.000    22900271.168 7 120341745.09907     -1445.900 7        43.678                                                                    22900269.008 7  89865600.42807     -1079.695 7        46.335    22900269.000 8  92209907.46308     -1107.890 8        48.889
S36        23.000    38146612.972 6 200461879.28706      -851.889 6        36.495
S23        24.000    38088889.392 6 200158422.54506      -847.813 6        40.536
G11        25.000    23014098.904 6 120939882.23806      1579.186 6        37.255                                    23014090.764 3  94238903.92303      1230.563 3        22.857    23014093.223 6  94238872.87506      1230.632 6        40.358
R16        26.000    22890890.993 5 122279022.37415     -3412.738 5        34.105
E33        28.000                                                                                                                                    27013608.564 5 106007147.93305     -3069.394 5        31.932    27013591.040 5                     -3149.682 5        31.064
E10        29.000    24057795.974 7 126424664.82907      -899.228 7        44.033                                                                    24057795.522 8  94408012.47108      -671.558 8        50.641    24057794.494 8  96870917.39508      -689.042 8        49.734
C20        31.000                                                                                                                                    21808955.816 7 113565120.49607      -646.695 7        45.539                                                                    21808951.128 7  92280841.25707      -525.607 7        45.652
R23        33.000    20573614.196 7 110055192.61807     -3293.747 7        46.905
R07        34.000    20428012.780 8 109352752.80608     -2961.791 8        48.128                                                                    20428012.151 5  85052323.22005     -2303.696 5        35.186
R22        35.000    22942646.500 4                     -5318.008 4        29.659                                                                    22942651.225 6  95253993.49316     -4136.545 6        38.033
C32        36.000                                                                                                                                    24038638.324 6 125175529.39406     -3139.501 6        36.563                                                                    24038634.819 5 101715420.51105     -2551.315 5        33.461
R09        37.000    21064981.000 6 112485809.07406       274.554 6        40.064                                                                    21064980.244 5  87489018.92305       213.492 5        35.895
C23        40.000                                                                                                                                    24535182.240 7 127761125.73507     -1598.336 7        46.264                                                                    24535170.345 6 103816404.82606     -1298.864 6        39.991
C35        41.000                                                                                                                                    24515141.263 6 127656881.38306      -699.315 6        41.032                                                                    24515138.897 4                      -567.983 4        29.280
C37        42.000                                                                                                                                    23850895.417 6 124198017.56006      1189.877 6        41.614                                                                    23850904.353 6 100920943.04606       966.982 6        37.214
R24        43.000    21669841.322 7 115878162.94907      1186.613 7        43.862                                                                    21669823.845 7  90127542.03107       922.994 7        42.616
C16        45.000                                                                                                                                    39355569.195 5 204934845.14405     -1731.417 5        33.275    39355556.331 5 158468524.08205     -1338.600 5        34.538
C39        46.000                                                                                                                                    40113352.897 3                     -1992.862 3        23.562                                                                    40113351.923 4                     -1618.848 4        25.414
C09        47.000                                                                                                                                    38537078.785 5 200672685.47505     -1257.473 5        34.933    38537119.083 5 155172947.09305      -972.148 5        32.359    38537073.208 5 163062975.10005     -1021.809 5        31.608
C19        48.000                                                                                                                                    24068868.959 7 125332902.86607      1467.431 7        47.504                                                                    24068862.451 5 101843233.98705      1192.282 5        35.848
C06        50.000                                                                                                                                    38791365.746 4                     -1693.275 4        27.138    38791374.056 4 156196657.83404     -1309.741 4        28.569    38791345.518 4                     -1376.257 4        29.649
C29        54.000                                                                                                                                    24412798.431 5 127123945.56405     -3468.857 5        34.467
I09        58.000    37620070.165 5 147629237.51105      -974.520 5        35.571
I06        59.000    37938641.901 6 148879384.27606      -588.764 6        36.370
> 2025 01 02 03 45 50.0000000  0 38
G03         1.000    22374538.021 7 117578978.38907     -3817.464 7        45.050                                    22374536.992 6  91619957.52106     -2974.646 6        37.690    22374536.948 6  91619993.51006     -2974.759 6        39.991
G20         4.000    24705929.885 5 129830620.07005      2588.806 5        32.078                                    24705919.589 1 101166607.54001      2017.276 1         8.000
G07         5.000    22524891.005 6 118369009.08006      1993.374 6        36.004                                    22524873.284 3  92235562.46503      1553.284 3        23.505    22524875.553 5  92235588.44605      1553.268 5        34.100
G09         6.000    19917814.878 8 104668820.57608      -612.835 8        50.960                                    19917809.329 7  81560134.07207      -477.532 7        47.621    19917811.979 7  81560121.07907      -477.540 7        42.299
G31        10.000    24831765.927 4                     -4469.589 4        24.150
E06        11.000    27270881.359 5                      1704.986 5        32.012                                                                    27270886.056 4                      1273.189 4        27.174
G04        12.000    20536391.431 6 107919518.39306     -2403.014 6        38.934                                    20536389.688 4  84093053.89504     -1872.483 4        29.536    20536389.285 7  84093077.88107     -1872.453 7        46.265
E12        13.000    24311127.304 6 127755861.23906     -2308.631 6        40.253                                                                    24311131.955 5  95402085.20005     -1723.835 5        33.521    24311125.772 6  97890857.30906     -1769.033 6        40.658
E29        14.000    25796389.753 6 135560935.01206     -3167.354 6        38.892                                                                    25796386.742 6 101230559.60906     -2365.029 6        40.620    25796388.649 6 103871401.69606     -2426.790 6        41.926
G06        15.000    21116962.877 8 110970378.09608      -852.642 8        50.029                                    21116958.624 7  86470414.91107      -664.397 7        46.862    21116960.757 7  86470512.92207      -664.424 7        43.052
E11        16.000    24995988.045 6 131355159.96006       654.554 6        40.138                                                                    24995984.371 6  98089636.45706       488.804 6        41.218    24995984.467 7 100648478.50007       501.575 7        42.400
E04        17.000    25070264.958 6 131745120.46206      1151.951 6        40.055                                                                    25070262.061 6  98381156.56406       860.316 6        39.108    25070258.100 5 100947565.14305       882.403 5        33.425
R08        18.000    19665253.240 8 105306704.92408        10.978 8        48.814                                                                    19665249.840 7  81905186.06207         8.579 7        43.630
E19        20.000    22901647.764 7 120348978.15307     -1447.180 7        43.602                                                                    22901645.399 7  89871001.73907     -1080.749 7        46.426    22901645.396 8  92215449.67708     -1108.877 8        49.332
S36        23.000    38147424.782 5 200466138.83805      -851.897 5        35.833
S23        24.000    38089694.905 6 200162661.93306      -848.162 6        40.458
G11        25.000    23012598.303 6 120931992.86606      1576.535 6        37.845                                    23012589.188 3  94232756.36003      1228.471 3        22.914    23012592.313 6  94232725.33606      1228.333 6        40.579
R16        26.000    22894091.637 5 122296093.70105     -3416.116 5        35.295                                                                    22894081.273 4  95119323.86404     -2657.688 4        28.483
E33        28.000                                                                                                                                    27017517.198 5 106022497.55105     -3070.194 5        32.455    27017502.287 5                     -3150.241 5        31.306
E10        29.000    24058652.798 7 126429167.96507      -901.938 7        43.862                                                                    24058652.317 8  94411375.20408      -673.474 8        50.435    24058651.444 8  96874367.85108      -691.029 8        50.096
C20        31.000                                                                                                                                    21809578.663 7 113568358.28607      -648.380 7        45.406                                                                    21809572.904 7  92283472.21207      -526.866 7        45.728
R23        33.000    20576696.769 7 110071671.47207     -3297.793 7        46.762
R07        34.000    20430781.100 8 109367565.99308     -2963.410 8        48.608                                                                    20430780.597 6  85063844.54706     -2304.778 6        36.083
R22        35.000    22947626.913 4                     -5318.880 4        27.018                                                                    22947633.163 6                     -4136.971 6        38.360
C32        36.000                                                                                                                                    24041653.279 6 125191228.97506     -3140.302 6        37.713                                                                    24041650.082 5 101728177.73805     -2551.936 5        34.405
R09        37.000    21064727.697 6 112484447.32706       270.238 6        41.783                                                                    21064725.316 6  87487959.84006       210.050 6        37.890
C23        40.000                                                                                                                                    24536718.659 7 127769124.62007     -1601.146 7        46.567                                                                    24536705.952 6 103822904.56706     -1301.120 6        39.589
C35        41.000                                                                                                                                    24515813.213 6 127660385.06906      -702.130 6        40.248                                                                    24515816.370 5                      -570.543 5        30.475
C37        42.000                                                                                                                                    23849755.637 7 124192073.58107      1187.755 7        42.593                                                                    23849763.292 6 100916113.12206       965.039 6        37.667
R24        43.000    21668736.609 7 115872240.30507      1182.500 7        42.480                                                                    21668716.478 7  90122935.54507       919.618 7        42.438
R01        44.000                                                                                                                                    23174136.494 5  96350371.42215      1832.859 5        32.024
C16        45.000                                                                                                                                    39357231.751 5 204943503.12805     -1731.997 5        33.293    39357219.731 5 158475218.99205     -1339.084 5        34.448
C39        46.000                                                                                                                                    40115264.216 3                     -1992.895 3        22.667                                                                    40115266.274 4                     -1618.490 4        24.812
C09        47.000                                                                                                                                    38538286.112 5 200678974.16205     -1257.870 5        35.776    38538328.221 5 155177809.91105      -972.718 5        32.305    38538280.649 5 163068085.19605     -1022.561 5        32.144
C19        48.000                                                                                                                                    24067460.633 8 125325568.04408      1466.587 8        48.088                                                                    24067454.534 6 101837273.86106      1191.935 6        36.265
C06        50.000                                                                                                                                    38792985.735 4                     -1694.338 4        27.485    38793000.605 4 156203207.94204     -1309.744 4        28.114    38792972.473 4                     -1376.727 4        29.687
I09        58.000    37621312.141 5 147634110.03905      -974.598 5        35.319
I06        59.000    37939393.113 6 148882328.38906      -588.691 6        36.389
> 2025 01 02 03 45 55.0000000  0 37
G03         1.000    22378170.775 7 117598068.56207     -3818.793 7        44.907                                    22378169.658 6  91634832.97306     -2975.681 6        37.660    22378169.550 6  91634868.95706     -2975.653 6        39.489
G20         4.000    24703468.450 5 129817675.71205      2588.993 5        32.671                                    24703456.571 1 101156521.03601      2017.448 1         6.250
G07         5.000    22522995.430 5 118359046.35505      1991.660 5        34.467                                    22522977.835 3  92227799.37803      1551.942 3        22.838    22522979.418 5  92227825.38805      1551.955 5        32.934
G09         6.000    19918399.147 8 104671890.20608      -615.125 8        51.410                                    19918393.796 8  81562525.98908      -479.321 8        48.613    19918396.350 7  81562512.99207      -479.353 7        42.707
E06        11.000    27269257.150 5                      1704.492 5        32.168                                                                    27269264.243 4                      1273.752 4        24.361
G04        12.000    20538680.306 6 107931537.64406     -2404.959 6        39.306                                    20538677.107 4  84102419.55804     -1873.998 4        28.929    20538676.138 7  84102443.54307     -1873.909 7        45.959
E12        13.000    24313325.225 6 127767409.84306     -2310.914 6        40.124                                                                    24313330.682 5  95410709.17305     -1725.539 5        31.517    24313323.243 6  97899706.24306     -1770.863 6        40.687
E29        14.000    25799403.435 6 135576771.25806     -3167.607 6        38.565                                                                    25799400.189 6 101242385.39106     -2365.394 6        40.417    25799402.032 6 103883535.96806     -2427.077 6        41.995
G06        15.000    21117775.671 8 110974649.90508      -856.142 8        48.974                                    21117771.560 7  86473743.59207      -667.121 7        46.866    21117773.419 7  86473841.60607      -667.195 7        43.581
E11        16.000    24995366.140 6 131351891.67306       652.609 6        40.246                                                                    24995362.180 6  98087195.86106       487.121 6        41.125    24995362.079 7 100645974.22407       500.019 7        42.121
E04        17.000    25069168.956 6 131739362.22206      1151.089 6        40.763                                                                    25069166.402 6  98376856.59306       859.600 6        39.210    25069162.942 5 100943152.97705       881.949 5        32.293
R08        18.000    19665245.407 8 105306654.22408         9.047 8        49.678                                                                    19665241.437 7  81905146.62107         6.998 7        44.637
E19        20.000    22903025.020 7 120356217.47007     -1448.672 7        43.236                                                                    22903022.941 7  89876407.71307     -1081.763 7        46.380    22903022.900 8  92220996.68808     -1110.028 8        49.192
S36        23.000    38148234.101 5 200470397.91305      -851.919 5        35.367
S23        24.000    38090502.270 6 200166900.86406      -847.930 6        40.160
G11        25.000    23011098.172 6 120924115.31406      1574.115 6        38.078                                    23011090.019 3  94226617.99803      1226.559 3        23.714    23011093.183 6  94226586.97506      1226.595 6        40.768
R16        26.000    22897299.349 6 122313182.28806     -3419.479 6        37.444                                                                    22897283.858 5  95132614.99105     -2660.065 5        30.023
E33        28.000                                                                                                                                    27021427.241 5 106037848.66105     -3070.357 5        32.126    27021414.577 5                     -3150.521 5        31.555
E10        29.000    24059512.121 7 126433683.21007      -904.346 7        43.926                                                                    24059511.460 8  94414746.98308      -675.310 8        50.072    24059510.737 8  96877827.59208      -692.990 8        49.964
C20        31.000                                                                                                                                    21810202.828 7 113571603.04707      -649.809 7        45.469                                                                    21810196.182 7  92286108.80607      -527.834 7        45.634
R23        33.000    20579780.744 7 110088169.53107     -3301.707 7        45.893
R07        34.000    20433549.848 8 109382386.02808     -2964.793 8        48.444                                                                    20433548.331 6  85075371.23206     -2305.919 6        36.745
R22        35.000    22952608.497 4                     -5320.147 4        25.474                                                                    22952614.168 6  95295363.39316     -4137.466 6        38.402
C32        36.000                                                                                                                                    24044672.259 6 125206932.09006     -3141.121 6        38.595                                                                    24044665.905 5 101740937.78305     -2552.024 5        35.571
R09        37.000    21064480.566 7 112483106.48207       266.015 7        42.296                                                                    21064475.422 6  87486916.96706       206.815 6        39.838
C23        40.000                                                                                                                                    24538257.855 7 127777136.98407     -1603.892 7        46.644                                                                    24538244.836 6 103829415.23906     -1303.185 6        39.324
C35        41.000                                                                                                                                    24516487.807 6 127663902.53406      -705.036 6        38.279                                                                    24516493.436 5                      -572.626 5        31.517
C37        42.000                                                                                                                                    23848617.173 7 124186139.90007      1185.575 7        43.627                                                                    23848623.875 6 100911291.50906       963.536 6        37.664
R24        43.000    21667626.326 6 115866337.38606      1178.345 6        41.559                                                                    21667612.509 7  90118344.39207       916.548 7        42.518
R01        44.000    23171920.725 4 123867325.84404      2355.842 4        29.014                                                                    23171929.869 5  96341208.05005      1832.615 5        32.449
C16        45.000                                                                                                                                    39358895.621 5 204952162.52605     -1732.031 5        33.066    39358882.581 5 158481914.99505     -1339.234 5        34.109
C39        46.000                                                                                                                                    40117177.757 3                     -1992.369 3        23.771                                                                    40117179.257 4                     -1618.630 4        25.865
C09        47.000                                                                                                                                    38539495.307 6 200685265.23206     -1258.562 6        36.529    38539535.009 5 155182674.59605      -973.452 5        31.645    38539488.584 5 163073197.14405     -1022.584 5        32.395
C19        48.000                                                                                                                                    24066052.837 8 125318236.38608      1465.876 8        48.270                                                                    24066047.476 6 101831316.28206      1191.386 6        36.888
C06        50.000                                                                                                                                    38794606.206 4                     -1694.673 4        26.922    38794630.361 4 156209759.36704     -1310.193 4        26.838    38794600.296 4                     -1376.843 4        29.611
I09        58.000    37622554.134 5 147638982.95405      -974.636 5        35.219
I06        59.000    37940142.985 6 148885272.52606      -588.838 6        36.548
> 2025 01 02 03 46  0.0000000  0 37
G03         1.000    22381804.781 7 117617165.49607     -3819.985 7        44.352                                    22381803.585 6  91649713.68706     -2976.609 6        37.569    22381803.084 6  91649749.67706     -2976.750 6        38.829
G20         4.000    24701004.173 5 129804732.12305      2588.852 5        32.910                                    24700993.118 1 101146435.16301      2017.317 1         5.429
G07         5.000    22521101.802 5 118349091.51305      1990.246 5        32.090                                    22521083.477 3  92220042.43603      1550.804 3        20.786    22521083.745 5  92220068.48205      1550.880 5        30.143
G09         6.000    19918985.498 8 104674971.40508      -617.334 8        51.656                                    19918980.572 8  81564926.92008      -481.037 8        49.844    19918982.775 7  81564913.91407      -481.004 7        43.589
E06        11.000    27267630.217 5                      1703.885 5        30.634                                                                    27267646.075 3                      1273.883 3        21.190
G04        12.000    20540969.306 6 107943566.21206     -2406.631 6        40.362                                    20540966.233 4  84111792.48204     -1875.295 4        28.701    20540965.087 7  84111816.46507     -1875.244 7        45.452
E12        13.000    24315525.055 6 127778969.80106     -2313.098 6        40.029                                                                    24315531.681 4  95419341.60304     -1727.104 4        28.682    24315523.090 6  97908563.86506     -1772.251 6        40.763
E29        14.000    25802417.269 6 135592609.95906     -3167.873 6        38.363                                                                    25802413.984 6 101254213.00606     -2365.666 6        40.343    25802415.966 7 103895672.13007     -2427.285 7        42.152
G06        15.000    21118591.955 8 110978939.06308      -859.513 8        48.228                                    21118587.819 7  86477085.79207      -669.749 7        46.850    21118589.459 7  86477183.80607      -669.746 7        43.613
E11        16.000    24994745.891 6 131348633.91606       650.484 6        39.841                                                                    24994742.107 6  98084763.10006       485.790 6        41.056    24994741.579 6 100643478.02606       498.456 6        41.876
E04        17.000    25068074.644 6 131733609.32306      1150.104 6        41.130                                                                    25068071.908 6  98372560.59106       858.888 6        39.682    25068070.192 5 100938744.95305       881.095 5        30.619
R08        18.000    19665237.322 8 105306613.39208         7.276 8        49.522                                                                    19665234.368 7  81905114.88507         5.616 7        45.214
E19        20.000    22904403.544 7 120363463.63207     -1449.857 7        42.690                                                                    22904401.874 7  89881818.80807     -1082.714 7        46.470    22904401.773 8  92226548.94108     -1110.927 8        49.198
S36        23.000    38149045.258 5 200474657.09405      -851.942 5        35.862
S23        24.000    38091309.237 6 200171140.06106      -847.965 6        40.882
G11        25.000    23009601.596 6 120916250.11006      1571.833 6        40.155                                    23009593.389 4  94220489.25904      1224.796 4        24.466    23009596.494 6  94220458.23306      1224.873 6        40.210
R16        26.000    22900511.958 6 122330288.55206     -3423.099 6        36.329                                                                    22900490.600 5  95145919.84405     -2662.452 5        30.091
E33        28.000                                                                                                                                    27025340.363 5 106053201.66005     -3070.511 5        32.024    27025326.827 5                     -3150.902 5        31.170
E10        29.000    24060374.279 7 126438211.09407      -906.830 7        44.044                                                                    24060372.929 8  94418128.20308      -677.151 8        49.838    24060372.375 8  96881297.01408      -694.814 8        49.866
C20        31.000                                                                                                                                    21810827.713 7 113574855.27907      -651.117 7        46.427                                                                    21810820.821 7  92288751.53307      -529.110 7        45.360
R23        33.000    20582866.479 7 110104687.39807     -3305.512 7        44.373
R07        34.000    20436319.332 7 109397213.41807     -2966.154 7        47.784                                                                    20436318.730 6  85086903.68206     -2306.977 6        37.664
R22        35.000    22957588.441 4                     -5320.601 4        26.814                                                                    22957597.659 6                     -4138.135 6        37.841
C32        36.000                                                                                                                                    24047693.877 6 125222639.28606     -3141.684 6        39.598                                                                    24047682.963 5 101753701.24805     -2553.162 5        35.805
R09        37.000    21064236.080 7 112481787.20207       261.721 7        42.715                                                                    21064229.709 6  87485890.90206       203.622 6        41.223
C23        40.000                                                                                                                                    24539799.521 7 127785163.34707     -1606.595 7        46.773                                                                    24539786.635 6 103835937.34206     -1305.654 6        38.928
C35        41.000                                                                                                                                    24517165.678 6 127667434.29206      -707.828 6        36.662                                                                    24517171.808 5                      -575.047 5        32.192
C37        42.000                                                                                                                                    23847481.766 7 124180217.02107      1183.551 7        45.234                                                                    23847486.722 6 100906478.72906       961.762 6        37.535
R24        43.000                                                                                                                                    21666512.685 7  90113768.90207       913.593 7        42.957
R01        44.000    23169720.072 4 123855547.13804      2355.904 4        28.303                                                                    23169726.671 5  96332046.93105      1832.029 5        32.144
C16        45.000                                                                                                                                    39360559.780 5 204960824.00105     -1732.378 5        32.982    39360545.815 5 158488612.58105     -1339.887 5        34.286
C39        46.000                                                                                                                                    40119091.916 3                     -1991.823 3        23.848                                                                    40119092.709 4                     -1619.342 4        26.168
C09        47.000                                                                                                                                    38540704.088 6 200691559.19006     -1259.192 6        37.183    38540743.370 5 155187541.49905      -973.849 5        31.147    38540697.103 5 163078311.52405     -1023.113 5        32.066
C19        48.000                                                                                                                                    24064645.712 8 125310908.40608      1465.253 8        48.442                                                                    24064640.712 6 101825361.74106      1190.704 6        37.493
C06        50.000                                                                                                                                    38796232.562 4                     -1695.019 4        27.234    38796257.086 4 156216312.60604     -1310.882 4        26.695    38796228.865 4                     -1377.632 4        29.848
I09        58.000    37623795.476 5 147643856.63605      -974.810 5        35.233
I06        59.000    37940894.261 6 148888217.00906      -588.867 6        36.310
> 2025 01 02 03 46  5.0000000  0 38
G03         1.000    22385439.922 7 117636268.58507     -3821.379 7        44.060                                    22385438.643 6  91664599.19806     -2977.696 6        36.839    22385437.721 6  91664635.20406     -2977.666 6        38.568
G20         4.000    24698541.071 5 129791788.66905      2588.543 5        34.233                                    24698530.224 1 101136349.30301      2017.035 1         3.800
G07         5.000    22519204.498 5 118339144.10405      1988.484 5        32.407                                    22519190.545 2  92212291.28002      1549.463 2        17.660    22519189.746 4  92212317.35204      1549.630 4        28.607
G09         6.000    19919573.973 8 104678063.59308      -619.676 8        51.890                                    19919569.507 8  81567336.41308      -482.867 8        50.588    19919571.083 7  81567323.41507      -482.806 7        44.605
G31        10.000    24844557.647 3                     -4472.524 3        20.429
E06        11.000    27266002.859 4                      1703.711 4        27.940                                                                    27266032.906 3                      1272.478 3        23.810
G04        12.000    20543259.072 7 107955603.55607     -2408.365 7        42.006                                    20543256.858 4  84121172.24004     -1876.659 4        28.455    20543254.863 7  84121196.22207     -1876.748 7        44.948
E12        13.000    24317727.040 6 127790540.53706     -2315.257 6        39.778                                                                    24317735.851 4  95427982.09604     -1729.116 4        25.534    24317724.687 6  97917429.73806     -1774.023 6        40.598
E29        14.000    25805431.502 6 135608450.54706     -3168.373 6        38.249                                                                    25805428.520 6 101266042.02106     -2366.015 6        40.102    25805430.168 7 103907809.73807     -2427.696 7        42.171
G06        15.000    21119411.287 8 110983244.99708      -862.999 8        48.538                                    21119407.293 7  86480441.06307      -672.462 7        46.721    21119409.250 7  86480539.07607      -672.462 7        43.501
E11        16.000    24994127.610 6 131345386.12106       648.544 6        39.886                                                                    24994124.002 6  98082337.79906       484.271 6        41.302    24994122.893 6 100640989.44806       497.006 6        41.843
E04        17.000    25066980.877 6 131727861.18006      1149.033 6        41.268                                                                    25066978.623 6  98368268.17106       857.956 6        40.243
R08        18.000    19665230.566 8 105306581.88008         5.251 8        49.379                                                                    19665228.881 7  81905090.37107         4.130 7        45.260
E19        20.000    22905783.954 7 120370716.04907     -1451.257 7        42.463                                                                    22905781.968 7  89887234.57207     -1083.707 7        46.503    22905781.859 8  92232105.98908     -1111.933 8        49.341
S36        23.000    38149855.722 5 200478916.99605      -851.340 5        35.967
S23        24.000    38092118.109 6 200175379.03006      -847.957 6        40.999
G11        25.000    23008108.696 7 120908396.68307      1569.362 7        43.060                                    23008099.112 4  94214369.70504      1222.875 4        25.729    23008102.474 6  94214338.68806      1222.875 6        40.284
R16        26.000    22903716.879 5 122347412.15805     -3426.604 5        34.919
E33        28.000    27029259.185 5 142039730.05615     -4112.911 5        32.293                                                                    27029254.874 5 106068556.21005     -3071.343 5        31.766    27029239.872 5                     -3151.093 5        31.260
E10        29.000    24061238.331 7 126442751.05207      -909.333 7        44.200                                                                    24061236.752 8  94421518.43808      -679.019 8        49.602    24061236.199 8  96884775.69108      -696.756 8        49.904
C20        31.000                                                                                                                                    21811453.953 7 113578114.46007      -652.631 7        47.468                                                                    21811446.874 7  92291399.89207      -530.440 7        45.511
R23        33.000    20585957.858 7 110121224.47507     -3309.328 7        43.697
R07        34.000    20439090.627 7 109412047.62707     -2967.576 7        47.732                                                                    20439089.393 6  85098441.38706     -2308.009 6        37.085
R22        35.000    22962575.485 4                     -5320.756 4        28.739                                                                    22962582.063 6                     -4138.660 6        36.881
C32        36.000                                                                                                                                    24050713.582 6 125238349.99706     -3142.584 6        39.523                                                                    24050700.659 6 101766467.47906     -2553.710 6        36.635
R09        37.000    21063991.196 7 112480488.90307       257.478 7        42.245                                                                    21063986.549 6  87484881.15406       200.277 6        40.820
C23        40.000                                                                                                                                    24541343.606 7 127793203.15207     -1609.386 7        46.861                                                                    24541331.099 6 103842470.33706     -1307.741 6        39.063
C35        41.000                                                                                                                                    24517846.092 5 127670979.78005      -710.544 5        35.210                                                                    24517854.580 5                      -577.264 5        33.144
C37        42.000                                                                                                                                    23846348.381 7 124174304.42007      1181.374 7        45.681                                                                    23846351.294 6 100901674.29606       959.842 6        37.112
R24        43.000    21665414.778 6 115854591.48406      1170.570 6        40.989                                                                    21665415.806 7  90109208.76907       910.510 7        43.458
R01        44.000    23167517.802 4 123843770.56104      2355.371 4        28.967                                                                    23167522.656 5  96322887.35705      1832.076 5        32.060
C16        45.000                                                                                                                                    39362221.996 5 204969486.87305     -1732.594 5        33.186    39362210.321 5 158495311.24005     -1339.556 5        34.833
C39        46.000                                                                                                                                    40121004.447 3                     -1993.747 3        23.238                                                                    40121006.711 4                     -1618.284 4        24.526
C09        47.000                                                                                                                                    38541912.947 6 200697855.45406     -1259.585 6        37.183    38541952.992 5 155192410.19005      -973.761 5        30.272    38541906.573 5 163083427.74505     -1023.533 5        32.569
C19        48.000                                                                                                                                    24063239.321 8 125303583.56008      1464.550 8        48.226                                                                    24063234.708 6 101819409.71206      1189.987 6        38.273
C06        50.000                                                                                                                                    38797863.622 4                     -1695.303 4        27.796    38797885.320 4 156222867.09104     -1311.389 4        26.323    38797856.259 5                     -1377.485 5        30.060
I09        58.000    37625037.605 5 147648730.65505      -975.043 5        35.138
I06        59.000    37941643.300 6 148891161.44406      -588.749 6        36.189
> 2025 01 02 03 46 10.0000000  0 37
G03         1.000    22389075.985 7 117655377.58707     -3822.569 7        43.113                                    22389074.796 5  91679489.31705     -2978.622 5        35.852    22389074.018 6  91679525.33206     -2978.710 6        38.228
G20         4.000    24696079.661 5 129778845.08705      2588.429 5        33.617                                    24696067.161 1 101126263.28201      2016.903 1         3.400
G07         5.000    22517307.939 5 118329204.01805      1987.089 5        35.033                                    22517299.228 2  92204545.78102      1548.347 2        14.524    22517300.546 4  92204571.79204      1549.122 4        27.629
G09         6.000    19920164.673 8 104681166.49908      -621.893 8        51.710                                    19920160.472 8  81569754.25908      -484.590 8        51.136    19920161.674 7  81569741.26107      -484.602 7        45.333
E06        11.000    27264373.717 4                      1703.168 4        25.504                                                                    27264410.328 4                      1271.752 4        26.323
G04        12.000    20545550.822 7 107967649.39907     -2410.340 7        42.802                                    20545548.891 4  84130558.60504     -1878.188 4        28.227    20545546.992 7  84130582.58407     -1878.122 7        43.896
E12        13.000    24319931.108 6 127802121.78406     -2317.529 6        39.991                                                                                                                                    24319928.157 6  97926303.66006     -1775.639 6        40.219
E29        14.000    25808445.840 6 135624292.74006     -3168.774 6        38.435                                                                    25808443.222 6 101277872.22106     -2366.171 6        40.217    25808445.024 7 103919948.55907     -2428.040 7        42.298
G06        15.000    21120233.792 8 110987567.42008      -866.379 8        48.748                                    21120229.884 7  86483809.19107      -675.099 7        46.469    21120231.779 7  86483907.21507      -675.126 7        43.035
E11        16.000    24993511.916 6 131342148.00906       646.487 6        40.102                                                                    24993507.618 6  98079919.73306       482.777 6        41.576    24993506.461 6 100638508.30906       495.283 6        41.592
E04        17.000    25065887.759 6 131722117.52706      1148.062 6        41.380                                                                    25065886.149 6  98363979.06106       857.305 6        40.801    25065909.499 5 100929939.31905       879.616 5        34.405
R08        18.000    19665225.920 8 105306559.42308         3.339 8        48.992                                                                    19665223.694 7  81905072.90407         2.617 7        45.151
E19        20.000    22907165.153 7 120377974.50207     -1452.478 7        42.290                                                                    22907163.240 7  89892654.84207     -1084.676 7        46.744    22907163.180 8  92237667.66108     -1112.950 8        49.273
S36        23.000    38150664.772 6 200483176.50606      -852.002 6        36.095
S23        24.000    38092926.578 6 200179617.52306      -847.775 6        40.830
G11        25.000    23006616.273 7 120900554.78007      1567.031 7        44.253                                    23006607.329 4  94208259.13504      1221.058 4        26.790    23006610.069 6  94208228.12106      1220.948 6        40.787
R16        26.000    22906928.006 5 122364552.44805     -3429.921 5        35.638
E33        28.000    27033173.569 5 142060293.47105     -4113.087 5        32.281                                                                    27033168.752 5 106083911.96505     -3071.242 5        31.366    27033153.355 5                     -3151.229 5        30.777
E10        29.000    24062104.177 7 126447302.81407      -911.682 7        44.030                                                                    24062102.919 8  94424917.48608      -680.843 8        49.511    24062102.328 8  96888263.40608      -698.648 8        49.782
C20        31.000                                                                                                                                    21812080.972 8 113581380.31408      -654.129 8        48.428                                                                    21812074.086 7  92294053.67507      -531.414 7        45.380
R23        33.000    20589054.564 7 110137780.59707     -3313.424 7        42.883
R07        34.000    20441863.295 7 109426888.16207     -2969.045 7        47.456                                                                    20441862.213 5  85109984.00605     -2308.944 5        35.443
R22        35.000    22967564.684 5                     -5321.610 5        30.196                                                                    22967568.267 6  95357438.49116     -4139.171 6        36.314
C32        36.000                                                                                                                                    24053728.699 6 125254063.94506     -3143.319 6        38.619                                                                    24053718.765 6 101779236.35706     -2553.948 6        37.157
R09        37.000    21063749.487 6 112479211.14506       253.368 6        41.333                                                                    21063746.792 6  87483887.38406       196.946 6        40.827
C23        40.000                                                                                                                                    24542890.182 7 127801256.13407     -1612.180 7        46.716                                                                    24542878.048 6 103849014.06506     -1309.963 6        39.099
C35        41.000                                                                                                                                    24518529.946 5 127674538.74905      -713.387 5        33.994                                                                    24518538.582 5                      -579.444 5        33.964
C37        42.000                                                                                                                                    23845214.325 7 124168401.84207      1179.363 7        44.957                                                                    23845217.458 6 100896877.99206       958.432 6        36.885
R24        43.000    21664324.674 6 115848747.89606      1166.632 6        39.414                                                                    21664322.148 7  90104663.76407       907.344 7        43.645
R01        44.000    23165317.471 5 123831996.07005      2354.584 5        32.844                                                                    23165322.476 5  96313729.46205      1831.113 5        32.000
C16        45.000                                                                                                                                    39363884.788 5 204978150.91305     -1733.114 5        32.856    39363874.574 5 158502010.79605     -1339.860 5        34.790
C39        46.000                                                                                                                                    40122914.057 3                     -1989.308 3        22.038                                                                    40122922.032 4                     -1619.389 4        24.391
C09        47.000                                                                                                                                    38543122.624 6 200704153.76806     -1259.907 6        37.849    38543165.576 4 155197280.48304      -974.195 4        28.682    38543116.401 5 163088545.67405     -1024.267 5        33.114
C19        48.000                                                                                                                                    24061833.174 7 125296261.56807      1463.875 7        47.797                                                                    24061828.215 6 101813460.00906      1189.606 6        38.838
C06        50.000                                                                                                                                    38799493.734 4                     -1695.746 4        28.521    38799515.379 4 156229422.78404     -1311.262 4        25.353    38799484.797 4                     -1377.969 4        29.754
I09        58.000    37626279.921 5 147653604.83105      -974.951 5        34.905
I06        59.000    37942393.196 6 148894105.64206      -588.995 6        36.412
> 2025 01 02 03 46 15.0000000  0 38
G03         1.000    22392713.861 7 117674492.86607     -3823.680 7        42.307                                    22392712.045 5  91694384.32705     -2979.490 5        34.905    22392711.127 6  91694420.34006     -2979.485 6        37.448
G20         4.000    24693616.471 5 129765901.83005      2588.368 5        33.790                                    24693603.578 1 101116177.51201      2016.815 1         2.000
G07         5.000    22515414.804 6 118319271.55706      1985.673 6        36.635                                    22515409.520 2  92196806.13202      1547.295 2        12.909    22515415.289 4  92196832.08004      1547.260 4        29.299
G09         6.000    19920757.222 8 104684280.51908      -623.884 8        51.796                                    19920753.499 8  81572180.76408      -486.146 8        51.695    19920754.250 7  81572167.76707      -486.208 7        45.696
E06        11.000    27262756.059 3                      1701.369 3        22.000                                                                    27262785.385 4                      1271.536 4        26.934
G04        12.000    20547844.704 7 107979704.06607     -2411.753 7        42.313                                    20547842.431 4  84139951.86304     -1879.286 4        28.142    20547840.424 7  84139975.82907     -1879.258 7        42.358
E12        13.000    24322136.835 6 127813713.90006     -2319.526 6        39.820                                                                    24322162.509 3                     -1733.038 3        21.595    24322133.277 6  97935185.91706     -1777.217 6        39.336
E29        14.000    25811460.744 6 135640136.93606     -3169.095 6        38.967                                                                    25811458.196 6 101289703.92906     -2366.411 6        40.145    25811459.995 7 103932088.90407     -2428.234 7        42.381
G06        15.000    21121059.154 8 110991906.71808      -869.455 8        48.272                                    21121055.685 7  86487190.47107      -677.501 7        46.503    21121057.841 7  86487288.50107      -677.481 7        42.868
E11        16.000    24992897.709 6 131338920.01306       644.592 6        40.288                                                                    24992893.245 6  98077509.21006       481.419 6        41.642    24992892.168 6 100636034.90806       493.883 6        41.602
E04        17.000    25064795.503 6 131716378.75106      1147.320 6        41.588                                                                    25064794.846 6  98359693.60406       856.742 6        41.285    25064819.274 5 100925542.08505       878.985 5        34.962
R08        18.000    19665222.383 8 105306546.43308         1.714 8        48.049                                                                    19665221.118 7  81905062.80507         1.292 7        44.957
E19        20.000    22908547.726 7 120385239.31907     -1453.535 7        42.341                                                                    22908545.646 7  89898079.86307     -1085.387 7        46.723    22908545.748 8  92243234.21408     -1113.806 8        49.317
S36        23.000    38151474.641 5 200487435.80905      -851.593 5        35.448
S23        24.000    38093730.321 6 200183855.86806      -847.701 6        40.999
G11        25.000    23005125.676 7 120892724.81107      1564.810 7        45.035                                    23005117.849 4  94202157.86904      1219.323 4        28.199    23005120.546 6  94202126.84006      1219.317 6        41.518
R16        26.000                                                                                                                                    22910127.607 4                     -2669.715 4        24.195
E33        28.000    27037087.078 5 142080858.94005     -4113.093 5        33.114                                                                    27037083.072 5 106099269.31405     -3071.614 5        30.460    27037066.893 5                     -3151.788 5        30.755
E10        29.000    24062972.536 7 126451866.77307      -914.043 7        44.083                                                                    24062971.392 8  94428325.63308      -682.462 8        49.349    24062970.792 8  96891760.46408      -700.311 8        49.932
C20        31.000                                                                                                                                    21812709.204 8 113584653.21908      -655.256 8        49.295                                                                    21812702.524 7  92296713.17107      -532.443 7        45.281
R23        33.000    20592154.079 6 110154355.93006     -3317.037 6        39.480
R07        34.000    20444636.860 7 109441735.71507     -2970.215 7        46.844                                                                    20444636.627 5  85121532.11305     -2310.071 5        35.362
R22        35.000                                                                                                                                    22972551.874 5  95378135.15705     -4139.560 5        35.533
C32        36.000                                                                                                                                    24056739.187 6 125269781.51306     -3143.733 6        37.769                                                                    24056737.520 6 101792008.18006     -2554.611 6        37.077
R09        37.000    21063515.042 6 112477954.55706       249.283 6        41.101                                                                    21063511.165 6  87482910.07806       193.827 6        40.543
C23        40.000                                                                                                                                    24544439.195 7 127809322.64807     -1614.618 7        47.070                                                                    24544427.626 6 103855568.77106     -1311.907 6        39.060
C35        41.000                                                                                                                                    24519215.647 5 127678111.53105      -715.632 5        32.731                                                                    24519222.387 5 103748863.62815      -581.774 5        34.333
C37        42.000                                                                                                                                    23844081.462 7 124162509.67707      1177.405 7        43.719                                                                    23844085.475 5 100892090.13805       956.803 5        35.752
R24        43.000    21663237.725 6 115842924.10206      1162.891 6        40.086                                                                    21663233.421 7  90100134.14807       904.419 7        43.357
R01        44.000    23163121.528 5 123820223.75305      2354.054 5        35.219                                                                    23163121.116 5  96304573.15605      1831.296 5        30.528
C16        45.000                                                                                                                                    39365549.095 5 204986816.45405     -1733.252 5        33.323    39365539.004 5 158508711.55405     -1340.292 5        34.510
C39        46.000                                                                                                                                    40124820.748 3                     -1994.364 3        22.057                                                                    40124837.966 4                     -1620.094 4        24.827
C09        47.000                                                                                                                                    38544333.347 6 200710454.54506     -1260.416 6        38.589    38544375.218 4 155202152.67804      -974.717 4        28.237    38544325.767 5 163093665.53105     -1024.015 5        32.719
C19        48.000                                                                                                                                    24060426.833 7 125288942.82507      1463.453 7        47.485                                                                    24060422.944 6 101807512.91606      1189.377 6        39.390
C06        50.000                                                                                                                                    38801120.627 4                     -1696.178 4        28.569    38801144.384 4 156235979.76804     -1311.144 4        26.072    38801114.305 4                     -1378.303 4        29.346
C29        54.000                                                                                                                                    24432797.651 5                     -3477.188 5        30.204
I09        58.000    37627521.865 5 147658479.43005      -975.018 5        34.995
I06        59.000    37943143.982 6 148897049.84906      -588.826 6        36.280
> 2025 01 02 03 46 20.0000000  0 37
G03         1.000    22396352.954 6 117693614.80506     -3824.970 6        40.644                                    22396350.484 5  91709284.52605     -2980.498 5        34.071    22396349.080 6  91709320.56506     -2980.624 6        36.163
G20         4.000    24691150.960 5 129752959.30005      2588.010 5        32.964
G07         5.000    22513523.266 5 118309347.00705      1984.129 5        35.152                                    22513521.539 2  92189072.64502      1546.079 2        14.286    22513526.711 4  92189098.65104      1546.420 4        28.825
G09         6.000    19921351.986 8 104687406.02808      -626.381 8        51.558                                    19921348.609 8  81574616.22008      -488.089 8        52.035    19921348.642 7  81574603.22107      -488.111 7        45.780
E06        11.000                                                                                                                                    27261163.103 4                      1270.746 4        27.090
G04        12.000    20550140.534 6 107991768.00206     -2413.810 6        41.254                                    20550137.544 4  84149352.30804     -1880.885 4        27.904    20550136.302 6  84149376.29606     -1880.861 6        40.708
E12        13.000    24324344.865 6 127825317.32506     -2321.941 6        39.673                                                                    24324374.674 3                     -1732.238 3        21.690    24324340.632 6  97944076.84006     -1779.127 6        38.814
E29        14.000    25814476.294 6 135655983.50406     -3169.726 6        39.060                                                                    25814474.297 6 101301537.40006     -2367.101 6        39.922    25814475.570 7 103944231.07307     -2428.608 7        42.646
G06        15.000    21121887.466 7 110996263.33007      -873.194 7        47.437                                    21121884.818 7  86490585.23807      -680.417 7        46.764    21121887.557 7  86490683.26107      -680.355 7        43.378
E11        16.000    24992285.349 6 131335702.51406       642.298 6        40.167                                                                    24992280.693 6  98075106.52906       479.633 6        41.688    24992279.986 6 100633569.55506       492.118 6        41.688
E04        17.000    25063703.859 6 131710645.24806      1146.094 6        40.841                                                                    25063704.054 6  98355412.09706       855.891 6        41.504    25063727.682 5 100921148.88605       878.085 5        34.205
R08        18.000    19665221.542 7 105306543.33707        -0.559 7        47.415                                                                    19665220.224 7  81905060.39407        -0.495 7        45.284
E19        20.000    22909931.407 7 120392510.97007     -1455.154 7        42.089                                                                    22909929.382 7  89903509.99207     -1086.639 7        46.785    22909929.612 8  92248805.99708     -1114.958 8        49.579
S36        23.000    38152287.882 6 200491695.28706      -852.480 6        36.121
S23        24.000    38094538.625 6 200188094.14506      -847.697 6        40.946
G11        25.000    23003637.080 7 120884907.16607      1562.157 7        45.087                                    23003630.767 4  94196066.19904      1217.265 4        29.242    23003633.166 7  94196035.17707      1217.301 7        42.389
E33        28.000    27041001.397 5 142101426.89405     -4114.205 5        32.503                                                                    27040999.459 4 106114628.52304     -3072.366 4        29.384    27040982.035 5                     -3152.056 5        31.117
E10        29.000    24063843.194 7 126456443.30607      -916.611 7        43.206                                                                    24063842.341 8  94431743.18608      -684.542 8        49.216    24063841.728 8  96895267.16708      -702.419 8        50.069
C20        31.000                                                                                                                                    21813339.286 8 113587933.55508      -656.909 8        50.258                                                                    21813332.451 7  92299378.71107      -533.837 7        45.142
R23        33.000    20595257.910 5 110170950.95505     -3320.953 5        34.062
R07        34.000    20447411.535 7 109456590.35107     -2971.737 7        46.371                                                                    20447411.980 5  85133085.67705     -2311.351 5        35.109
R22        35.000                                                                                                                                    22977538.183 5  95398834.65915     -4140.059 5        34.429
C32        36.000                                                                                                                                    24059750.349 6 125285503.16106     -3144.927 6        36.408                                                                    24059756.610 6 101804783.24306     -2555.448 6        36.299
R09        37.000    21063285.002 6 112476719.58706       244.600 6        37.868                                                                    21063279.331 6  87481949.52706       190.357 6        40.632
C23        40.000                                                                                                                                    24545990.622 7 127817403.10307     -1617.555 7        47.179                                                                    24545979.618 6 103862134.79806     -1314.508 6        39.060
C35        41.000                                                                                                                                    24519904.719 5 127681698.58605      -718.961 5        33.012                                                                    24519910.248 5 103751778.36905      -584.166 5        34.371
C37        42.000                                                                                                                                    23842952.236 7 124156628.28507      1175.119 7        42.758                                                                    23842954.530 5 100887311.09705       954.816 5        34.681
R24        43.000    21662155.333 6 115837120.51406      1158.624 6        41.576                                                                    21662147.743 7  90095620.24507       901.178 7        43.439
R01        44.000    23160929.483 5 123808454.16605      2353.685 5        35.595                                                                    23160915.360 4  96295419.09504      1830.090 4        28.066
C16        45.000                                                                                                                                    39367213.280 5 204995483.91705     -1733.609 5        33.359    39367203.402 5 158515413.79705     -1340.679 5        34.286
C39        46.000                                                                                                                                    40126735.913 3                     -1995.006 3        21.095                                                                    40126753.265 4                     -1619.179 4        24.030
C09        47.000                                                                                                                                    38545543.995 6 200716758.16306     -1261.218 6        39.312    38545581.799 4 155207027.04904      -974.899 4        26.168    38545535.889 5 163098787.73405     -1024.775 5        33.018
C19        48.000                                                                                                                                    24059021.762 7 125281627.72107      1462.541 7        46.954                                                                    24059018.766 6 101801568.79906      1188.427 6        40.067
C06        50.000                                                                                                                                    38802747.895 4                     -1696.705 4        28.929    38802773.170 4 156242538.51704     -1311.096 4        24.496    38802743.264 4                     -1378.679 4        29.498
C29        54.000                                                                                                                                    24436135.633 5                     -3478.643 5        31.306
I09        58.000    37628764.049 5 147663354.77805      -975.113 5        35.114
I06        59.000    37943894.814 6 148899994.35806      -588.850 6        36.416
> 2025 01 02 03 46 25.0000000  0 39
G03         1.000    22399993.212 6 117712743.01606     -3826.219 6        40.241                                    22399990.108 5  91724189.61905     -2981.473 5        33.036    22399988.611 5  91724225.63205     -2981.188 5        34.557
G20         4.000    24688686.451 5 129740016.98605      2588.451 5        33.377
G07         5.000    22511631.427 5 118299430.04705      1982.958 5        34.686                                    22511634.961 2  92181345.13002      1545.151 2        15.048    22511637.246 4  92181371.12104      1544.936 4        28.190
G09         6.000    19921948.893 8 104690542.60808      -628.411 8        51.352                                    19921945.705 8  81577060.30408      -489.669 8        52.002    19921945.467 7  81577047.30407      -489.676 7        45.767
G31        10.000    24861529.499 3                     -4477.486 3        22.990
E06        11.000                                                                                                                                    27259542.717 4                      1270.575 4        26.347
G04        12.000    20552438.920 6 108003840.76606     -2415.439 6        41.299                                    20552434.067 4  84158759.64704     -1882.160 4        27.437    20552433.594 6  84158783.63206     -1882.281 6        39.814
E12        13.000    24326554.923 6 127836931.59206     -2323.877 6        39.366                                                                                                                                    24326550.111 6  97952976.07206     -1780.638 6        37.992
E29        14.000    25817492.706 6 135671832.01306     -3169.855 6        39.276                                                                    25817490.555 6 101313372.31906     -2367.007 6        39.535    25817491.575 7 103956374.73607     -2428.812 7        42.703
G06        15.000    21122719.754 7 111000636.79507      -876.361 7        47.244                                    21122717.206 7  86493993.13907      -682.887 7        46.955    21122720.092 7  86494091.16807      -682.862 7        44.388
E11        16.000    24991674.392 6 131332495.09406       640.404 6        39.631                                                                    24991670.298 6  98072711.36906       478.270 6        41.824    24991669.785 6 100631111.91006       490.729 6        41.425
E04        17.000    25062612.723 6 131704916.58206      1145.379 6        40.057                                                                    25062614.100 6  98351134.19406       855.286 6        41.716    25062640.267 5 100916759.33905       877.615 5        32.251
R08        18.000    19665222.924 8 105306549.67508        -2.261 8        48.217                                                                    19665222.268 7  81905065.31807        -1.692 7        46.029
E19        20.000    22911316.466 7 120399788.95107     -1456.187 7        42.047                                                                    22911314.259 7  89908944.84907     -1087.415 7        46.638    22911314.651 8  92254382.63708     -1115.816 8        49.636
S36        23.000    38153093.574 5 200495955.26005      -851.652 5        35.933
S23        24.000    38095343.428 6 200192332.18806      -847.619 6        40.939
G11        25.000    23002151.991 7 120877101.43407      1559.970 7        45.822                                    23002145.978 5  94189983.81705      1215.558 5        30.030    23002147.350 7  94189952.80407      1215.548 7        43.198
R16        26.000    22916611.771 5 122416077.63915     -3440.168 5        33.796                                                                    22916574.846 4                     -2675.758 4        27.772
E33        28.000    27044915.503 5 142121996.87305     -4114.254 5        32.311                                                                    27044917.831 4 106129989.24304     -3072.443 4        29.052    27044897.218 5                     -3152.372 5        30.868
E10        29.000    24064715.851 7 126461032.02407      -918.924 7        42.159                                                                    24064715.546 8  94435169.82008      -686.199 8        49.012    24064715.002 8  96898783.18508      -704.113 8        50.134
C20        31.000                                                                                                                                    21813971.189 8 113591220.93208      -658.164 8        50.656                                                                    21813963.592 7  92302050.00307      -535.018 7        44.930
R23        33.000    20598367.378 4 110187565.32604     -3324.881 4        24.556
R07        34.000    20450186.708 7 109471451.80407     -2973.003 7        44.740                                                                    20450187.525 5  85144644.61505     -2312.302 5        34.529
R22        35.000                                                                                                                                    22982522.280 5  95419536.78505     -4140.639 5        33.539
C32        36.000                                                                                                                                    24062771.782 5 125301228.32905     -3145.521 5        35.609                                                                    24062776.225 5 101817561.25805     -2556.149 5        34.781
R09        37.000    21063056.524 6 112475505.78506       240.639 6        36.749                                                                    21063053.141 6  87481005.47506       187.242 6        40.341
C23        40.000                                                                                                                                    24547545.151 7 127825497.08107     -1620.121 7        47.155                                                                    24547534.062 6 103868711.83306     -1316.659 6        38.459
C35        41.000                                                                                                                                    24520597.329 5 127685299.41105      -721.477 5        33.707                                                                    24520599.668 5 103754704.39805      -586.165 5        33.377
C37        42.000                                                                                                                                    23841825.824 6 124150757.29106      1173.293 6        41.492                                                                    23841823.585 5 100882540.52405       953.234 5        33.868
R24        43.000    21661074.217 7 115831336.74107      1154.860 7        42.042                                                                    21661067.198 7  90091121.75807       898.158 7        43.287
R01        44.000    23158734.436 6 123796686.79706      2353.181 6        36.178                                                                    23158712.175 4  96286266.69204      1830.614 4        24.406
C16        45.000                                                                                                                                    39368878.113 5 205004152.91905     -1734.162 5        33.257    39368867.405 5 158522117.19405     -1340.669 5        34.267
C39        46.000                                                                                                                                    40128646.955 3                     -1991.902 3        21.333                                                                    40128670.066 3                     -1620.337 3        22.609
C09        47.000                                                                                                                                    38546755.636 6 200723064.18806     -1261.576 6        39.309                                                                    38546747.299 5 163103911.90905     -1025.141 5        33.395
C19        48.000                                                                                                                                    24057617.589 7 125274315.83207      1462.083 7        46.287                                                                    24057615.170 6 101795627.31406      1187.867 6        40.739
C06        50.000                                                                                                                                    38804376.357 4                     -1697.263 4        28.872    38804403.523 3 156249098.80403     -1312.975 3        23.810    38804372.553 4                     -1378.853 4        29.536
C29        54.000                                                                                                                                    24439479.087 5                     -3479.872 5        31.947
I09        58.000    37630007.220 5 147668230.51605      -975.123 5        35.133
I06        59.000    37944644.945 6 148902938.93506      -589.065 6        36.416
> 2025 01 02 03 46 30.0000000  0 37
G03         1.000    22403635.369 7 117731878.04607     -3827.804 7        42.324                                    22403631.126 5  91739100.02405     -2982.704 5        32.820    22403630.494 5  91739136.03905     -2982.588 5        33.449
G20         4.000    24686224.452 5 129727075.54405      2587.940 5        33.814
G07         5.000    22509746.566 5 118289521.17905      1980.963 5        35.514                                    22509749.971 2  92173623.94502      1543.623 2        14.619    22509751.049 4  92173649.95804      1542.943 4        26.132
G09         6.000    19922548.112 8 104693690.84408      -630.850 8        51.556                                    19922544.911 8  81579513.47308      -491.569 8        52.073    19922544.615 7  81579500.46907      -491.534 7        45.654
E06        11.000    27257922.579 4                      1701.995 4        25.639                                                                    27257919.638 4                      1269.950 4        27.234
G04        12.000    20554738.975 7 108015922.90507     -2417.340 7        42.411                                    20554732.387 4  84168174.29004     -1883.635 4        27.269    20554733.256 6  84168198.29306     -1883.692 6        39.601
E12        13.000    24328767.743 6 127848557.29806     -2326.271 6        39.799                                                                    24328810.385 3                     -1737.821 3        22.895    24328762.087 6  97961884.07506     -1782.390 6        37.217
E29        14.000    25820509.451 6 135687683.07706     -3170.649 6        39.538                                                                    25820507.073 6 101325209.14906     -2367.593 6        39.351    25820508.055 7 103968520.34807     -2429.338 7        42.734
G06        15.000    21123556.107 7 111005027.72107      -879.980 7        46.965                                    21123552.988 7  86497414.65207      -685.703 7        47.419    21123555.572 7  86497512.67707      -685.705 7        45.365
E11        16.000    24991065.469 6 131329298.35906       638.162 6        39.508                                                                    24991062.056 6  98070324.17906       476.608 6        41.776    24991061.680 6 100628662.44806       489.056 6        41.356
E04        17.000    25061522.940 6 131699193.37306      1144.055 6        38.901                                                                    25061524.802 6  98346860.36306       854.429 6        41.592    25061552.390 4 100912373.92304       876.676 4        29.109
R08        18.000    19665227.065 8 105306566.09108        -4.336 8        49.754                                                                    19665225.000 7  81905078.07607        -3.375 7        46.264
E19        20.000    22912702.848 7 120407073.88707     -1457.873 7        42.535                                                                    22912700.522 7  89914384.89407     -1088.555 7        46.561    22912701.023 8  92259964.59908     -1116.963 8        49.581
S36        23.000    38153906.310 5 200500215.10705      -852.225 5        35.648
S23        24.000    38096149.853 6 200196570.79906      -847.810 6        40.822
G11        25.000    23000669.350 7 120869308.23007      1557.367 7        46.858                                    23000663.537 5  94183911.19405      1213.531 5        30.536    23000664.236 7  94183880.18307      1213.490 7        43.553
R16        26.000    22919831.626 5                     -3443.775 5        34.895
E33        28.000    27048830.893 5 142142569.43405     -4114.583 5        31.321                                                                    27048835.838 4 106145351.93604     -3073.499 4        27.617    27048812.611 5                     -3152.888 5        30.543
E10        29.000    24065591.545 7 126465633.50307      -921.648 7        42.038                                                                    24065591.270 8  94438605.99008      -688.193 8        48.939    24065590.802 8  96902308.99608      -706.219 8        50.032
C20        31.000                                                                                                                                    21814604.265 8 113594515.91308      -659.838 8        50.864                                                                    21814596.157 7  92304727.42607      -536.263 7        44.641
R07        34.000    20452962.693 7 109486320.61207     -2974.527 7        44.119                                                                    20452965.619 5  85156209.23805     -2313.544 5        34.052
R22        35.000    22987553.946 4                     -5324.601 4        29.640                                                                    22987507.685 5  95440241.91515     -4141.726 5        32.060
C32        36.000                                                                                                                                    24065796.672 5 125316957.69905     -3146.267 5        34.871                                                                    24065796.068 5 101830342.60305     -2556.687 5        32.898
R09        37.000    21062842.977 6 112474313.46506       236.136 6        38.099                                                                    21062828.106 6  87480078.16206       183.872 6        38.333
C23        40.000                                                                                                                                    24549102.469 7 127833605.14907     -1623.123 7        46.987                                                                    24549090.766 6 103875300.27806     -1318.953 6        37.698
C35        41.000                                                                                                                                    24521291.544 5 127688914.66605      -724.847 5        34.862                                                                    24521290.852 5 103757642.11305      -588.745 5        32.569
C37        42.000                                                                                                                                    23840701.041 6 124144897.28606      1170.958 6        39.619                                                                    23840695.292 5 100877778.83605       951.028 5        33.748
R24        43.000    21659995.044 6 115825573.43106      1150.569 6        40.629                                                                    21659988.979 7  90086639.19607       894.839 7        43.539
R01        44.000    23156530.749 5                      2352.791 5        35.667                                                                    23156514.919 4                      1829.038 4        24.316
C16        45.000                                                                                                                                    39370543.454 5 205012823.96205     -1734.318 5        33.251    39370532.574 5 158528822.19805     -1341.117 5        34.019
C39        46.000                                                                                                                                    40130562.115 3                     -1997.603 3        20.381                                                                    40130583.245 3                     -1621.235 3        23.162
C09        47.000                                                                                                                                    38547966.759 6 200729373.20906     -1262.106 6        39.724    38548002.437 3                      -976.683 3        23.581    38547958.411 5 163109038.53305     -1026.136 5        33.228
C19        48.000                                                                                                                                    24056214.298 7 125267007.75007      1461.173 7        45.707                                                                    24056212.147 6 101789688.87706      1187.312 6        41.373
C06        50.000                                                                                                                                    38806005.517 4                     -1697.510 4        28.341    38806031.552 3                     -1312.565 3        23.524    38806002.992 4                     -1379.258 4        29.441
C29        54.000                                                                                                                                    24442824.098 5                     -3481.309 5        31.736                                                                    24442805.972 5                     -2829.192 5        35.667
I09        58.000    37631249.791 5 147673107.11205      -975.612 5        34.843
I06        59.000    37945395.798 6 148905883.90706      -589.048 6        36.295
> 2025 01 02 03 46 35.0000000  0 37
G03         1.000    22407277.885 7 117751019.79507     -3829.230 7        44.582                                    22407273.406 5  91754015.67205     -2983.818 5        33.090    22407273.946 5  91754051.69705     -2983.714 5        33.006
G20         4.000    24683762.646 5 129714134.77405      2587.786 5        33.275
G07         5.000    22507865.041 5 118279620.42505      1979.224 5        35.286                                    22507866.300 2  92165908.98202      1542.257 2        14.714
G09         6.000    19923149.224 8 104696850.63608      -633.263 8        51.593                                    19923146.215 8  81581975.64508      -493.452 8        52.292    19923145.965 7  81581962.64807      -493.460 7        45.282
E06        11.000    27256305.886 4                      1700.340 4        26.790                                                                    27256299.498 4                      1269.709 4        27.377
G04        12.000    20557039.959 7 108028014.34407     -2419.360 7        43.304                                    20557032.366 4  84177596.18104     -1885.205 4        27.748    20557034.378 6  84177620.17006     -1885.172 6        38.661
E12        13.000    24330982.284 6 127860194.32906     -2328.763 6        40.167                                                                    24331018.383 4                     -1738.528 4        24.722    24330976.278 6  97970800.75206     -1784.288 6        36.601
E29        14.000    25823526.449 6 135703536.54006     -3171.046 6        39.517                                                                    25823524.072 6 101337047.78006     -2368.045 6        39.354    25823524.900 7 103980667.81007     -2429.769 7        42.794
G06        15.000    21124395.071 7 111009435.99807      -883.508 7        46.349                                    21124392.146 8  86500849.68008      -688.450 8        48.028    21124394.358 7  86500947.68807      -688.417 7        45.976
E11        16.000    24990459.056 6 131326112.19406       635.902 6        39.324                                                                    24990455.852 7  98067944.88807       474.986 7        42.074    24990455.626 6 100626221.09806       487.370 6        41.371
E04        17.000    25060434.656 6 131693475.48806      1142.985 6        37.830                                                                    25060436.580 6  98342590.51406       853.463 6        41.056    25060458.198 5 100907992.54405       875.736 5        30.257
R08        18.000    19665234.975 8 105306592.42408        -6.400 8        51.611                                                                    19665229.686 7  81905098.52307        -4.937 7        46.152
E19        20.000    22914090.632 7 120414365.62207     -1459.200 7        42.796                                                                    22914088.134 7  89919830.01807     -1089.573 7        46.496    22914088.655 8  92265551.77808     -1118.062 8        49.706
S36        23.000    38154722.627 5 200504474.97405      -852.005 5        35.962
S23        24.000    38096955.403 6 200200809.62406      -847.906 6        40.560
G11        25.000    22999188.718 7 120861527.45007      1554.778 7        47.621                                    22999183.358 5  94177848.25405      1211.512 5        31.230    22999183.363 7  94177817.23707      1211.589 7        43.494
E33        28.000    27052746.584 5 142163144.58105     -4115.881 5        30.641                                                                    27052752.586 4 106160716.49404     -3073.740 4        27.808    27052729.015 4                     -3153.243 4        29.810
E10        29.000    24066469.767 7 126470247.62007      -924.260 7        42.277                                                                    24066469.227 8  94442051.59708      -690.144 8        48.919    24066469.003 8  96905844.48908      -708.198 8        50.134
C20        31.000                                                                                                                                    21815237.748 8 113597818.40008      -661.368 8        50.543                                                                    21815230.267 7  92307410.96707      -537.431 7        44.346
R23        33.000    20604618.371 5 110220833.94815     -3332.649 5        33.485
R07        34.000    20455742.219 7 109501196.75707     -2976.102 7        44.292                                                                    20455743.985 5  85167779.55905     -2314.733 5        35.781
R22        35.000    22992538.039 4                     -5325.087 4        28.626                                                                    22992495.003 5                     -4141.519 5        31.042
C32        36.000                                                                                                                                    24068820.774 6 125332691.10506     -3147.174 6        36.193                                                                    24068815.525 5 101843127.23805     -2556.853 5        30.453
R09        37.000    21062629.307 6 112473142.76906       231.919 6        38.387                                                                    21062606.092 5  87479167.60505       180.429 5        35.076
C23        40.000                                                                                                                                    24550662.111 7 127841727.20807     -1625.905 7        46.592                                                                    24550649.609 6 103881900.08806     -1320.951 6        36.367
C35        41.000                                                                                                                                    24521987.321 6 127692544.20306      -727.661 6        36.144                                                                    24521986.996 5 103760591.41605      -590.634 5        32.880
C37        42.000                                                                                                                                    23839577.458 6 124139048.19006      1168.678 6        36.204                                                                    23839572.027 5 100873025.92805       949.893 5        33.922
R24        43.000    21658920.986 6 115819830.41706      1146.512 6        41.516                                                                    21658915.389 7  90082172.41907       891.728 7        43.729
R01        44.000                                                                                                                                    23154320.522 4  96267968.57414      1829.059 4        25.609
C16        45.000                                                                                                                                    39372208.542 5 205021497.00805     -1734.896 5        32.910    39372198.452 5 158535528.73805     -1341.781 5        33.725
C39        46.000                                                                                                                                    40132473.823 3                     -1995.297 3        20.405                                                                    40132501.701 3                     -1621.618 3        23.105
C09        47.000                                                                                                                                    38549178.591 6 200735685.09606     -1262.796 6        40.191    38549214.117 3                      -976.263 3        22.133    38549170.431 5 163114167.40405     -1025.640 5        33.647
C19        48.000                                                                                                                                    24054811.265 7 125259703.38107      1460.354 7        44.621                                                                    24054809.449 6 101783753.47506      1186.679 6        41.619
C06        50.000                                                                                                                                    38807633.625 4                     -1697.727 4        28.626    38807661.356 3                     -1312.881 3        23.505    38807634.866 4                     -1379.518 4        29.223
C29        54.000                                                                                                                                    24446162.727 4                     -3482.518 4        29.896                                                                    24446146.929 5 103439656.54015     -2829.810 5        35.957
I09        58.000    37632492.298 5 147677984.46605      -975.538 5        34.814
I06        59.000    37946146.512 6 148908829.29206      -589.182 6        36.344
> 2025 01 02 03 46 40.0000000  0 38
G03         1.000    22410921.911 7 117770167.95207     -3830.648 7        45.308                                    22410917.045 5  91768936.31405     -2984.916 5        33.413    22410918.159 5  91768972.31005     -2984.922 5        33.072
G20         4.000    24681301.896 5 129701194.49805      2587.556 5        32.281
G07         5.000    22505981.965 5 118269727.43105      1977.659 5        33.868                                    22505984.176 2  92158200.15302      1541.076 2        12.606
G09         6.000    19923752.626 8 104700021.67208      -635.724 8        51.643                                    19923749.602 8  81584446.58008      -495.370 8        52.273    19923749.330 7  81584433.58207      -495.316 7        45.225
G31        10.000    24874341.596 4                     -4479.971 4        25.624
E06        11.000    27254690.964 4                      1700.009 4        24.406                                                                    27254682.608 4                      1269.127 4        28.938
G04        12.000    20559342.507 7 108040114.76007     -2421.323 7        44.211                                    20559334.241 4  84187025.05904     -1886.741 4        28.057    20559336.826 6  84187049.06706     -1886.663 6        37.561
E12        13.000    24333198.291 6 127871842.37206     -2331.086 6        40.627                                                                    24333205.449 5  95488727.18315     -1740.973 5        35.600    24333192.738 6  97979725.86206     -1786.340 6        36.386
E29        14.000    25826543.635 6 135719392.14106     -3171.693 6        40.114                                                                    25826541.459 6 101348887.99706     -2368.406 6        39.240    25826542.345 7 103992816.90507     -2430.221 7        42.887
G06        15.000    21125237.392 7 111013861.30507      -887.091 7        46.885                                    21125234.591 8  86504297.98008      -691.240 8        48.390    21125236.032 7  86504395.98907      -691.167 7        45.968
E11        16.000    24989854.989 6 131322936.29506       633.917 6        39.246                                                                    24989851.404 7  98065573.28807       473.204 7        42.337    24989851.328 6 100623787.62206       485.672 6        41.504
E04        17.000    25059346.978 6 131687762.66106      1141.628 6        36.711                                                                    25059349.008 6  98338324.43406       852.515 6        40.758
R08        18.000    19665243.212 8 105306628.38608        -8.487 8        52.277                                                                    19665236.805 7  81905126.49007        -6.575 7        46.141
E19        20.000    22915479.686 7 120421663.87507     -1460.667 7        43.046                                                                    22915476.919 7  89925280.01907     -1090.679 7        46.618    22915477.418 8  92271143.95208     -1119.229 8        49.725
S36        23.000    38155532.366 5 200508735.15305      -852.156 5        35.938
S23        24.000    38097764.122 6 200205048.32406      -848.056 6        40.722
G11        25.000    22997710.308 7 120853758.80407      1552.194 7        47.371                                    22997705.406 5  94171794.76105      1209.500 5        31.215    22997703.996 7  94171763.75907      1209.549 7        42.722
R16        26.000                                                                                                                                    22926237.374 4                     -2683.462 4        26.934
E33        28.000    27056662.929 4 142183721.85204     -4116.463 4        29.137                                                                    27056669.575 4 106176082.66804     -3073.760 4        27.389    27056646.778 4                     -3153.343 4        29.355
E10        29.000    24067350.378 7 126474874.08607      -926.844 7        42.330                                                                    24067349.553 8  94445506.43608      -692.119 8        49.065    24067349.490 8  96909389.45008      -710.182 8        50.232
C20        31.000                                                                                                                                    21815872.690 8 113601128.11808      -662.985 8        49.741                                                                    21815865.843 7  92310100.37107      -538.789 7        43.989
R07        34.000    20458523.029 7 109516079.91007     -2977.594 7        44.436                                                                    20458522.478 6  85179355.35806     -2316.061 6        37.898
R22        35.000    22997524.757 4                     -5325.636 4        26.551                                                                    22997487.125 4  95481660.51014     -4142.932 4        29.498
C32        36.000                                                                                                                                    24071843.568 6 125348428.25606     -3148.217 6        37.856                                                                    24071835.003 4 101855914.97304     -2557.965 4        28.066
R09        37.000    21062411.467 5 112471993.45405       227.289 5        34.667                                                                    21062392.488 5  87478273.65805       176.823 5        33.521
C23        40.000                                                                                                                                    24552224.275 7 127849862.96607     -1628.829 7        46.136                                                                    24552209.418 5 103888511.02705     -1323.742 5        34.919
C35        41.000                                                                                                                                    24522686.945 6 127696187.76806      -730.390 6        36.219                                                                    24522686.353 5 103763552.13205      -593.766 5        32.689
C37        42.000                                                                                                                                    23838453.024 4 124133209.75704      1166.344 4        29.488                                                                    23838451.373 5 100868281.67705       947.648 5        34.090
R24        43.000    21657851.781 7 115814107.44807      1142.195 7        43.577                                                                    21657845.552 7  90077721.21207       888.391 7        44.430
R01        44.000    23152115.251 5                      2351.420 5        35.386
C16        45.000                                                                                                                                    39373872.955 5 205030171.73105     -1735.546 5        33.293    39373865.357 5 158542236.54105     -1341.768 5        33.407
C39        46.000                                                                                                                                    40134395.011 3                     -1996.236 3        20.405                                                                    40134418.945 3                     -1620.141 3        22.133
C09        47.000                                                                                                                                    38550391.096 6 200741999.56906     -1263.396 6        40.195    38550420.811 3                      -975.051 3        21.952    38550382.953 5 163119298.43505     -1026.709 5        33.575
C19        48.000                                                                                                                                    24053409.698 7 125252402.42107      1459.448 7        43.790                                                                    24053407.300 6 101777820.82506      1185.912 6        41.917
C06        50.000                                                                                                                                    38809263.076 4                     -1698.483 4        28.995    38809293.418 3                     -1313.385 3        23.905    38809266.310 4                     -1380.208 4        29.299
C29        54.000                                                                                                                                    24449494.945 4                     -3483.954 4        28.730                                                                    24449491.324 6 103453809.13006     -2831.567 6        36.393
I09        58.000    37633734.729 5 147682862.38105      -975.833 5        34.643
I06        59.000    37946896.913 6 148911774.79206      -589.075 6        36.329
> 2025 01 02 03 46 45.0000000  0 40
G03         1.000    22414566.085 7 117789322.41807     -3831.537 7        45.136                                    22414562.101 5  91783861.87005     -2985.615 5        33.455    22414563.797 5  91783897.88405     -2985.604 5        33.587
G20         4.000    24678841.739 5 129688254.50605      2588.025 5        30.740
G07         5.000    22504099.415 5 118259842.09005      1976.310 5        31.457                                    22504103.313 1  92150497.20901      1540.046 1        10.815
G09         6.000    19924358.115 8 104703203.84808      -637.635 8        51.153                                    19924355.087 8  81586926.19608      -496.859 8        52.032    19924355.042 7  81586913.20507      -496.908 7        45.407
G31        10.000    24878607.090 4                     -4481.580 4        26.599
E06        11.000    27253077.768 3                      1699.281 3        23.390                                                                    27253067.592 5                      1269.101 5        30.196
G04        12.000    20561646.494 7 108052224.04007     -2422.773 7        44.977                                    20561637.909 4  84196460.85304     -1887.870 4        28.000    20561641.509 6  84196484.86406     -1887.757 6        37.267
E12        13.000    24335416.621 6 127883501.35106     -2332.951 6        40.484                                                                    24335415.610 6  95497433.52506     -1742.205 6        39.273    24335411.493 6  97988659.35206     -1787.649 6        36.431
E29        14.000    25829561.224 6 135735249.74206     -3171.732 6        40.851                                                                    25829559.197 6 101360729.72306     -2368.470 6        39.213    25829560.164 7 104004967.53907     -2430.269 7        42.908
G06        15.000    21126083.150 7 111018303.55507      -890.242 7        47.729                                    21126080.238 8  86507759.47808      -693.696 8        48.561    21126081.266 7  86507857.49307      -693.640 7        45.722
E11        16.000    24989253.386 6 131319770.54506       632.131 6        39.826                                                                    24989249.146 7  98063209.25207       472.056 7        42.480    24989249.192 6 100621361.93906       484.271 6        41.511
E04        17.000    25058259.599 5 131682054.74005      1141.001 5        35.919                                                                    25058261.910 6  98334061.99906       852.119 6        39.949    25058258.545 5 100899241.27105       874.282 5        34.710
R08        18.000    19665252.078 8 105306673.86908       -10.076 8        52.605                                                                    19665245.118 7  81905161.86707        -7.830 7        46.145
E19        20.000    22916869.338 7 120428968.48107     -1461.572 7        42.997                                                                    22916866.939 7  89930734.76607     -1091.455 7        46.636    22916867.448 8  92276740.99508     -1119.966 8        49.616
S36        23.000    38156340.589 5 200512994.98805      -851.897 5        35.471
S23        24.000    38098568.634 6 200209286.84906      -847.678 6        40.403
G11        25.000    22996234.057 7 120846002.20207      1550.095 7        46.678                                    22996229.525 5  94165750.66005      1207.861 5        30.936    22996227.348 6  94165719.66206      1207.780 6        41.728
R16        26.000    22929439.264 4 122485022.99914     -3453.511 4        29.346
E33        28.000    27060578.270 4 142204301.24204     -4115.968 4        28.218                                                                    27060586.315 4 106191450.43504     -3074.392 4        27.401    27060567.478 4                     -3153.504 4        29.232
E10        29.000    24068233.130 7 126479512.80007      -929.028 7        42.152                                                                    24068232.237 8  94448970.41308      -693.719 8        49.092    24068232.196 8  96912943.79508      -711.817 8        50.146
C20        31.000                                                                                                                                    21816509.315 8 113604444.93308      -664.100 8        49.265                                                                    21816502.909 7  92312795.54107      -539.429 7        43.795
R23        33.000    20610829.172 5 110254199.99005     -3340.415 5        35.238
R07        34.000    20461305.393 7 109530969.83107     -2978.787 7        43.346                                                                    20461303.793 6  85190936.40906     -2316.705 6        39.270
R22        35.000                                                                                                                                    23002473.832 4  95502373.66204     -4142.463 4        28.114
C32        36.000                                                                                                                                    24074866.670 6 125364169.02806     -3148.462 6        39.670                                                                    24074851.096 4 101868705.57804     -2558.323 4        25.564
R09        37.000                                                                                                                                    21062181.181 5  87477396.15605       173.746 5        32.772
C23        40.000                                                                                                                                    24553789.642 7 127858012.27607     -1631.217 7        45.798                                                                    24553772.335 5 103895133.01005     -1325.397 5        34.057
C35        41.000                                                                                                                                    24523388.590 6 127699845.16106      -732.801 6        37.289                                                                    24523389.102 5 103766524.06605      -595.389 5        32.964
C37        42.000                                                                                                                                                                                                                                                                    23837332.839 5 100863545.93105       946.242 5        34.757
R24        43.000    21656786.791 7 115808404.42707      1138.649 7        44.777                                                                    21656779.926 7  90073285.52907       885.572 7        44.795
R01        44.000    23149916.758 5 123749644.34515      2350.866 5        34.410
C16        45.000                                                                                                                                    39375538.568 5 205038848.01405     -1735.206 5        33.467    39375531.127 5 158548945.57705     -1341.779 5        33.365
C39        46.000                                                                                                                                    40136307.886 3                     -1995.733 3        20.619                                                                    40136334.677 3                     -1620.474 3        22.381
C09        47.000                                                                                                                                    38551603.958 6 200748316.51206     -1263.567 6        40.391                                                                    38551596.283 5 163124431.46605     -1026.756 5        33.371
C19        48.000                                                                                                                                    24052008.759 7 125245104.75307      1459.184 7        43.378                                                                    24052005.470 6 101771890.87106      1185.877 6        41.921
C06        50.000                                                                                                                                    38810893.836 4                     -1698.662 4        28.578    38810926.982 3                     -1312.680 3        23.086    38810897.442 4                     -1380.211 4        29.355
C44        52.000                                                                                                                                    26595024.655 5                      1323.762 5        33.305
C29        54.000                                                                                                                                    24452840.040 4                     -3485.452 4        29.166                                                                    24452836.691 6 103467967.10406     -2832.118 6        36.117
I09        58.000    37634978.549 5 147687740.75205      -975.712 5        34.995
I06        59.000    37947646.529 6 148914720.37106      -589.025 6        36.624
> 2025 01 02 03 46 50.0000000  0 39
G03         1.000    22418211.062 7 117808482.90207     -3832.535 7        44.736                                    22418208.549 5  91798792.12005     -2986.387 5        33.581    22418210.861 5  91798828.14005     -2986.339 5        34.943
G20         4.000    24676379.847 4 129675314.57204      2588.204 4        29.384
G07         5.000    22502219.161 4 118249964.15204      1975.006 4        28.938                                    22502223.676 1  92142799.98701      1538.921 1         9.524
G09         6.000    19924965.413 8 104706396.88808      -639.470 8        50.638                                    19924962.628 8  81589414.28108      -498.286 8        51.645    19924962.577 7  81589401.28007      -498.282 7        45.249
G31        10.000    24882866.467 4                     -4482.724 4        26.934
E06        11.000    27251464.228 4                      1698.494 4        26.299                                                                    27251452.814 5                      1268.566 5        30.611
G04        12.000    20563952.500 7 108064341.92107     -2424.259 7        45.521                                    20563943.393 4  84205903.34704     -1889.033 4        28.133    20563947.963 6  84205927.36606     -1889.162 6        37.739
E12        13.000    24337637.313 6 127895170.97806     -2334.761 6        40.260                                                                    24337634.906 6  95506147.85006     -1743.417 6        40.186    24337632.237 6  97997600.97706     -1789.068 6        37.335
E29        14.000    25832578.835 6 135751109.08906     -3171.778 6        41.628                                                                    25832577.228 6 101372572.74506     -2368.656 6        39.027    25832578.156 7 104017119.50607     -2430.490 7        42.747
G06        15.000    21126931.746 8 111022762.48408      -893.256 8        48.374                                    21126929.054 8  86511233.97608      -696.045 8        48.641    21126929.892 7  86511331.99507      -696.080 7        46.048
E11        16.000    24988652.943 6 131316614.72106       630.471 6        40.529                                                                    24988648.733 7  98060852.63207       470.631 7        42.764    24988648.752 6 100618943.84106       482.910 6        41.630
E04        17.000    25057174.327 5 131676351.43505      1140.609 5        34.686                                                                    25057175.493 6  98329803.06506       851.495 6        39.333    25057173.637 5 100894871.23005       873.786 5        35.743
R08        18.000    19665261.283 8 105306728.49608       -11.716 8        52.180                                                                    19665255.098 7  81905204.35107        -9.094 7        45.518
E19        20.000    22918260.496 7 120436279.25107     -1462.509 7        43.033                                                                    22918258.146 7  89936194.11007     -1092.156 7        46.634    22918258.589 8  92282342.75408     -1120.686 8        49.600
S36        23.000    38157146.653 5 200517254.29905      -851.791 5        35.386
S23        24.000    38099374.864 6 200213525.09106      -847.383 6        40.374
G11        25.000    22994759.666 7 120838257.38207      1547.956 7        45.928                                    22994755.790 5  94159715.73705      1206.194 5        30.068    22994753.736 6  94159684.73306      1206.235 6        41.027
E33        28.000    27064494.565 4 142224882.51104     -4116.792 4        24.752                                                                    27064503.116 4 106206819.47304     -3073.807 4        27.569    27064492.637 5                     -3154.145 5        30.015
E10        29.000    24069117.927 6 126484163.49106      -931.193 6        41.814                                                                    24069117.123 8  94452443.33308      -695.310 8        48.953    24069117.208 8  96916507.31308      -713.457 8        50.160
C20        31.000                                                                                                                                    21817147.666 8 113607768.56808      -665.229 8        49.411                                                                    21817141.257 7  92315496.27607      -540.517 7        43.492
R23        33.000    20613952.281 6 110270911.47106     -3344.024 6        37.180
R07        34.000    20464087.227 7 109545866.43707     -2979.840 7        42.737                                                                    20464085.875 6  85202522.66506     -2317.708 6        39.054
R22        35.000                                                                                                                                    23007465.604 4  95523089.12604     -4143.187 4        25.865
C32        36.000                                                                                                                                    24077889.860 6 125379913.20206     -3149.146 6        41.690                                                                    24077871.874 4 101881499.04604     -2558.712 4        24.962
R09        37.000    21061970.252 6 112469758.15106       219.470 6        37.365                                                                    21061972.911 5  87476534.94905       170.790 5        32.060
C23        40.000                                                                                                                                    24555357.500 7 127866174.90107     -1633.689 7        45.741                                                                    24555338.484 5 103901765.79905     -1327.669 5        32.886
C35        41.000                                                                                                                                    24524094.210 6 127703516.18006      -735.442 6        39.195                                                                    24524094.592 5 103769507.09805      -597.717 5        33.515
C37        42.000                                                                                                                                    23836206.069 5                      1162.612 5        31.645                                                                    23836215.716 5 100858818.51805       944.874 5        35.410
R24        43.000    21655726.290 7 115802721.11607      1134.907 7        44.065                                                                    21655716.743 7  90068865.17007       882.720 7        44.915
R01        44.000    23147721.876 5 123737889.44805      2350.951 5        34.519
C16        45.000                                                                                                                                    39377205.616 5 205047525.63005     -1735.497 5        33.701    39377197.498 5 158555655.64805     -1342.072 5        33.084
C39        46.000                                                                                                                                    40138219.487 3                     -1993.481 3        21.881                                                                    40138248.116 3                     -1619.762 3        23.181
C09        47.000                                                                                                                                    38552817.378 6 200754635.67006     -1263.972 6        40.758                                                                    38552809.451 5 163129566.31205     -1027.210 5        33.126
C19        48.000                                                                                                                                    24050607.709 7 125237810.12307      1458.867 7        43.236                                                                    24050604.138 6 101765963.38906      1185.396 6        41.783
C06        50.000                                                                                                                                    38812524.020 4                     -1698.692 4        28.825    38812561.619 3                     -1315.217 3        21.143    38812529.012 4                     -1380.709 4        29.204
C44        52.000                                                                                                                                    26593755.085 5                      1321.788 5        32.904
C29        54.000                                                                                                                                    24456186.375 5                     -3486.476 5        30.174                                                                    24456183.516 5 103482130.26105     -2832.917 5        35.981
I09        58.000    37636221.575 5 147692619.36805      -975.490 5        35.029
I06        59.000    37948396.962 6 148917665.81306      -588.766 6        36.760
> 2025 01 02 03 46 55.0000000  0 40
G03         1.000    22421857.368 7 117827649.79307     -3833.868 7        43.539                                    22421856.427 5  91813727.36405     -2987.429 5        33.880    22421858.343 6  91813763.38106     -2987.446 6        36.140
G20         4.000    24673922.163 5 129662375.23805      2587.863 5        31.019
G07         5.000    22500342.001 4 118240094.06704      1973.424 4        29.706                                    22500345.554 1  92135109.03001      1537.725 1         8.190
G09         6.000    19925575.019 8 104709601.17208      -641.946 8        50.288                                    19925572.334 8  81591911.12608      -500.218 8        51.540    19925572.450 7  81591898.13607      -500.288 7        45.372
G31        10.000    24887127.982 4                     -4483.911 4        27.389
E06        11.000    27249848.506 4                      1698.372 4        28.095                                                                    27249837.744 5                      1268.088 5        31.049    27249821.764 5 109723743.24715      1300.946 5        31.955
G04        12.000    20566260.102 7 108076468.76407     -2426.209 7        45.160                                    20566250.835 4  84215352.83304     -1890.554 4        28.427    20566255.678 6  84215376.85306     -1890.552 6        38.096
E12        13.000    24339860.017 6 127906851.57506     -2337.170 6        40.155                                                                    24339857.926 6  95514870.37606     -1745.129 6        40.977    24339856.713 6  98006551.05406     -1790.789 6        37.989
E29        14.000    25835597.106 7 135766970.54807     -3172.406 7        42.199                                                                    25835595.486 6 101384417.33606     -2369.009 6        38.967    25835596.515 7 104029273.08107     -2430.772 7        42.445
G06        15.000    21127783.172 8 111027238.47308      -896.882 8        48.644                                    21127781.095 8  86514721.76408      -698.871 8        49.031    21127781.830 7  86514819.78307      -698.882 7        46.766
E11        16.000    24988054.717 6 131313469.20506       628.187 6        40.920                                                                    24988050.244 7  98058503.70407       469.181 7        42.969    24988050.233 6 100616533.64006       481.436 6        41.828
E04        17.000    25056091.852 5 131670653.25005      1138.929 5        31.381                                                                    25056090.705 6  98325547.87706       850.930 6        38.796    25056091.624 6 100890505.06306       872.946 6        36.268
R08        18.000    19665270.752 8 105306792.79208       -13.727 8        51.382                                                                    19665266.241 7  81905254.38407       -10.758 7        45.007
E19        20.000    22919652.797 7 120443596.58007     -1463.973 7        42.832                                                                    22919650.674 7  89941658.35007     -1093.273 7        46.589    22919650.977 8  92287949.54108     -1121.806 8        49.619
S36        23.000    38157962.165 5 200521514.06105      -851.981 5        35.748
S23        24.000    38100181.424 6 200217763.41906      -847.679 6        40.279
G11        25.000    22993288.127 7 120830524.73807      1545.408 7        44.781                                    22993284.125 4  94153690.30704      1204.212 4        29.526    22993282.630 6  94153659.29306      1204.228 6        40.741
R16        26.000    22935912.868 3                     -3460.010 3        22.571                                                                    22935975.245 4                     -2692.260 4        27.832
E33        28.000    27068404.530 3                     -4117.138 3        23.410                                                                    27068420.518 4 106222190.21904     -3074.558 4        27.138    27068411.040 4                     -3154.407 4        29.706
E10        29.000    24070005.592 6 126488826.54106      -933.877 6        41.352                                                                    24070004.471 8  94455925.48708      -697.285 8        48.875    24070004.569 8  96920080.30708      -715.464 8        50.132
C20        31.000                                                                                                                                    21817787.624 8 113611099.41208      -666.789 8        49.409                                                                    21817781.068 7  92318202.88307      -541.908 7        43.359
R23        33.000    20617080.399 6 110287642.34806     -3347.806 6        37.508
R07        34.000    20466870.864 7 109560769.88007     -2981.278 7        42.013                                                                    20466869.195 6  85214114.25406     -2318.875 6        38.369
R22        35.000                                                                                                                                    23012451.417 3                     -4145.444 3        22.590
C32        36.000                                                                                                                                    24080914.483 7 125395661.12407     -3149.884 7        42.557                                                                    24080892.023 3                     -2558.985 3        21.714
R09        37.000    21061774.780 6 112468672.21406       215.217 6        38.580                                                                    21061767.910 5  87475690.37105       167.151 5        31.208
C23        40.000                                                                                                                                    24556926.991 7 127874351.20207     -1636.592 7        45.676                                                                    24556908.800 5 103908409.72905     -1330.251 5        32.886
C35        41.000                                                                                                                                    24524808.337 6 127707201.21306      -738.391 6        41.054                                                                    24524802.775 5 103772501.47105      -599.990 5        33.437
C37        42.000                                                                                                                                    23835098.730 5                      1160.660 5        35.390                                                                    23835100.786 5 100854099.74805       942.928 5        35.871
R24        43.000    21654663.528 6 115797057.87506      1130.719 6        40.675                                                                    21654657.980 7  90064460.44107       879.414 7        44.823
R01        44.000    23145529.743 5 123726137.12805      2350.297 5        35.338                                                                    23145547.828 3                      1827.866 3        23.067
C16        45.000                                                                                                                                    39378872.240 5 205056204.86705     -1735.868 5        33.210    39378864.250 5 158562367.00105     -1342.174 5        32.808
C39        46.000                                                                                                                                    40140131.021 3                     -1998.044 3        21.762                                                                    40140161.563 3                     -1620.728 3        23.257
C09        47.000                                                                                                                                    38554031.740 6 200760957.40606     -1264.446 6        40.620    38554013.331 4                      -977.781 4        24.226    38554023.266 5 163134703.24005     -1027.261 5        32.850
C19        48.000                                                                                                                                    24049206.638 7 125230518.92507      1458.003 7        42.519                                                                    24049203.573 6 101760038.69206      1184.679 6        41.666
C06        50.000                                                                                                                                    38814158.009 4                     -1699.521 4        28.009    38814194.003 3                     -1314.635 3        21.548    38814162.956 4                     -1380.677 4        29.043
C44        52.000                                                                                                                                    26592492.062 5                      1319.910 5        31.728
C29        54.000                                                                                                                                    24459534.346 5                     -3487.961 5        31.011                                                                    24459531.893 6 103496298.94106     -2834.547 6        36.049
I09        58.000    37637465.466 5 147697498.57205      -975.616 5        35.148
I06        59.000    37949148.152 6 148920611.41706      -589.069 6        36.699
> 2025 01 02 03 47  0.0000000  0 37
G03         1.000    22425506.146 7 117846823.59407     -3835.469 7        42.197                                    22425505.763 5  91828667.99505     -2988.676 5        33.689    22425507.031 6  91828704.03906     -2988.781 6        36.764
G09         6.000    19926187.102 8 104712817.19908      -644.371 8        50.097                                    19926184.271 8  81594417.12008      -502.107 8        51.206    19926184.415 7  81594404.13207      -502.181 7        45.690
G31        10.000    24891391.280 4                     -4485.623 4        27.281
E06        11.000    27248229.649 4                      1697.783 4        27.006                                                                    27248224.025 5                      1267.657 5        30.468    27248206.544 5 109717238.36205      1300.607 5        32.557
G04        12.000    20568569.472 7 108088605.07907     -2428.204 7        44.060                                    20568560.285 4  84224809.70004     -1892.099 4        28.815    20568565.365 6  84224833.70106     -1892.110 6        38.661
E12        13.000    24342084.823 6 127918543.69906     -2339.552 6        40.517                                                                    24342083.054 6  95523601.51206     -1747.029 6        41.473    24342083.136 6  98015509.93106     -1792.497 6        38.706
E29        14.000    25838615.629 7 135782834.62507     -3172.999 7        42.260                                                                    25838614.458 6 101396263.88606     -2369.360 6        39.027    25838615.152 7 104041428.67107     -2431.261 7        42.220
G06        15.000    21128638.002 8 111031732.01508      -900.453 8        48.713                                    21128636.436 8  86518223.22808      -701.652 8        49.215    21128636.914 7  86518321.24507      -701.606 7        47.077
E11        16.000    24987457.915 6 131310334.50706       626.026 6        41.323                                                                    24987453.987 7  98056162.86207       467.405 7        43.194    24987453.996 7 100614131.73307       479.670 7        42.119
E04        17.000    25055009.051 4 131664960.60004      1137.645 4        29.687                                                                    25055007.700 6  98321296.85506       849.780 6        38.988    25055008.282 6 100886143.14506       871.870 6        37.338
R08        18.000    19665284.007 8 105306867.34508       -15.817 8        51.135                                                                    19665280.864 7  81905312.36707       -12.326 7        45.437
E19        20.000    22921046.480 7 120450920.92107     -1465.475 7        42.730                                                                    22921044.482 7  89947127.82407     -1094.348 7        46.775    22921044.730 8  92293561.69408     -1122.888 8        49.621
S36        23.000    38158770.232 5 200525774.35905      -852.141 5        35.724
S23        24.000    38100987.679 6 200222002.12706      -847.691 6        40.312
G11        25.000    22991818.974 7 120822804.78307      1542.758 7        42.775                                    22991814.750 4  94147674.75704      1202.146 4        28.739    22991813.835 6  94147643.75006      1202.244 6        40.276
E33        28.000                                                                                                                                    27072340.636 4 106237562.90104     -3075.225 4        26.515    27072327.153 5                     -3154.899 5        30.158
E10        29.000    24070896.226 6 126493502.46206      -936.393 6        41.354                                                                    24070894.280 8  94459417.24508      -699.281 8        48.925    24070894.344 8  96923663.16108      -717.563 8        50.161
C20        31.000                                                                                                                                    21818428.778 8 113614437.98108      -668.507 8        49.313                                                                    21818422.483 7  92320915.76907      -543.240 7        43.310
R23        33.000    20620208.911 6 110304393.13406     -3352.097 6        38.480
R07        34.000    20469655.468 7 109575680.88507     -2982.956 7        42.679                                                                    20469654.674 6  85225711.69206     -2320.165 6        38.174
R22        35.000                                                                                                                                    23017437.285 3                     -4141.989 3        20.143
C32        36.000                                                                                                                                    24083939.219 7 125411413.33307     -3150.765 7        42.912                                                                    24083918.417 3                     -2564.529 3        21.810
R09        37.000    21061577.479 6 112467608.06606       210.777 6        40.141                                                                    21061571.257 5  87474862.69105       163.811 5        32.635
C23        40.000                                                                                                                                    24558499.305 7 127882541.69607     -1639.486 7        45.463                                                                    24558483.660 5 103915065.19105     -1332.465 5        33.006
C35        41.000                                                                                                                                    24525525.733 6 127710900.76806      -741.306 6        41.294                                                                    24525513.012 5 103775507.67005      -602.620 5        33.569
C37        42.000                                                                                                                                    23833991.015 6 124109798.96416      1158.144 6        37.709                                                                    23833987.451 6 100849390.04306       940.998 6        36.355
R24        43.000    21653601.282 6 115791415.12506      1126.536 6        38.853                                                                    21653602.580 7  90060071.69207       876.077 7        45.099
R01        44.000    23143339.325 5 123714387.65005      2349.546 5        32.066                                                                    23143343.667 3                      1827.022 3        22.876
C16        45.000                                                                                                                                    39380537.510 5 205064886.30605     -1736.262 5        32.940    39380532.275 5 158569080.00905     -1342.588 5        32.455
C39        46.000                                                                                                                                    40142055.987 3                     -1993.823 3        22.114                                                                    40142077.274 3                     -1621.438 3        22.286
C09        47.000                                                                                                                                    38555245.866 6 200767282.24206     -1265.271 6        40.958                                                                    38555237.706 5 163139842.70405     -1028.200 5        32.970
C19        48.000                                                                                                                                    24047807.189 6 125223231.64506      1457.134 6        41.738                                                                    24047803.647 6 101754117.19906      1183.962 6        41.533
C06        50.000                                                                                                                                    38815789.454 4                     -1700.092 4        27.772    38815828.587 3                     -1312.035 3        21.929    38815795.943 4                     -1381.222 4        28.834
C44        52.000                                                                                                                                    26591227.255 5                      1317.696 5        30.211
C29        54.000                                                                                                                                    24462883.627 5                     -3489.415 5        31.962                                                                    24462882.448 6 103510473.47606     -2835.550 6        36.548
I09        58.000    37638708.676 5 147702378.68405      -976.139 5        35.138
I06        59.000    37949899.281 6 148923557.54106      -589.353 6        36.654
> 2025 01 02 03 47  5.0000000  0 37
G03         1.000    22429155.886 6 117866003.90206     -3836.660 6        41.235                                    22429156.355 5  91843613.68505     -2989.605 5        33.299    22429157.784 6  91843649.71806     -2989.595 6        37.142
G07         5.000    22496610.482 6 118220378.35306      1970.059 6        36.741                                    22496593.979 1  92119745.88201      1535.060 1         8.857    22496582.715 3                      1533.768 3        21.071
G09         6.000    19926801.093 8 104716044.58408      -646.630 8        50.060                                    19926798.386 8  81596931.96408      -503.871 8        51.020    19926798.580 7  81596918.97707      -503.899 7        45.860
G31        10.000    24895656.913 4                     -4486.128 4        27.066
E06        11.000    27246607.339 4                      1696.779 4        26.383                                                                    27246611.450 4                      1267.379 4        28.882    27246590.566 5 109710735.58705      1300.183 5        31.766
G04        12.000    20570880.649 7 108100750.46407     -2430.025 7        44.596                                    20570871.756 4  84234273.63204     -1893.532 4        29.412    20570876.928 6  84234297.65506     -1893.628 6        40.360
E12        13.000    24344311.968 6 127930246.95406     -2341.868 6        41.378                                                                    24344310.180 6  95532340.95506     -1748.706 6        41.723    24344312.187 6  98024477.32706     -1794.225 6        39.387
E29        14.000    25841634.812 7 135798700.93607     -3173.559 7        42.650                                                                    25841633.833 6 101408112.09006     -2369.865 6        39.066    25841634.425 6 104053585.95606     -2431.630 6        41.499
G06        15.000    21129496.408 8 111036242.72308      -903.891 8        49.239                                    21129494.925 8  86521738.06508      -704.333 8        49.423    21129494.436 7  86521836.08307      -704.303 7        46.741
E11        16.000    24986863.727 7 131307210.23407       623.885 7        42.112                                                                    24986859.705 7  98053829.80207       465.828 7        43.564    24986859.539 6 100611737.81506       478.051 6        41.959
E04        17.000    25053925.756 4 131659273.09704      1136.518 4        29.791                                                                    25053926.112 6  98317049.65706       849.208 6        39.132    25053925.469 6 100881785.12706       871.300 6        37.868
R08        18.000    19665300.558 8 105306951.46708       -17.866 8        51.008                                                                    19665297.520 7  81905377.79807       -13.902 7        46.435
E19        20.000    22922441.565 7 120458251.88107     -1466.884 7        42.768                                                                    22922439.552 7  89952602.24207     -1095.381 7        46.799    22922439.766 8  92299178.92408     -1123.955 8        49.251
S36        23.000    38159583.500 5 200530034.78405      -852.183 5        35.633
S23        24.000    38101796.717 6 200226240.89906      -847.820 6        40.484
G11        25.000    22990352.637 6 120815097.16206      1540.270 6        41.039                                    22990347.579 4  94141668.80804      1200.205 4        27.880    22990347.591 6  94141637.80706      1200.242 6        40.126
E33        28.000    27076230.124 4                     -4117.863 4        25.594                                                                    27076259.025 4 106252937.28304     -3074.808 4        25.759    27076245.832 4                     -3155.548 4        29.725
E10        29.000    24071788.454 6 126498190.85906      -938.919 6        41.824                                                                    24071786.549 8  94462918.32208      -701.202 8        48.956    24071786.626 8  96927255.57308      -719.494 8        49.966
C20        31.000                                                                                                                                    21819071.464 8 113617783.87508      -669.983 8        49.256                                                                    21819065.175 7  92323634.57807      -544.382 7        43.283
R23        33.000    20623340.667 6 110321163.31206     -3356.089 6        39.255
R07        34.000    20472443.383 7 109590599.00207     -2984.209 7        43.232                                                                    20472441.998 6  85237314.64306     -2321.107 6        36.873
C32        36.000                                                                                                                                    24086964.357 7 125427169.39507     -3151.594 7        42.529                                                                    24086943.099 3                     -2559.417 3        21.905
R09        37.000    21061381.984 6 112466565.51006       206.254 6        41.914                                                                    21061376.674 5  87474051.77305       160.540 5        34.500
C23        40.000                                                                                                                                    24560074.677 7 127890745.95807     -1642.271 7        45.190                                                                    24560061.017 5 103921731.77805     -1334.492 5        33.341
C35        41.000                                                                                                                                    24526238.740 6 127714614.41006      -744.265 6        40.203                                                                    24526226.420 5 103778525.28605      -604.676 5        33.323
C37        42.000                                                                                                                                    23832884.034 6 124104013.70206      1156.015 6        39.054                                                                    23832876.844 6 100844689.05006       939.122 6        37.255
R24        43.000    21652552.763 6 115785792.67706      1122.337 6        39.042                                                                    21652550.863 7  90055698.67307       873.031 7        45.032
R01        44.000    23141143.884 4                      2349.343 4        29.602                                                                    23141153.766 4                      1827.146 4        24.977
C16        45.000                                                                                                                                    39382205.708 5 205073569.53405     -1736.923 5        33.269    39382199.500 5 158575794.43305     -1342.922 5        32.000
C39        46.000                                                                                                                                    40143965.535 3                     -1993.778 3        23.352                                                                    40143992.362 3                     -1620.995 3        23.010
C09        47.000                                                                                                                                    38556461.246 6 200773609.75206     -1265.860 6        40.901    38556453.513 3                      -977.922 3        23.619    38556453.013 5 163144984.30705     -1028.607 5        33.096
C19        48.000                                                                                                                                    24046408.150 6 125215947.89806      1456.344 6        40.994                                                                    24046404.094 6 101748198.54806      1183.374 6        41.354
C06        50.000                                                                                                                                    38817418.345 4                     -1700.085 4        28.303                                                                    38817428.443 4                     -1381.492 4        28.806
C44        52.000                                                                                                                                    26589953.491 4                      1315.821 4        28.645
C29        54.000                                                                                                                                    24466235.439 5                     -3490.907 5        33.263                                                                    24466234.132 6 103524653.56106     -2836.590 6        36.726
I09        58.000    37639953.272 5 147707259.44205      -976.165 5        35.229
I06        59.000    37950650.092 6 148926503.92106      -589.524 6        36.333
> 2025 01 02 03 47 10.0000000  0 37
G03         1.000    22432808.015 6 117885190.29506     -3837.825 6        39.994                                    22432808.016 5  91858564.12305     -2990.519 5        32.844    22432807.845 6  91858600.16206     -2990.649 6        36.862
G07         5.000    22494734.089 6 118210531.94306      1968.608 6        37.059                                    22494720.168 1  92112073.21601      1533.955 1        10.000    22494714.024 4                      1533.780 4        27.102
G09         6.000    19927417.398 8 104719282.87808      -648.671 8        49.615                                    19927414.593 8  81599455.31308      -505.460 8        50.850    19927414.829 7  81599442.32007      -505.490 7        45.979
G31        10.000    24899930.957 4                     -4487.475 4        25.850
E06        11.000    27244985.630 4                      1696.201 4        26.754                                                                    27244999.556 4                      1266.739 4        27.269    27244975.744 5 109704234.60405      1300.205 5        31.215
G04        12.000    20573193.484 7 108112904.45707     -2431.600 7        45.628                                    20573185.047 5  84243744.27205     -1894.757 5        30.249    20573189.597 7  84243768.29707     -1894.820 7        42.093
E12        13.000    24346541.032 6 127941960.91106     -2343.845 6        41.371                                                                    24346539.188 6  95541088.38806     -1750.305 6        41.821    24346542.111 6  98033452.95106     -1795.875 6        40.105
E29        14.000    25844654.566 7 135814569.00507     -3173.751 7        42.466                                                                    25844653.039 6 101419961.61806     -2369.991 6        39.078    25844653.931 6 104065744.61606     -2431.889 6        41.309
G06        15.000    21130357.908 8 111040770.16908      -907.113 8        49.145                                    21130356.437 8  86525265.94708      -706.842 8        49.519    21130355.822 7  86525363.96207      -706.847 7        46.190
E11        16.000    24986271.032 7 131304095.95507       621.923 7        42.827                                                                    24986267.259 7  98051504.20807       464.347 7        43.790    24986266.974 7 100609351.55407       476.449 7        42.212
E04        17.000    25052843.753 5 131653590.28805      1135.982 5        30.475                                                                    25052845.784 6  98312805.99206       848.483 6        39.330    25052843.814 6 100877430.74806       870.663 6        38.580
R08        18.000    19665317.720 8 105307044.91908       -19.558 8        50.594                                                                    19665315.196 7  81905450.48107       -15.187 7        47.424
E19        20.000    22923837.699 7 120465589.03407     -1468.048 7        42.686                                                                    22923835.684 7  89958081.29207     -1096.247 7        46.754    22923835.964 8  92304800.90408     -1124.829 8        49.219
S36        23.000    38160395.524 6 200534294.57906      -851.959 6        36.015
S23        24.000    38102600.245 6 200230479.39106      -847.761 6        40.510
G11        25.000    22988888.272 6 120807401.40806      1537.869 6        39.910                                    22988882.806 4  94135672.12004      1198.348 4        26.731    22988882.740 6  94135641.11606      1198.494 6        39.715
E33        28.000    27080149.546 4                     -4118.532 4        26.635                                                                                                                                    27080164.507 4                     -3155.712 4        29.706
E10        29.000    24072683.065 7 126502891.29707      -941.240 7        42.246                                                                    24072681.103 8  94466428.38508      -702.892 8        48.887    24072681.265 8  96930857.20208      -721.150 8        50.101
C20        31.000                                                                                                                                    21819715.742 8 113621136.65008      -671.191 8        49.212                                                                    21819709.283 7  92326359.01007      -545.584 7        43.560
R23        33.000    20626478.009 6 110337952.40506     -3359.741 6        37.244
R07        34.000    20475232.077 7 109605523.76407     -2985.546 7        43.065                                                                    20475231.043 6  85248922.79106     -2322.309 6        37.255
C32        36.000                                                                                                                                    24089989.893 7 125442928.88807     -3152.185 7        42.222
R09        37.000    21061190.694 6 112465543.83006       202.237 6        41.967                                                                    21061187.202 6  87473257.13506       157.203 6        38.096
C23        40.000                                                                                                                                    24561653.722 7 127898963.56207     -1644.737 7        44.647                                                                    24561640.082 5 103928409.26905     -1336.631 5        34.148
C35        41.000                                                                                                                                    24526946.025 6 127718341.69306      -746.642 6        39.219                                                                    24526942.041 5 103781554.02705      -606.887 5        33.078
C37        42.000                                                                                                                                    23831777.014 6 124098238.78006      1154.086 6        40.091                                                                    23831768.392 6 100839996.47806       937.530 6        38.517
R24        43.000    21651507.326 6 115780189.99506      1118.541 6        37.871                                                                    21651502.944 7  90051341.04807       870.000 7        44.557
R01        44.000                                                                                                                                    23138968.743 3                      1826.373 3        23.924
C16        45.000                                                                                                                                    39383873.502 5 205082254.08405     -1737.025 5        32.641    39383866.245 5 158582509.88105     -1343.236 5        31.479
C39        46.000                                                                                                                                    40145884.367 3                     -1997.553 3        23.410                                                                    40145907.818 3                     -1621.669 3        21.119
C09        47.000                                                                                                                                    38557677.444 6 200779939.51306     -1266.111 6        41.018    38557667.988 3                      -978.445 3        23.752    38557668.570 5 163150127.75505     -1028.885 5        33.263
C19        48.000                                                                                                                                    24045010.171 6 125208667.23606      1455.970 6        41.211                                                                    24045005.055 6 101742282.45106      1182.878 6        40.961
C06        50.000                                                                                                                                    38819052.258 4                     -1701.015 4        27.066                                                                    38819061.453 4                     -1381.984 4        28.872
C44        52.000                                                                                                                                    26588685.517 4                      1313.911 4        27.413
C29        54.000                                                                                                                                    24469587.975 5                     -3491.926 5        34.348                                                                    24469587.460 6 103538838.84106     -2837.656 6        37.047
I09        58.000    37641196.840 5 147712140.48505      -976.177 5        35.233
I06        59.000    37951400.909 6 148929450.18206      -589.283 6        36.548
> 2025 01 02 03 47 15.0000000  0 38
G03         1.000    22436461.093 6 117904383.62006     -3839.376 6        39.745                                    22436460.880 5  91873519.97605     -2991.728 5        32.461    22436459.394 6  91873555.97506     -2991.351 6        36.484
G20         4.000    24664123.818 4 129610624.94904      2587.397 4        28.663
G07         5.000    22492856.060 6 118200693.84006      1966.788 6        36.563                                    22492847.922 2  92104407.16602      1532.577 2        13.758    22492842.131 4                      1532.728 4        29.365
G09         6.000    19928035.821 8 104722532.98308      -651.193 8        48.806                                    19928033.054 8  81601987.86608      -507.425 8        50.607    19928033.009 7  81601974.88307      -507.382 7        45.726
G31        10.000    24904210.260 4                     -4488.475 4        25.293
E06        11.000    27243370.770 4                      1695.684 4        25.714                                                                    27243387.388 4                      1266.594 4        26.168    27243361.623 5 109697736.08205      1299.636 5        30.355
G04        12.000    20575507.832 7 108125067.96307     -2433.627 7        45.812                                    20575500.395 5  84253222.33205     -1896.336 5        30.725    20575503.899 7  84253246.34807     -1896.258 7        43.035
E12        13.000    24348772.187 6 127953686.41606     -2346.163 6        41.347                                                                    24348770.145 6  95549844.44906     -1751.966 6        41.454    24348772.398 6  98042437.43406     -1797.571 6        40.195
E29        14.000    25847674.719 7 135830439.73907     -3174.302 7        42.118                                                                    25847672.964 6 101431813.14206     -2370.499 6        38.844    25847673.905 6 104077905.29806     -2432.354 6        40.918
G06        15.000    21131222.809 8 111045315.22508      -910.711 8        49.541                                    21131221.155 8  86528807.55808      -709.647 8        49.451    21131220.668 7  86528905.57207      -709.575 7        45.356
E11        16.000    24985680.347 7 131300992.56407       619.599 7        43.553                                                                    24985676.878 7  98049186.73407       462.751 7        44.083    24985676.445 7 100606973.63707       474.811 7        42.298
E04        17.000    25051763.374 5 131647913.01705      1134.726 5        31.426                                                                    25051766.991 6  98308566.51906       847.520 6        39.898    25051763.957 6 100873080.68606       869.589 6        39.252
R08        18.000    19665336.722 8 105307148.58908       -21.664 8        50.733                                                                    19665334.749 7  81905531.12707       -16.808 7        47.816
E19        20.000    22925235.093 7 120472933.26307     -1469.553 7        42.519                                                                    22925233.257 7  89963565.60907     -1097.294 7        46.877    22925233.515 8  92310428.28608     -1125.889 8        49.215
S36        23.000    38161205.384 6 200538554.85706      -852.502 6        36.095
S23        24.000    38103406.121 6 200234718.38406      -847.803 6        40.617
G11        25.000    22987426.239 6 120799718.41706      1535.314 6        39.153                                    22987420.567 4  94129685.37704      1196.348 4        25.323    22987420.387 6  94129654.37206      1196.342 6        39.354
E33        28.000    27084068.950 4                     -4118.193 4        27.389                                                                    27084095.414 4 106283690.89104     -3075.132 4        24.301    27084082.905 4                     -3155.962 4        29.365
E10        29.000    24073579.695 7 126507604.66707      -943.841 7        42.627                                                                    24073578.029 8  94469948.10008      -704.876 8        48.894    24073578.452 8  96934468.74508      -723.254 8        50.187
C20        31.000                                                                                                                                    21820361.067 8 113624497.20708      -672.834 8        49.446                                                                    21820354.912 7  92329089.72907      -546.693 7        44.101
R23        33.000    20629619.655 6 110354761.44006     -3363.656 6        36.783
R07        34.000    20478021.731 7 109620455.93507     -2987.150 7        42.017                                                                    20478021.512 6  85260536.69106     -2323.335 6        37.335
C32        36.000                                                                                                                                    24093016.898 6 125458692.67006     -3153.045 6        41.521                                                                    24093028.132 5                     -2562.096 5        31.728
R09        37.000    21061002.856 6 112464544.03306       197.766 6        41.998                                                                    21061000.398 6  87472479.51706       154.023 6        39.586
C23        40.000                                                                                                                                    24563236.156 7 127907195.39807     -1647.729 7        44.018                                                                    24563221.505 5 103935098.28305     -1338.927 5        34.729
C35        41.000                                                                                                                                    24527658.774 6 127722083.60206      -749.589 6        38.997                                                                    24527660.590 5 103784594.55905      -609.475 5        32.563
C37        42.000                                                                                                                                    23830667.801 6 124092475.08006      1151.754 6        40.853                                                                    23830661.880 6 100835312.98206       935.891 6        39.471
R24        43.000    21650465.721 6 115774608.01106      1114.296 6        38.426                                                                    21650458.862 7  90046999.50107       866.734 7        44.856
R01        44.000    23136740.853 4                      2348.399 4        29.336                                                                    23136768.803 4                      1826.647 4        24.120
C16        45.000                                                                                                                                    39385542.421 5 205090940.85205     -1737.623 5        32.425    39385535.405 5 158589226.99505     -1343.558 5        30.619
C39        46.000                                                                                                                                    40147802.201 3                     -1993.213 3        22.724                                                                    40147817.106 3                     -1620.370 3        22.381
C09        47.000                                                                                                                                    38558893.304 6 200786272.41206     -1266.947 6        41.182    38558881.725 3                      -978.460 3        23.867    38558885.022 5 163155273.73605     -1029.383 5        33.311
C19        48.000                                                                                                                                    24043613.263 6 125201390.57106      1455.020 6        41.464                                                                    24043607.277 6 101736369.55506      1182.377 6        40.846
C06        50.000                                                                                                                                    38820685.773 4                     -1701.240 4        27.174                                                                    38820695.666 4                     -1382.008 4        28.882
C44        52.000                                                                                                                                    26587425.240 4                      1311.934 4        26.838
C29        54.000                                                                                                                                    24472942.764 5 127437029.87715     -3493.453 5        34.238                                                                    24472942.357 6 103553029.98906     -2838.645 6        37.229
I09        58.000    37642441.022 5 147717022.52005      -976.541 5        35.529
I06        59.000    37952150.764 6 148932397.02006      -589.339 6        36.571
> 2025 01 02 03 47 20.0000000  0 40
G03         1.000    22440114.792 6 117923583.16006     -3840.506 6        39.988                                    22440114.773 5  91888480.67805     -2992.609 5        32.030    22440113.168 6  91888516.70106     -2992.644 6        36.257
G20         4.000    24661664.075 4 129597688.80704      2587.107 4        25.639
G07         5.000    22490981.448 6 118190863.38706      1965.405 6        36.401                                    22490977.125 2  92096747.13402      1531.478 2        16.302    22490973.038 5                      1531.452 5        30.792
G09         6.000    19928656.285 8 104725794.15508      -653.288 8        48.744                                    19928653.604 8  81604529.04108      -509.057 8        50.195    19928653.083 7  81604516.05407      -508.962 7        45.511
G31        10.000    24908487.183 4                     -4490.400 4        24.120
E06        11.000    27241755.714 4                      1695.507 4        24.135                                                                    27241773.741 4                      1266.392 4        25.684    27241746.408 4 109691239.43204      1299.165 4        29.981
G04        12.000    20577823.403 7 108137240.24707     -2435.296 7        45.148                                    20577817.492 5  84262707.22605     -1897.638 5        31.109    20577819.893 7  84262731.24907     -1897.533 7        43.807
E12        13.000    24351005.111 6 127965422.76206     -2348.243 6        41.316                                                                    24351002.897 6  95558608.60406     -1753.638 6        41.054    24351004.299 6  98051430.23106     -1799.366 6        40.281
E29        14.000    25850695.547 6 135846312.41806     -3174.700 6        41.650                                                                    25850693.298 6 101443666.11906     -2370.778 6        38.667    25850694.448 6 104090067.48206     -2432.554 6        40.408
G06        15.000    21132091.029 8 111049877.17908      -913.966 8        49.376                                    21132088.958 8  86532362.33308      -712.187 8        49.093    21132088.794 7  86532460.35607      -712.201 7        44.644
E11        16.000    24985091.702 7 131297899.35907       617.582 7        43.572                                                                    24985088.394 7  98046876.87607       461.259 7        44.325    24985087.820 7 100604603.52707       473.269 7        42.464
E04        17.000    25050684.196 5 131642240.65405      1133.969 5        32.443                                                                    25050689.529 6  98304330.70906       846.846 6        40.303    25050684.260 6 100868734.34206       869.014 6        39.444
R08        18.000    19665358.623 8 105307261.81508       -23.538 8        51.396                                                                    19665355.225 7  81905619.18307       -18.291 7        47.284
E19        20.000    22926634.172 7 120480283.79007     -1470.655 7        42.372                                                                    22926631.981 7  89969054.64807     -1098.238 7        46.989    22926632.217 8  92316060.51408     -1126.823 8        48.986
S36        23.000    38162013.366 5 200542815.26805      -851.942 5        35.452
S23        24.000    38104214.536 6 200238957.07106      -847.721 6        40.327
G11        25.000    22985966.594 6 120792047.51606      1532.975 6        38.378                                    22985960.408 3  94123708.05203      1194.527 3        23.924    22985961.339 6  94123677.04906      1194.479 6        39.399
R16        26.000    22952168.642 5                     -3478.527 5        31.245                                                                    22952155.757 5                     -2705.448 5        30.370
E33        28.000    27087990.966 4                     -4119.572 4        27.485                                                                                                                                    27088002.018 4                     -3156.437 4        28.768
E10        29.000    24074478.815 7 126512330.25207      -946.234 7        42.980                                                                    24074477.327 8  94473476.93508      -706.632 8        48.795    24074477.890 8  96938089.64808      -725.049 8        50.198
C20        31.000                                                                                                                                    21821007.653 8 113627864.83108      -674.148 8        49.337                                                                    21821001.757 7  92331826.22307      -547.841 7        44.415
R23        33.000    20632764.127 6 110371589.50006     -3367.391 6        36.718
R07        34.000    20480812.089 6 109635394.90906     -2988.245 6        39.513                                                                    20480812.743 6  85272155.89306     -2324.212 6        37.516
R22        35.000    23037435.325 3                     -5332.183 3        22.019                                                                    23037429.101 4                     -4146.432 4        25.880
C32        36.000                                                                                                                                    24096043.700 6 125474460.05706     -3153.741 6        40.057                                                                    24096048.154 5                     -2562.588 5        34.552
R09        37.000    21060820.740 7 112463565.62307       193.685 7        42.353                                                                    21060814.980 6  87471718.53706       150.573 6        39.342
C23        40.000                                                                                                                                    24564819.168 7 127915440.75207     -1650.275 7        43.175                                                                    24564804.940 5 103941798.31705     -1341.094 5        35.400
C35        41.000                                                                                                                                    24528382.273 6 127725839.32106      -752.520 6        39.414                                                                    24528381.482 5 103787646.36005      -611.250 5        32.371
C37        42.000                                                                                                                                    23829559.382 6 124086721.89706      1149.685 6        40.672                                                                    23829557.303 6 100830638.09306       934.142 6        40.284
R24        43.000    21649428.153 7 115769046.09907      1110.587 7        42.226                                                                    21649418.925 7  90042673.57207       863.687 7        44.960
R01        44.000    23134542.821 5 123667415.16115      2347.544 5        31.864
C16        45.000                                                                                                                                    39387210.710 5 205099629.13605     -1737.970 5        32.287    39387203.886 5 158595945.30805     -1343.403 5        30.468
C39        46.000                                                                                                                                    40149724.905 3                     -1995.443 3        23.410
C09        47.000                                                                                                                                    38560109.878 6 200792607.69906     -1267.203 6        41.380    38560098.337 3                      -978.676 3        23.638    38560101.758 5 163160421.69905     -1029.624 5        33.491
C19        48.000                                                                                                                                    24042216.327 6 125194117.16106      1454.569 6        41.905                                                                    24042210.434 6 101730459.34406      1181.770 6        40.963
C06        50.000                                                                                                                                    38822317.754 4                     -1701.294 4        27.054    38822396.846 3                     -1316.839 3        21.333    38822329.860 4                     -1382.535 4        28.739
C44        52.000                                                                                                                                    26586166.979 4                      1309.254 4        27.054
C29        54.000                                                                                                                                    24476298.898 5 127454500.74505     -3494.758 5        34.076                                                                    24476298.875 6 103567226.48606     -2839.782 6        37.474
I09        58.000    37643685.001 5 147721904.99005      -976.543 5        34.976
I06        59.000    37952902.012 6 148935343.87006      -589.203 6        36.495
> 2025 01 02 03 47 25.0000000  0 40
G03         1.000    22443770.017 6 117942789.25706     -3841.536 6        40.567                                    22443769.712 5  91903446.49605     -2993.409 5        31.804    22443768.347 6  91903482.49006     -2993.484 6        36.624
G20         4.000    24659202.368 3                      2587.643 3        22.400
G07         5.000    22489108.734 6 118181041.00306      1963.872 6        37.686                                    22489107.584 3  92089093.38803      1530.286 3        18.627    22489105.621 5                      1530.197 5        31.449
G09         6.000    19929279.152 8 104729066.75108      -655.309 8        48.945                                    19929276.286 8  81607079.12308      -510.630 8        49.941    19929275.967 7  81607066.13907      -510.666 7        45.190
G31        10.000    24912759.591 3                     -4490.525 3        22.000
E06        11.000    27240142.871 4                      1695.394 4        24.511                                                                    27240161.931 4                      1265.182 4        24.015    27240132.713 4 109684744.92604      1299.695 4        28.957
G04        12.000    20580141.219 7 108149421.62607     -2436.792 7        44.166                                    20580136.328 5  84272199.20905     -1898.805 5        31.336    20580138.439 7  84272223.23207     -1898.830 7        44.233
E12        13.000    24353240.517 6 127977170.29506     -2350.221 6        41.554                                                                    24353237.636 6  95567381.09706     -1755.036 6        40.312    24353238.339 6  98060431.59106     -1800.851 6        40.389
E29        14.000    25853716.200 6 135862187.35206     -3174.755 6        41.335                                                                    25853713.953 6 101455520.76606     -2370.765 6        38.964    25853715.346 6 104102231.38906     -2432.616 6        40.393
G06        15.000    21132962.264 8 111054456.38208      -917.181 8        49.222                                    21132960.017 8  86535930.54808      -714.688 8        48.793    21132960.441 7  86536028.57207      -714.688 7        44.465
E11        16.000    24984505.302 7 131294816.65007       615.897 7        43.391                                                                    24984501.838 7  98044574.85907       459.907 7        44.704    24984501.276 7 100602241.46307       471.877 7        42.743
E04        17.000    25049605.001 5 131636573.53705      1133.723 5        33.036                                                                    25049613.351 6  98300098.78606       846.276 6        40.741    25049605.370 6 100864392.01006       868.420 6        39.907
R08        18.000    19665382.150 8 105307384.73508       -25.207 8        51.526                                                                    19665378.025 7  81905714.78307       -19.594 7        47.007
E19        20.000    22928034.329 7 120487640.92507     -1471.670 7        42.483                                                                    22928031.980 7  89974548.61007     -1098.941 7        47.011    22928032.188 8  92321697.80308     -1127.604 8        48.937
S36        23.000    38162827.036 5 200547075.62605      -851.853 5        35.786
S23        24.000    38105021.588 6 200243195.94806      -847.492 6        40.482
G11        25.000    22984507.843 6 120784389.05006      1530.818 6        37.448                                    22984502.672 3  94117740.40803      1192.852 3        22.686    22984503.260 6  94117709.39306      1192.799 6        39.249
R16        26.000                                                                                                                                    22955424.263 5                     -2708.230 5        30.641
E33        28.000    27091912.574 4                     -4119.452 4        27.808                                                                                                                                    27091921.592 4                     -3156.905 4        28.351
E10        29.000    24075380.342 7 126517068.37307      -948.445 7        43.733                                                                    24075378.957 8  94477015.14108      -708.288 8        48.776    24075379.712 8  96941720.15808      -726.793 8        50.392
C20        31.000                                                                                                                                    21821655.597 8 113631239.85508      -675.423 8        49.330                                                                    21821650.024 7  92334568.70607      -548.787 7        44.655
R23        33.000    20635912.192 5 110388437.11505     -3371.113 5        34.624
R07        34.000    20483605.468 6 109650340.98806     -2989.636 6        36.817                                                                    20483604.093 6  85283780.66806     -2325.179 6        38.297
R22        35.000                                                                                                                                    23042426.063 4                     -4147.005 4        28.142
C32        36.000                                                                                                                                    24099070.486 6 125490231.35606     -3154.260 6        38.012                                                                    24099075.302 6 101971092.36516     -2563.096 6        36.181
R09        37.000    21060641.675 6 112462608.68606       189.578 6        41.473                                                                    21060635.880 6  87470974.22406       147.626 6        38.294
C23        40.000                                                                                                                                    24566405.217 7 127923699.93707     -1652.866 7        42.658                                                                    24566391.006 5 103948509.56005     -1343.031 5        35.210
C35        41.000                                                                                                                                    24529107.511 6 127729609.17606      -755.043 6        40.377                                                                    24529105.346 5 103790709.69205      -613.514 5        32.006
C37        42.000                                                                                                                                    23828451.918 6 124080979.58106      1147.721 6        39.685                                                                    23828454.637 6 100825972.00106       932.443 6        41.168
R24        43.000    21648393.585 7 115763504.53707      1106.629 7        44.862                                                                    21648382.575 7  90038363.45807       860.802 7        44.980
R01        44.000    23132350.397 5 123655678.64705      2347.186 5        33.593                                                                    23132357.838 3                      1825.319 3        22.743
C16        45.000                                                                                                                                    39388878.921 5 205108319.27305     -1738.064 5        32.473    39388872.381 4 158602665.06204     -1343.478 4        29.915
C39        46.000                                                                                                                                    40151640.503 3                     -1995.896 3        22.857                                                                    40151631.096 4                     -1621.225 4        24.466
C09        47.000                                                                                                                                    38561326.945 6 200798945.76106     -1267.498 6        41.445    38561317.632 3                      -981.520 3        22.190    38561318.642 5 163165571.88305     -1030.283 5        33.383
C19        48.000                                                                                                                                    24040819.762 7 125186847.37807      1454.019 7        42.476                                                                    24040814.414 6 101724552.05306      1181.252 6        40.915
C06        50.000                                                                                                                                    38823953.438 4                     -1701.700 4        26.132    38824035.517 3                     -1314.561 3        21.024    38823964.467 4                     -1383.083 4        28.474
C44        52.000                                                                                                                                    26584909.666 4                      1308.335 4        28.427
C29        54.000                                                                                                                                    24479657.088 5 127471978.41305     -3495.837 5        33.988                                                                    24479656.788 6 103581428.53006     -2840.853 6        36.662
I09        58.000    37644929.960 5 147726788.12805      -976.281 5        35.486
I06        59.000    37953654.099 6 148938291.01106      -589.169 6        36.514
> 2025 01 02 03 47 30.0000000  0 40
G03         1.000    22447426.633 6 117962001.72506     -3843.022 6        41.449                                    22447425.782 5  91918417.28305     -2994.574 5        31.381    22447425.105 5  91918453.25905     -2994.575 5        35.581
G20         4.000    24656741.048 3                      2587.359 3        22.000
G07         5.000    22487239.494 6 118171226.50606      1962.116 6        39.826                                    22487239.528 3  92081445.75403      1528.902 3        20.214    22487239.698 5                      1528.879 5        32.269
G09         6.000    19929904.196 8 104732350.56908      -657.854 8        48.552                                    19929901.079 8  81609637.94508      -512.616 8        49.622    19929900.654 7  81609624.95907      -512.594 7        44.919
G31        10.000    24917034.730 3                     -4488.917 3        20.976
E06        11.000    27238530.440 4                      1693.846 4        26.323                                                                    27238551.105 3                      1265.326 3        23.848    27238519.487 4 109678252.51504      1298.349 4        28.787
G04        12.000    20582460.696 7 108161611.93707     -2438.944 7        43.287                                    20582456.832 5  84281698.15305     -1900.473 5        31.230    20582458.002 7  84281722.17007     -1900.436 7        44.606
E12        13.000    24355478.494 6 127988928.82406     -2352.784 6        40.896                                                                    24355474.807 6  95576161.81006     -1756.909 6        39.513    24355474.713 6  98069441.36306     -1802.823 6        40.393
E29        14.000    25856737.355 6 135878064.40306     -3175.571 6        40.894                                                                    25856735.109 6 101467377.01406     -2371.458 6        39.093    25856736.702 6 104114396.92306     -2433.222 6        39.976
G06        15.000    21133836.771 8 111059052.64908      -920.949 8        49.273                                    21133834.367 8  86539512.06408      -717.621 8        48.409    21133834.948 7  86539610.07907      -717.521 7        44.712
E11        16.000    24983921.074 7 131291744.30907       613.493 7        42.929                                                                    24983917.302 7  98042280.59007       458.081 7        44.766    24983916.536 7 100599887.33507       470.109 7        43.045
E04        17.000    25048527.130 5 131630911.50205      1131.937 5        33.832                                                                    25048537.702 6  98295870.63506       845.302 6        40.994    25048527.925 6 100860053.55806       867.233 6        39.667
R08        18.000    19665406.195 8 105307517.31108       -27.408 8        51.113                                                                    19665403.494 7  81905817.89807       -21.331 7        47.414
E19        20.000    22929435.590 7 120495004.62007     -1473.281 7        42.535                                                                    22929433.224 7  89980047.47107     -1100.188 7        47.042    22929433.423 8  92327340.11208     -1128.913 8        48.837
S36        23.000    38163634.767 6 200551335.46506      -852.196 6        36.140
S23        24.000    38105827.294 6 200247434.99306      -847.642 6        40.687
G11        25.000    22983052.700 6 120776742.81906      1528.131 6        39.150                                    22983046.855 3  94111782.30303      1190.754 3        20.881    22983048.109 6  94111751.29506      1190.745 6        39.598
R16        26.000                                                                                                                                    22958683.343 5                     -2710.979 5        30.377
E33        28.000    27095834.728 4                     -4120.038 4        27.581                                                                    27095816.146 4 106329833.68804     -3076.216 4        26.635    27095840.397 4                     -3157.343 4        28.294
E10        29.000    24076284.294 7 126521818.87307      -951.288 7        44.000                                                                    24076282.893 8  94480562.58208      -710.330 8        48.518    24076283.762 8  96945360.14208      -728.883 8        50.459
C20        31.000                                                                                                                                    21822305.239 8 113634622.08708      -677.145 8        49.403                                                                    21822299.556 7  92337317.06707      -550.404 7        44.602
R23        33.000    20639064.740 5 110405303.70305     -3375.120 5        31.758
R07        34.000    20486396.436 6 109665293.92806     -2991.027 6        37.626                                                                    20486397.234 6  85295410.73506     -2326.568 6        39.336
R22        35.000    23047398.274 3                     -5334.314 3        22.629                                                                    23047426.656 4                     -4147.789 4        28.521
C32        36.000                                                                                                                                    24102097.527 5 125506006.40805     -3155.468 5        35.900                                                                    24102103.492 6 101983910.90606     -2564.133 6        37.308
R09        37.000    21060465.298 6 112461673.09606       184.933 6        39.411                                                                    21060460.774 6  87470246.57706       143.887 6        37.641
C23        40.000                                                                                                                                    24567994.506 7 127931972.79407     -1655.981 7        42.201                                                                    24567979.634 5 103955231.95105     -1345.832 5        35.686
C35        41.000                                                                                                                                    24529834.250 6 127733393.05206      -758.045 6        41.237                                                                    24529832.223 5 103793784.37105      -615.909 5        31.487
C37        42.000                                                                                                                                    23827348.541 6 124075247.99306      1145.250 6        37.645                                                                    23827354.024 7 100821314.59707       930.431 7        42.154
R24        43.000    21647360.063 7 115757982.96807      1102.382 7        46.053                                                                    21647350.169 7  90034068.90307       857.379 7        45.297
R01        44.000    23130154.335 5 123643944.57805      2346.594 5        33.551
C16        45.000                                                                                                                                    39390548.885 5 205117011.04605     -1738.534 5        32.186    39390542.184 4 158609386.09704     -1344.348 4        28.720
C39        46.000                                                                                                                                    40153554.706 4                     -1996.751 4        24.451                                                                    40153552.257 4                     -1622.346 4        25.383
C09        47.000                                                                                                                                    38562544.942 6 200805286.39706     -1268.331 6        41.595    38562536.292 3                      -982.920 3        22.495    38562536.318 5 163170724.16605     -1030.864 5        33.299
C19        48.000                                                                                                                                    24039424.604 7 125179581.01807      1452.934 7        43.790                                                                    24039419.152 6 101718647.55706      1180.403 6        41.099
C06        50.000                                                                                                                                    38825587.145 4                     -1702.552 4        26.287                                                                    38825599.256 4                     -1383.414 4        28.464
C44        52.000                                                                                                                                    26583655.564 4                      1306.054 4        29.052
C29        54.000                                                                                                                                    24483014.295 5 127489462.78905     -3497.522 5        33.796                                                                    24483015.792 5 103595636.00105     -2842.297 5        35.067
I09        58.000    37646173.334 5 147731671.85105      -976.872 5        35.333
I06        59.000    37954405.385 6 148941238.29906      -589.383 6        36.272
> 2025 01 02 03 47 35.0000000  0 38
G03         1.000    22451083.886 7 117981220.43407     -3844.258 7        42.373                                    22451082.791 5  91933392.92205     -2995.528 5        30.845    22451081.380 5  91933428.90005     -2995.558 5        33.731
G07         5.000    22485372.323 6 118161419.75406      1960.719 6        40.999                                    22485372.813 3  92073804.12703      1527.836 3        21.833    22485373.055 5                      1527.614 5        31.962
G09         6.000    19930531.074 8 104735645.49208      -660.032 8        48.614                                    19930527.934 8  81612205.42608      -514.309 8        49.498    19930527.806 7  81612192.43807      -514.373 7        44.629
E06        11.000    27236919.247 4                      1693.572 4        28.284                                                                    27236940.856 3                      1264.284 3        22.609    27236906.782 4 109671762.01704      1298.084 4        29.137
G04        12.000    20584782.399 7 108173811.03607     -2440.711 7        43.149                                    20584778.990 5  84291203.93905     -1901.852 5        31.343    20584779.685 7  84291227.95107     -1901.787 7        45.025
E12        13.000    24357718.645 6 128000698.16806     -2354.940 6        41.194                                                                    24357713.762 6  95584950.59406     -1758.526 6        38.835    24357713.746 6  98078459.44206     -1804.395 6        40.479
E29        14.000    25859758.679 6 135893943.37506     -3175.885 6        40.803                                                                    25859756.634 6 101479234.69906     -2371.757 6        39.093    25859758.363 6 104126563.93706     -2433.605 6        39.916
G06        15.000    21134714.641 8 111063665.81808      -924.249 8        49.288                                    21134711.999 8  86543106.74808      -720.194 8        48.159    21134712.991 7  86543204.76307      -720.163 7        44.971
E11        16.000    24983338.544 7 131288682.16207       611.543 7        42.790                                                                    24983334.618 7  98039993.91907       456.644 7        44.969    24983333.793 7 100597541.01407       468.586 7        43.141
E04        17.000    25047453.014 6 131625254.34706      1130.981 6        36.151                                                                    25047462.014 6  98291646.13606       844.484 6        40.865    25047451.626 6 100855718.83206       866.681 6        39.838
R08        18.000    19665430.695 8 105307659.41208       -29.267 8        50.233                                                                    19665429.576 7  81905928.43107       -22.849 7        46.807
E19        20.000    22930837.979 7 120502374.66407     -1474.582 7        42.971                                                                    22930835.701 7  89985551.08507     -1101.154 7        47.100    22930835.813 8  92332987.28508     -1129.826 8        48.746
S36        23.000    38164450.355 6 200555595.20506      -852.084 6        36.325
S23        24.000    38106634.288 6 200251673.85706      -847.558 6        40.565
G11        25.000    22981599.472 6 120769108.70306      1525.698 6        40.274                                    22981593.448 3  94105833.63303      1188.848 3        20.262    22981594.992 6  94105802.62806      1188.828 6        39.039
R16        26.000                                                                                                                                    22961947.609 5                     -2713.557 5        33.108
E33        28.000    27099756.051 4                     -4120.444 4        27.329                                                                    27099739.828 4 106345217.69304     -3076.739 4        26.647    27099758.809 4                     -3157.378 4        28.502
E10        29.000    24077190.409 7 126526581.59107      -953.714 7        44.554                                                                    24077189.147 8  94484119.15608      -712.147 8        48.395    24077190.093 8  96949009.49908      -730.785 8        50.476
C20        31.000                                                                                                                                    21822955.883 8 113638011.40108      -678.553 8        48.950                                                                    21822950.400 7  92340071.16007      -551.418 7        44.606
R23        33.000    20642222.186 5 110422189.66705     -3379.016 5        31.585
R07        34.000    20489192.331 6 109680253.76306     -2992.499 6        41.981                                                                    20489192.098 6  85307046.15806     -2327.484 6        40.594
R22        35.000    23052391.794 4                     -5332.895 4        26.838                                                                    23052422.558 4                     -4148.147 4        28.938
C32        36.000                                                                                                                                    24105126.558 5 125521785.08105     -3156.125 5        34.167                                                                    24105133.157 6 101996732.36806     -2564.660 6        38.706
R09        37.000    21060291.583 6 112460758.78206       180.775 6        39.114                                                                    21060289.485 6  87469535.46306       140.633 6        36.367
C23        40.000                                                                                                                                    24569586.150 7 127940259.15107     -1658.511 7        42.087                                                                    24569570.935 5 103961965.29705     -1347.904 5        35.900
C35        41.000                                                                                                                                    24530564.171 7 127737190.78007      -760.836 7        42.502                                                                    24530562.387 5 103796870.34805      -618.466 5        31.857
C37        42.000                                                                                                                                    23826248.031 5 124069526.95105      1143.237 5        34.552                                                                    23826255.503 7 100816665.78107       928.849 7        42.982
R24        43.000    21646328.776 7 115752481.56807      1098.419 7        46.636                                                                    21646321.312 7  90029790.04907       854.265 7        45.660
R01        44.000    23127961.360 5 123632212.77905      2346.086 5        33.030                                                                    23127978.201 3                      1825.289 3        23.029
C16        45.000                                                                                                                                    39392218.386 5 205125704.35105     -1738.518 5        32.114    39392210.228 4 158616108.28804     -1344.511 4        28.218
C39        46.000                                                                                                                                    40155472.921 4                     -1995.865 4        24.541                                                                    40155468.415 4                     -1622.363 4        25.684
C09        47.000                                                                                                                                    38563763.357 6 200811629.44506     -1268.714 6        41.893    38563754.197 3                      -981.048 3        22.762    38563754.327 5 163175878.40205     -1030.933 5        33.521
C19        48.000                                                                                                                                    24038030.518 7 125172317.94507      1452.372 7        44.811                                                                    24038024.681 6 101712745.73006      1180.077 6        41.321
C06        50.000                                                                                                                                    38827222.046 4                     -1701.300 4        25.368                                                                    38827234.001 4                     -1383.618 4        28.938
C44        52.000                                                                                                                                    26582403.022 4                      1304.209 4        29.573
C29        54.000                                                                                                                                    24486373.418 5 127506953.64805     -3498.837 5        33.024                                                                    24486380.164 5 103609848.81905     -2842.941 5        33.904
I09        58.000    37647417.577 5 147736555.98005      -976.873 5        35.367
I06        59.000    37955156.513 6 148944185.64606      -589.351 6        36.435
