     3.04           OBSERVATION DATA    M                   RINEX VERSION / TYPE
ssrcrin-15.6.1x                         20250102 101500 UTC PGM / RUN BY / DATE 
(00000000023479385599111004) Septentrio proprietary         COMMENT             
ract                                                        MARKER NAME         
01                                                          MARKER NUMBER       
geodetic                                                    MARKER TYPE         
NFB                 CLIMERS@TUW                             OBSERVER / AGENCY   
3296359             SEPT ASTERX SB3 PROB4.14.4              REC # / TYPE / VERS 
Unknown             Unknown                                 ANT # / TYPE        
  4127447.4354  1206914.9453  4695544.8103                  APPROX POSITION XYZ 
        0.0000        0.0000        0.0000                  ANTENNA: DELTA H/E/N
G   23 X1  C1C L1C D1C S1C C1W S1W C2W L2W D2W S2W C2L L2L  SYS / # / OBS TYPES 
       D2L S2L C5Q L5Q D5Q S5Q C1L L1L D1L S1L              SYS / # / OBS TYPES 
E   21 X1  C1C L1C D1C S1C C6C L6C D6C S6C C5Q L5Q D5Q S5Q  SYS / # / OBS TYPES 
       C7Q L7Q D7Q S7Q C8Q L8Q D8Q S8Q                      SYS / # / OBS TYPES 
S    9 X1  C1C L1C D1C S1C C5I L5I D5I S5I                  SYS / # / OBS TYPES 
R   17 X1  C1C L1C D1C S1C C2P L2P D2P S2P C2C L2C D2C S2C  SYS / # / OBS TYPES 
       C3Q L3Q D3Q S3Q                                      SYS / # / OBS TYPES 
C   25 X1  C1P L1P D1P S1P C5P L5P D5P S5P C2I L2I D2I S2I  SYS / # / OBS TYPES 
       C7I L7I D7I S7I C6I L6I D6I S6I C7D L7D D7D S7D      SYS / # / OBS TYPES 
J   17 X1  C1C L1C D1C S1C C2L L2L D2L S2L C5Q L5Q D5Q S5Q  SYS / # / OBS TYPES 
       C1L L1L D1L S1L                                      SYS / # / OBS TYPES 
I    5 X1  C5A L5A D5A S5A                                  SYS / # / OBS TYPES 
SEPTENTRIO RECEIVERS OUTPUT ALIGNED CARRIER PHASES.         COMMENT             
NO FURTHER PHASE SHIFT APPLIED IN THE RINEX ENCODER.        COMMENT             
G L1C                                                       SYS / PHASE SHIFT   
G L2W                                                       SYS / PHASE SHIFT   
G L2L  0.00000                                              SYS / PHASE SHIFT   
G L5Q  0.00000                                              SYS / PHASE SHIFT   
G L1L  0.00000                                              SYS / PHASE SHIFT   
E L1C  0.00000                                              SYS / PHASE SHIFT   
E L6C  0.00000                                              SYS / PHASE SHIFT   
E L5Q  0.00000                                              SYS / PHASE SHIFT   
E L7Q  0.00000                                              SYS / PHASE SHIFT   
E L8Q  0.00000                                              SYS / PHASE SHIFT   
S L1C                                                       SYS / PHASE SHIFT   
S L5I                                                       SYS / PHASE SHIFT   
R L1C                                                       SYS / PHASE SHIFT   
R L2P  0.00000                                              SYS / PHASE SHIFT   
R L2C                                                       SYS / PHASE SHIFT   
R L3Q  0.00000                                              SYS / PHASE SHIFT   
C L1P  0.00000                                              SYS / PHASE SHIFT   
C L5P  0.00000                                              SYS / PHASE SHIFT   
C L2I                                                       SYS / PHASE SHIFT   
C L7I                                                       SYS / PHASE SHIFT   
C L6I                                                       SYS / PHASE SHIFT   
C L7D                                                       SYS / PHASE SHIFT   
J L1C                                                       SYS / PHASE SHIFT   
J L2L  0.00000                                              SYS / PHASE SHIFT   
J L5Q  0.00000                                              SYS / PHASE SHIFT   
J L1L  0.00000                                              SYS / PHASE SHIFT   
I L5A                                                       SYS / PHASE SHIFT   
  2025     1     2    10    15    0.0000000     GPS         TIME OF FIRST OBS   
 C1C    0.000 C2C    0.000 C2P    0.000                     GLONASS COD/PHS/BIS 
DBHZ                                                        SIGNAL STRENGTH UNIT
    18                                                      LEAP SECONDS        
 24 R01  1 R02 -4 R03  5 R04  6 R05  1 R06 -4 R07  5 R08  6 GLONASS SLOT / FRQ #
    R09 -2 R10 -7 R11  0 R12 -1 R13 -2 R14 -7 R15  0 R16 -1 GLONASS SLOT / FRQ #
    R17  4 R18 -3 R19  3 R20  2 R21  4 R22 -3 R23  3 R24  2 GLONASS SLOT / FRQ #
                                                            END OF HEADER       
> 2025 01 02 10 15  0.0000000  0 38
G13         1.000    21254335.339 6 111692252.41706     -3504.464 6        37.025                                    21254342.824 1  87032920.92101     -2730.748 1         9.524
G17         2.000    22139154.892 7 116342045.36507      -490.034 7        42.155                                    22139145.988 4  90656162.28404      -381.849 4        27.293    22139148.717 5  90656140.31405      -381.787 5        35.138
G19         4.000    22586434.587 6 118692476.97606      1804.632 6        37.202                                    22586436.810 2  92487705.57602      1406.228 2        16.830
G10         7.000    25013060.583 5                       976.017 5        30.792                                                                                                    25013057.693 3                       763.072 3        21.167
G14         8.000    22464325.181 7 118050788.46407     -3671.448 7        43.164                                    22464323.537 3  91987611.51903     -2860.857 3        21.048    22464324.774 5  91987628.50405     -2861.115 5        34.919
G15         9.000    20521456.368 7 107841199.71507     -2133.193 7        46.658                                    20521455.228 7  84032007.17207     -1662.224 7        42.379    20521456.069 7  84031928.14307     -1662.079 7        43.338
G23        10.000    23235873.869 4 122105316.37804     -1418.982 4        28.256
E06        11.000    25523191.155 6 134125235.67406     -3462.690 6        36.862                                                                    25523193.281 6 100158426.30106     -2585.892 6        39.024    25523189.214 6 102771343.88906     -2653.058 6        36.087
G24        12.000    21299738.778 7 111931111.54807      1409.401 7        42.246                                    21299743.701 5  87218969.35605      1098.225 5        30.423    21299741.888 5  87218900.32905      1098.125 5        34.052
E31        13.000    23780419.899 7 124966922.59907     -1887.728 7        46.891                                                                    23780423.158 8  93319512.85108     -1409.648 8        52.566    23780422.206 8  95753908.97808     -1446.371 8        51.318
G12        15.000    24077392.695 5 126527540.30805      2805.721 5        30.226                                    24077403.789 1  98592968.23901      2186.241 1        10.370
E24        16.000    24526463.585 7 128887398.69207       854.159 7        46.398                                                                    24526465.261 8  96247149.29308       637.865 8        48.380    24526464.896 8  98757970.34608       654.501 8        50.862
E04        17.000    27747168.434 3                     -3904.970 3        19.701                                                                                                                                    27747176.867 4                     -2990.857 4        26.611
E05        18.000    22707626.949 7 119329391.66807       354.268 7        46.247                                                                    22707629.704 6  89109608.44906       264.403 6        36.098    22707637.028 5  91434348.72905       271.738 5        34.100
E09        21.000    24270778.537 7 127543893.82107     -2545.466 7        43.189                                                                    24270780.908 7  95243693.36707     -1900.794 7        43.797    24270781.857 7  97728372.89407     -1950.373 7        47.766
R14        23.000    21594951.467 7 115113372.60507      1972.946 7        45.646                                                                    21594957.806 7  89532859.35707      1534.449 7        42.057
S23        24.000    38269584.949 6 201107960.92206      -858.829 6        37.372
E03        26.000    28091778.241 6 147623296.98406      2010.547 6        36.321                                                                    28091781.780 6 110238184.89106      1501.449 6        37.675    28091782.934 6 113113959.28606      1540.765 6        40.338
R13        27.000    19485432.136 6 104051129.17106     -1613.476 6        39.351
R21        28.000    23521358.887 4                     -2269.492 4        25.519                                                                    23521363.733 4                     -1765.169 4        28.474
R04        29.000    20933437.248 8 112097638.36208      1735.643 8        48.529                                                                    20933437.849 7  87187098.64407      1349.932 7        44.561
S36        31.000    38336240.869 5 201458335.91305      -857.105 5        35.495
C07        32.000                                                                                                                                    39043792.430 6 203311280.95206     -1239.966 6        36.548    39043790.695 7 157213108.17207      -958.676 7        42.978    39043781.792 3                     -1004.730 3        23.543
C10        33.000                                                                                                                                    38615691.866 6 201082028.57106      -859.333 6        38.060    38615689.709 6 155489403.72506      -664.383 6        38.988    38615688.437 5                      -698.224 5        33.419
C36        34.000                                                                                                                                    22956101.686 7 119538407.14107     -2856.283 7        43.621                                                                    22956108.347 6  97134846.66406     -2321.001 6        40.224
R02        35.000    22566332.659 6 120418245.65006     -5295.467 6        39.754                                                                    22566340.530 5  93658692.84305     -4118.518 5        33.413
R03        36.000    19731217.129 8 105622769.37508     -2316.640 8        51.485                                                                    19731215.792 7  82151097.22707     -1801.833 7        44.330
C45        37.000                                                                                                                                    21804143.608 6 113539849.84806      -337.902 6        40.048                                                                    21804136.480 6  92260477.28606      -274.607 6        40.858
R12        38.000                                                                                                                                    21805885.496 3                     -3174.286 3        23.352
C40        40.000                                                                                                                                    39133692.818 5                     -1424.658 5        30.808                                                                    39133658.880 5 165587292.97505     -1157.626 5        32.192
C30        43.000                                                                                                                                                                                                                                                                    24928877.696 5 105482245.91405       325.882 5        33.623
C42        45.000                                                                                                                                    24924555.419 7 129788972.36807      1164.753 7        47.946                                                                    24924567.584 7 105464045.15507       946.401 7        44.534
C26        48.000                                                                                                                                                                                                                                                                    25165775.602 5 106484616.84305      1486.640 5        32.048
C22        51.000                                                                                                                                    24451975.576 5 127327849.23705     -4122.668 5        33.677                                                                    24451975.895 5 103464365.42305     -3350.230 5        35.262
C14        53.000                                                                                                                                                                                                                                                                    26915504.200 5 113888300.77505      1686.293 5        35.290
C21        55.000                                                                                                                                    23104694.923 6 120312209.14106     -1699.006 6        38.688                                                                    23104693.349 7  97763510.01707     -1380.727 7        45.094
I06        58.000    38333827.862 5 150430188.40805      -742.511 5        35.586
I02        59.000    37129901.172 6 145705696.14606      -441.645 6        40.110
> 2025 01 02 10 15  5.0000000  0 38
G13         1.000    21257671.542 6 111709779.32406     -3506.249 6        39.568                                    21257678.323 1  87046578.27801     -2732.175 1         9.905
G17         2.000    22139622.383 7 116344503.16107      -492.814 7        42.961                                    22139613.134 4  90658077.41104      -384.021 4        25.820    22139614.642 5  90658055.42905      -383.937 5        32.587
G19         4.000    22584716.849 5 118683459.54405      1802.673 5        32.120                                    22584720.963 2  92480678.99802      1404.661 2        15.048
G10         7.000    25012132.426 5                       973.911 5        33.102                                                                                                    25012128.365 3                       759.521 3        23.295
G14         8.000    22467817.674 7 118069148.86307     -3672.524 7        44.035                                    22467817.068 3  92001918.27503     -2861.687 3        21.857    22467819.192 6  92001935.25406     -2861.648 6        36.733
G15         9.000    20523487.119 7 107851873.44007     -2136.176 7        46.435                                    20523486.695 6  84040324.35306     -1664.549 6        41.948    20523487.111 7  84040245.32007     -1664.539 7        43.511
G23        10.000    23237219.072 4 122112419.07704     -1421.903 4        24.060                                                                                                    23237273.217 4                     -1108.496 4        24.662
E06        11.000    25526484.841 6 134142552.06306     -3463.515 6        36.113                                                                    25526488.291 6 100171357.34806     -2586.671 6        38.817    25526485.897 6 102784612.27006     -2653.853 6        36.813
G24        12.000    21298400.891 6 111924069.02106      1407.798 6        41.297                                    21298403.247 4  87213481.65804      1096.982 4        29.422    21298402.829 5  87213412.63905      1096.941 5        33.527
E31        13.000    23782216.628 7 124976364.88207     -1888.955 7        46.037                                                                    23782220.103 8  93326563.89608     -1410.661 8        52.595    23782219.020 8  95761143.96608     -1447.456 8        51.243
G12        15.000    24074722.816 5 126513513.50205      2805.173 5        31.879                                    24074734.382 1  98582038.28501      2185.787 1         6.000
E24        16.000    24525651.613 7 128883131.90207       852.691 7        46.649                                                                    24525653.212 8  96243963.07208       636.725 8        48.473    24525652.715 8  98754700.99808       653.377 8        50.478
E04        17.000    27750889.424 3                     -3906.375 3        21.000                                                                                                                                    27750892.311 4                     -2991.285 4        26.251
E05        18.000    22707290.777 7 119327624.50907       352.852 7        45.645                                                                    22707293.488 6  89108288.81306       263.265 6        37.006    22707292.076 5  91432994.72605       270.223 5        34.900
E09        21.000    24273200.819 7 127556625.14207     -2546.934 7        44.229                                                                    24273203.619 7  95253200.50907     -1901.898 7        43.638    24273204.647 8  97738128.05608     -1951.569 8        48.041
R14        23.000    21593103.365 7 115103511.70807      1971.537 7        46.047                                                                    21593106.845 6  89525189.78506      1533.440 6        41.561
S23        24.000    38270400.954 6 201112253.92506      -858.342 6        38.339
E03        26.000    28089865.965 6 147613244.38906      2010.521 6        36.669                                                                    28089869.016 6 110230678.06606      1501.287 6        37.372    28089869.700 6 113106256.62406      1540.626 6        40.772
R13        27.000    19486941.548 6 104059202.09206     -1615.551 6        38.402
R21        28.000    23523481.050 5 125878895.96415     -2272.709 5        31.155                                                                    23523487.812 5                     -1767.857 5        30.098
R04        29.000    20931817.839 7 112088968.67807      1732.423 7        47.405                                                                    20931818.344 7  87180355.54907      1347.473 7        44.056
S36        31.000    38337044.102 5 201462620.37105      -857.045 5        35.333
C07        32.000                                                                                                                                    39044984.700 6 203317481.24806     -1240.203 6        36.401    39044980.827 7 157217902.61107      -958.955 7        42.536    39044976.341 4                     -1007.684 4        24.241
C10        33.000                                                                                                                                    38616518.116 6 201086325.97506      -859.515 6        38.793    38616514.735 6 155492726.76006      -664.725 6        39.919    38616514.069 5 163399107.52315      -698.356 5        33.467
C36        34.000                                                                                                                                    22958844.917 7 119552690.32007     -2856.822 7        44.239                                                                    22958851.610 6  97146452.92706     -2321.425 6        40.958
R02        35.000    22571295.874 6 120444725.45706     -5296.352 6        39.423                                                                    22571302.752 5  93679288.15505     -4119.012 5        30.317
R03        36.000    19733382.494 8 105634363.32108     -2320.749 8        50.816                                                                    19733382.727 7  82160114.75007     -1805.036 7        44.807
C45        37.000                                                                                                                                    21804468.825 6 113541542.82806      -339.189 6        40.367                                                                    21804460.676 6  92261853.01306      -275.613 6        39.991
R12        38.000    21809699.291 5 116503483.94715     -4079.537 5        32.563                                                                    21809702.419 4                     -3173.116 4        29.611
C40        40.000                                                                                                                                    39135058.760 5                     -1425.247 5        30.513                                                                    39135025.341 5 165593082.36005     -1158.075 5        33.299
C30        43.000                                                                                                                                    24928537.341 4                       399.272 4        28.180                                                                    24928493.256 5 105480620.69405       324.373 5        33.395
C42        45.000                                                                                                                                    24923438.490 8 129783153.90408      1162.844 8        48.535                                                                    24923450.093 7 105459317.19407       944.944 7        44.349
C26        48.000                                                                                                                                                                                                                                                                    25164017.820 5 106477186.26305      1486.145 5        31.932
C22        51.000                                                                                                                                    24455935.789 5 127348465.04705     -4123.387 5        35.548                                                                    24455935.863 5 103481117.47605     -3350.510 5        35.324
C14        53.000                                                                                                                                    26913507.387 3                      2079.594 3        19.493    26913598.682 5 108369914.64715      1603.802 5        33.234    26913512.184 6 113879871.26206      1685.636 6        37.187
C21        55.000                                                                                                                                    23106327.665 6 120320712.09006     -1701.694 6        37.316                                                                    23106326.209 7  97770419.37207     -1382.909 7        45.220
I06        58.000    38334774.455 6 150433901.38806      -742.496 6        36.465
I02        59.000    37130463.944 6 145707904.55106      -441.403 6        39.886
> 2025 01 02 10 15 10.0000000  0 38
G13         1.000    21261007.496 6 111727316.89506     -3508.502 6        41.640                                    21261015.678 1  87060243.85601     -2733.935 1        11.111
G17         2.000    22140094.273 7 116346976.34907      -496.030 7        42.017                                    22140083.084 4  90660004.55204      -386.518 4        24.887    22140084.769 5  90659982.58905      -386.578 5        32.413
G19         4.000    22583005.705 5 118674451.73505      1800.898 5        32.593                                    22583006.896 2  92473659.95002      1403.308 2        14.857
G10         7.000    25011200.545 5 131434783.15815       970.893 5        35.538                                                                                                    25011206.343 4                       756.655 4        26.683
G14         8.000    22471312.898 7 118087515.26307     -3673.720 7        44.898                                    22471311.959 3  92016229.71903     -2862.626 3        22.590    22471313.700 6  92016246.71806     -2862.704 6        37.728
G15         9.000    20525521.316 7 107862563.59807     -2139.517 7        47.216                                    20525521.216 6  84048654.34806     -1667.155 6        41.604    20525521.619 7  84048575.31807     -1667.215 7        43.304
E06        11.000    25529780.044 5 134159873.84505     -3464.754 5        33.120                                                                    25529784.331 6 100184292.47606     -2587.461 6        38.994    25529782.926 6 102797884.82806     -2654.926 6        37.739
G24        12.000    21297064.792 6 111917034.73506      1406.121 6        37.406                                    21297064.376 4  87208000.34804      1095.667 4        27.377    21297064.678 5  87207931.36905      1095.765 5        34.533
E31        13.000    23784015.158 7 124985814.92907     -1890.657 7        45.139                                                                    23784018.439 8  93333620.73508     -1411.875 8        52.506    23784017.276 8  95768384.89308     -1448.643 8        51.110
G12        15.000    24072052.912 5 126499490.63905      2804.447 5        30.725                                    24072065.695 1  98571111.53801      2185.101 1         3.600
E24        16.000    24524841.009 7 128878872.74607       851.118 7        46.892                                                                    24524842.712 8  96240782.54008       635.615 8        48.231    24524842.104 8  98751437.49308       652.185 8        50.377
E04        17.000    27754608.003 3                     -3904.758 3        20.524                                                                                                                                    27754607.290 4                     -2991.474 4        26.491
E05        18.000    22706956.141 7 119325865.96307       350.968 7        44.391                                                                    22706958.812 6  89106975.60006       262.231 6        37.206    22706956.807 5  91431647.26105       268.938 5        35.867
E09        21.000    24275625.419 7 127569365.12507     -2548.796 7        44.447                                                                    24275627.993 7  95262714.10907     -1903.227 7        43.994    24275629.055 8  97747889.85108     -1952.890 8        48.264
R14        23.000    21591256.417 7 115093658.66907      1970.034 7        45.968                                                                    21591258.042 6  89517526.31806      1532.118 6        40.267
S23        24.000    38271213.859 6 201116546.41606      -858.399 6        38.159
E03        26.000    28087950.156 6 147603193.05706      2010.350 6        38.006                                                                    28087956.254 6 110223172.21206      1501.355 6        36.265    28087957.096 6 113098554.97206      1540.352 6        40.179
R13        27.000    19488455.485 6 104067287.03106     -1618.135 6        37.153
R21        28.000    23525608.205 5 125890271.46015     -2277.178 5        33.689                                                                    23525618.375 4                     -1770.690 4        28.095
R04        29.000    20930202.163 7 112080316.11907      1728.928 7        46.863                                                                    20930202.476 7  87173625.79207      1344.749 7        43.471
S36        31.000    38337855.071 5 201466904.66005      -856.668 5        34.748
C07        32.000                                                                                                                                    39046178.174 6 203323684.08406     -1240.720 6        36.359    39046171.926 6 157222699.02806      -959.249 6        41.688    39046170.130 4                     -1008.568 4        25.609
C10        33.000                                                                                                                                    38617344.972 6 201090626.16206      -859.921 6        39.541    38617340.864 6 155496051.92006      -665.177 6        40.875    38617338.004 5 163402601.73905      -699.194 5        33.988
C36        34.000                                                                                                                                    22961589.167 7 119566977.98507     -2857.849 7        44.865                                                                    22961595.255 6  97158062.78006     -2322.301 6        41.340
R02        35.000    22576257.815 6 120471211.34106     -5297.669 6        38.706                                                                    22576265.773 5  93699888.26405     -4120.672 5        30.068
R03        36.000    19735551.413 8 105645978.78208     -2325.115 8        50.130                                                                    19735552.435 7  82169148.98507     -1808.455 7        45.323
C45        37.000                                                                                                                                    21804796.089 6 113543243.54706      -340.887 6        41.113                                                                    21804787.155 6  92263234.96006      -276.939 6        39.601
R12        38.000    21813520.423 6 116523886.20316     -4080.759 6        37.732                                                                    21813527.244 5                     -3173.999 5        33.389
C40        40.000                                                                                                                                    39136428.221 4                     -1426.056 4        28.654                                                                    39136396.549 5 165598874.36805     -1158.484 5        32.790
R22        41.000    22988957.774 5 122716369.31915      1223.206 5        31.343
C30        43.000                                                                                                                                    24928147.071 4                       396.474 4        29.100                                                                    24928109.739 5 105479004.97205       321.858 5        31.200
C42        45.000                                                                                                                                    24922323.778 8 129777346.23008      1160.599 8        49.627                                                                    24922334.682 7 105454597.95607       943.038 7        44.322
C26        48.000                                                                                                                                                                                                                                                                    25162256.968 5 106469757.84705      1485.561 5        32.090
C22        51.000                                                                                                                                    24459896.109 5 127369085.51605     -4124.309 5        35.167                                                                    24459895.285 5 103497873.28005     -3351.611 5        34.443
C14        53.000                                                                                                                                    26911514.170 3                      2074.417 3        23.162    26911604.066 5 108361897.23205      1603.089 5        31.675    26911521.536 6 113871446.33606      1684.466 6        37.043
C21        55.000                                                                                                                                    23107963.228 6 120329228.93006     -1704.640 6        38.114                                                                    23107961.792 7  97777339.96607     -1385.164 7        45.231
I06        58.000    38335720.807 6 150437614.12506      -742.536 6        38.081
I02        59.000    37131027.218 6 145710113.81606      -441.720 6        40.198
> 2025 01 02 10 15 15.0000000  0 39
G13         1.000    21264346.180 7 111744865.55807     -3510.528 7        44.277                                    21264355.104 1  87073918.17001     -2735.462 1        11.333
G17         2.000    22140566.983 6 116349465.38306      -499.222 6        40.496                                    22140556.190 4  90661944.03004      -389.002 4        24.932    22140557.190 5  90661922.05505      -388.652 5        31.653
G19         4.000    22581294.150 5 118665454.06105      1798.836 5        33.647                                    22581294.788 2  92466648.77002      1401.704 2        15.952
G10         7.000    25010278.908 5 131429935.24605       968.161 5        32.096                                    25010283.217 1 102412928.47111       754.374 1         7.500    25010288.511 4                       754.346 4        28.218
G14         8.000    22474808.920 7 118105888.06707     -3675.031 7        45.535                                    22474808.388 4  92030546.15104     -2863.660 4        24.301    22474810.687 6  92030563.16706     -2863.514 6        38.943
G15         9.000    20527558.877 7 107873270.57207     -2142.774 7        47.298                                    20527558.894 6  84056997.44406     -1669.691 6        41.518    20527558.736 7  84056918.41607     -1669.684 7        42.682
G23        10.000    23239949.691 5                     -1428.543 5        33.317
E06        11.000    25533077.107 5 134177201.57005     -3465.876 5        30.747                                                                    25533081.997 6 100197231.98906     -2588.062 6        38.571    25533081.166 6 102811161.88806     -2655.721 6        38.273
G24        12.000    21295734.771 5 111910009.04105      1404.649 5        34.681                                    21295727.263 4  87202525.83904      1094.526 4        25.489    21295729.728 5  87202456.84105      1094.547 5        35.724
E31        13.000    23785814.936 7 124995273.12407     -1892.149 7        44.382                                                                    23785818.290 8  93340683.66008     -1412.950 8        52.350    23785817.054 8  95775632.07608     -1449.866 8        50.758
G12        15.000    24069382.376 5 126485472.14405      2803.536 5        30.423                                    24069397.733 1  98560188.28201      2184.415 1         2.000
E24        16.000    24524031.668 7 128874621.60307       849.720 7        46.837                                                                    24524033.710 8  96237607.99908       634.545 8        48.311    24524033.236 8  98748180.13708       651.038 8        50.298
E04        17.000                                                                                                                                                                                                    27758323.857 4                     -2992.479 4        26.515
E05        18.000    22706623.343 7 119324116.42207       349.285 7        43.862                                                                    22706625.239 6  89105669.12306       260.836 6        37.860    22706624.585 5  91430306.69105       267.561 5        35.743
E09        21.000    24278052.094 7 127582114.15707     -2550.416 7        45.338                                                                    24278054.253 7  95272234.47007     -1904.469 7        44.299    24278054.976 8  97757658.57708     -1954.231 8        48.320
R14        23.000    21589408.919 7 115083814.01607      1968.423 7        44.271                                                                    21589411.564 6  89509869.40406      1530.893 6        38.763
S23        24.000    38272034.938 6 201120838.71606      -858.141 6        38.808
E03        26.000    28086034.682 6 147593143.46206      2010.007 6        38.811                                                                    28086043.715 5 110215667.63805      1501.067 5        35.229    28086044.206 6 113090854.60606      1540.029 6        40.012
R13        27.000    19489971.562 6 104075384.23306     -1620.490 6        38.048
R21        28.000    23527736.120 6 125901667.38306     -2280.824 6        36.877                                                                    23527749.796 4                     -1774.692 4        24.827
R04        29.000    20928590.257 7 112071681.08407      1725.529 7        47.088                                                                    20928590.164 7  87166909.65707      1341.988 7        43.744
S36        31.000    38338674.975 5 201471188.93105      -856.650 5        35.590
C07        32.000                                                                                                                                    39047367.877 6 203329889.89206     -1241.130 6        36.144    39047363.736 6 157227497.73106      -959.642 6        41.378    39047360.235 4                     -1008.654 4        26.192
C10        33.000                                                                                                                                    38618170.578 6 201094929.43506      -860.607 6        40.427    38618168.244 6 155499379.46606      -665.493 6        41.013    38618164.243 5 163406098.49705      -699.422 5        34.514
C36        34.000                                                                                                                                    22964334.361 7 119581270.49807     -2858.719 7        44.462                                                                    22964340.256 6  97169676.62906     -2323.101 6        41.926
R02        35.000    22581221.170 6 120497703.66806     -5298.800 6        37.361                                                                    22581229.639 4  93720493.30704     -4121.313 4        28.967
R03        36.000    19737725.067 8 105657616.44608     -2329.468 8        49.215                                                                    19737726.192 7  82178200.47607     -1811.739 7        45.795
C45        37.000                                                                                                                                    21805124.853 7 113544952.32907      -342.289 7        42.436                                                                    21805115.296 6  92264623.55006      -278.197 6        39.090
R12        38.000    21817341.749 6 116544292.19616     -4081.221 6        36.994                                                                    21817346.587 5                     -3174.477 5        33.491
C40        40.000                                                                                                                                    39137800.025 5                     -1426.587 5        31.902                                                                    39137767.194 5 165604669.37405     -1159.325 5        33.533
R22        41.000    22987809.846 4 122710261.93804      1220.423 4        26.096
C30        43.000                                                                                                                                    24927716.459 4                       392.528 4        24.586                                                                    24927728.950 4 105477398.97904       320.473 4        28.199
C42        45.000                                                                                                                                    24921211.081 8 129771549.73308      1158.463 8        50.096                                                                    24921221.404 7 105449887.84007       941.362 7        44.108
C26        48.000                                                                                                                                    25160490.793 5 131017101.43115      1827.758 5        35.390                                                                    25160497.807 5 106462332.16105      1484.469 5        31.721
C22        51.000                                                                                                                                    24463856.642 5 127389711.06605     -4125.250 5        34.543                                                                    24463855.690 5 103514633.20405     -3352.113 5        34.443
C14        53.000                                                                                                                                    26909532.311 4                      2072.965 4        24.692    26909607.423 4 108353884.81104      1602.095 4        29.735    26909531.329 6 113863026.54406      1683.718 6        36.715
C21        55.000                                                                                                                                    23109602.717 6 120337760.06506     -1707.292 6        40.074                                                                    23109599.920 7  97784272.22707     -1387.517 7        45.175
I06        58.000    38336666.868 6 150441326.90706      -742.287 6        37.766
I02        59.000    37131590.576 6 145712324.46706      -442.055 6        39.535
> 2025 01 02 10 15 20.0000000  0 39
G13         1.000    21267688.709 7 111762425.80507     -3513.348 7        44.739                                    21267696.573 2  87087601.45602     -2737.654 2        12.182
G17         2.000    22141041.036 6 116351970.68906      -503.090 6        38.348                                    22141033.147 4  90663896.18604      -392.011 4        25.053    22141036.498 5  90663874.22105      -391.699 5        33.671
G19         4.000    22579586.098 6 118656466.86206      1796.237 6        36.284                                    22579584.750 2  92459645.80302      1399.661 2        17.283
G10         7.000    25009360.253 5 131425101.36205       965.226 5        32.198                                    25009362.943 1 102409161.78101       752.220 1         6.250    25009367.616 4                       751.928 4        29.782
G14         8.000    22478306.579 7 118124267.74507     -3676.847 7        46.434                                    22478306.395 4  92044867.95304     -2865.066 4        25.504    22478308.199 6  92044884.95406     -2865.067 6        39.291
G15         9.000    20529599.541 7 107883994.84007     -2146.832 7        47.767                                    20529599.779 6  84065354.01206     -1672.850 6        41.993    20529598.545 6  84065274.97606     -1672.865 6        41.523
G23        10.000    23241304.163 5                     -1432.225 5        33.168                                                                                                    23241330.244 4                     -1115.786 4        28.673
E06        11.000    25536376.979 5 134194535.59305     -3467.668 5        32.174                                                                    25536380.899 6 100210176.23206     -2589.534 6        37.546    25536378.607 6 102824443.77506     -2657.049 6        37.800
G24        12.000    21294403.578 4 111902992.30104      1402.459 4        27.545                                    21294391.965 4  87197058.41504      1092.820 4        24.752    21294393.467 6  87196989.43506      1092.602 6        36.265
E31        13.000    23787616.966 7 125004739.93307     -1894.315 7        44.439                                                                    23787619.839 8  93347753.02508     -1414.683 8        52.264    23787618.364 8  95782885.85708     -1451.592 8        50.516
G12        15.000    24066717.961 4 126471458.52104      2802.392 4        29.545                                    24066731.112 1  98549269.03101      2183.649 1         3.000
E24        16.000    24523223.719 7 128870378.95307       847.438 7        45.913                                                                    24523226.408 8  96234439.80108       632.926 8        48.279    24523225.922 8  98744929.28408       649.373 8        49.971
E04        17.000                                                                                                                                                                                                    27762040.791 4                     -2992.785 4        26.515
E05        18.000    22706291.572 7 119322376.34807       346.888 7        42.415                                                                    22706294.422 6  89104369.71506       258.991 6        38.934    22706294.956 6  91428973.39006       265.705 6        37.066
E09        21.000    24280479.643 7 127594872.70407     -2552.856 7        44.688                                                                    24280482.468 7  95281761.94407     -1906.351 7        44.584    24280482.842 8  97767434.59708     -1956.090 8        48.386
R14        23.000    21587560.843 6 115073978.08106      1966.103 6        39.802                                                                    21587567.429 6  89502219.26806      1529.276 6        39.559
S23        24.000    38272847.356 6 201125131.43306      -858.908 6        38.384
E03        26.000    28084122.167 6 147583096.00906      2009.124 6        38.934                                                                    28084130.885 5 110208164.67305      1500.467 5        34.076    28084130.873 6 113083155.89806      1539.452 6        39.186
R13        27.000    19491491.264 6 104083494.46206     -1623.628 6        37.214
R21        28.000    23529872.126 6 125913084.23706     -2285.607 6        39.117                                                                    23529886.105 4                     -1777.894 4        26.419
R04        29.000    20926979.645 7 112063064.07307      1721.327 7        46.778                                                                    20926980.758 7  87160207.54307      1338.870 7        43.657
S36        31.000    38339487.477 5 201475473.34605      -857.296 5        34.362
C07        32.000                                                                                                                                    39048561.552 5 203336099.07105     -1242.330 5        35.133    39048555.347 6 157232299.03906      -960.576 6        41.249    39048554.377 4                     -1009.133 4        25.504
C10        33.000                                                                                                                                    38618997.813 6 201099236.27506      -861.683 6        39.270    38618993.985 6 155502709.77506      -666.451 6        40.682    38618990.572 5 163409598.10905      -700.520 5        33.563
C36        34.000                                                                                                                                    22967079.611 7 119595568.31807     -2860.315 7        43.882                                                                    22967085.890 7  97181294.72507     -2324.276 7        42.531
R02        35.000    22586186.735 6 120524203.00806     -5300.680 6        37.565                                                                    22586196.263 5  93741103.87905     -4122.682 5        31.743
R03        36.000    19739903.690 8 105669276.42508     -2334.423 8        48.596                                                                    19739904.611 7  82187269.34407     -1815.700 7        46.310
C45        37.000                                                                                                                                    21805454.379 7 113546669.73507      -344.480 7        42.440                                                                    21805444.924 6  92266019.06806      -280.046 6        38.535
R12        38.000    21821162.529 6 116564702.38106     -4082.661 6        38.898                                                                    21821167.483 5  90661479.33215     -3175.065 5        33.168
C40        40.000                                                                                                                                    39139174.007 5                     -1427.635 5        31.109                                                                    39139140.233 5 165610467.73005     -1160.310 5        31.917
R22        41.000    22986652.407 4                      1216.068 4        29.896
C30        43.000                                                                                                                                                                                                                                                                    24927354.359 4 105475803.16504       317.917 4        28.834
C42        45.000                                                                                                                                    24920100.152 8 129765764.89508      1155.641 8        50.118                                                                    24920110.794 7 105445187.16007       938.961 7        44.161
C26        48.000                                                                                                                                    25158735.254 6 131007966.67106      1826.415 6        36.847                                                                    25158742.271 5 106454909.28005      1484.146 5        30.370
C22        51.000                                                                                                                                    24467819.872 6 127410342.04006     -4126.747 6        36.888                                                                    24467817.770 5 103531397.57205     -3353.551 5        34.414
C14        53.000                                                                                                                                    26907542.488 4                      2070.257 4        24.677    26907614.282 5 108345877.65605      1600.530 5        32.814    26907542.675 6 113854612.26306      1682.199 6        36.620
C21        55.000                                                                                                                                    23111245.296 7 120346305.93307     -1710.878 7        42.906                                                                    23111240.724 7  97791216.43807     -1390.277 7        44.605
I06        58.000    38337611.977 6 150445040.11406      -742.659 6        37.248
I02        59.000    37132153.847 6 145714536.67906      -442.828 6        39.895
> 2025 01 02 10 15 25.0000000  0 38
G13         1.000    21271031.828 7 111779996.60807     -3515.217 7        45.535                                    21271040.059 2  87101292.98302     -2739.131 2        13.758
G17         2.000    22141520.852 6 116354491.22206      -505.890 6        36.026                                    22141513.900 4  90665860.22004      -394.204 4        24.692    22141521.984 6  90665838.25706      -393.980 6        38.045
G19         4.000    22577878.194 6 118647489.25906      1794.736 6        39.282                                    22577876.662 3  92452650.29103      1398.502 3        19.701
G10         7.000                                                                                                                                                                    25008449.257 4                       750.253 4        29.896
G14         8.000    22481805.077 7 118142653.25107     -3677.631 7        45.442                                    22481805.413 4  92059194.28104     -2865.671 4        25.970    22481807.152 6  92059211.28206     -2865.713 6        39.844
G15         9.000    20531643.710 7 107894735.42307     -2149.670 7        47.701                                    20531643.565 6  84073723.28706     -1675.057 6        41.864    20531642.565 6  84073644.24706     -1675.017 6        40.765
G23        10.000    23242668.196 5 122141042.50615     -1435.144 5        34.824                                                                                                    23242692.135 5                     -1118.270 5        32.371
E06        11.000    25539677.844 5 134211875.00005     -3468.584 5        31.992                                                                    25539679.288 6 100223124.43106     -2589.919 6        37.323    25539679.215 6 102837729.73506     -2657.427 6        38.288
G24        12.000    21293072.301 3                      1401.057 3        19.731                                                                                                    21293059.555 6  87191528.38506      1091.465 6        36.756
E31        13.000    23789420.227 7 125014214.37107     -1895.600 7        45.204                                                                    23789422.735 8  93354828.07208     -1415.562 8        52.469    23789421.260 8  95790145.47008     -1452.436 8        50.545
G12        15.000    24064050.476 4 126457448.75704      2801.924 4        28.445                                    24064065.073 1  98538352.37001      2183.345 1         4.429
E24        16.000    24522417.525 7 128866143.77107       846.321 7        45.538                                                                    24522420.345 8  96231277.17608       632.029 8        48.344    24522420.082 8  98741684.16708       648.496 8        50.014
E04        17.000                                                                                                                                                                                                    27765760.264 4                     -2992.976 4        27.593
E05        18.000    22705961.885 6 119320644.74806       345.538 6        41.781                                                                    22705965.386 6  89103076.66306       258.028 6        39.150    22705967.082 6  91427646.57706       264.616 6        37.410
E09        21.000    24282908.651 7 127607639.74307     -2554.205 7        43.956                                                                    24282912.015 7  95291295.76207     -1907.344 7        44.969    24282912.502 8  97777217.13308     -1957.040 8        48.497
R14        23.000    21585715.701 6 115064149.94206      1964.849 6        37.747                                                                    21585723.870 6  89494575.16006      1528.046 6        39.706
S23        24.000    38273657.037 6 201129423.57806      -858.293 6        36.771
E03        26.000    28082210.796 6 147573049.75206      2009.261 6        38.471                                                                    28082218.479 5 110200662.60005      1500.145 5        33.449    28082217.406 6 113075458.07506      1539.641 6        38.850
R13        27.000    19493011.345 6 104091616.25706     -1625.493 6        38.940
R21        28.000    23532006.869 5 125924520.90415     -2289.229 5        34.386
R04        29.000    20925374.291 7 112054464.07707      1718.356 7        46.948                                                                    20925374.531 7  87153518.65707      1336.484 7        43.733
S36        31.000    38340308.664 5 201479757.68905      -857.123 5        32.551
C07        32.000                                                                                                                                    39049754.829 5 203342310.61205     -1242.549 5        33.784    39049748.295 6 157237102.21706      -960.780 6        40.520    39049749.253 4                     -1009.840 4        28.180
C10        33.000                                                                                                                                    38619823.863 6 201103545.74006      -862.049 6        38.934    38619822.569 7 155506042.05907      -666.573 7        42.882    38619817.768 5 163413099.86205      -700.402 5        33.862
C36        34.000                                                                                                                                    22969826.140 7 119609870.47707     -2860.711 7        43.244                                                                    22969833.246 7  97192916.38807     -2324.647 7        42.885
R02        35.000    22591154.946 6 120550708.32506     -5301.505 6        38.841                                                                    22591163.859 5  93761719.04105     -4123.447 5        31.721
R03        36.000    19742086.052 8 105680957.81008     -2338.331 8        49.191                                                                    19742087.251 7  82196354.85807     -1818.692 7        46.575
C45        37.000                                                                                                                                    21805785.309 7 113548394.72207      -345.766 7        42.432                                                                    21805776.288 6  92267420.77306      -280.945 6        37.750
R12        38.000    21824982.643 6 116585115.81306     -4082.887 6        40.493                                                                    21824988.851 5  90677356.37605     -3175.476 5        30.966
C40        40.000                                                                                                                                    39140545.754 4                     -1428.445 4        28.512                                                                    39140504.102 5 165616268.79805     -1160.364 5        31.313
R22        41.000    22985519.584 4                      1212.894 4        28.663
C42        45.000                                                                                                                                    24918991.333 8 129759990.72708      1153.864 8        50.125                                                                    24919002.146 7 105440495.18607       937.544 7        44.131
C26        48.000                                                                                                                                    25156981.379 6 130998834.60306      1826.457 6        36.824                                                                    25156982.493 3                      1483.864 3        20.262
C22        51.000                                                                                                                                    24471783.431 6 127430977.56506     -4127.560 6        40.620                                                                    24471781.097 5 103548165.62205     -3354.038 5        34.876
C14        53.000                                                                                                                                    26905548.610 4                      2068.729 4        26.395    26905628.412 5 108337874.97405      1600.042 5        32.311    26905554.504 6 113846202.71606      1681.495 6        36.586
C21        55.000                                                                                                                                    23112889.650 7 120354865.57907     -1713.302 7        43.928                                                                    23112884.671 7  97798171.87107     -1392.172 7        44.272
I06        58.000    38338558.062 6 150448753.00606      -742.505 6        36.556
I02        59.000    37132718.373 6 145716749.55306      -442.645 6        40.951
> 2025 01 02 10 15 30.0000000  0 39
G13         1.000    21274377.841 7 111797578.11507     -3517.315 7        45.171                                    21274385.472 2  87114992.86502     -2740.755 2        15.429
G17         2.000    22142003.528 5 116357027.25705      -508.484 5        34.781                                    22141998.119 4  90667836.37104      -396.221 4        24.797    22142008.195 6  90667814.38706      -396.313 6        38.231
G19         4.000    22576171.767 6 118638521.40506      1792.464 6        41.507                                    22576170.729 3  92445662.38503      1396.716 3        20.190
G10         7.000    25007543.183 5 131415472.08505       960.315 5        35.243                                    25007532.784 2 102401658.27002       748.347 2        13.030    25007536.424 5                       748.266 5        32.018
G14         8.000    22485304.062 7 118161044.76007     -3678.849 7        45.652                                    22485305.781 4  92073525.30504     -2866.633 4        26.395    22485306.801 6  92073542.30506     -2866.626 6        40.691
G15         9.000    20533690.841 7 107905492.44307     -2153.034 7        47.022                                    20533690.204 6  84082105.35406     -1677.681 6        40.942    20533689.127 6  84082026.32206     -1677.551 6        39.592
G23        10.000    23244028.247 5 122148225.59405     -1438.188 5        30.438                                                                                                    23244057.916 5  95180535.65915     -1120.836 5        34.210
E06        11.000    25542979.995 5 134229219.81905     -3469.471 5        32.671                                                                    25542978.860 5 100236076.71705     -2590.668 5        35.514    25542980.413 6 102851019.94506     -2658.408 6        39.523
G24        12.000    21291736.574 5                      1399.300 5        33.647                                                                                                    21291727.634 6  87186073.84306      1090.147 6        38.240
E31        13.000    23791224.594 7 125023696.59107     -1897.178 7        46.001                                                                    23791227.137 8  93361908.93408     -1416.710 8        52.287    23791225.782 8  95797411.03908     -1453.673 8        50.350
G12        15.000    24061386.077 5 126443443.09805      2800.785 5        33.479                                    24061399.838 1  98527438.95901      2182.425 1         3.000
E24        16.000    24521613.143 7 128861916.24307       844.793 7        45.783                                                                    24521615.912 8  96228120.27608       630.811 8        48.276    24521615.623 8  98738444.89608       647.305 8        50.241
E04        17.000                                                                                                                                                                                                    27769480.283 4                     -2993.172 4        28.019
E05        18.000    22705634.350 6 119318921.81306       343.680 6        40.594                                                                    22705637.795 6  89101790.04906       256.644 6        40.055    22705641.510 6  91426326.36506       263.286 6        37.293
E09        21.000    24285340.143 7 127620415.49507     -2556.042 7        45.406                                                                    24285343.097 7  95300836.07707     -1908.784 7        44.977    24285343.530 8  97787006.32408     -1958.501 8        48.397
R14        23.000    21583873.590 6 115054329.69606      1963.192 6        40.031                                                                    21583881.975 6  89486937.19406      1527.083 6        38.240
S23        24.000    38274477.933 6 201133715.52306      -858.288 6        36.057
E03        26.000    28080299.244 6 147563004.83306      2008.835 6        38.093                                                                    28080307.104 5 110193161.49805      1500.418 5        32.425    28080305.581 6 113067761.33406      1539.284 6        38.547
R13        27.000    19494535.972 6 104099750.26406     -1627.827 6        38.706
R21        28.000    23534147.114 5 125935977.73805     -2293.564 5        31.004
R04        29.000    20923771.518 7 112045881.35607      1714.876 7        46.318                                                                    20923771.566 7  87146843.20207      1333.750 7        42.736
S36        31.000    38341130.267 5 201484041.33405      -856.680 5        33.180
C07        32.000                                                                                                                                    39050946.045 5 203348524.78605     -1243.041 5        35.157    39050942.158 6 157241907.40406      -961.317 6        41.473    39050943.717 4                     -1010.311 4        28.701
C10        33.000                                                                                                                                    38620652.443 6 201107857.92406      -862.721 6        40.691    38620653.468 7 155509376.55507      -667.151 7        42.935    38620647.405 5 163416603.85305      -700.779 5        35.371
C36        34.000                                                                                                                                    22972572.817 7 119624177.09007     -2861.695 7        44.182                                                                    22972580.226 7  97204541.68407     -2325.447 7        42.717
R02        35.000    22596123.786 6 120577219.71906     -5302.938 6        37.958                                                                    22596129.894 5  93782338.93505     -4124.399 5        31.992
R03        36.000    19744272.772 8 105692660.72508     -2342.741 8        48.675                                                                    19744273.316 7  82205457.10307     -1822.072 7        46.288
C45        37.000                                                                                                                                    21806116.858 7 113550127.47507      -347.451 7        42.853                                                                    21806109.188 6  92268828.76306      -282.342 6        38.544
R12        38.000    21828806.901 7 116605532.67507     -4083.634 7        42.032                                                                    21828808.711 4  90693236.07404     -3176.442 4        29.118
C40        40.000                                                                                                                                                                                                                                                                    39141865.457 5 165622072.52305     -1161.382 5        31.819
R22        41.000    22984377.988 5 122692188.14415      1209.746 5        34.414
C30        43.000                                                                                                                                                                                                                                                                    24926620.190 4 105472639.80404       314.446 4        28.493
C42        45.000                                                                                                                                    24917884.796 8 129754227.40808      1151.585 8        50.126                                                                    24917895.122 7 105435812.00807       935.723 7        43.877
C26        48.000                                                                                                                                    25155228.862 6 130989705.36106      1825.659 6        37.588
C22        51.000                                                                                                                                    24475745.272 6 127451617.70906     -4128.364 6        38.375                                                                    24475745.513 5 103564937.41905     -3354.828 5        35.762
C14        53.000                                                                                                                                    26903566.058 4                      2068.173 4        28.844                                                                    26903568.887 6 113837798.01606      1680.538 6        37.289
C21        55.000                                                                                                                                    23114535.769 7 120363439.16607     -1716.165 7        44.382                                                                    23114530.290 7  97805138.58207     -1394.485 7        44.081
I06        58.000    38339504.632 6 150452465.64506      -742.454 6        36.457
I02        59.000    37133282.871 6 145718963.60406      -442.876 6        41.433
> 2025 01 02 10 15 35.0000000  0 38
G13         1.000    21277725.907 7 111815171.37407     -3519.633 7        44.006                                    21277732.826 2  87128701.85802     -2742.590 2        17.132
G17         2.000    22142487.011 5 116359579.87205      -512.046 5        32.449                                    22142485.119 3  90669825.44003      -399.020 3        23.943    22142490.634 6  90669803.47106      -399.069 6        37.599
G19         4.000    22574467.957 7 118629564.33307      1790.468 7        42.578                                    22574466.562 3  92438682.88103      1395.169 3        19.463
G10         7.000    25006632.215 5 131410678.08305       957.456 5        34.238                                    25006621.043 2 102397922.69602       746.083 2        12.545    25006624.853 5                       746.101 5        33.024
G14         8.000    22488805.970 7 118179443.35307     -3680.280 7        46.378                                    22488807.495 4  92087861.85404     -2867.749 4        27.210    22488808.430 6  92087878.84306     -2867.606 6        40.942
G15         9.000    20535741.625 7 107916266.99007     -2156.453 7        47.131                                    20535739.804 6  84090501.09906     -1680.351 6        40.062    20535739.822 6  84090422.05206     -1680.088 6        37.410
G23        10.000    23245397.064 5 122155425.49005     -1441.866 5        30.823                                                                                                    23245424.149 5  95186146.02005     -1123.089 5        31.721
E06        11.000    25546281.526 5 134246571.20805     -3470.580 5        34.176                                                                    25546280.532 5 100249033.90905     -2591.811 5        35.500    25546282.034 6 102864315.16706     -2659.443 6        38.354
G24        12.000    21290398.990 6 111881847.80216      1397.330 6        38.604                                    21290392.143 4  87180594.58614      1088.813 4        24.752    21290397.222 6  87180626.63106      1088.855 6        38.763
E31        13.000    23793030.576 7 125033187.64507     -1898.861 7        46.307                                                                    23793033.230 8  93368996.39208     -1417.965 8        52.171    23793031.704 8  95804683.39508     -1454.996 8        49.609
G12        15.000    24058727.549 5 126429442.60805      2799.450 5        33.946                                    24058735.511 1  98516529.53501      2181.374 1         6.125
E24        16.000    24520810.750 7 128857697.45107       843.089 7        46.055                                                                    24520813.036 8  96224969.89208       629.590 8        48.122    24520812.607 8  98735212.32208       645.982 8        49.926
E04        17.000    27773189.745 3                     -3904.426 3        22.210                                                                                                                                    27773201.026 4                     -2993.747 4        28.540
E05        18.000    22705309.287 6 119317208.60106       341.853 6        41.249                                                                    22705312.265 6  89100510.71106       255.343 6        40.164    22705315.371 6  91425013.64106       262.069 6        37.429
E09        21.000    24287773.708 7 127633200.96707     -2557.872 7        45.014                                                                    24287776.730 7  95310383.65107     -1910.123 7        46.054    24287776.459 8  97796802.98308     -1959.896 8        48.707
R14        23.000    21582035.296 6 115044518.51906      1961.412 6        38.336                                                                    21582041.607 6  89479306.30806      1525.546 6        36.628
S23        24.000    38275286.979 6 201138008.13306      -858.352 6        36.344
E03        26.000    28078387.703 6 147552962.32006      2008.585 6        37.191                                                                    28078395.931 5 110185662.26805      1499.486 5        32.431    28078395.075 6 113060066.43906      1538.986 6        38.565
R13        27.000    19496061.804 6 104107897.18006     -1630.494 6        38.778
R21        28.000                                                                                                                                    23536304.551 3                     -1788.249 3        19.433
R04        29.000    20922173.204 7 112037316.88707      1711.221 7        46.984                                                                    20922171.808 6  87140181.94006      1330.945 6        41.764
S36        31.000    38341942.031 6 201488325.68106      -856.767 6        36.076
C07        32.000                                                                                                                                    39052139.808 5 203354742.53505     -1243.604 5        35.852    39052136.284 6 157246715.33606      -961.813 6        40.901    39052140.032 5                     -1010.575 5        30.008
C10        33.000                                                                                                                                    38621484.830 6 201112173.93706      -863.367 6        40.844    38621482.527 7 155512713.98607      -667.711 7        43.299    38621477.819 6 163420111.00006      -701.907 6        38.009
C36        34.000                                                                                                                                    22975321.686 7 119638489.25107     -2862.843 7        44.889                                                                    22975327.801 7  97216171.49107     -2326.420 7        42.745
R02        35.000    22601092.275 5 120603738.12705     -5304.341 5        34.743                                                                    22601103.237 5  93802964.30305     -4125.385 5        33.018
R03        36.000    19746463.935 7 105704386.33607     -2347.138 7        47.383                                                                    19746464.031 7  82214577.01407     -1825.585 7        46.038
C45        37.000                                                                                                                                    21806450.619 7 113551869.00407      -349.019 7        43.683                                                                    21806443.190 6  92270243.92006      -283.765 6        37.887
R12        38.000    21832628.408 6 116625953.97306     -4084.505 6        40.772                                                                    21832627.998 5  90709119.32405     -3177.145 5        32.766
C40        40.000                                                                                                                                                                                                                                                                    39143239.429 5 165627879.70305     -1161.614 5        31.940
C30        43.000                                                                                                                                    24926262.940 5                       384.194 5        30.770                                                                    24926239.885 4 105471073.43804       312.141 4        26.216
C42        45.000                                                                                                                                    24916780.741 8 129748476.00308      1149.206 8        50.219                                                                    24916790.681 7 105431138.55507       933.646 7        44.098
C26        48.000                                                                                                                                    25153472.295 6 130980580.00606      1824.881 6        37.883
C22        51.000                                                                                                                                    24479709.777 6 127472263.60506     -4129.588 6        37.543                                                                    24479709.974 5 103581713.84805     -3355.780 5        34.429
C14        53.000                                                                                                                                    26901585.822 5                      2066.792 5        30.234                                                                    26901584.312 6 113829399.02606      1679.289 6        37.508
C21        55.000                                                                                                                                    23116184.508 7 120372027.72807     -1719.100 7        44.626                                                                    23116179.104 7  97812117.53207     -1397.044 7        43.200
I06        58.000    38340451.121 6 150456178.84606      -742.494 6        36.654
I02        59.000    37133847.283 6 145721179.14106      -443.143 6        41.209
> 2025 01 02 10 15 40.0000000  0 37
G13         1.000    21281075.789 7 111832776.25707     -3521.990 7        42.965                                    21281082.787 2  87142419.94802     -2744.394 2        16.868
G17         2.000    22142969.960 5 116362148.85905      -514.922 5        33.970                                    22142975.227 3  90671827.22303      -401.247 3        21.619    22142974.980 6  90671805.30306      -401.522 6        37.452
G19         4.000    22572766.432 7 118620618.01307      1788.550 7        42.796                                    22572764.462 3  92431711.75003      1393.663 3        18.687
G10         7.000    25005716.044 6 131405898.04606       954.735 6        36.631                                    25005711.908 2 102394197.98802       743.933 2        12.970    25005717.270 5                       743.754 5        32.413
G14         8.000    22492309.325 7 118197848.88307     -3681.567 7        46.281                                    22492310.426 4  92102203.80004     -2868.745 4        27.737    22492311.460 6  92102220.80206     -2868.715 6        40.794
G15         9.000    20537795.677 7 107927058.95707     -2159.884 7        47.311                                    20537792.543 6  84098910.42106     -1683.026 6        39.508    20537793.283 6  84098831.38406     -1682.939 6        36.469
G23        10.000    23246774.250 4 122162642.26704     -1444.950 4        28.597                                                                                                    23246797.304 4  95191769.37304     -1125.017 4        29.327
E06        11.000    25549582.682 5 134263929.05605     -3471.912 5        34.105                                                                    25549582.077 5 100261995.93905     -2592.886 5        34.052    25549583.825 6 102877615.30706     -2660.207 6        37.698
G24        12.000    21289061.680 6 111874866.48406      1395.609 6        40.734                                    21289065.122 4  87175154.65304      1087.488 4        29.621    21289069.047 6  87175186.64306      1087.479 6        38.925
E31        13.000    23794838.072 7 125042687.42007     -1900.516 7        45.746                                                                    23794840.871 8  93376090.36408     -1419.233 8        52.101    23794839.472 8  95811962.42708     -1456.305 8        49.854
E24        16.000    24520009.868 7 128853487.28307       841.404 7        45.550                                                                    24520011.804 8  96221825.93508       628.316 8        48.024    24520011.278 8  98731986.35408       644.714 8        49.842
E04        17.000    27776911.906 3                     -3906.856 3        22.590                                                                                                                                    27776919.457 4                     -2994.312 4        28.531
E05        18.000    22704984.175 6 119315505.02406       339.984 6        41.685                                                                    22704987.934 6  89099238.57806       253.781 6        41.027    22704986.240 6  91423708.32006       260.438 6        37.009
E09        21.000    24290207.546 7 127645996.04607     -2559.783 7        43.651                                                                    24290211.600 7  95319938.41607     -1911.427 7        46.344    24290211.559 8  97806607.02408     -1961.354 8        49.096
R14        23.000    21580197.189 6 115034716.07906      1959.767 6        38.508                                                                    21580203.289 6  89471682.22606      1524.278 6        39.775
S23        24.000    38276106.766 6 201142301.40506      -858.477 6        36.783
E03        26.000    28076477.808 6 147542922.14506      2007.850 6        37.376                                                                    28076486.251 5 110178164.71005      1499.457 5        32.599    28076484.836 6 113052373.31106      1538.633 6        38.093
R13        27.000    19497590.229 6 104116057.05406     -1632.995 6        39.270
R21        28.000    23538466.390 5                     -2301.282 5        34.367
R04        29.000    20920578.962 8 112028770.60508      1707.749 8        48.282                                                                    20920576.851 7  87133534.82207      1328.163 7        42.428
S36        31.000    38342746.132 6 201492610.71006      -856.953 6        36.045
C07        32.000                                                                                                                                    39053337.886 5 203360963.84805     -1244.481 5        35.595    39053330.739 6 157251526.02906      -962.155 6        41.559    39053333.638 4                     -1011.372 4        27.066
C10        33.000                                                                                                                                    38622313.889 6 201116493.62706      -863.933 6        40.098    38622309.821 7 155516054.21507      -668.205 7        43.473    38622307.250 6 163423621.09706      -701.968 6        37.312
C36        34.000                                                                                                                                    22978070.801 7 119652806.83507     -2863.808 7        45.175                                                                    22978078.017 7  97227805.66307     -2326.913 7        43.949
R02        35.000    22606060.737 6 120630263.57506     -5305.306 6        36.408                                                                    22606076.965 5  93823595.20205     -4126.494 5        33.102
R03        36.000    19748659.839 8 105716134.53408     -2351.680 8        49.563                                                                    19748658.485 7  82223714.48107     -1829.107 7        46.077
C45        37.000                                                                                                                                    21806787.280 7 113553619.24107      -350.822 7        43.695                                                                    21806779.522 6  92271666.18106      -284.885 6        37.524
R12        38.000    21836449.618 5 116646379.62405     -4085.165 5        34.210                                                                    21836453.956 5  90725005.88405     -3177.687 5        32.090
C40        40.000                                                                                                                                                                                                                                                                    39144617.196 5 165633690.43705     -1162.177 5        31.494
C30        43.000                                                                                                                                    24925893.859 4 129795660.26714       382.165 4        29.213                                                                    24925872.699 4 105469517.35504       309.895 4        27.737
C42        45.000                                                                                                                                    24915678.503 8 129742736.42408      1146.971 8        50.218                                                                    24915688.830 7 105426474.68907       932.038 7        44.787
C26        48.000                                                                                                                                    25151716.714 6 130971458.48206      1824.194 6        38.114                                                                    25151718.535 5                      1482.146 5        32.341
C22        51.000                                                                                                                                    24483675.246 6 127492915.08306     -4130.727 6        37.191                                                                    24483674.935 5 103598494.86305     -3356.521 5        34.224
C14        53.000                                                                                                                                    26899606.521 4                      2065.167 4        29.261                                                                    26899599.582 6 113821005.63606      1678.477 6        37.062
C21        55.000                                                                                                                                    23117835.470 7 120380631.16507     -1721.851 7        45.964                                                                    23117831.077 7  97819108.53907     -1399.090 7        42.106
I06        58.000    38341398.142 6 150459892.60406      -742.626 6        37.505
I02        59.000    37134411.371 6 145723396.37006      -443.356 6        40.417
> 2025 01 02 10 15 45.0000000  0 38
G13         1.000    21284427.736 6 111850391.70206     -3523.979 6        41.368                                    21284434.514 2  87156146.21702     -2745.983 2        16.340
G17         2.000                                                                                                                                                                    22143464.815 5  90673819.14105      -404.073 5        34.476
G19         4.000    22571063.712 7 118611681.33707      1786.463 7        43.750                                    22571064.373 2  92424748.11902      1392.075 2        17.245
G10         7.000    25004801.778 6 131401130.90906       952.236 6        36.382                                    25004804.835 2 102390483.31302       742.010 2        15.000    25004812.965 4                       742.056 4        29.536
G14         8.000    22495812.157 7 118216260.25707     -3682.774 7        45.520                                    22495814.412 4  92116550.29504     -2869.688 4        27.748    22495815.256 6  92116567.29906     -2869.653 6        40.713
G15         9.000    20539852.443 7 107937867.24207     -2163.263 7        47.565                                    20539848.545 6  84107332.44206     -1685.656 6        39.285    20539850.980 5  84107253.41105     -1685.628 5        34.871
G23        10.000                                                                                                                                                                    23248174.814 5  95197404.98405     -1128.083 5        30.800
E06        11.000    25552883.553 5 134281292.23705     -3473.154 5        33.204                                                                    25552886.012 5 100274961.90105     -2593.609 5        32.802    25552887.371 6 102890919.56906     -2661.292 6        37.486
G24        12.000    21287732.653 7 111867893.41507      1393.879 7        43.630                                    21287739.608 5  87169721.06805      1086.138 5        33.862    21287741.958 6  87169753.07106      1086.234 6        39.342
E31        13.000    23796647.767 7 125052194.80707     -1902.143 7        46.772                                                                    23796650.157 8  93383190.02208     -1420.472 8        51.974    23796648.455 8  95819247.29208     -1457.489 8        49.414
G12        15.000    24053418.973 5 126401455.52305      2797.944 5        32.443                                    24053409.478 1  98494721.58301      2180.138 1         6.625
E24        16.000    24519209.536 7 128849284.62407       839.901 7        44.721                                                                    24519212.297 7  96218687.61007       627.130 7        47.742    24519211.483 8  98728766.13408       643.530 8        49.304
E04        17.000    27780631.460 3                     -3908.230 3        23.238                                                                                                                                    27780636.480 4                     -2994.136 4        28.180
E05        18.000    22704660.609 6 119313809.98006       338.218 6        40.939                                                                    22704665.321 6  89097972.77506       252.584 6        41.726    22704660.752 5  91422409.51505       259.387 5        35.776
E09        21.000    24292643.608 7 127658799.69207     -2561.539 7        44.169                                                                    24292647.915 7  95329499.56807     -1912.779 7        46.149    24292648.171 8  97816417.60008     -1962.759 8        49.138
R14        23.000    21578355.400 5 115024921.64905      1958.127 5        31.570                                                                    21578365.428 6  89464064.37206      1522.953 6        40.050
S23        24.000    38276928.141 6 201146594.26006      -858.526 6        36.469
E03        26.000    28074567.607 6 147532883.17406      2008.039 6        37.013                                                                    28074575.789 5 110170668.10905      1499.204 5        33.353    28074575.094 6 113044681.09906      1538.554 6        37.743
R13        27.000    19499120.269 6 104124228.81506     -1635.620 6        39.781
R21        28.000    23540619.362 5 125970604.28715     -2305.789 5        34.467                                                                    23540640.545 4                     -1793.409 4        28.019
R04        29.000    20918985.858 7 112020241.54207      1704.187 7        47.920                                                                    20918984.317 7  87126901.11907      1325.494 7        42.366
S36        31.000    38343564.645 5 201496895.13605      -856.551 5        34.838
C07        32.000                                                                                                                                    39054532.717 5 203367187.57605     -1244.780 5        34.933    39054526.397 6 157256338.59906      -962.540 6        41.638    39054525.925 4                     -1011.585 4        29.081
C10        33.000                                                                                                                                    38623142.141 6 201120815.94806      -864.628 6        40.775    38623139.056 7 155519396.49407      -668.555 7        43.228    38623137.093 6 163427133.35606      -702.519 6        38.042
C36        34.000                                                                                                                                    22980819.880 7 119667128.78207     -2864.737 7        44.020                                                                    22980828.839 7  97239443.38907     -2327.895 7        44.295
R02        35.000    22611032.967 6 120656794.95706     -5306.818 6        36.510                                                                    22611046.470 5  93844230.62005     -4127.421 5        33.928
R03        36.000    19750860.050 8 105727904.17008     -2355.968 8        49.264                                                                    19750857.700 7  82232868.64407     -1832.460 7        46.404
C45        37.000                                                                                                                                    21807125.602 7 113555377.07807      -352.260 7        44.960                                                                    21807117.412 6  92273094.58106      -286.062 6        39.417
R12        38.000    21840274.540 5 116666808.52505     -4085.968 5        35.657                                                                    21840281.072 5  90740894.96705     -3177.801 5        33.964
C40        40.000                                                                                                                                    39145959.417 4                     -1430.704 4        29.554                                                                    39145987.961 5 165639503.68405     -1162.942 5        31.253
C30        43.000                                                                                                                                    24925520.133 5 129793756.80105       379.456 5        32.186                                                                    24925503.557 5 105467970.74805       308.421 5        30.498
C42        45.000                                                                                                                                    24914578.297 8 129737007.55808      1144.829 8        49.871                                                                    24914588.995 7 105421819.52007       930.220 7        45.252
C26        48.000                                                                                                                                    25149966.219 6 130962339.63006      1823.539 6        40.298                                                                    25149970.855 5                      1481.746 5        33.060
C22        51.000                                                                                                                                    24487641.046 6 127513570.99606     -4131.496 6        38.195                                                                    24487642.082 5 103615279.43805     -3357.401 5        33.760
C14        53.000                                                                                                                                    26897622.958 5                      2064.519 5        30.506                                                                    26897617.309 6 113812617.01906      1677.489 6        36.934
C21        55.000                                                                                                                                    23119490.534 7 120389248.40307     -1724.702 7        46.214                                                                    23119485.708 7  97826110.73407     -1401.557 7        42.254
I06        58.000    38342343.746 6 150463606.02406      -742.425 6        37.769
I02        59.000    37134976.948 6 145725614.52806      -443.664 6        40.808
> 2025 01 02 10 15 50.0000000  0 39
G13         1.000    21287782.812 6 111868017.54706     -3526.792 6        41.042                                    21287788.360 2  87169880.59702     -2748.153 2        14.571
G17         2.000    22143954.308 4                      -521.410 4        26.251                                                                                                    22143960.927 5  90675844.71805      -406.677 5        34.719
G19         4.000    22569365.044 7 118602754.20107      1783.952 7        43.913                                    22569365.908 2  92417791.97602      1390.091 2        13.879
G10         7.000    25003890.042 5 131396376.49005       949.073 5        35.895                                    25003900.297 2 102386778.52902       739.535 2        15.952    25003905.359 4                       739.838 4        27.808
G14         8.000    22499317.365 7 118234677.32407     -3684.540 7        44.539                                    22499319.390 4  92130901.23804     -2871.063 4        27.401    22499319.324 6  92130918.24206     -2871.095 6        40.486
G15         9.000    20541912.315 7 107948691.66907     -2166.974 7        47.769                                    20541907.906 6  84115767.03706     -1688.543 6        39.787    20541911.542 6  84115688.01906     -1688.463 6        36.609
G23        10.000                                                                                                                                                                    23249554.184 5  95203052.70605     -1131.209 5        31.857
E06        11.000    25556189.642 5 134298660.59905     -3474.684 5        34.638                                                                    25556189.073 5 100287931.73905     -2594.774 5        31.268    25556192.782 6 102904227.78406     -2662.327 6        36.635
G24        12.000    21286410.311 7 111860928.36907      1391.648 7        44.008                                    21286415.695 5  87164293.75605      1084.403 5        35.810    21286418.021 6  87164325.75406      1084.521 6        39.423
E31        13.000    23798458.170 7 125061709.68407     -1904.316 7        45.896                                                                    23798460.741 8  93390295.26108     -1422.030 8        51.436    23798459.295 8  95826537.88808     -1459.080 8        49.778
G12        15.000    24050757.255 5 126387467.77305      2796.745 5        31.751                                    24050747.414 1  98483822.05501      2179.248 1         7.875
E24        16.000    24518411.288 7 128845089.35607       837.799 7        43.996                                                                    24518413.968 8  96215554.77708       625.622 8        48.043    24518412.723 8  98725551.56908       641.975 8        48.732
E04        17.000    27784348.782 3                     -3907.846 3        22.400                                                                                                                                    27784354.527 4                     -2994.318 4        28.171
E05        18.000    22704338.986 6 119312123.32106       336.145 6        39.219                                                                    22704344.711 7  89096713.24607       250.826 7        42.025    22704340.073 6  91421117.12006       257.467 6        37.584
E09        21.000    24295082.226 7 127671611.72407     -2563.747 7        44.269                                                                    24295086.137 7  95339066.97507     -1914.535 7        46.226    24295085.941 8  97826234.59308     -1964.470 8        48.977
R14        23.000    21576520.438 3 115015134.74203      1957.253 3        23.562                                                                    21576529.511 7  89456452.36107      1521.390 7        42.184
S23        24.000    38277740.143 6 201150886.50406      -858.992 6        37.187
E03        26.000    28072658.610 6 147522845.35506      2006.854 6        36.556                                                                    28072665.469 5 110163172.28505      1498.466 5        33.341    28072665.117 6 113036989.77406      1537.599 6        37.376
R13        27.000    19500651.708 6 104132412.17206     -1638.454 6        37.754
R21        28.000    23542775.040 4 125982142.61914     -2309.808 4        29.242                                                                    23542788.632 4                     -1795.852 4        27.257
R04        29.000    20917394.920 7 112011729.32807      1700.196 7        46.922                                                                    20917395.870 7  87120280.51907      1322.375 7        42.830
S36        31.000    38344366.970 5 201501178.71105      -857.480 5        33.677
C07        32.000                                                                                                                                    39055726.303 5 203373413.63905     -1245.861 5        34.862    39055722.596 6 157261152.93706      -963.440 6        40.706    39055721.936 4                     -1011.830 4        28.379
C10        33.000                                                                                                                                    38623972.767 6 201125140.69906      -865.645 6        40.729    38623970.002 7 155522740.63907      -669.421 7        42.889    38623967.410 6 163430647.51906      -703.200 6        37.679
C36        34.000                                                                                                                                    22983570.859 6 119681454.90206     -2866.178 6        41.456                                                                    22983579.456 7  97251084.47107     -2328.964 7        44.060
R02        35.000    22616009.685 6 120683332.07606     -5308.462 6        36.957                                                                    22616018.080 5  93864870.58205     -4128.876 5        33.539
R03        36.000    19753060.539 8 105739695.02108     -2360.841 8        48.414                                                                    19753060.308 7  82242039.31307     -1836.181 7        46.153
C45        37.000                                                                                                                                    21807464.959 7 113557142.37707      -354.376 7        45.081                                                                    21807456.610 6  92274529.05006      -287.853 6        38.934
R12        38.000    21844102.486 6 116687240.48606     -4087.262 6        36.760                                                                    21844107.855 5  90756786.46205     -3178.948 5        35.990
C40        40.000                                                                                                                                                                                                                                                                    39147365.863 5 165645319.38605     -1163.897 5        33.186
R22        41.000    22979821.570 6 122668135.66306      1195.491 6        36.439
C30        43.000                                                                                                                                                                                                                                                                    24925142.998 5 105466433.34005       306.188 5        30.921
C42        45.000                                                                                                                                    24913479.814 8 129731289.30908      1142.091 8        49.176                                                                    24913490.723 7 105417172.96407       928.023 7        45.639
C26        48.000                                                                                                                                    25148216.571 6 130953223.37506      1822.445 6        40.050                                                                    25148226.059 5                      1480.823 5        34.033
C22        51.000                                                                                                                                    24491607.592 6 127534231.22506     -4133.013 6        37.924                                                                    24491609.628 5 103632067.52005     -3358.561 5        33.054
C14        53.000                                                                                                                                    26895639.964 5                      2062.966 5        30.815    26895804.942 4 108297935.70404      1594.529 4        26.527    26895635.258 6 113804233.01706      1675.994 6        36.767
C21        55.000                                                                                                                                    23121148.641 7 120397879.27907     -1728.043 7        45.646                                                                    23121142.773 6  97833124.01606     -1404.136 6        41.001
I06        58.000    38343288.988 6 150467319.02306      -743.100 6        37.527
I02        59.000    37135542.482 6 145727833.35306      -444.268 6        40.024
> 2025 01 02 10 15 55.0000000  0 39
G13         1.000    21291139.366 6 111885654.50406     -3528.469 6        40.975                                    21291144.420 2  87183623.66102     -2749.448 2        14.286
G17         2.000    22144453.413 5                      -524.554 5        33.323                                                                                                    22144458.211 5  90677882.67105      -408.587 5        34.790
G19         4.000    22567668.133 7 118593837.26307      1782.465 7        43.429                                    22567669.177 1  92410843.88401      1388.918 1        11.037
G10         7.000    25002982.795 5 131391635.61605       947.110 5        33.677                                    25002998.009 2 102383084.32802       738.002 2        15.571    25002994.333 4                       738.130 4        27.569
G14         8.000    22502823.687 7 118253100.73907     -3685.313 7        43.336                                    22502825.594 4  92145257.13504     -2871.670 4        27.557    22502825.395 6  92145274.13506     -2871.660 6        40.374
G15         9.000    20543975.144 8 107959532.91808     -2169.829 8        48.518                                    20543970.697 6  84124214.75306     -1690.777 6        39.988    20543973.960 6  84124135.75906     -1690.836 6        37.501
G23        10.000                                                                                                                                                                    23250937.181 5  95208713.04305     -1133.146 5        31.721
E06        11.000    25559495.077 5 134316034.79205     -3475.268 5        35.457                                                                    25559492.367 4 100300905.93604     -2594.776 4        28.152    25559499.135 5 102917540.52505     -2663.245 5        35.271
G24        12.000    21285087.509 7 111853972.07807      1390.481 7        43.873                                    21285093.405 6  87158873.25306      1083.492 6        37.062    21285094.188 6  87158905.25406      1083.579 6        39.643
E31        13.000    23800270.185 7 125071232.68007     -1905.408 7        45.666                                                                    23800272.937 8  93397406.57608     -1422.829 8        51.172    23800271.452 8  95833834.71508     -1459.956 8        49.664
G12        15.000    24048101.999 4 126373484.49504      2796.669 4        29.867                                    24048086.409 1  98472926.03901      2179.217 1         5.714
E24        16.000    24517614.330 7 128840902.13407       836.732 7        43.934                                                                    24517617.158 7  96212427.95807       624.760 7        47.853    24517615.815 8  98722343.18008       641.108 8        48.230
E04        17.000    27788069.579 3                     -3909.216 3        20.190                                                                                                                                    27788073.213 4                     -2994.275 4        27.030
E05        18.000    22704019.855 6 119310445.73206       334.794 6        38.093                                                                    22704025.285 7  89095460.50807       249.971 7        42.792    22704021.077 6  91419831.68906       256.537 6        36.790
E09        21.000    24297521.945 7 127684432.78607     -2565.100 7        44.533                                                                    24297525.988 7  95348641.15607     -1915.514 7        46.363    24297525.420 8  97836058.52808     -1965.467 8        48.475
R14        23.000    21574678.210 4                      1954.708 4        28.142                                                                    21574694.385 7  89448846.85607      1520.469 7        42.267
S23        24.000    38278557.113 6 201155178.98006      -858.445 6        36.423
E03        26.000    28070749.046 6 147512809.26306      2007.237 6        37.319                                                                    28070755.739 5 110155677.82105      1498.738 5        33.533    28070755.049 6 113029299.79706      1537.738 6        36.941
R13        27.000    19502186.007 6 104140607.93906     -1640.277 6        37.853
R21        28.000                                                                                                                                    23544948.408 4                     -1799.116 4        24.857
R04        29.000    20915808.561 7 112003234.91607      1697.142 7        46.649                                                                    20915809.985 7  87113673.77207      1320.017 7        44.376
S36        31.000    38345181.548 5 201505462.61705      -856.602 5        32.269
C07        32.000                                                                                                                                    39056924.751 5 203379642.61905     -1245.973 5        32.808    39056918.526 6 157265969.56206      -963.462 6        40.670    39056920.836 4                     -1012.187 4        29.583
C10        33.000                                                                                                                                    38624804.474 6 201129468.62006      -865.759 6        41.082    38624801.647 7 155526087.24407      -669.498 7        44.006    38624798.337 6 163434164.29206      -703.515 6        37.595
C36        34.000                                                                                                                                    22986322.828 6 119695785.85806     -2866.516 6        40.882                                                                    22986331.273 7  97262729.52507     -2329.312 7        43.782
R02        35.000    22620984.399 6 120709875.61906     -5309.053 6        36.597                                                                    22620992.385 5  93885515.47805     -4129.504 5        33.940
R03        36.000    19755265.668 8 105751507.75408     -2364.646 8        48.268                                                                    19755266.673 7  82251226.99307     -1839.218 7        45.815
C45        37.000                                                                                                                                    21807805.366 7 113558915.81907      -355.434 7        44.375                                                                    21807797.469 6  92275970.14506      -288.851 6        38.982
R12        38.000    21847925.883 6 116707676.17306     -4087.422 6        36.166                                                                    21847932.742 5  90772680.85405     -3179.212 5        33.982
C40        40.000                                                                                                                                    39148738.531 5                     -1432.301 5        31.532                                                                    39148743.738 5 165651138.11105     -1164.168 5        32.701
R22        41.000    22978710.584 6 122662164.85706      1192.405 6        37.176
C30        43.000                                                                                                                                    24924777.606 5 129789985.25805       374.774 5        32.066                                                                    24924782.385 5 105464905.88105       304.480 5        30.974
C42        45.000                                                                                                                                    24912384.031 8 129725582.33608      1140.349 8        49.462                                                                    24912395.255 7 105412535.58907       926.653 7        46.045
C26        48.000                                                                                                                                    25146463.793 6 130944110.33106      1822.351 6        38.057                                                                    25146477.579 5 106402968.67715      1480.802 5        34.519
C22        51.000                                                                                                                                    24495576.128 6 127554896.44806     -4133.550 6        36.767                                                                    24495577.925 5 103648859.69205     -3358.700 5        32.742
C14        53.000                                                                                                                                    26893658.038 5                      2061.840 5        30.325    26893822.551 4 108289962.35304      1594.394 4        25.459    26893655.154 6 113795854.23406      1675.454 6        36.677
C21        55.000                                                                                                                                    23122809.865 7 120406524.43107     -1730.422 7        45.827                                                                    23122803.279 6  97840148.91906     -1405.940 6        41.087
I06        58.000    38344235.504 6 150471032.11306      -742.427 6        37.210
I02        59.000    37136108.013 6 145730053.32306      -444.136 6        41.004
> 2025 01 02 10 16  0.0000000  0 37
G13         1.000    21294497.770 6 111903302.76206     -3530.917 6        38.468                                    21294502.475 2  87197375.53802     -2751.336 2        12.848
G17         2.000    22144963.777 6 116372570.38216      -527.945 6        37.036                                    22144963.001 3  90679921.13213      -411.371 3        19.910    22144960.578 5  90679933.19305      -411.433 5        34.238
G19         4.000    22565972.157 7 118584930.78607      1780.071 7        42.940                                    22565974.495 1  92403903.98401      1387.086 1        11.852
G10         7.000    25002085.568 5 131386908.44505       943.940 5        35.614                                    25002098.207 2 102379400.80502       735.601 2        13.333    25002094.477 4                       735.823 4        24.466
G14         8.000    22506331.323 7 118271530.71907     -3686.771 7        42.876                                    22506332.933 4  92159618.14404     -2872.811 4        27.150    22506332.565 6  92159635.14306     -2872.745 6        40.331
G15         9.000    20546041.710 8 107970391.21008     -2173.515 8        48.412                                    20546036.833 6  84132675.73506     -1693.650 6        39.994    20546039.444 6  84132596.73806     -1693.640 6        38.934
G23        10.000    23252351.797 4 122191667.33904     -1457.809 4        27.581                                                                                                    23252320.030 4  95214386.31704     -1136.691 4        27.114
E06        11.000    25562801.562 6 134333415.07706     -3476.815 6        36.246                                                                    25562800.248 4 100313884.78504     -2596.302 4        28.123    25562807.378 5 102930857.89405     -2664.018 5        35.881
G24        12.000    21283765.772 7 111847024.80007      1388.471 7        44.912                                    21283772.644 6  87153459.78106      1081.934 6        37.716    21283773.155 6  87153491.78306      1081.849 6        38.261
E31        13.000    23802083.631 7 125080764.03407     -1907.226 7        45.285                                                                    23802086.583 8  93404524.14108     -1424.251 8        50.870    23802085.288 8  95841137.94608     -1461.376 8        49.851
E24        16.000    24516818.933 7 128836723.19507       834.825 7        43.363                                                                    24516821.824 7  96209307.33007       623.391 7        47.494    24516820.297 7  98719141.14507       639.649 7        47.927
E04        17.000    27791787.711 3                     -3909.077 3        21.238                                                                                                                                    27791791.698 4                     -2996.039 4        26.024
E05        18.000    22703701.923 6 119308777.46706       332.574 6        36.597                                                                    22703707.683 7  89094214.72807       248.359 7        43.346    22703703.283 5  91418553.41805       254.578 5        35.971
E09        21.000    24299963.573 7 127697263.15307     -2567.103 7        44.972                                                                    24299967.488 7  95358222.26407     -1917.036 7        46.176    24299966.861 8  97845889.56708     -1967.008 8        48.481
R14        23.000    21572850.756 5 114995419.25015      1953.078 5        34.167                                                                    21572862.238 7  89441247.95707      1518.971 7        42.087
S23        24.000    38279383.732 6 201159471.80606      -858.535 6        37.406
E03        26.000    28068839.573 6 147502775.21706      2006.489 6        36.473                                                                    28068847.401 5 110148184.87405      1498.259 5        34.238    28068846.401 6 113021611.32206      1537.533 6        37.308
R13        27.000    19503722.767 6 104148816.19406     -1643.040 6        38.312
R04        29.000    20914226.439 7 111994758.40507      1693.418 7        47.651                                                                    20914226.132 7  87107080.92907      1317.176 7        43.801
S36        31.000    38346003.253 5 201509746.36105      -856.876 5        33.581
C07        32.000                                                                                                                                    39058119.457 5 203385874.78505     -1246.411 5        31.517    39058115.423 6 157270788.64406      -964.121 6        40.231    39058117.876 5                     -1013.088 5        30.792
C10        33.000                                                                                                                                    38625635.900 6 201133799.88106      -866.798 6        40.994    38625633.497 7 155529436.43607      -670.207 7        43.947    38625629.862 6 163437683.78606      -704.332 6        37.671
C36        34.000                                                                                                                                    22989076.796 6 119710121.91406     -2867.944 6        40.949                                                                    22989084.345 7  97274378.67107     -2330.363 7        43.372
R02        35.000    22625957.192 5 120736425.70305     -5310.955 5        35.676                                                                    22625969.874 5  93906165.45905     -4130.769 5        33.287
R03        36.000    19757477.939 8 105763342.81108     -2369.435 8        48.199                                                                    19757477.710 7  82260432.01607     -1842.849 7        45.475
C45        37.000                                                                                                                                    21808147.836 7 113560697.62707      -357.409 7        44.185                                                                    21808140.182 6  92277417.98406      -290.379 6        39.925
R12        38.000    21851750.280 6 116728115.86806     -4088.277 6        36.106                                                                    21851752.945 5  90788578.29605     -3179.442 5        32.575
C40        40.000                                                                                                                                    39150113.416 5                     -1433.593 5        33.689                                                                    39150123.284 5 165656959.95205     -1164.748 5        31.985
R22        41.000    22977594.935 5 122656211.42605      1188.743 5        33.180
C30        43.000                                                                                                                                    24924419.059 5 129788117.77605       372.203 5        35.505                                                                    24924420.459 4 105463388.51704       302.418 4        29.128
C42        45.000                                                                                                                                    24911290.620 8 129719886.88108      1137.820 8        49.470                                                                    24911301.570 7 105407907.56007       924.527 7        46.559
C26        48.000                                                                                                                                    25144708.241 6 130935000.78406      1821.275 6        36.008                                                                    25144729.662 5 106395566.39205      1480.077 5        32.425
C22        51.000                                                                                                                                    24499549.728 6 127575566.84306     -4134.695 6        37.233                                                                    24499547.484 5 103665656.05805     -3359.810 5        31.864
C14        53.000                                                                                                                                    26891678.674 5                      2059.996 5        30.626    26891847.525 4 108281994.11804      1591.943 4        24.256    26891676.900 6 113787480.85206      1673.831 6        37.361
C21        55.000                                                                                                                                    23124472.748 7 120415184.11607     -1733.581 7        45.607                                                                    23124466.560 6  97847185.59906     -1408.677 6        41.528
I06        58.000    38345181.960 6 150474745.42606      -742.680 6        37.187
I02        59.000    37136674.259 6 145732274.86906      -444.473 6        41.049
> 2025 01 02 10 16  5.0000000  0 39
G13         1.000    21297858.205 6 111920962.44206     -3533.137 6        38.474                                    21297862.948 2  87211136.29502     -2753.017 2        12.364
G17         2.000    22145463.978 5 116375218.30105      -531.358 5        34.557                                    22145467.164 3  90681984.38503      -414.051 3        19.522    22145468.526 5  90681996.36605      -414.141 5        34.871
G19         4.000    22564277.175 6 118576034.90006      1777.993 6        41.995                                    22564281.937 2  92396972.25702      1385.446 2        13.818
G10         7.000    25001193.991 6 131382195.13806       941.106 6        36.253                                    25001200.707 2 102375728.04502       733.313 2        12.303    25001198.293 3                       732.687 3        23.010
G14         8.000    22509839.383 6 118289967.42006     -3688.141 6        41.614                                    22509841.529 4  92173984.38004     -2873.870 4        26.467    22509841.214 6  92174001.38106     -2873.913 6        39.757
G15         9.000    20548111.196 8 107981266.67608     -2176.905 8        48.117                                    20548106.528 6  84141150.10406     -1696.288 6        40.353    20548108.851 6  84141071.10806     -1696.404 6        40.315
G23        10.000                                                                                                                                                                    23253706.918 4  95220072.55504     -1138.814 4        27.210
E06        11.000    25566109.400 6 134350801.64206     -3478.094 6        36.473                                                                    25566110.635 4 100326868.21204     -2597.323 4        29.554    25566116.455 6 102944180.06906     -2665.096 6        36.635
G24        12.000    21282446.456 7 111840086.64107      1386.646 7        45.482                                    21282453.372 6  87148053.40906      1080.502 6        37.743    21282451.883 6  87148085.43306      1080.514 6        37.985
E31        13.000    23803898.791 7 125090303.90207     -1909.019 7        43.845                                                                    23803901.947 8  93411648.05808     -1425.564 8        50.582    23803900.729 8  95848447.71008     -1462.700 8        49.904
G12        15.000    24042806.350 4                      2794.787 4        27.677
E24        16.000    24516025.722 7 128832552.71807       833.182 7        43.228                                                                    24516028.154 7  96206193.01807       622.092 7        47.282    24516026.487 7  98715945.58207       638.407 7        47.633
E04        17.000    27795504.014 3                     -3908.411 3        18.537                                                                                                                                    27795509.508 4                     -2995.421 4        27.245
E05        18.000    22703386.477 5 119307118.72805       330.637 5        35.210                                                                    22703391.953 7  89092976.00407       246.993 7        43.105    22703387.719 6  91417282.36006       253.569 6        36.333
E09        21.000    24302407.297 7 127710102.95907     -2569.063 7        44.515                                                                    24302410.986 7  95367810.40707     -1918.462 7        46.118    24302410.169 8  97855727.85108     -1968.467 8        48.514
R14        23.000    21571022.125 5 114985658.17805      1951.219 5        35.929                                                                    21571030.709 7  89433655.97807      1517.691 7        43.170
S23        24.000    38280195.399 6 201163765.22006      -858.822 6        37.104
E03        26.000    28066930.803 6 147492743.33206      2006.027 6        36.442                                                                    28066940.010 5 110140693.49205      1498.208 5        35.471    28066937.307 6 113013924.54406      1537.166 6        38.066
R13        27.000    19505263.160 6 104157037.28606     -1645.661 6        38.144
R21        28.000                                                                                                                                    23549261.963 4                     -1805.989 4        29.526
R04        29.000    20912646.975 8 111986300.01408      1689.694 8        48.303                                                                    20912646.736 7  87100502.17607      1314.255 7        43.416
S36        31.000    38346796.541 5 201514031.18405      -857.334 5        31.328
C07        32.000                                                                                                                                    39059311.969 5 203392110.30005     -1247.383 5        31.094    39059313.158 6 157275610.32406      -964.789 6        39.306    39059315.735 5                     -1013.606 5        30.634
C10        33.000                                                                                                                                    38626468.165 6 201138134.67906      -867.338 6        40.594    38626465.919 7 155532788.36807      -670.704 7        43.488    38626462.266 6 163441206.17106      -704.873 6        37.784
C36        34.000                                                                                                                                    22991830.688 7 119724463.15907     -2868.927 7        42.408                                                                    22991838.796 7  97286032.09407     -2331.166 7        43.071
R02        35.000    22630934.908 5 120762982.54905     -5312.161 5        31.517                                                                    22630947.036 5  93926820.69805     -4131.799 5        33.156
R03        36.000    19759694.041 8 105775200.13608     -2373.779 8        48.187                                                                    19759693.048 7  82269654.36607     -1846.288 7        44.832
C45        37.000                                                                                                                                    21808492.034 7 113562487.93007      -359.000 7        44.053                                                                    21808484.082 6  92278872.79506      -291.622 6        39.925
R12        38.000    21855578.264 6 116748559.67706     -4089.413 6        36.423                                                                    21855581.383 5  90804479.03805     -3180.694 5        32.503
C40        40.000                                                                                                                                    39151489.424 5 203872076.80215     -1434.320 5        35.576                                                                    39151499.931 5 165662785.20105     -1165.403 5        33.341
R22        41.000    22976482.602 5 122650275.53205      1185.691 5        31.525
C30        43.000                                                                                                                                    24924060.895 5 129786262.93705       369.385 5        32.533                                                                    24924059.948 4 105461881.33904       300.452 4        28.246
C42        45.000                                                                                                                                    24910199.489 8 129714203.09308      1135.445 8        49.108                                                                    24910210.052 7 105403289.02707       922.736 7        46.921
C26        48.000                                                                                                                                    25142957.555 5 130925894.91605      1820.734 5        33.952                                                                    25142973.491 4 106388167.20904      1479.599 4        27.569
C22        51.000                                                                                                                                    24503521.012 5 127596242.59905     -4136.053 5        35.938                                                                    24503517.788 5 103682456.75605     -3360.556 5        31.623
C14        53.000                                                                                                                                    26889700.813 5                      2058.894 5        31.728    26889873.178 4 108274031.06504      1591.014 4        25.203    26889699.705 6 113779112.98106      1673.027 6        37.180
C21        55.000                                                                                                                                    23126138.379 7 120423858.49807     -1736.491 7        44.485                                                                    23126132.747 6  97854234.22906     -1410.980 6        41.440
I06        58.000    38346128.521 6 150478459.12106      -742.871 6        37.062
I02        59.000    37137240.586 6 145734497.70506      -444.936 6        40.150
> 2025 01 02 10 16 10.0000000  0 38
G13         1.000    21301221.929 6 111938632.91006     -3535.185 6        38.306                                    21301225.519 1  87224905.49501     -2754.729 1        10.889
G17         2.000    22145967.830 5 116377881.74105      -534.116 5        32.210                                    22145975.498 3  90684059.80003      -416.169 3        19.612    22145983.278 5  90684071.80205      -416.480 5        35.000
G19         4.000    22562584.609 6 118567149.10406      1776.297 6        39.928                                    22562591.140 2  92390048.30502      1384.103 2        16.151
G10         7.000    25000299.891 6 131377495.14906       938.647 6        37.996                                    25000305.757 2 102372065.63402       731.404 2        12.242    25000305.216 3                       731.571 3        22.495
G14         8.000    22513348.641 6 118308410.27806     -3689.032 6        39.297                                    22513350.962 4  92188355.41604     -2874.569 4        24.632    22513350.643 6  92188372.39706     -2874.641 6        39.144
G15         9.000    20550184.080 8 107992158.78908     -2180.018 8        48.975                                    20550179.523 6  84149637.44806     -1698.715 6        40.660    20550181.629 6  84149558.44806     -1698.642 6        40.646
G23        10.000    23255097.759 6 122206277.89606     -1464.200 6        37.176
E06        11.000    25569418.248 6 134368193.85206     -3478.787 6        37.452                                                                    25569420.497 4 100339855.85804     -2597.808 4        29.602    25569426.186 6 102957506.55306     -2665.435 6        36.567
G24        12.000    21281127.935 7 111833157.07207      1385.170 7        45.100                                    21281135.504 6  87142653.72806      1079.352 6        36.699    21281132.642 5  87142685.75205      1079.478 5        35.548
E31        13.000    23805715.577 7 125099851.71007     -1910.259 7        43.084                                                                    23805718.776 8  93418777.90808     -1426.430 8        50.161    23805717.659 8  95855763.56208     -1463.717 8        49.944
E24        16.000    24515233.471 7 128828390.11307       831.794 7        43.860                                                                    24515235.968 7  96203084.57707       621.266 7        46.669    24515234.113 7  98712756.05107       637.325 7        46.989
E04        17.000    27799204.429 3                     -3909.787 3        19.552                                                                                                                                    27799230.529 4                     -2996.455 4        25.083
E05        18.000    22703072.539 5 119305468.80805       329.285 5        35.148                                                                    22703077.625 7  89091743.94607       245.818 7        42.872    22703074.473 6  91416018.16606       252.291 6        36.348
E09        21.000    24304852.069 7 127722951.61307     -2570.540 7        43.905                                                                    24304856.122 7  95377405.17607     -1919.525 7        46.054    24304855.333 8  97865572.92808     -1969.645 8        48.430
R14        23.000    21569192.785 6 114975905.11706      1949.868 6        38.417                                                                    21569200.262 7  89426070.28007      1516.574 7        42.559
S23        24.000    38281006.887 6 201168058.59506      -858.397 6        36.253
E03        26.000    28065021.906 6 147482713.07306      2005.639 6        36.839                                                                    28065032.192 5 110133203.36105      1498.019 5        35.962    28065028.574 6 113006238.98906      1537.138 6        37.626
R13        27.000    19506805.054 6 104165270.45006     -1647.734 6        38.210
R21        28.000                                                                                                                                    23551437.573 5                     -1809.044 5        33.371
R04        29.000    20911070.796 8 111977859.22108      1686.452 8        48.024                                                                    20911070.370 7  87093937.10807      1311.736 7        43.611
S36        31.000    38347623.232 5 201518315.68505      -857.147 5        32.725
C07        32.000                                                                                                                                    39060509.723 5 203398348.54005     -1247.921 5        32.078    39060511.147 6 157280434.10206      -965.043 6        39.444    39060513.879 5                     -1013.876 5        30.355
C10        33.000                                                                                                                                    38627300.776 6 201142472.43806      -867.561 6        40.746    38627298.658 7 155536142.59507      -671.047 7        43.505    38627295.325 6 163444730.93806      -705.014 6        38.003
C36        34.000                                                                                                                                    22994585.267 7 119738809.09007     -2869.557 7        42.059                                                                    22994594.101 7  97297689.29607     -2331.784 7        43.384
R02        35.000                                                                                                                                    22635923.989 5                     -4132.270 5        32.940
R03        36.000    19761912.274 7 105787079.32207     -2377.888 7        46.616                                                                    19761912.208 7  82278893.73407     -1849.376 7        44.156
C45        37.000                                                                                                                                    21808836.890 7 113564286.19807      -360.330 7        43.236                                                                    21808829.392 6  92280334.03106      -292.830 6        40.448
R12        38.000    21859406.318 6 116769007.08206     -4089.782 6        37.939                                                                    21859413.036 5  90820382.53005     -3180.770 5        34.157
C40        40.000                                                                                                                                    39152867.291 6 203879249.09406     -1434.503 6        36.775                                                                    39152875.348 5 165668613.31005     -1165.789 5        33.078
R22        41.000    22975374.830 5 122644356.78005      1181.985 5        31.321
C30        43.000                                                                                                                                    24923703.400 5 129784420.03005       367.733 5        31.162                                                                    24923704.842 4 105460383.86304       298.037 4        27.509
C42        45.000                                                                                                                                    24909110.388 8 129708530.42808      1133.545 8        49.273                                                                    24909120.696 7 105398679.53007       921.017 7        46.953
C26        48.000                                                                                                                                    25141210.958 5 130916792.07805      1820.447 5        33.856
C22        51.000                                                                                                                                    24507489.359 5 127616923.15405     -4136.633 5        34.929                                                                    24507488.884 5 103699261.36105     -3361.415 5        31.962
C14        53.000                                                                                                                                    26887721.802 5                      2057.820 5        30.838    26887899.551 3                      1589.953 3        21.548    26887723.342 6 113770750.09706      1671.936 6        37.198
C21        55.000                                                                                                                                    23127806.896 7 120432546.97607     -1738.960 7        44.391                                                                    23127801.213 6  97861294.31006     -1413.116 6        41.611
I06        58.000    38347075.092 6 150482172.76906      -742.622 6        36.862
I02        59.000    37137807.306 6 145736721.63106      -444.855 6        40.746
> 2025 01 02 10 16 15.0000000  0 38
G13         1.000    21304586.587 5 111956314.14605     -3537.075 5        34.467                                    21304590.272 1  87238683.10901     -2756.124 1         9.143
G17         2.000    22146478.360 6 116380560.81906      -537.638 6        36.374                                    22146486.685 3  90686147.42103      -418.913 3        18.716    22146493.775 5  90686159.37305      -418.736 5        32.389
G19         4.000    22560897.060 6 118558273.31406      1774.161 6        37.437                                    22560902.168 2  92383132.16702      1382.457 2        17.208
G10         7.000    24999408.269 6 131372808.36906       936.212 6        38.985                                    24999413.619 1 102368413.49901       729.539 1        10.889
G14         8.000    22516860.131 6 118326859.19106     -3690.318 6        37.958                                    22516861.677 3  92202731.16903     -2875.555 3        23.276    22516861.201 6  92202748.15406     -2875.730 6        38.465
G15         9.000    20552260.068 8 108003067.43408     -2183.374 8        49.224                                    20552255.760 6  84158137.68106     -1701.330 6        41.285    20552256.164 6  84158058.68806     -1701.425 6        40.958
G23        10.000    23256494.135 6 122213607.08206     -1467.387 6        39.396                                                                                                    23256462.743 4  95231482.27104     -1142.796 4        25.158
E06        11.000    25572729.542 6 134385591.64406     -3480.241 6        37.233                                                                    25572733.947 5 100352847.72005     -2598.881 5        30.574    25572736.716 6 102970837.32906     -2666.654 6        36.798
G24        12.000    21279811.190 7 111826236.04207      1383.357 7        45.096                                    21279819.126 5  87137260.69905      1077.947 5        35.824    21279816.255 5  87137292.72205      1077.746 5        34.371
E31        13.000    23807533.913 6 125109407.39106     -1911.896 6        41.821                                                                    23807537.271 8  93425913.64108     -1427.749 8        50.128    23807536.003 8  95863085.43608     -1464.999 8        49.917
E24        16.000    24514442.824 7 128824235.28807       830.252 7        44.212                                                                    24514445.278 7  96199981.97107       619.875 7        46.640    24514443.202 7  98709572.47807       636.145 7        46.224
E04        17.000                                                                                                                                                                                                    27802950.650 3                     -2995.775 3        23.848
E05        18.000    22702759.528 5 119303827.74805       327.443 5        35.390                                                                    22702765.124 7  89090518.49007       244.515 7        43.240    22702762.347 6  91414760.72906       250.841 6        36.336
E09        21.000    24307298.382 7 127735809.07607     -2572.385 7        43.287                                                                    24307302.894 7  95387006.52107     -1920.932 7        46.090    24307302.154 8  97875424.73408     -1971.025 8        48.358
R14        23.000    21567367.218 7 114966160.21807      1948.245 7        42.207                                                                    21567372.470 7  89418490.88307      1515.294 7        42.398
S23        24.000    38281823.718 6 201172351.69206      -858.396 6        36.344
E03        26.000    28063113.954 6 147472684.32906      2005.450 6        36.208                                                                    28063123.908 6 110125714.37906      1497.705 6        36.578    28063120.316 6 112998554.63406      1536.739 6        37.629
R13        27.000    19508349.791 6 104173515.68906     -1650.281 6        40.157
R21        28.000    23553591.935 4                     -2330.528 4        25.429                                                                    23553610.438 5                     -1812.495 5        33.186
R04        29.000    20909496.016 7 111969435.92307      1682.880 7        47.282                                                                    20909497.883 7  87087385.66807      1308.877 7        44.212
S36        31.000    38348441.955 5 201522599.77505      -856.835 5        32.778
C07        32.000                                                                                                                                    39061708.157 5 203404589.48105     -1248.394 5        30.181    39061709.045 6 157285259.99206      -965.497 6        39.453    39061710.221 5                     -1014.336 5        30.619
C10        33.000                                                                                                                                    38628134.087 6 201146813.09706      -868.467 6        40.422    38628132.244 7 155539499.03507      -671.543 7        43.082    38628129.021 6 163448258.06006      -705.594 6        38.105
C36        34.000                                                                                                                                    22997341.589 7 119753159.57007     -2870.515 7        42.766                                                                    22997350.509 7  97309350.21507     -2332.456 7        43.670
R02        35.000                                                                                                                                    22640903.823 5  93968145.55215     -4133.417 5        32.012
R03        36.000    19764133.966 7 105798980.07107     -2382.320 7        44.965                                                                    19764135.273 7  82288149.90207     -1852.897 7        44.143
C45        37.000                                                                                                                                    21809183.786 7 113566092.33107      -361.963 7        42.851                                                                    21809176.127 6  92281801.66006      -294.106 6        40.641
R12        38.000    21863235.356 6 116789457.95606     -4090.505 6        39.871                                                                    21863241.672 5  90836288.75005     -3181.659 5        35.467
C40        40.000                                                                                                                                    39154245.223 6 203886424.84606     -1435.488 6        38.057                                                                    39154253.583 5 165674444.16805     -1166.385 5        32.647
R22        41.000    22974275.694 5 122638454.94205      1178.690 5        34.300                                                                    22974310.269 5  95385445.26315       916.653 5        31.381
C30        43.000                                                                                                                                    24923351.086 4 129782589.05404       365.251 4        29.052                                                                    24923351.857 4                       295.631 4        24.451
C42        45.000                                                                                                                                    24908022.912 8 129702868.82808      1131.239 8        49.425                                                                    24908033.321 7 105394079.00707       919.324 7        47.074
C26        48.000                                                                                                                                    25139464.629 5 130907692.15405      1819.846 5        34.743                                                                    25139463.125 4 106373376.01804      1479.113 4        26.635
C22        51.000                                                                                                                                    24511458.286 5 127637608.36105     -4137.158 5        33.551                                                                    24511460.980 5 103716069.73405     -3361.491 5        31.630
C14        53.000                                                                                                                                    26885745.216 4                      2056.539 4        29.981                                                                    26885748.384 6 113762392.28006      1671.077 6        37.554
C21        55.000                                                                                                                                    23129478.004 7 120441249.48207     -1741.929 7        45.050                                                                    23129472.837 6  97868365.78806     -1415.321 6        41.862
I06        58.000    38348020.504 6 150485886.29206      -742.589 6        36.503
I02        59.000    37138373.681 6 145738946.46906      -445.043 6        40.813
> 2025 01 02 10 16 20.0000000  0 38
G13         1.000    21307952.780 5 111974006.38605     -3539.637 5        31.834                                    21307957.158 1  87252469.17701     -2758.224 1         8.476
G17         2.000    22146997.259 6 116383255.55706      -540.486 6        36.514                                    22146999.906 2  90688247.30102      -421.217 2        16.453    22147003.290 4  90688259.35804      -421.447 4        28.474
G19         4.000    22559211.514 6 118549407.76506      1772.017 6        37.028                                    22559215.101 2  92376223.98102      1380.788 2        16.868
G10         7.000    24998519.573 6 131368135.14606       933.151 6        39.760                                    24998524.692 1 102364771.93301       727.092 1        10.963    24998545.029 4                       727.270 4        25.534
G14         8.000    22520372.685 6 118345314.42406     -3691.804 6        37.853                                    22520373.104 3  92217111.85503     -2876.711 3        21.405    22520373.312 6  92217128.81206     -2876.628 6        37.932
G15         9.000    20554338.918 8 108013992.88108     -2186.832 8        50.120                                    20554335.185 6  84166651.00906     -1704.025 6        41.764    20554335.574 6  84166572.00406     -1703.898 6        41.130
G23        10.000    23257895.707 6 122220952.47206     -1470.811 6        38.991                                                                                                    23257870.817 5  95237205.91305     -1146.026 5        32.569
E06        11.000    25576042.255 6 134402995.29706     -3481.526 6        38.276                                                                    25576047.818 5 100365843.93305     -2600.203 5        32.659    25576048.208 6 102984172.56706     -2667.548 6        36.457
G24        12.000    21278496.105 7 111819323.78707      1381.534 7        44.292                                    21278504.241 5  87131874.50505      1076.526 5        34.743    21278502.820 5  87131906.50905      1076.669 5        35.910
E31        13.000    23809353.569 6 125118971.17206     -1913.593 6        41.876                                                                    23809357.158 8  93433055.42308     -1428.962 8        50.189    23809355.855 8  95870413.53708     -1466.294 8        49.561
E24        16.000    24513653.636 7 128820088.55507       828.470 7        44.358                                                                    24513656.237 7  96196885.39007       618.643 7        46.589    24513653.938 7  98706395.11507       634.822 7        45.446
E04        17.000    27806657.300 3                     -3911.941 3        22.114                                                                                                                                    27806672.297 3                     -2995.311 3        22.171
E05        18.000    22702449.521 6 119302195.80806       325.453 6        36.454                                                                    22702454.086 7  89089299.83607       243.022 7        43.331    22702452.163 6  91413510.28006       249.311 6        36.813
E09        21.000    24309746.546 7 127748675.59707     -2574.234 7        42.368                                                                    24309751.112 7  95396614.61507     -1922.288 7        46.164    24309750.543 8  97885283.48108     -1972.452 8        48.117
R14        23.000    21565544.278 7 114956423.54707      1946.335 7        44.160                                                                    21565546.240 7  89410917.93407      1513.882 7        42.260
S23        24.000    38282647.677 6 201176644.82006      -858.730 6        37.089
E03        26.000    28061205.473 6 147462657.39106      2004.983 6        36.246                                                                    28061215.949 6 110118226.73606      1497.375 6        37.221    28061212.196 6 112990871.64906      1536.452 6        37.115
R13        27.000    19509897.578 6 104181773.18106     -1652.815 6        39.426
R21        28.000    23555769.553 5                     -2334.028 5        32.269                                                                    23555788.294 5  98040288.14515     -1815.508 5        32.856
R04        29.000    20907925.336 7 111961030.40107      1679.238 7        46.457                                                                    20907928.427 7  87080848.03707      1306.069 7        45.142
S36        31.000    38349243.739 5 201526883.32705      -856.782 5        32.006
C07        32.000                                                                                                                                    39062904.157 4 203410833.39704     -1249.176 4        28.047    39062908.761 6 157290088.18306      -965.968 6        39.390    39062908.750 5                     -1015.105 5        30.460
C10        33.000                                                                                                                                    38628967.906 6 201151156.83806      -869.078 6        39.904    38628966.779 7 155542857.89207      -671.975 7        42.912    38628963.339 6 163451787.75706      -706.549 6        38.366
C36        34.000                                                                                                                                    23000098.654 7 119767514.90807     -2871.627 7        44.299                                                                    23000107.694 7  97321015.08507     -2333.517 7        43.067
R02        35.000    22645898.085 5                     -5315.700 5        34.238                                                                    22645879.015 4  93988815.23614     -4134.903 4        28.559
R03        36.000    19766360.595 7 105810902.86307     -2386.735 7        44.879                                                                    19766362.189 7  82297423.20107     -1856.354 7        44.239
C45        37.000                                                                                                                                    21809532.429 7 113567906.60107      -363.659 7        43.501                                                                    21809524.354 6  92283275.95006      -295.676 6        40.045
R12        38.000    21867067.504 7 116809912.54607     -4091.401 7        42.629                                                                    21867069.113 5  90852197.80405     -3181.936 5        34.381
C40        40.000                                                                                                                                    39155624.524 6 203893604.29406     -1436.395 6        37.894                                                                    39155633.042 5 165680278.07705     -1167.274 5        32.347
R22        41.000    22973176.967 5 122632570.38405      1174.992 5        32.826                                                                    22973205.761 4  95380868.36604       913.821 4        29.583
C30        43.000                                                                                                                                    24922999.858 4 129780770.37604       362.685 4        25.383                                                                    24923003.952 3                       293.822 3        21.762
C42        45.000                                                                                                                                    24906937.630 8 129697218.55908      1128.890 8        48.916                                                                    24906948.256 7 105389487.71107       917.296 7        46.972
C26        48.000                                                                                                                                    25137718.118 6 130898595.53906      1818.908 6        36.673                                                                    25137715.236 4                      1478.732 4        25.368
C22        51.000                                                                                                                                    24515433.049 5 127658298.54905     -4138.536 5        31.208                                                                    24515435.438 5 103732882.18805     -3363.296 5        32.329
C14        53.000                                                                                                                                    26883770.905 5                      2055.284 5        31.140    26883966.719 3                      1589.195 3        21.786    26883774.670 6 113754039.71606      1669.871 6        37.595
C21        55.000                                                                                                                                    23131151.862 7 120449966.29207     -1744.811 7        45.404                                                                    23131147.063 6  97875448.90806     -1417.866 6        41.831
I06        58.000    38348967.047 6 150489599.90806      -742.769 6        36.624
I02        59.000    37138941.464 6 145741172.83706      -445.403 6        39.562
> 2025 01 02 10 16 25.0000000  0 39
G13         1.000    21311319.489 5 111991709.08505     -3541.773 5        34.024                                    21311326.083 1  87266263.41201     -2759.823 1         7.625
G17         2.000    22147507.834 6 116385965.86906      -543.368 6        36.121                                    22147515.824 2  90690359.20202      -423.430 2        14.000    22147520.949 4  90690371.26304      -423.711 4        28.275
G19         4.000    22557525.500 5 118540551.95405      1770.333 5        34.143                                    22557529.675 2  92369323.38702      1379.478 2        16.868
G10         7.000    24997632.205 6 131363474.80806       930.803 6        40.043                                    24997638.564 2 102361140.41902       725.328 2        14.952    24997652.350 4                       725.144 4        28.654
G14         8.000    22523885.324 6 118363775.37306     -3692.948 6        38.225                                    22523885.984 3  92231496.98703     -2877.620 3        19.910    22523885.932 6  92231513.98506     -2877.624 6        37.070
G15         9.000    20556421.187 8 108024934.58508     -2189.986 8        50.277                                    20556417.776 7  84175177.00107     -1706.479 7        42.262    20556418.491 6  84175097.99406     -1706.409 6        41.545
G23        10.000    23259295.911 6 122228313.52006     -1473.854 6        38.165                                                                                                    23259271.235 5  95242941.73805     -1148.454 5        33.335
E06        11.000    25579355.811 6 134420404.22706     -3482.438 6        38.120                                                                    25579361.575 5 100378844.07605     -2600.522 5        34.300    25579360.797 5 102997511.84905     -2668.327 5        35.033
G24        12.000    21277181.125 7 111812419.77107      1379.861 7        42.872                                    21277191.203 5  87126494.74005      1075.213 5        33.395    21277193.146 5  87126526.74305      1075.292 5        35.948
E31        13.000    23811174.459 7 125128542.52507     -1915.047 7        42.152                                                                    23811178.525 8  93440202.86408     -1430.085 8        49.989    23811177.146 8  95877747.42808     -1467.377 8        49.739
G12        15.000    24032150.670 5                      2791.080 5        32.245
E24        16.000    24512866.343 7 128815949.34307       827.028 7        44.900                                                                    24512868.582 7  96193794.43807       617.549 7        46.631    24512865.972 7  98703223.52407       633.698 7        44.671
E04        17.000    27810379.541 3                     -3910.800 3        22.267                                                                                                                                    27810393.496 3                     -2997.670 3        22.229
E05        18.000    22702140.685 6 119300572.44406       323.804 6        37.028                                                                    22702145.093 7  89088087.57807       241.748 7        43.143    22702143.367 6  91412266.40806       247.983 6        37.440
E09        21.000    24312196.716 7 127761550.59207     -2575.854 7        42.091                                                                    24312201.300 7  95406229.06207     -1923.576 7        46.287    24312200.509 8  97895148.74208     -1973.732 8        48.011
R14        23.000    21563718.193 7 114946694.75307      1945.024 7        42.578                                                                    21563721.169 7  89403351.11307      1512.707 7        42.207
S23        24.000    38283454.036 6 201180937.56806      -858.611 6        36.658
E03        26.000    28059297.528 5 147452631.71705      2004.890 5        35.867                                                                    28059308.252 6 110110740.03806      1497.248 6        38.060    28059304.844 6 112983189.64806      1536.030 6        37.198
R13        27.000    19511444.671 6 104190042.43206     -1655.184 6        39.784
R21        28.000    23557954.137 5 126063365.34715     -2338.196 5        33.449                                                                    23557965.634 5  98049373.10205     -1818.839 5        32.048
R04        29.000    20906360.564 7 111952642.09207      1675.897 7        47.070                                                                    20906362.014 7  87074323.78407      1303.490 7        46.024
S36        31.000    38350079.633 5 201531167.35905      -857.160 5        32.940
C07        32.000                                                                                                                                    39064101.990 4 203417079.72004     -1249.449 4        27.222    39064108.249 6 157294918.23306      -966.266 6        39.790    39064109.005 5                     -1015.347 5        30.445
C10        33.000                                                                                                                                    38629802.327 6 201155503.20506      -869.569 6        39.529    38629800.991 7 155546218.76207      -672.405 7        43.280    38629797.668 6 163455319.50306      -706.654 6        38.649
C36        34.000                                                                                                                                    23002857.069 7 119781874.50907     -2872.378 7        45.327                                                                    23002865.350 7  97332683.42107     -2334.113 7        42.819
R02        35.000    22650874.697 6 120869439.83316     -5316.845 6        37.588                                                                    22650859.235 4  94009489.32904     -4135.211 4        25.955
R03        36.000    19768591.246 7 105822846.80707     -2391.045 7        45.967                                                                    19768593.179 7  82306712.93207     -1859.659 7        44.519
C45        37.000                                                                                                                                    21809881.821 7 113569728.47007      -365.140 7        42.514                                                                    21809874.088 6  92284756.34306      -296.655 6        40.415
R12        38.000    21870900.608 7 116830370.27807     -4091.911 7        43.441                                                                    21870900.180 5  90868109.28605     -3182.391 5        35.510
C40        40.000                                                                                                                                    39157004.508 6 203900786.84906     -1436.799 6        38.312                                                                    39157012.930 5 165686114.45405     -1167.523 5        32.838
R22        41.000                                                                                                                                    22972111.616 4  95376304.52404       910.979 4        26.192
C30        43.000                                                                                                                                    24922650.471 4 129778963.30604       360.530 4        29.071
C42        45.000                                                                                                                                    24905854.388 8 129691579.06508      1126.728 8        49.270                                                                    24905864.987 7 105384905.17807       915.569 7        46.806
C26        48.000                                                                                                                                    25135973.072 6 130889501.64906      1818.591 6        37.301                                                                    25135965.545 3                      1478.689 3        20.810
C22        51.000                                                                                                                                    24519409.192 5 127678993.07205     -4139.071 5        30.664                                                                    24519409.903 5 103749698.16905     -3363.510 5        31.713
C14        53.000                                                                                                                                    26881798.638 5                      2053.865 5        32.647                                                                    26881802.152 6 113745691.89606      1669.179 6        36.726
C21        55.000                                                                                                                                    23132827.794 7 120458696.81407     -1747.625 7        45.473                                                                    23132823.767 7  97882543.16507     -1419.936 7        42.409
I06        58.000    38349913.796 6 150493313.13706      -742.592 6        36.643
I02        59.000    37139508.799 6 145743399.84406      -445.502 6        39.943
> 2025 01 02 10 16 30.0000000  0 39
G13         1.000    21314691.392 5 112009422.77805     -3544.272 5        31.162                                    21314697.051 1  87280066.27601     -2761.875 1         6.125
G17         2.000    22148023.745 6 116388692.18406      -546.963 6        37.353                                    22148034.590 2  90692483.56102      -426.232 2        13.879
G19         4.000    22555841.049 5 118531706.41805      1768.021 5        32.892                                    22555846.350 2  92362430.79502      1377.661 2        16.906
G10         7.000    24996747.998 6 131358828.04106       927.940 6        40.198                                    24996756.058 3 102357519.51903       723.085 3        18.418    24996767.756 4                       723.032 4        28.607
G14         8.000    22527398.002 6 118382242.57106     -3694.216 6        38.300                                    22527400.004 3  92245886.98503     -2878.621 3        18.716    22527400.203 6  92245903.99506     -2878.731 6        36.696
G15         9.000    20558506.294 8 108035893.03108     -2193.499 8        50.403                                    20558503.618 7  84183716.04007     -1709.217 7        42.690    20558503.683 6  84183637.04706     -1709.274 6        41.273
G23        10.000    23260692.850 5 122235690.66105     -1477.186 5        35.710                                                                                                    23260674.313 5  95248690.13505     -1150.920 5        33.856
E06        11.000    25582669.210 6 134437818.93306     -3483.619 6        38.240                                                                    25582676.132 6 100391848.54506     -2601.535 6        36.113    25582674.114 5 103010855.58905     -2669.617 5        34.605
G24        12.000    21275869.519 7 111805524.49507      1378.095 7        43.302                                    21275879.975 5  87121121.78405      1073.843 5        32.222    21275882.934 5  87121153.75005      1073.938 5        33.389
E31        13.000    23812997.725 7 125138121.97707     -1916.913 7        42.129                                                                    23813001.500 8  93447356.32808     -1431.388 8        49.936    23813000.038 8  95885087.50208     -1468.725 8        49.493
G12        15.000    24029503.501 5                      2789.878 5        31.917
E24        16.000    24512080.085 7 128811818.15107       825.520 7        45.093                                                                    24512082.542 7  96190709.46307       616.346 7        46.192    24512079.594 7  98700058.06807       632.447 7        43.551
E04        17.000    27814101.376 3                     -3911.123 3        23.486                                                                                                                                    27814116.489 3                     -2997.606 3        20.429
E05        18.000    22701833.147 6 119298958.12606       321.966 6        37.225                                                                    22701837.730 7  89086882.08907       240.373 7        43.458    22701836.331 6  91411029.47806       246.615 6        38.060
E09        21.000    24314649.319 7 127774434.59007     -2577.708 7        42.216                                                                    24314652.955 7  95415850.22807     -1925.003 7        46.400    24314652.135 7  97905020.88607     -1975.206 7        47.776
R14        23.000    21561889.547 6 114936974.28906      1943.328 6        39.084                                                                    21561897.213 6  89395790.83206      1511.297 6        41.592
S23        24.000    38284265.805 5 201185230.23005      -858.387 5        35.448
E03        26.000    28057389.836 5 147442607.82605      2004.427 5        34.886                                                                    28057400.737 6 110103254.65906      1496.893 6        38.309    28057397.460 6 112975508.99606      1535.906 6        36.979
R13        27.000    19512994.940 6 104198323.93506     -1657.636 6        38.889
R21        28.000    23560141.818 5 126075066.32905     -2342.300 5        34.500                                                                    23560148.851 4  98058473.75804     -1821.671 4        29.678
R04        29.000    20904799.321 7 111944271.60107      1672.193 7        47.327                                                                    20904799.038 7  87067813.39407      1300.593 7        46.563
S36        31.000    38350900.578 5 201535452.26205      -856.877 5        33.892
C07        32.000                                                                                                                                    39065301.292 4 203423328.92304     -1250.415 4        27.425    39065308.924 6 157299750.52306      -966.777 6        39.381    39065309.234 5                     -1015.861 5        31.275
C10        33.000                                                                                                                                    38630637.285 6 201159852.68106      -870.322 6        39.709    38630636.337 7 155549582.01707      -673.013 7        43.111    38630633.079 6 163458853.76506      -707.350 6        38.868
C36        34.000                                                                                                                                    23005615.428 7 119796238.89407     -2873.406 7        45.944                                                                    23005623.937 7  97344355.64407     -2335.039 7        42.692
R02        35.000    22655850.869 6 120896027.17406     -5318.089 6        38.910                                                                    22655844.877 4  94030168.22804     -4136.513 4        28.104
R03        36.000    19770826.392 7 105834812.68207     -2395.405 7        45.374                                                                    19770827.714 7  82316019.69307     -1863.140 7        43.771
C45        37.000                                                                                                                                    21810232.597 6 113571558.40806      -366.846 6        41.969                                                                    21810225.284 6  92286243.32706      -298.222 6        39.952
R12        38.000    21874730.011 7 116850831.56707     -4092.632 7        43.479                                                                    21874730.849 5  90884023.63705     -3183.267 5        35.519
C40        40.000                                                                                                                                    39158384.118 6 203907973.04706     -1437.630 6        39.532                                                                    39158392.435 5 165691953.86205     -1168.579 5        32.377
R22        41.000    22970965.053 4 122620851.80004      1168.448 4        29.289                                                                    22971014.293 4  95371754.08504       909.321 4        24.541
C30        43.000                                                                                                                                                                                                                                                                    24922326.912 3                       290.118 3        23.829
C42        45.000                                                                                                                                    24904773.463 8 129685950.87008      1124.405 8        49.543                                                                    24904783.919 7 105380331.81007       913.511 7        46.469
C26        48.000                                                                                                                                    25134229.080 6 130880410.95306      1817.782 6        38.568                                                                    25134219.770 4                      1477.050 4        24.496
C22        51.000                                                                                                                                    24523387.316 5 127699692.49305     -4140.535 5        31.992                                                                    24523387.389 5 103766518.06105     -3364.299 5        31.706
C14        53.000                                                                                                                                    26879829.420 5                      2052.716 5        32.832                                                                    26879830.555 6 113737349.34506      1667.693 6        36.023
C21        55.000                                                                                                                                    23134506.943 7 120467441.58807     -1750.488 7        44.906                                                                    23134502.836 7  97889648.99207     -1422.533 7        42.800
I06        58.000    38350860.047 6 150497026.46006      -742.744 6        36.926
I02        59.000    37140076.706 6 145745627.88206      -445.725 6        40.293
> 2025 01 02 10 16 35.0000000  0 38
G13         1.000    21318058.112 4 112027147.05004     -3545.125 4        29.327                                    21318070.027 1  87293877.37801     -2762.513 1         3.800
G17         2.000    22148546.843 6 116391433.83206      -549.591 6        36.352                                    22148557.091 2  90694619.88102      -428.242 2        14.190    22148589.082 5  90694631.83405      -428.324 5        31.223
G19         4.000    22554160.993 6 118522870.90206      1766.492 6        36.204                                    22554164.877 2  92355546.02102      1376.478 2        17.585
G10         7.000    24995865.637 6 131354194.45306       925.598 6        40.129                                    24995877.250 3 102353908.89603       721.248 3        20.024    24995884.606 4                       721.339 4        29.934
G14         8.000    22530913.386 6 118400715.81006     -3695.031 6        37.977                                    22530915.195 3  92260281.69303     -2879.215 3        18.000    22530916.174 6  92260298.65606     -2879.246 6        36.745
G15         9.000    20560594.669 8 108046867.94108     -2196.385 8        50.111                                    20560592.635 7  84192267.91507     -1711.466 7        42.942    20560592.563 6  84192188.90506     -1711.372 6        41.342
G23        10.000    23262097.790 6 122243083.67506     -1479.916 6        36.129                                                                                                    23262081.325 5  95254450.97505     -1152.946 5        34.024
E06        11.000    25585983.966 6 134455239.17006     -3484.385 6        38.363                                                                    25585991.460 6 100404857.14806     -2601.897 6        37.766    25585988.381 5 103024203.50705     -2669.853 5        33.419
G24        12.000    21274559.192 7 111798637.73107      1376.807 7        44.253                                    21274569.973 5  87115755.45405      1072.840 5        30.204    21274570.338 4  87115787.41004      1072.927 4        29.062
E31        13.000    23814822.295 7 125147709.19207     -1917.945 7        42.590                                                                    23814825.847 8  93454515.60708     -1432.267 8        49.997    23814824.435 8  95892433.54508     -1469.547 8        49.083
E24        16.000    24511295.551 7 128807694.72007       824.208 7        45.400                                                                    24511297.949 7  96187630.28607       615.528 7        46.042    24511294.867 7  98696898.55507       631.498 7        42.762
E04        17.000    27817821.980 3                     -3912.115 3        22.800                                                                                                                                    27817839.655 3                     -2997.155 3        19.194
E05        18.000    22701527.949 6 119297352.66206       320.619 6        37.319                                                                    22701532.123 7  89085683.17207       239.320 7        43.043    22701530.836 6  91409799.29706       245.562 6        38.547
E09        21.000    24317102.911 7 127787327.31607     -2579.208 7        43.007                                                                    24317106.247 7  95425477.90507     -1925.945 7        46.432    24317105.419 7  97914899.71607     -1976.216 7        47.418
R14        23.000    21560066.007 5 114927261.92305      1941.786 5        33.263                                                                    21560075.197 6  89388236.75806      1510.345 6        40.896
S23        24.000    38285097.992 6 201189522.59306      -858.154 6        37.800
E03        26.000    28055482.698 5 147432585.44605      2004.675 5        34.595                                                                    28055493.796 6 110095770.41306      1496.943 6        38.712    28055490.166 6 112967829.49506      1536.078 6        36.979
R13        27.000    19514547.847 6 104206617.42706     -1659.751 6        38.997
R21        28.000    23562330.857 6 126086787.30706     -2345.931 6        36.185                                                                    23562331.587 4  98067590.06704     -1824.005 4        26.479
R04        29.000    20903239.249 7 111935918.57907      1669.104 7        47.922                                                                    20903238.815 7  87061316.60707      1298.196 7        46.434
S36        31.000    38351702.179 5 201539736.66905      -856.811 5        33.006
C07        32.000                                                                                                                                    39066504.240 4 203429580.83304     -1249.448 4        28.294    39066509.606 6 157304584.82506      -966.809 6        38.282    39066509.538 5                     -1016.357 5        31.208
C10        33.000                                                                                                                                    38631472.977 6 201164204.89106      -870.364 6        38.889    38631471.684 7 155552947.43007      -673.069 7        42.929    38631469.122 6 163462390.29706      -707.220 6        38.868
C36        34.000                                                                                                                                    23008374.069 7 119810607.82307     -2873.947 7        45.657                                                                    23008383.163 7  97356031.55007     -2335.274 7        42.328
R02        35.000    22660827.257 6 120922620.47806     -5318.938 6        40.184                                                                    22660828.457 5  94050851.80205     -4137.054 5        30.521
R03        36.000    19773065.612 7 105846800.15607     -2399.409 7        45.208                                                                    19773066.756 7  82325343.29607     -1866.115 7        42.737
C45        37.000                                                                                                                                    21810584.713 6 113573396.19006      -368.145 6        41.747                                                                    21810577.624 6  92287736.69506      -299.156 6        39.462
R12        38.000    21878557.725 7 116871296.35807     -4093.034 7        42.800                                                                    21878563.069 6  90899940.60906     -3183.424 6        37.233
C40        40.000                                                                                                                                    39159764.223 6 203915162.65106     -1437.974 6        39.817                                                                    39159774.206 5 165697795.98405     -1168.584 5        31.977
R22        41.000    22969875.793 4 122615018.27004      1164.675 4        25.248
C30        43.000                                                                                                                                                                                                                                                                    24921976.632 4                       289.009 4        26.144
C42        45.000                                                                                                                                    24903694.927 8 129680333.72008      1122.557 8        49.703                                                                    24903705.113 7 105375767.43307       912.072 7        46.440
C26        48.000                                                                                                                                    25132485.122 6 130871323.23406      1817.387 6        40.398                                                                    25132476.575 4                      1476.357 4        25.970
C22        51.000                                                                                                                                    24527366.390 5 127720396.45605     -4140.649 5        34.067                                                                    24527365.231 5 103783341.74805     -3364.919 5        32.311
C14        53.000                                                                                                                                    26877858.083 5                      2051.378 5        30.762    26877877.308 6 108226084.70416      1586.559 6        39.976    26877860.514 6 113729011.84406      1667.055 6        36.042
C21        55.000                                                                                                                                    23136188.282 7 120476200.35107     -1752.915 7        44.424                                                                    23136184.706 7  97896766.17707     -1424.360 7        42.845
I06        58.000    38351806.327 6 150500739.65806      -742.517 6        36.673
I02        59.000    37140644.893 6 145747857.19106      -445.993 6        40.269
> 2025 01 02 10 16 40.0000000  0 38
G13         1.000    21321433.865 5 112044882.89905     -3548.102 5        31.449                                    21321445.262 1  87307697.30501     -2764.771 1         4.143
G17         2.000    22149072.684 6 116394191.77906      -553.138 6        38.153                                    22149082.806 2  90696768.84702      -431.020 2        15.476    22149107.996 5  90696780.90005      -430.912 5        31.728
G19         4.000    22552483.199 6 118514046.01006      1764.179 6        39.574                                    22552485.515 3  92348669.54103      1374.702 3        19.313
G10         7.000    24994985.777 6 131349574.80306       922.655 6        40.360                                    24995000.991 3 102350309.12403       718.971 3        21.571    24995004.747 4                       718.871 4        29.014
G14         8.000    22534430.118 6 118419195.65506     -3696.476 6        37.297                                    22534431.420 2  92274681.55602     -2880.350 2        17.887    22534431.749 5  92274698.54505     -2880.438 5        35.833
G15         9.000    20562686.314 8 108057859.99608     -2199.959 8        49.684                                    20562684.854 7  84200833.14807     -1714.254 7        43.371    20562684.628 6  84200754.13606     -1714.245 6        41.788
G23        10.000    23263503.560 5 122250493.30905     -1483.628 5        35.076                                                                                                    23263491.645 5  95260224.67105     -1155.843 5        34.752
E06        11.000    25589299.768 6 134472665.61006     -3485.744 6        37.924                                                                    25589307.613 6 100417870.38706     -2602.915 6        38.748    25589302.760 5 103037556.18505     -2670.994 5        32.072
G24        12.000    21273249.772 7 111791760.14007      1374.821 7        43.947                                    21273261.643 4  87110396.25404      1071.299 4        27.425    21273256.355 4  87110428.18104      1071.131 4        26.994
E31        13.000    23816648.214 7 125157304.88207     -1919.912 7        42.737                                                                    23816651.777 8  93461681.21808     -1433.629 8        49.730    23816650.418 8  95899786.09208     -1471.101 8        48.930
E24        16.000    24510512.129 7 128803579.73807       822.273 7        45.294                                                                    24510514.933 7  96184557.42107       614.138 7        45.881    24510512.004 7  98693745.52007       630.140 7        42.512
E04        17.000    27821543.564 3                     -3912.495 3        22.514                                                                                                                                    27821570.697 3                     -2997.400 3        21.524
E05        18.000    22701224.524 6 119295756.69206       318.347 6        38.366                                                                    22701228.480 7  89084491.36407       237.843 7        42.965    22701226.989 6  91408576.39706       243.962 6        38.736
E09        21.000    24319558.282 7 127800229.46107     -2581.121 7        43.481                                                                    24319561.311 7  95435112.62507     -1927.502 7        46.442    24319560.510 7  97924785.76807     -1977.771 7        47.010
R14        23.000    21558248.780 6 114917558.22406      1940.116 6        37.214                                                                    21558254.970 6  89380689.49106      1508.852 6        41.118
S23        24.000    38285907.968 6 201193815.34606      -858.554 6        37.285
E03        26.000    28053575.595 5 147422565.28305      2003.971 5        35.176                                                                    28053586.767 6 110088287.81806      1496.568 6        39.012    28053584.119 6 112960151.69906      1535.607 6        36.843
R13        27.000    19516103.114 6 104214923.57206     -1662.391 6        38.751
R21        28.000    23564528.757 6 126098528.96106     -2350.111 6        37.157                                                                    23564521.455 4  98076722.40704     -1827.641 4        24.060
R04        29.000    20901681.799 7 111927583.79107      1665.249 7        47.546                                                                    20901681.888 7  87054833.99807      1295.237 7        46.112
S36        31.000    38352520.849 5 201544021.33405      -856.755 5        33.497
C07        32.000                                                                                                                                    39067706.000 4 203435836.04304     -1251.038 4        28.919    39067710.245 6 157309421.73106      -967.658 6        38.456    39067712.525 5                     -1016.776 5        31.645
C10        33.000                                                                                                                                    38632308.441 6 201168560.66006      -871.169 6        38.456    38632308.046 7 155556315.55907      -673.719 7        42.959    38632305.012 6 163465929.68606      -708.076 6        39.138
C36        34.000                                                                                                                                    23011133.955 7 119824981.93707     -2875.247 7        45.797                                                                    23011143.372 6  97367711.67006     -2336.430 6        41.473
R02        35.000    22665809.296 6 120949220.34606     -5320.305 6        40.048                                                                    22665812.377 5  94071540.57805     -4138.316 5        32.102
R03        36.000    19775307.681 7 105858809.80407     -2403.987 7        46.532                                                                    19775310.012 7  82334684.13407     -1869.830 7        42.870
C45        37.000                                                                                                                                    21810938.613 6 113575242.47206      -369.987 6        39.979                                                                    21810931.935 6  92289236.93306      -300.541 6        39.838
R12        38.000    21882388.651 7 116891765.14807     -4094.012 7        42.116                                                                    21882395.491 6  90915860.74706     -3184.273 6        38.150
C40        40.000                                                                                                                                    39161144.604 6 203922356.32706     -1439.110 6        40.000                                                                    39161157.037 5 165703641.40705     -1169.125 5        30.891
R22        41.000                                                                                                                                    22968824.608 4                       903.028 4        24.271
C30        43.000                                                                                                                                    24921701.482 4 129773614.98904       352.653 4        27.940                                                                    24921634.964 4                       286.612 4        25.714
C42        45.000                                                                                                                                    24902618.513 8 129674728.29708      1120.045 8        49.713                                                                    24902628.510 7 105371212.56307       910.112 7        46.268
C26        48.000                                                                                                                                    25130741.735 6 130862239.14706      1816.424 6        40.701                                                                    25130732.888 4                      1476.139 4        26.910
C22        51.000                                                                                                                                    24531344.105 5 127741105.64405     -4142.203 5        35.700                                                                    24531342.447 5 103800169.72305     -3366.227 5        31.660
C14        53.000                                                                                                                                    26875889.813 5                      2050.215 5        30.626    26875904.193 6 108218156.03206      1585.391 6        39.688    26875892.020 5 113720679.84705      1665.980 5        35.748
C21        55.000                                                                                                                                    23137872.304 7 120484973.72207     -1755.921 7        43.591                                                                    23137869.593 7  97903895.23307     -1426.805 7        43.073
I06        58.000    38352752.531 6 150504453.16606      -742.737 6        37.191
I02        59.000    37141213.318 6 145750087.96206      -446.195 6        40.570
> 2025 01 02 10 16 45.0000000  0 38
G13         1.000    21324814.412 5 112062629.75205     -3550.281 5        34.124                                    21324822.459 1  87321526.00801     -2766.393 1         4.000
G17         2.000    22149602.140 6 116396965.73306      -556.154 6        38.826                                    22149611.191 2  90698930.39102      -433.370 2        16.868
G19         4.000    22550811.352 6 118505231.63506      1761.991 6        40.818                                    22550808.057 3  92341801.21003      1372.964 3        21.143
G10         7.000    24994109.206 6 131344968.77906       919.989 6        40.646                                    24994126.833 3 102346719.99203       716.873 3        21.952    24994126.619 4                       716.818 4        28.057
G14         8.000    22537947.387 5 118437681.84405     -3697.740 5        35.419                                    22537948.892 2  92289086.38102     -2881.365 2        17.283    22537949.385 6  92289103.37106     -2881.222 6        36.072
G15         9.000    20564781.275 8 108068868.93908     -2203.363 8        49.706                                    20564780.100 7  84209411.53907     -1716.904 7        43.664    20564779.328 6  84209332.52606     -1716.765 6        41.318
G23        10.000    23264912.175 5 122257919.13905     -1486.651 5        33.886                                                                                                    23264905.160 6  95266011.07106     -1158.571 6        36.866
E06        11.000    25592616.986 6 134490098.03306     -3486.827 6        37.573                                                                    25592624.632 6 100430888.04906     -2603.829 6        39.153    25592619.018 5 103050913.42505     -2671.754 5        31.819
G24        12.000    21271941.832 7 111784891.49207      1372.972 7        42.832                                    21271954.745 4  87105043.97704      1069.870 4        25.218    21271951.083 5  87105075.93905      1069.551 5        30.060
E31        13.000    23818475.500 7 125166908.77607     -1921.457 7        43.596                                                                    23818479.335 8  93468852.96308     -1434.853 8        49.538    23818477.944 8  95907144.91808     -1472.299 8        48.664
E24        16.000    24509730.566 7 128799472.93607       820.793 7        45.056                                                                    24509733.535 7  96181490.67807       612.773 7        45.458    24509730.465 6  98690598.74906       628.816 6        41.549
E04        17.000    27825268.985 3                     -3912.695 3        23.886                                                                                                                                    27825296.627 3                     -2997.313 3        22.990
E05        18.000    22700922.314 6 119294169.95306       316.551 6        38.261                                                                    22700926.873 7  89083306.46007       236.330 7        43.333    22700925.038 6  91407360.59006       242.526 6        39.096
E09        21.000    24322015.429 7 127813140.75707     -2582.974 7        44.412                                                                    24322018.185 7  95444754.17207     -1928.924 7        46.487    24322017.315 7  97934678.82807     -1979.194 7        46.793
R14        23.000    21556431.188 6 114907863.17106      1938.256 6        40.446                                                                    21556434.855 6  89373148.90506      1507.652 6        40.431
S23        24.000    38286707.620 5 201198108.24205      -858.328 5        35.790
E03        26.000    28051669.340 5 147412547.06205      2003.584 5        34.938                                                                    28051680.399 6 110080806.67506      1496.291 6        38.988    28051678.413 6 112952475.41206      1535.252 6        36.888
R13        27.000    19517661.387 6 104223242.16506     -1664.598 6        37.077
R21        28.000    23566736.654 5 126110291.08015     -2354.178 5        34.967                                                                    23566723.600 4                     -1831.199 4        28.408
R04        29.000    20900127.067 7 111919267.01007      1661.606 7        45.255                                                                    20900128.944 7  87048365.38407      1292.417 7        45.779
S36        31.000    38353334.272 5 201548305.43105      -856.803 5        33.988
C07        32.000                                                                                                                                    39068907.427 4 203442094.28404     -1252.235 4        28.863    39068911.692 6 157314260.97206      -967.838 6        38.517    39068916.308 5                     -1017.351 5        31.940
C10        33.000                                                                                                                                    38633145.433 6 201172919.67706      -871.850 6        38.111    38633145.438 7 155559686.21807      -674.233 7        42.923    38633142.185 6 163469471.72506      -708.693 6        39.216
C36        34.000                                                                                                                                    23013894.789 7 119839360.97607     -2876.204 7        45.329                                                                    23013904.397 6  97379395.78306     -2337.082 6        40.274
R02        35.000    22670794.244 6 120975826.52406     -5321.609 6        39.003                                                                    22670797.095 5  94092234.21705     -4139.050 5        32.826
R03        36.000    19777556.158 7 105870841.55107     -2408.467 7        46.444                                                                    19777558.554 7  82344042.12507     -1873.245 7        43.283
C45        37.000                                                                                                                                    21811292.775 6 113577096.98706      -371.435 6        38.009                                                                    21811287.943 6  92290743.88106      -302.051 6        39.039
R12        38.000    21886221.609 6 116912237.76806     -4094.711 6        41.275                                                                    21886227.584 6  90931783.85506     -3184.670 6        38.643
C40        40.000                                                                                                                                    39162526.702 6 203929553.78906     -1439.771 6        40.403                                                                    39162539.460 5 165709489.88305     -1169.717 5        31.019
R22        41.000                                                                                                                                    22967738.392 4                       900.289 4        27.449
C30        43.000                                                                                                                                                                                                                                                                    24921294.128 3                       284.845 3        23.467
C42        45.000                                                                                                                                    24901544.001 8 129669134.36308      1117.802 8        49.380                                                                    24901554.171 7 105366667.03607       908.198 7        45.732
C26        48.000                                                                                                                                    25129000.481 6 130853158.43406      1815.880 6        39.429                                                                    25128991.630 4                      1474.938 4        28.739
C22        51.000                                                                                                                                    24535327.725 6 127761819.87906     -4143.107 6        36.526                                                                    24535320.657 5 103817001.72805     -3366.776 5        31.389
C14        53.000                                                                                                                                    26873922.572 5                      2048.769 5        31.411    26873929.327 6 108210232.34606      1584.359 6        38.961    26873924.904 5 113712353.24705      1664.770 5        35.543
C21        55.000                                                                                                                                    23139559.144 7 120493761.48007     -1758.833 7        44.050                                                                    23139557.053 7  97911036.00307     -1429.381 7        43.268
I06        58.000    38353698.317 6 150508166.86006      -742.591 6        37.422
I02        59.000    37141781.744 6 145752320.01106      -446.387 6        40.329
> 2025 01 02 10 16 50.0000000  0 38
G13         1.000    21328195.124 5 112080388.07805     -3552.974 5        34.895                                    21328201.803 1  87335363.71601     -2768.532 1         5.571
G17         2.000    22150131.359 6 116399755.93706      -559.588 6        38.742                                    22150141.776 2  90701104.57202      -436.053 2        16.717
G19         4.000    22549136.826 6 118496427.97806      1759.535 6        40.965                                    22549132.339 3  92334941.25803      1371.055 3        22.019
G10         7.000    24993236.318 6 131340376.78706       916.913 6        39.724                                    24993254.840 3 102343141.80203       714.467 3        21.000    24993254.093 4                       714.411 4        28.171
G14         8.000    22541468.239 6 118456174.73706     -3699.146 6        36.144                                    22541467.523 2  92303496.39602     -2882.457 2        17.245    22541467.392 5  92303513.38905     -2882.515 5        35.562
G15         9.000    20566879.597 8 108079895.00008     -2206.922 8        49.397                                    20566878.297 7  84218003.27007     -1719.680 7        43.608    20566877.917 6  84217924.26706     -1719.793 6        40.541
G23        10.000    23266331.039 5 122265361.64905     -1490.415 5        34.190                                                                                                    23266321.661 6  95271810.40406     -1161.269 6        37.471
E06        11.000    25595935.401 6 134507536.64206     -3488.284 6        36.752                                                                    25595943.199 6 100443910.36806     -2604.951 6        40.145    25595937.798 5 103064275.43605     -2672.969 5        31.389
G24        12.000    21270635.945 6 111778032.07006      1370.985 6        41.902                                    21270649.903 4  87099698.92704      1068.318 4        24.241    21270651.189 5  87099730.92505      1068.265 5        32.084
E31        13.000    23820304.371 7 125176521.18707     -1923.378 7        43.911                                                                    23820308.384 8  93476031.04708     -1436.266 8        49.387    23820307.127 8  95914510.25708     -1473.739 8        48.317
E24        16.000    24508950.949 7 128795374.63407       818.776 7        44.438                                                                    24508953.480 7  96178430.26307       611.418 7        45.311    24508950.958 6  98687458.50006       627.307 6        41.089
E04        17.000    27828990.600 3                     -3913.146 3        23.905                                                                                                                                    27829017.437 3                     -2998.001 3        23.429
E05        18.000    22700622.780 6 119292592.74706       314.565 6        40.310                                                                    22700626.857 7  89082128.68307       234.784 7        43.435    22700625.394 6  91406152.10806       241.026 6        39.778
E09        21.000    24324473.801 7 127826061.49907     -2585.160 7        44.876                                                                    24324476.931 7  95454402.76607     -1930.403 7        46.279    24324475.944 7  97944579.12207     -1980.748 7        46.375
R14        23.000    21554614.397 6 114898176.96306      1936.372 6        41.654                                                                    21554616.906 6  89365615.22706      1505.976 6        38.135
S23        24.000    38287541.036 6 201202401.52406      -858.710 6        36.677
E03        26.000    28049763.487 5 147402531.14805      2002.824 5        34.786                                                                    28049774.199 6 110073327.23606      1495.702 6        38.733    28049772.948 6 112944800.85906      1534.557 6        36.541
R13        27.000    19519221.922 5 104231573.33705     -1667.194 5        35.833
R21        28.000    23568945.272 5                     -2358.545 5        34.386                                                                    23568927.466 4                     -1834.375 4        28.976
R04        29.000    20898575.525 7 111910968.45007      1657.815 7        44.257                                                                    20898579.372 7  87041910.94107      1289.436 7        46.068
S36        31.000    38354154.601 5 201552590.19305      -856.693 5        34.400
C07        32.000                                                                                                                                    39070112.799 5 203448355.85005     -1252.616 5        30.264    39070114.660 6 157319102.80706      -968.686 6        38.294    39070120.632 5                     -1017.855 5        32.359
C10        33.000                                                                                                                                    38633983.551 6 201177282.23406      -873.158 6        37.633    38633983.675 7 155563059.57907      -674.953 7        42.923    38633980.417 6 163473016.64006      -709.362 6        39.547
C36        34.000                                                                                                                                    23016657.148 7 119853745.22607     -2877.329 7        44.749                                                                    23016666.050 6  97391084.15806     -2338.166 6        39.312
R02        35.000    22675779.837 6 121002439.44806     -5323.371 6        38.162                                                                    22675789.732 5  94112933.09505     -4140.533 5        33.814
R03        36.000    19779808.750 7 105882895.64307     -2413.021 7        46.100                                                                    19779810.292 7  82353417.51707     -1876.785 7        42.415
C45        37.000                                                                                                                                    21811647.757 5 113578960.11505      -373.525 5        34.738                                                                    21811645.894 6  92292257.77806      -303.513 6        39.003
R12        38.000    21890055.241 6 116932714.45306     -4095.844 6        40.384                                                                    21890059.920 6  90947710.15906     -3185.799 6        37.837
C40        40.000                                                                                                                                    39163909.459 6 203936755.34106     -1440.844 6        40.036                                                                    39163922.215 5 165715341.74005     -1170.618 5        31.683
R22        41.000    22966639.594 4                      1154.180 4        28.578                                                                    22966655.459 4                       897.472 4        29.820
C30        43.000                                                                                                                                                                                                                                                                    24920957.536 4                       283.379 4        24.060
C42        45.000                                                                                                                                    24900471.765 8 129663552.20908      1115.255 8        49.485                                                                    24900482.126 7 105362131.09007       906.262 7        45.570
C26        48.000                                                                                                                                    25127258.562 6 130844081.40706      1814.977 6        37.312                                                                    25127250.192 5                      1474.716 5        30.702
C22        51.000                                                                                                                                    24539308.400 6 127782539.43806     -4144.375 6        36.197                                                                    24539300.409 5 103833838.04205     -3367.538 5        31.434
C14        53.000                                                                                                                                    26871957.267 5                      2047.486 5        31.985    26871954.979 6 108202313.92406      1583.001 6        38.405    26871959.420 5 113704032.26505      1664.105 5        34.843
C21        55.000                                                                                                                                    23141249.314 7 120502563.90507     -1761.972 7        44.221                                                                    23141247.772 7  97918188.70207     -1431.711 7        43.464
I06        58.000    38354644.751 6 150511880.94706      -742.890 6        36.904
I02        59.000    37142351.049 6 145754553.46806      -446.886 6        40.415
> 2025 01 02 10 16 55.0000000  0 38
G13         1.000    21331578.148 6 112098156.79506     -3555.029 6        37.493                                    21331583.141 1  87349209.39301     -2770.070 1         6.500
G17         2.000    22150665.027 6 116402561.50906      -562.986 6        38.408                                    22150674.695 2  90703290.75602      -438.699 2        17.472    22150658.402 4  90703302.75904      -438.750 4        29.754
G19         4.000    22547454.900 6 118487634.10106      1757.436 6        41.004                                    22547458.454 3  92328088.95703      1369.415 3        23.752
G10         7.000    24992364.040 6 131335797.78006       914.171 6        38.613                                    24992384.778 3 102339573.73203       712.321 3        19.791    24992384.832 5                       712.806 5        30.143
G14         8.000    22544988.567 6 118474673.35706     -3700.582 6        37.807                                    22544987.334 2  92317910.88802     -2883.571 2        17.208    22544987.658 5  92317927.88305     -2883.566 5        35.109
G15         9.000    20568980.834 8 108090937.31408     -2210.422 8        48.719                                    20568979.396 7  84226607.66607     -1722.406 7        43.636    20568979.879 6  84226528.66006     -1722.427 6        40.412
G23        10.000                                                                                                                                                                    23267740.285 6  95277621.92706     -1163.933 6        37.198
E06        11.000    25599255.241 5 134524980.52705     -3489.688 5        35.895                                                                    25599262.762 6 100456936.63506     -2605.949 6        40.260    25599258.144 5 103077641.51005     -2673.943 5        31.932
G24        12.000    21269332.142 6 111771180.94306      1369.074 6        40.870                                    21269346.362 3  87094360.33103      1066.813 3        23.543    21269352.293 5  87094392.34305      1066.764 5        32.102
E31        13.000    23822134.592 7 125186141.13807     -1925.088 7        43.056                                                                    23822139.029 8  93483214.77308     -1437.559 8        49.028    23822137.765 8  95921881.38608     -1475.054 8        48.126
E24        16.000    24508172.292 7 128791283.88607       817.156 7        43.907                                                                    24508174.956 7  96175375.47907       610.187 7        44.971    24508172.614 6  98684324.02406       626.146 6        40.825
E04        17.000    27832712.725 3                     -3913.161 3        23.333                                                                                                                                    27832738.525 3                     -2999.422 3        23.619
E05        18.000    22700324.551 6 119291024.17806       312.381 6        41.690                                                                    22700328.382 7  89080957.34407       233.346 7        43.397    22700327.290 6  91404950.21706       239.278 6        40.515
E09        21.000    24326934.325 7 127838990.73207     -2586.995 7        45.536                                                                    24326937.165 7  95464057.71307     -1931.907 7        46.165    24326936.298 7  97954485.93007     -1982.303 7        46.276
R14        23.000    21552799.227 7 114888498.43107      1934.477 7        43.145                                                                    21552801.538 6  89358087.48006      1504.535 6        37.520
S23        24.000    38288360.041 6 201206694.31406      -858.836 6        36.836
E03        26.000    28047857.414 5 147392516.51105      2002.550 5        35.271                                                                    28047868.017 6 110065848.79006      1495.383 6        38.613    28047868.007 6 112937127.30206      1534.439 6        36.276
R13        27.000    19520785.608 5 104239916.29605     -1670.227 5        34.514
R21        28.000    23571146.271 5 126133876.47315     -2362.832 5        30.966                                                                    23571134.771 4                     -1837.816 4        26.611
R04        29.000    20897030.882 7 111902687.38407      1654.070 7        45.865                                                                    20897032.956 7  87035470.10407      1286.546 7        45.682
S36        31.000    38354970.555 5 201556873.97205      -857.009 5        34.062
C07        32.000                                                                                                                                    39071321.100 5 203454619.85005     -1253.219 5        30.551    39071318.148 6 157323946.54406      -969.145 6        38.072    39071323.392 5                     -1018.160 5        32.144
C10        33.000                                                                                                                                    38634821.700 6 201181647.36606      -873.680 6        37.614    38634821.762 7 155566434.97407      -675.557 7        43.086    38634818.609 6 163476563.64506      -710.111 6        39.751
C36        34.000                                                                                                                                    23019420.280 7 119868133.76107     -2878.460 7        44.170                                                                    23019428.373 6  97402775.99506     -2339.009 6        37.966
R02        35.000    22680766.956 6 121029057.83606     -5324.784 6        36.386                                                                    22680780.577 5  94133636.30605     -4141.444 5        35.162
R03        36.000    19782064.202 7 105894971.06207     -2417.604 7        45.232                                                                    19782065.778 7  82362809.52807     -1880.368 7        42.235
C45        37.000                                                                                                                                    21812005.527 5 113580830.75405      -375.282 5        33.659                                                                    21812005.315 6  92293777.83306      -304.912 6        38.883
R12        38.000    21893888.488 6 116953194.21406     -4096.586 6        41.795                                                                    21893892.987 6  90963638.80506     -3186.262 6        37.115
C40        40.000                                                                                                                                    39165293.423 6 203943960.03906     -1441.584 6        39.006                                                                    39165305.428 5 165721196.09105     -1171.337 5        30.928
R22        41.000                                                                                                                                    22965579.877 5                       895.321 5        30.279
C30        43.000                                                                                                                                                                                                                                                                    24920625.223 4                       281.416 4        26.048
C42        45.000                                                                                                                                    24899401.539 8 129657980.91508      1112.771 8        49.259                                                                    24899412.256 7 105357603.95107       904.305 7        45.097
C26        48.000                                                                                                                                    25125505.959 6 130835007.17806      1814.415 6        36.348                                                                    25125508.929 5                      1474.452 5        31.932
C22        51.000                                                                                                                                    24543284.652 6 127803263.35806     -4145.567 6        36.280                                                                    24543281.685 5 103850677.87605     -3368.316 5        31.011
C14        53.000                                                                                                                                    26869994.739 5                      2046.066 5        31.698    26869990.019 6 108194400.18306      1582.224 6        37.743    26869995.340 5 113695716.18905      1662.274 5        34.386
C21        55.000                                                                                                                                    23142943.645 7 120511380.04907     -1764.947 7        44.315                                                                    23142941.172 7  97925352.54007     -1434.175 7        43.826
I06        58.000    38355591.598 6 150515594.71006      -742.992 6        37.074
I02        59.000    37142920.405 6 145756787.92606      -447.208 6        40.381
> 2025 01 02 10 17  0.0000000  0 39
G13         1.000    21334963.148 6 112115936.85606     -3557.134 6        40.617                                    21334966.675 1  87363063.92701     -2771.735 1         9.143
G17         2.000    22151201.529 6 116405383.33406      -566.000 6        38.192                                    22151210.001 3  90705489.61203      -441.048 3        19.881    22151200.565 5  90705501.59705      -441.247 5        32.018
G19         4.000    22545780.206 6 118478851.02206      1755.420 6        41.061                                    22545786.353 3  92321245.06003      1367.865 3        23.829
G10         7.000    24991494.345 6 131331232.79106       911.701 6        38.150                                    24991516.930 2 102336016.59602       710.409 2        17.585    24991516.367 5                       710.323 5        31.011
G14         8.000    22548509.967 6 118493178.55806     -3701.651 6        38.625                                    22548508.329 3  92332330.50103     -2884.389 3        18.090    22548509.221 5  92332347.48005     -2884.324 5        35.086
G15         9.000    20571085.202 8 108101996.69708     -2213.570 8        48.484                                    20571083.688 7  84235225.36407     -1724.858 7        43.551    20571084.633 6  84235146.36206     -1724.930 6        41.247
G23        10.000                                                                                                                                                                    23269162.340 6  95283446.24506     -1166.041 6        37.346
E06        11.000    25602575.419 5 134542430.55605     -3490.447 5        34.748                                                                    25602583.041 6 100469967.48206     -2606.453 6        40.124    25602579.327 5 103091012.30705     -2674.780 5        32.287
G24        12.000    21268030.813 6 111764339.02106      1367.617 6        39.180                                    21268043.725 3  87089028.91603      1065.694 3        22.933    21268049.245 5  87089060.92905      1065.494 5        31.434
E31        13.000    23823966.816 7 125195769.51607     -1926.453 7        42.766                                                                    23823971.179 8  93490404.79008     -1438.595 8        48.975    23823970.089 8  95929258.97008     -1476.178 8        48.007
G12        15.000    24013690.574 4                      2784.415 4        28.673
E24        16.000    24507395.051 7 128787201.55907       815.655 7        43.215                                                                    24507398.009 7  96172326.99307       609.130 7        44.214    24507395.718 6  98681196.00206       625.019 6        39.805
E04        17.000    27836436.200 3                     -3913.711 3        22.362                                                                                                                                    27836459.733 3                     -2998.724 3        23.695
E05        18.000    22700028.357 7 119289465.09407       310.872 7        42.118                                                                    22700031.628 7  89079793.08507       232.104 7        43.613    22700030.912 6  91403755.60406       238.251 6        41.576
E09        21.000    24329396.533 7 127851929.34107     -2588.671 7        46.120                                                                    24329399.503 7  95473719.65707     -1933.040 7        46.226    24329398.405 7  97964399.92507     -1983.521 7        46.412
R14        23.000    21550985.411 7 114878828.68507      1933.053 7        43.953                                                                    21550987.424 6  89350566.60106      1503.580 6        36.541
S23        24.000    38289172.391 6 201210987.37406      -858.588 6        36.374
E03        26.000    28045952.394 5 147382504.11305      2002.339 5        35.176                                                                    28045962.538 6 110058371.99406      1495.264 6        38.051    28045963.527 5 112929455.44705      1534.283 5        35.738
R13        27.000    19522348.661 5 104248271.85705     -1672.478 5        35.810
R21        28.000    23573342.718 5                     -2366.818 5        34.476
R04        29.000    20895491.640 7 111894424.51107      1650.744 7        47.461                                                                    20895489.832 7  87029043.41707      1283.890 7        45.391
S36        31.000    38355781.811 5 201561158.07305      -856.929 5        33.096
C07        32.000                                                                                                                                    39072525.171 5 203460887.14505     -1254.046 5        30.974    39072521.444 6 157328792.75306      -969.428 6        38.892    39072526.383 5                     -1018.761 5        32.281
C10        33.000                                                                                                                                    38635660.232 6 201186016.00906      -874.086 6        37.006    38635661.215 7 155569813.08607      -675.916 7        43.105    38635657.525 6 163480113.53406      -710.219 6        39.697
C36        34.000                                                                                                                                    23022184.751 7 119882527.44707     -2879.197 7        44.069                                                                    23022191.742 6  97414471.99606     -2339.413 6        36.200
R02        35.000    22685756.684 6 121055682.80106     -5325.471 6        38.718                                                                    22685773.742 6  94154344.56106     -4142.292 6        36.208
R03        36.000    19784323.924 7 105907068.70707     -2421.701 7        44.105                                                                    19784326.726 7  82372218.81107     -1883.559 7        44.063
C45        37.000                                                                                                                                    21812366.376 5 113582709.84105      -376.474 5        33.928                                                                    21812366.104 6  92295304.77406      -305.853 6        37.773
R12        38.000    21897725.800 7 116973678.02907     -4097.161 7        42.282                                                                    21897727.855 5  90979570.62905     -3186.722 5        35.900
C40        40.000                                                                                                                                    39166677.668 6 203951168.74506     -1442.063 6        39.366                                                                    39166688.888 5 165727053.78105     -1171.429 5        30.845
R22        41.000                                                                                                                                    22964497.494 4                       892.619 4        26.012
C30        43.000                                                                                                                                    24920308.036 5 129766656.44005       343.067 5        32.455                                                                    24920297.560 4                       278.940 4        26.575
C42        45.000                                                                                                                                    24898333.451 8 129652421.35008      1110.706 8        49.201                                                                    24898344.715 7 105353086.35107       902.758 7        44.928
C26        48.000                                                                                                                                    25123760.227 5 130825936.55305      1813.694 5        35.886                                                                    25123768.699 5                      1473.951 5        33.281
C22        51.000                                                                                                                                    24547253.351 6 127823992.50106     -4146.340 6        37.217                                                                    24547264.425 5 103867521.95905     -3369.078 5        32.581
C14        53.000                                                                                                                                    26868033.503 5                      2044.858 5        32.593    26868027.453 6 108186491.78406      1581.070 6        36.340    26868033.366 5 113687405.62105      1661.739 5        33.701
C21        55.000                                                                                                                                    23144641.247 7 120520210.81707     -1767.610 7        43.409                                                                    23144637.219 7  97932528.25707     -1436.212 7        43.763
I06        58.000    38356538.607 6 150519308.81706      -742.876 6        37.577
I02        59.000    37143490.765 6 145759023.76406      -447.395 6        40.131
> 2025 01 02 10 17  5.0000000  0 38
G13         1.000    21338348.033 6 112133727.58706     -3559.414 6        40.815                                    21338352.033 1  87376926.74501     -2773.588 1        11.407
G17         2.000    22151742.424 6 116408220.78106      -569.410 6        37.686                                    22151748.362 3  90707700.60403      -443.685 3        22.057    22151743.988 5  90707712.58905      -443.823 5        34.543
G19         4.000    22544114.070 6 118470078.01306      1753.375 6        41.125                                    22544116.050 3  92314409.00303      1366.270 3        23.848
G10         7.000    24990629.165 6 131326681.08006       908.775 6        37.176                                    24990651.457 2 102332469.88702       708.163 2        13.879    24990649.534 5                       708.400 5        30.136
G14         8.000    22552032.412 6 118511689.72606     -3703.119 6        38.441                                    22552030.287 3  92346754.77503     -2885.560 3        18.060    22552032.267 5  92346771.74105     -2885.179 5        35.229
G15         9.000    20573192.588 8 108113072.57408     -2217.009 8        48.487                                    20573191.213 7  84243855.91607     -1727.539 7        43.536    20573192.394 6  84243776.89806     -1727.442 6        41.445
G23        10.000    23270627.820 5 122287784.77105     -1499.721 5        31.343                                                                                                    23270587.326 6  95289282.97506     -1168.682 6        37.981
E06        11.000    25605898.332 5 134559886.15705     -3492.215 5        33.479                                                                    25605904.054 6 100483002.49406     -2607.559 6        39.030    25605901.738 5 103104387.37405     -2675.930 5        33.198
G24        12.000    21266729.781 6 111757505.68006      1365.585 6        39.333                                    21266741.611 3  87083704.21703      1064.109 3        22.019    21266741.433 5  87083736.17405      1064.516 5        31.132
E31        13.000    23825801.317 7 125205405.72107     -1928.219 7        43.691                                                                    23825804.844 8  93497600.64608     -1439.958 8        48.556    23825803.896 7  95936642.54407     -1477.504 7        47.962
E24        16.000    24506619.559 7 128783127.03907       813.963 7        42.684                                                                    24506622.727 7  96169284.35607       607.760 7        43.867    24506620.613 6  98678073.97606       623.717 6        39.102
E04        17.000    27840160.932 3                     -3914.565 3        22.000                                                                                                                                    27840181.532 4                     -2998.891 4        24.451
E05        18.000    22699733.352 7 119287914.91807       308.999 7        43.228                                                                    22699736.698 7  89078635.48807       230.699 7        43.558    22699735.841 7  91402567.81807       236.646 7        42.284
E09        21.000    24331860.635 7 127864876.72407     -2590.578 7        46.955                                                                    24331863.559 7  95483388.14707     -1934.548 7        46.234    24331861.919 7  97974320.63607     -1985.042 7        46.420
R14        23.000    21549174.210 7 114869167.00707      1931.256 7        46.395                                                                    21549173.705 5  89343052.01205      1501.901 5        33.030
S23        24.000    38289994.244 6 201215280.08606      -858.781 6        36.363
E03        26.000    28044047.607 5 147372493.30805      2001.924 5        35.776                                                                    28044057.007 6 110050896.39706      1494.928 6        37.353    28044059.401 5 112921784.84005      1533.746 5        35.262
R13        27.000    19523914.289 6 104256639.38506     -1675.117 6        36.457
R21        28.000    23575555.508 5 126157542.98615     -2370.924 5        34.338
R04        29.000    20893956.230 8 111886179.34208      1647.152 8        48.032                                                                    20893950.488 7  87022630.50507      1281.033 7        45.469
S36        31.000    38356606.584 5 201565441.89305      -856.998 5        33.934
C07        32.000                                                                                                                                    39073728.929 5 203467157.06805     -1254.550 5        32.222    39073725.847 6 157333641.08706      -970.260 6        38.586    39073731.888 5                     -1019.300 5        32.826
C10        33.000                                                                                                                                    38636499.300 6 201190387.48706      -874.922 6        37.406    38636500.111 7 155573193.38207      -676.431 7        42.751    38636496.986 6 163483665.68006      -710.806 6        39.667
C36        34.000                                                                                                                                    23024950.170 7 119896925.67507     -2880.260 7        44.491                                                                    23024956.501 5  97426171.71605     -2340.626 5        35.190
R02        35.000    22690748.523 6 121082313.72606     -5327.118 6        40.496                                                                    22690765.347 6  94175057.41406     -4143.298 6        36.677
R03        36.000    19786588.757 7 105919187.96407     -2426.295 7        45.970                                                                    19786591.047 7  82381644.87307     -1887.057 7        44.810
C45        37.000                                                                                                                                    21812729.379 5 113584596.84305      -378.496 5        32.766                                                                    21812728.320 6  92296838.09506      -307.503 6        37.448
R12        38.000    21901562.730 7 116994165.19407     -4097.994 7        42.559                                                                    21901562.513 5  90995505.05505     -3187.287 5        34.386
C40        40.000                                                                                                                                    39168062.435 6 203958380.87706     -1442.894 6        39.156                                                                    39168074.428 5 165732914.18005     -1172.167 5        30.906
R22        41.000    22963429.103 4                      1145.344 4        24.316
C30        43.000                                                                                                                                    24919983.543 5 129764947.31505       340.058 5        32.335                                                                    24919969.263 4                       276.678 4        28.351
C42        45.000                                                                                                                                    24897268.115 8 129646872.93808      1108.297 8        49.387                                                                    24897279.361 7 105348577.79607       900.683 7        44.903
C26        48.000                                                                                                                                    25122021.515 6 130816868.88306      1813.068 6        36.510                                                                    25122028.276 5                      1473.271 5        33.551
C22        51.000                                                                                                                                    24551234.633 6 127844726.20606     -4147.479 6        37.070                                                                    24551248.275 5 103884369.75105     -3369.897 5        33.790
C14        53.000                                                                                                                                    26866073.318 5                      2043.534 5        31.389    26866063.506 6 108178588.20006      1580.036 6        36.000    26866074.783 5 113679100.13605      1660.413 5        32.868
C21        55.000                                                                                                                                    23146338.107 6 120529055.55306     -1770.501 6        41.728                                                                    23146335.830 7  97939715.32207     -1438.684 7        44.172
I06        58.000    38357484.130 6 150523022.81406      -742.928 6        37.316
I02        59.000    37144060.275 6 145761260.66306      -447.615 6        39.733
> 2025 01 02 10 17 10.0000000  0 38
G13         1.000    21341734.759 6 112151529.60506     -3561.676 6        39.832                                    21341739.520 2  87390798.43402     -2775.312 2        14.190
G17         2.000    22152286.106 6 116411074.40106      -572.563 6        38.213                                    22152289.612 4  90709924.20104      -446.144 4        24.662    22152287.330 5  90709936.17305      -446.063 5        35.381
G19         4.000    22542447.782 6 118461315.71306      1751.123 6        41.397                                    22542447.634 3  92307581.29103      1364.503 3        23.105
G10         7.000    24989766.348 6 131322143.22806       906.121 6        38.087                                    24989788.335 1 102328933.88801       706.011 1        11.481    24989778.878 4                       705.939 4        29.374
G14         8.000    22555555.029 6 118530207.40606     -3704.503 6        39.829                                    22555553.809 3  92361184.11103     -2886.623 3        18.060    22555555.602 5  92361201.08505     -2886.564 5        35.300
G15         9.000    20575303.565 8 108124165.49708     -2220.508 8        48.121                                    20575302.172 7  84252499.74507     -1730.267 7        43.680    20575303.203 6  84252420.72706     -1730.338 6        41.733
G23        10.000                                                                                                                                                                    23272016.914 6  95295132.51406     -1171.347 6        38.736
E06        11.000                                                                                                                                    25609226.324 6 100496042.02706     -2608.388 6        38.000    25609224.639 5 103117767.05005     -2676.505 5        34.171
G24        12.000    21265431.923 6 111750681.46906      1363.554 6        39.520                                    21265441.102 3  87078386.59203      1062.526 3        21.786    21265437.193 4  87078418.63004      1062.453 4        29.327
E31        13.000    23827637.335 7 125215050.28307     -1929.989 7        43.875                                                                    23827640.222 8  93504802.74308     -1441.159 8        48.453    23827639.019 7  95944032.51607     -1478.723 7        47.706
E24        16.000    24505846.499 6 128779060.88106       812.184 6        41.766                                                                    24505848.853 7  96166247.95407       606.496 7        43.507    24505846.455 6  98674958.35806       622.448 6        38.670
E04        17.000    27843882.597 3                     -3916.230 3        19.851                                                                                                                                    27843904.104 4                     -3000.531 4        24.496
E05        18.000    22699440.516 7 119286374.19307       306.953 7        43.513                                                                    22699443.466 7  89077484.94307       229.254 7        43.884    22699442.663 7  91401387.26907       235.264 7        42.665
E09        21.000    24334326.441 7 127877833.41607     -2592.517 7        46.923                                                                    24334329.212 7  95493063.58707     -1935.921 7        46.671    24334327.475 7  97984248.47407     -1986.378 7        46.377
R14        23.000    21547364.508 7 114859514.16407      1929.526 7        47.072                                                                    21547361.461 4  89335544.20904      1500.780 4        25.398
S23        24.000    38290806.716 6 201219573.03106      -858.856 6        36.106
E03        26.000    28042142.933 5 147362484.68205      2001.278 5        35.643                                                                    28042151.877 6 110043422.40606      1494.498 6        36.960    28042156.023 5 112914115.86605      1533.366 5        33.808
R13        27.000    19525486.274 6 104265019.48606     -1677.614 6        38.784
R21        28.000    23577780.019 5 126169406.88005     -2375.248 5        34.424
R04        29.000    20892423.062 7 111877952.32907      1643.324 7        47.375                                                                    20892414.245 7  87016231.71207      1278.252 7        45.470
S36        31.000    38357424.358 5 201569725.58905      -856.758 5        34.829
C07        32.000                                                                                                                                    39074936.363 5 203473430.26605     -1255.026 5        31.540    39074930.363 6 157338491.89006      -970.636 6        39.201    39074936.257 5                     -1019.919 5        32.479
C10        33.000                                                                                                                                    38637339.799 6 201194762.36106      -875.441 6        36.586    38637340.660 7 155576576.30207      -676.950 7        43.304    38637336.860 6 163487220.63706      -711.553 6        39.946
C36        34.000                                                                                                                                    23027717.093 7 119911328.97607     -2881.365 7        44.411                                                                    23027722.197 5  97437875.58205     -2341.590 5        33.892
R02        35.000    22695740.093 6 121108950.93206     -5328.240 6        41.321                                                                    22695759.024 6  94195775.19406     -4144.222 6        36.015
R03        36.000    19788857.232 7 105931329.39007     -2430.778 7        47.521                                                                    19788858.929 7  82391088.19107     -1890.543 7        43.829
C45        37.000                                                                                                                                    21813095.159 5 113586492.23705      -380.072 5        34.095                                                                    21813092.004 6  92298378.29106      -308.972 6        37.739
R12        38.000    21905400.971 7 117014656.28607     -4098.855 7        43.291                                                                    21905398.409 5  91011442.53605     -3188.079 5        35.533
C40        40.000                                                                                                                                    39169448.435 6 203965596.97606     -1443.862 6        38.997                                                                    39169460.298 5 165738777.87105     -1173.470 5        31.940
R22        41.000                                                                                                                                    22962332.080 4                       886.861 4        29.791
C30        43.000                                                                                                                                    24919660.822 4 129763250.78704       337.790 4        27.138                                                                    24919642.539 4                       274.521 4        28.626
C42        45.000                                                                                                                                    24896204.685 8 129641336.20508      1106.014 8        49.589                                                                    24896216.326 7 105344078.77807       898.598 7        45.225
C26        48.000                                                                                                                                    25120282.362 6 130807804.78806      1812.259 6        37.633                                                                    25120288.399 5                      1472.488 5        34.248
C22        51.000                                                                                                                                    24555218.297 6 127865464.94006     -4148.323 6        36.193                                                                    24555230.204 5 103901221.70805     -3371.138 5        34.914
C14        53.000                                                                                                                                    26864114.640 5                      2042.135 5        30.543    26864104.125 5 108170689.88405      1578.904 5        35.695    26864115.996 5 113670800.18205      1659.387 5        32.275
C21        55.000                                                                                                                                    23148033.897 6 120537914.87906     -1773.430 6        39.192                                                                    23148036.962 7  97946914.24007     -1441.298 7        44.367
I06        58.000    38358430.680 6 150526737.13506      -743.049 6        37.301
I02        59.000    37144630.488 6 145763499.04606      -448.007 6        39.829
> 2025 01 02 10 17 15.0000000  0 37
G13         1.000    21345124.318 6 112169342.56306     -3564.097 6        41.097                                    21345128.723 2  87404678.57802     -2777.198 2        14.857
G17         2.000    22152832.430 6 116413943.90306      -575.922 6        39.003                                    22152833.894 4  90712160.17304      -448.783 4        27.054    22152831.100 5  90712172.15005      -448.825 5        35.038
G19         4.000    22540781.985 7 118452563.84407      1749.052 7        42.667                                    22540781.222 3  92300761.70303      1362.888 3        23.238
G10         7.000    24988906.588 6 131317619.00306       903.332 6        39.063                                    24988927.955 1 102325408.64401       703.877 1        10.074    24988909.501 4                       703.898 4        28.597
G14         8.000    22559080.217 7 118548731.30107     -3705.629 7        43.143                                    22559078.552 3  92375618.28803     -2887.495 3        18.925    22559080.746 5  92375635.28005     -2887.568 5        35.510
G15         9.000    20577417.592 8 108135275.15008     -2223.923 8        48.344                                    20577416.516 7  84261156.61007     -1732.928 7        44.008    20577417.663 7  84261077.59507     -1732.865 7        42.870
G23        10.000    23273414.867 6 122302814.77906     -1506.476 6        37.112                                                                                                    23273448.988 6  95300994.63406     -1173.789 6        39.532
E06        11.000                                                                                                                                    25612550.303 6 100509085.90906     -2609.388 6        36.662    25612549.420 5 103131151.18105     -2677.154 5        34.267
G24        12.000    21264135.202 6 111743866.12606      1361.885 6        40.026                                    21264142.664 3  87073075.91703      1061.215 3        22.552    21264143.015 4  87073107.91704      1061.524 4        28.540
E31        13.000    23829474.148 7 125224702.90507     -1931.648 7        43.915                                                                    23829476.975 8  93512010.87308     -1442.443 8        48.469    23829475.852 7  95951428.68507     -1480.079 7        47.315
G12        15.000    24005714.362 3                      2780.509 3        23.524
E24        16.000    24505074.879 6 128775002.83706       810.557 6        41.697                                                                    24505076.503 7  96163217.61307       605.167 7        43.033    24505074.108 6  98671848.94606       621.086 6        37.198
E04        17.000    27847607.704 3                     -3916.039 3        18.627                                                                                                                                    27847626.730 4                     -3000.271 4        25.263
E05        18.000    22699148.732 7 119284842.65207       305.133 7        43.700                                                                    22699151.766 7  89076341.25907       227.834 7        44.217    22699151.268 7  91400213.75107       233.797 7        43.232
E09        21.000    24336793.530 7 127890799.14107     -2594.403 7        46.956                                                                    24336796.623 7  95502745.76507     -1937.332 7        46.855    24336794.662 7  97994183.24207     -1987.845 7        46.340
R14        23.000    21545555.552 7 114849869.75207      1927.767 7        46.393                                                                    21545550.445 4  89328042.97004      1499.552 4        24.872
S23        24.000    38291615.261 5 201223865.84005      -858.756 5        34.724
E03        26.000    28040238.921 6 147352477.92806      2000.856 6        36.597                                                                    28040247.020 6 110035949.84306      1493.917 6        36.386    28040254.589 5 112906448.35105      1533.035 5        32.910
R13        27.000    19527058.520 6 104273411.86606     -1679.950 6        39.940
R04        29.000    20890890.950 7 111869743.38307      1639.687 7        46.274                                                                    20890881.115 7  87009846.97907      1275.298 7        45.198
S36        31.000    38358251.184 5 201574009.68705      -857.105 5        35.324
C07        32.000                                                                                                                                    39076138.321 5 203479706.44105     -1255.781 5        30.226    39076134.612 6 157343344.98706      -970.942 6        38.363    39076144.945 5                     -1020.417 5        32.036
C10        33.000                                                                                                                                    38638180.234 6 201199140.38406      -876.180 6        36.537    38638181.535 7 155579961.64807      -677.657 7        42.720    38638177.767 6 163490778.11206      -711.981 6        40.186
C36        34.000                                                                                                                                    23030484.189 7 119925737.07007     -2882.421 7        44.558                                                                    23030486.716 5  97449583.33605     -2342.650 5        31.608
R02        35.000    22700733.927 6 121135594.48006     -5329.602 6        41.735                                                                    22700753.202 5  94216497.87305     -4145.090 5        34.329
R03        36.000    19791129.952 8 105943492.60508     -2435.075 8        48.487                                                                    19791130.173 7  82400548.44207     -1893.981 7        43.869
C45        37.000                                                                                                                                    21813461.784 6 113588395.72406      -381.750 6        37.304                                                                    21813457.315 6  92299925.06906      -310.286 6        37.361
R12        38.000    21909240.878 6 117035150.99606     -4099.528 6        41.485                                                                    21909237.276 6  91027382.83506     -3188.578 6        38.117
C40        40.000                                                                                                                                    39170834.451 6 203972816.77006     -1444.713 6        38.799                                                                    39170848.298 5 165744644.55705     -1174.016 5        31.374
C30        43.000                                                                                                                                    24919332.575 4 129761566.41504       335.728 4        24.286                                                                    24919319.988 4                       272.491 4        29.270
C42        45.000                                                                                                                                    24895143.728 8 129635810.91608      1103.595 8        49.592                                                                    24895155.435 7 105339589.02407       896.867 7        45.533
C26        48.000                                                                                                                                    25118544.878 6 130798743.97306      1811.632 6        37.331                                                                    25118547.292 5 106284795.80215      1471.943 5        34.429
C22        51.000                                                                                                                                    24559203.086 5 127886208.54105     -4149.082 5        33.970                                                                    24559213.475 6 103918077.55706     -3371.827 6        36.095
C14        53.000                                                                                                                                                                                                    26862145.130 6 108162796.65406      1577.944 6        36.624    26862157.977 5 113662505.61605      1658.398 5        32.671
C21        55.000                                                                                                                                    23149739.877 6 120546788.48106     -1776.288 6        36.699                                                                    23149741.107 7  97954124.71007     -1443.397 7        44.310
I06        58.000    38359377.452 6 150530451.52006      -743.059 6        38.072
I02        59.000    37145201.510 6 145765738.69906      -448.168 6        39.841
> 2025 01 02 10 17 20.0000000  0 39
G13         1.000    21348515.870 7 112187166.33107     -3565.676 7        43.930                                    21348520.011 2  87418567.19902     -2778.442 2        14.762
G17         2.000    22153380.918 7 116416829.22507      -578.398 7        42.660                                    22153381.533 4  90714408.47404      -450.695 4        28.967    22153381.057 5  90714420.44305      -450.789 5        35.329
G19         4.000    22539118.360 7 118443822.28907      1747.529 7        42.637                                    22539116.812 3  92293950.17103      1361.697 3        22.838
G10         7.000    24988049.851 6 131313108.29806       900.925 6        37.739                                    24988070.159 1 102321893.89101       701.977 1        11.185    24988051.499 5                       701.947 5        30.777
G14         8.000    22562608.117 7 118567261.28307     -3706.332 7        43.384                                    22562604.842 3  92390057.19703     -2888.039 3        18.716    22562606.511 5  92390074.17605     -2888.079 5        34.786
G15         9.000    20579534.749 7 108146401.40307     -2226.692 7        47.726                                    20579534.151 7  84269826.41507     -1735.080 7        44.024    20579534.923 7  84269747.39707     -1735.091 7        43.001
G23        10.000                                                                                                                                                                    23274882.110 6  95306869.25706     -1176.058 6        38.628
E06        11.000    25615894.943 4 134612288.75604     -3495.004 4        27.904                                                                    25615875.337 6 100522134.00306     -2609.885 6        36.034    25615875.454 6 103144539.71206     -2678.094 6        36.068
G24        12.000    21262840.287 6 111737059.51006      1360.719 6        40.870                                    21262845.786 3  87067772.02603      1060.308 3        22.362    21262855.354 4  87067804.09304      1060.353 4        28.379
E31        13.000    23831311.708 7 125234363.47307     -1932.736 7        43.316                                                                    23831315.317 8  93519224.92508     -1443.295 8        48.405    23831314.021 7  95958830.93307     -1480.943 7        47.025
G12        15.000    24003069.102 4                      2779.789 4        27.808
E24        16.000    24504303.512 6 128770952.75906       809.341 6        41.683                                                                    24504305.634 7  96160193.21207       604.351 7        42.370    24504303.604 6  98668745.65206       620.263 6        37.123
E04        17.000    27851333.026 3                     -3915.255 3        20.262                                                                                                                                    27851350.889 4                     -3000.587 4        25.579
E05        18.000    22698858.673 7 119283320.16707       303.653 7        43.932                                                                    22698862.237 7  89075204.33407       226.814 7        44.831    22698861.508 7  91399047.17007       232.748 7        43.822
E09        21.000    24339261.806 7 127903773.76307     -2595.647 7        46.279                                                                    24339265.816 7  95512434.59507     -1938.342 7        46.999    24339263.558 7  98004124.82207     -1988.904 7        46.275
R14        23.000    21543745.766 7 114840233.51207      1926.598 7        45.899                                                                    21543741.781 4                      1498.458 4        28.038
S23        24.000    38292435.053 5 201228158.56805      -858.211 5        33.790
E03        26.000    28038334.991 6 147342472.95506      2001.006 6        37.444                                                                    28038342.678 5 110028478.58105      1494.148 5        35.752    28038353.906 5 112898782.16105      1533.098 5        31.577
R13        27.000    19528632.380 6 104281816.28006     -1681.940 6        40.961
R21        28.000    23582248.190 5 126193195.24215     -2382.509 5        33.898                                                                    23582267.528 4                     -1853.158 4        29.308
R04        29.000    20889358.745 7 111861552.30407      1636.523 7        42.713                                                                    20889350.762 7  87003476.08507      1272.874 7        45.005
S36        31.000    38359069.164 5 201578294.24005      -856.782 5        35.838
C07        32.000                                                                                                                                    39077342.395 5 203485985.37105     -1255.854 5        32.311    39077340.196 6 157348200.25306      -971.088 6        37.342    39077352.275 5                     -1020.584 5        32.862
C10        33.000                                                                                                                                    38639019.697 6 201203521.45606      -876.445 6        36.597    38639022.362 7 155583349.33507      -677.611 7        42.783    38639019.132 6 163494338.05906      -712.067 6        40.200
C36        34.000                                                                                                                                    23033251.962 7 119940149.83507     -2882.854 7        45.494                                                                    23033254.693 4  97461294.81704     -2341.917 4        29.877
R02        35.000    22705727.681 6 121162243.81406     -5330.364 6        40.908                                                                    22705749.920 5  94237225.07605     -4145.917 5        32.479
R03        36.000    19793406.728 8 105955677.41608     -2438.969 8        49.611                                                                    19793407.093 7  82410025.49607     -1896.901 7        44.667
C45        37.000                                                                                                                                    21813831.303 6 113590307.21606      -382.819 6        39.414                                                                    21813823.879 6  92301478.33806      -311.097 6        37.939
R12        38.000    21913080.010 6 117055649.25006     -4099.885 6        41.485                                                                    21913074.483 6  91043325.85206     -3188.647 6        38.595
C40        40.000                                                                                                                                    39172220.036 6 203980040.07306     -1444.795 6        38.222                                                                    39172234.406 4 165750514.03304     -1173.819 4        28.986
R22        41.000    22960162.811 4                      1133.039 4        25.910                                                                    22960211.520 3                       888.534 3        20.024
C30        43.000                                                                                                                                                                                                                                                                    24918996.989 4                       270.711 4        27.114
C42        45.000                                                                                                                                    24894084.994 8 129630296.93808      1101.805 8        49.859                                                                    24894096.698 7 105335108.45507       895.308 7        45.986
C26        48.000                                                                                                                                    25116805.207 6 130789686.35606      1811.491 6        37.372                                                                    25116807.812 5 106277435.70605      1471.702 5        33.725
C22        51.000                                                                                                                                    24563188.643 5 127906956.87205     -4150.098 5        32.090                                                                    24563194.492 5 103934937.18905     -3372.057 5        35.152
C14        53.000                                                                                                                                    26860211.464 5                      2039.809 5        30.596    26860187.909 6 108154908.48506      1577.083 6        36.760    26860201.044 5 113654216.30205      1657.818 5        33.407
C21        55.000                                                                                                                                    23151450.349 6 120555676.19006     -1778.886 6        37.788                                                                    23151448.136 7  97961346.67107     -1445.458 7        44.867
I06        58.000    38360323.532 6 150534165.88706      -742.911 6        38.483
I02        59.000    37145772.176 6 145767979.45906      -448.368 6        40.241
> 2025 01 02 10 17 25.0000000  0 38
G13         1.000    21351909.606 7 112205000.77707     -3568.222 7        45.172                                    21351913.248 2  87432464.14102     -2780.445 2        16.377
G17         2.000    22153936.117 7 116419730.18507      -582.003 7        43.723                                    22153932.594 5  90716668.94905      -453.503 5        30.679    22153932.797 5  90716680.90805      -453.431 5        35.624
G19         4.000    22537456.944 7 118435090.88807      1745.069 7        44.203                                    22537454.625 3  92287146.53603      1359.782 3        22.629
G10         7.000    24987196.191 6 131308610.88806       897.905 6        36.439                                    24987214.921 1 102318389.43701       699.615 1         9.905    24987200.795 5                       699.732 5        32.778
G14         8.000    22566136.129 7 118585797.20207     -3708.031 7        42.671                                    22566131.937 3  92404500.73403     -2889.354 3        18.418    22566134.135 5  92404517.71605     -2889.439 5        35.405
G15         9.000    20581654.851 7 108157544.10607     -2230.392 7        47.354                                    20581654.890 7  84278509.03907     -1737.968 7        43.860    20581654.971 7  84278430.02107     -1737.925 7        43.122
G23        10.000                                                                                                                                                                    23276318.925 6  95312756.23306     -1178.725 6        37.490
E06        11.000                                                                                                                                    25619202.344 5 100535186.20805     -2610.806 5        35.376    25619202.241 6 103157932.42106     -2679.164 6        37.490
G24        12.000    21261546.921 7 111730261.49807      1358.432 7        43.308                                    21261551.188 3  87062474.86403      1058.520 3        22.667    21261562.806 4  87062506.96604      1058.222 4        27.174
E31        13.000    23833151.383 7 125244031.81407     -1934.544 7        42.593                                                                    23833155.327 8  93526444.77508     -1444.705 8        48.684    23833153.585 7  95966239.13107     -1482.408 7        46.752
E24        16.000    24503533.796 6 128766910.49606       807.400 6        41.373                                                                    24503536.188 6  96157174.64006       602.971 6        41.209    24503533.686 5  98665648.32705       618.717 5        35.843
E04        17.000    27855058.711 3                     -3917.453 3        21.167                                                                                                                                    27855078.085 4                     -3000.872 4        26.024
E05        18.000    22698570.572 7 119281806.56907       301.585 7        44.086                                                                    22698574.521 7  89074074.05107       225.199 7        45.257    22698573.583 7  91397887.40607       231.087 7        44.065
E09        21.000    24341732.087 7 127916757.13207     -2597.779 7        45.854                                                                    24341736.414 7  95522129.94607     -1939.917 7        47.302    24341734.569 7  98014073.09907     -1990.467 7        46.424
R14        23.000    21541936.536 7 114830605.45007      1924.599 7        43.865                                                                    21541936.064 4                      1496.879 4        27.916
S23        24.000    38293244.796 5 201232451.03605      -858.639 5        34.105
E03        26.000    28036431.347 6 147332469.59606      2000.263 6        37.819                                                                    28036438.610 5 110021008.50905      1493.937 5        35.314    28036455.224 4 112891117.22604      1532.561 4        29.071
R13        27.000    19530208.261 6 104290232.79406     -1684.755 6        40.846
R21        28.000    23584476.218 5 126205119.27505     -2386.794 5        30.891                                                                    23584490.090 3                     -1858.271 3        21.952
R04        29.000                                                                                                                                    20887824.878 7  86997119.01807      1269.824 7        44.915
S36        31.000    38359877.777 5 201582578.66105      -856.953 5        34.724
C07        32.000                                                                                                                                    39078552.118 5 203492266.96905     -1256.820 5        31.170    39078547.389 6 157353057.57506      -971.960 6        37.656    39078557.234 5                     -1021.105 5        31.517
C10        33.000                                                                                                                                    38639860.563 5 201207905.37805      -877.344 5        34.562    38639864.500 7 155586739.25807      -678.409 7        43.391    38639860.829 6 163497900.35906      -713.017 6        40.019
C36        34.000                                                                                                                                    23036020.410 7 119954567.11307     -2884.172 7        46.093                                                                    23036021.072 4  97473010.04204     -2343.712 4        29.649
R02        35.000    22710722.390 6 121188898.93706     -5331.767 6        40.369                                                                    22710745.644 5  94257956.77905     -4146.704 5        30.883
R03        36.000    19795688.037 8 105967883.89708     -2443.677 8        50.376                                                                    19795687.658 7  82419519.41307     -1900.645 7        45.428
C45        37.000                                                                                                                                    21814200.361 6 113592226.55506      -384.859 6        41.285                                                                    21814192.119 6  92303037.99306      -312.721 6        36.843
R12        38.000    21916919.574 7 117076150.78807     -4100.981 7        42.207                                                                    21916911.559 6  91059271.45406     -3189.428 6        38.805
C40        40.000                                                                                                                                    39173607.503 6 203987266.82406     -1446.048 6        37.176                                                                    39173619.146 4 165756386.33604     -1175.016 4        29.536
R22        41.000                                                                                                                                    22959136.538 4                       878.640 4        28.256
C30        43.000                                                                                                                                    24918710.146 4                       330.443 4        27.401                                                                    24918674.656 4                       268.919 4        24.496
C42        45.000                                                                                                                                    24893028.244 8 129624794.11308      1099.302 8        49.228                                                                    24893040.045 7 105330636.96207       893.086 7        46.073
C26        48.000                                                                                                                                    25115064.455 6 130780631.79206      1810.563 6        36.306                                                                    25115067.302 5 106270078.04405      1471.159 5        32.892
C22        51.000                                                                                                                                    24567175.457 5 127927709.67405     -4151.540 5        32.359                                                                    24567175.676 5 103951800.51405     -3373.069 5        35.838
C14        53.000                                                                                                                                                                                                    26858231.543 6 108147025.16906      1576.095 6        38.132    26858242.139 5 113645932.17105      1655.855 5        32.329
C21        55.000                                                                                                                                    23153160.278 6 120564577.83406     -1782.085 6        38.979                                                                    23153157.893 7  97968579.97307     -1448.017 7        45.044
I06        58.000    38361270.677 6 150537880.12406      -742.967 6        37.664
I02        59.000    37146343.720 6 145770221.32106      -448.536 6        39.859
> 2025 01 02 10 17 30.0000000  0 38
G13         1.000    21355305.537 7 112222846.63107     -3570.325 7        45.655                                    21355308.730 2  87446369.97702     -2782.067 2        16.679
G17         2.000    22154493.970 7 116422647.51107      -585.163 7        43.420                                    22154486.909 5  90718942.16605      -455.971 5        31.358    22154488.013 6  90718954.13906      -455.665 6        36.287
G19         4.000    22535798.194 7 118426370.42707      1742.934 7        45.093                                    22535795.125 3  92280351.46003      1358.107 3        23.067
G10         7.000    24986351.783 5 131304127.55705       895.019 5        35.557                                    24986362.424 1 102314895.98201       697.403 1         8.571    24986350.579 5                       697.297 5        34.324
G14         8.000    22569664.114 6 118604339.77406     -3709.254 6        41.557                                    22569660.392 2  92418949.47602     -2890.330 2        17.774    22569663.309 5  92418966.45005     -2890.393 5        34.938
G15         9.000    20583778.522 7 108168703.99007     -2233.682 7        46.997                                    20583778.812 7  84287205.04507     -1740.532 7        43.769    20583778.943 7  84287126.03607     -1740.584 7        43.636
G23        10.000    23277763.771 6 122325480.38006     -1516.131 6        37.467                                    23277764.833 1  95318555.12111     -1181.376 1        11.852    23277760.967 6  95318656.13606     -1181.310 6        37.849
E06        11.000                                                                                                                                    25622533.528 5 100548243.15905     -2611.968 5        34.543    25622530.671 6 103171329.93006     -2680.019 6        39.426
G24        12.000    21260255.499 7 111723472.83407      1356.790 7        43.118                                    21260258.550 3  87057184.98103      1057.244 3        22.876    21260267.387 4  87057217.02604      1058.461 4        24.677
E31        13.000    23834993.175 7 125253708.68907     -1936.227 7        42.601                                                                    23834996.849 8  93533671.00308     -1445.836 8        48.647    23834995.052 7  95973653.87507     -1483.672 7        46.773
G12        15.000    23997749.409 5                      2778.840 5        35.624
E24        16.000    24502765.879 6 128762876.77106       805.745 6        41.266                                                                    24502767.967 6  96154162.48306       601.719 6        40.296    24502765.297 5  98662557.57205       617.497 5        34.267
E04        17.000    27858782.436 3                     -3913.319 3        19.761                                                                                                                                    27858803.890 4                     -3000.838 4        25.669
E05        18.000    22698284.808 7 119280302.62207       299.866 7        44.721                                                                    22698288.259 7  89072950.98407       223.861 7        45.229    22698287.584 7  91396735.05107       229.662 7        44.439
E09        21.000    24344204.902 7 127929749.97707     -2599.548 7        45.926                                                                    24344208.783 7  95531832.38207     -1941.164 7        47.296    24344207.130 7  98024028.64307     -1991.816 7        46.427
R14        23.000    21540129.843 7                      1922.827 7        42.290                                                                    21540138.812 5                      1495.733 5        32.653
S23        24.000    38294077.345 5 201236743.98805      -858.716 5        35.324
E03        26.000    28034528.038 6 147322468.61706      1999.839 6        37.520                                                                    28034535.192 5 110013540.22905      1493.425 5        35.057    28034558.275 4 112883454.01904      1533.201 4        27.904
R13        27.000    19531786.756 6 104298661.89506     -1687.154 6        41.056
R04        29.000    20886298.712 6 111845223.85306      1629.045 6        38.408                                                                    20886301.897 7  86990776.33607      1267.093 7        44.590
S36        31.000    38360683.031 5 201586863.12305      -857.119 5        33.898
C07        32.000                                                                                                                                    39079759.501 5 203498551.93605     -1257.600 5        30.589    39079754.841 6 157357917.51306      -972.247 6        38.369    39079760.655 5                     -1021.634 5        31.600
C10        33.000                                                                                                                                    38640702.918 5 201212292.84105      -877.827 5        34.819    38640707.585 7 155590131.91407      -678.822 7        42.904    38640703.573 6 163501465.51906      -713.616 6        40.386
C36        34.000                                                                                                                                    23038789.557 7 119968989.65307     -2885.068 7        45.728                                                                    23038788.761 4  97484729.52104     -2344.546 4        28.379
R02        35.000    22715718.577 6 121215560.69306     -5332.908 6        37.527                                                                    22715745.370 4  94278693.67004     -4148.055 4        27.748
R03        36.000    19797971.716 8 105980112.61308     -2447.980 8        49.668                                                                    19797972.277 7  82429030.64407     -1904.043 7        45.455
C45        37.000                                                                                                                                    21814570.432 6 113594154.50906      -386.449 6        41.669                                                                    21814562.288 6  92304604.63506      -314.054 6        37.346
R12        38.000    21920754.455 6 117096656.36506     -4101.631 6        39.688                                                                    21920749.712 6  91075220.22806     -3190.077 6        40.017
C40        40.000                                                                                                                                    39174997.444 5 203994497.67705     -1446.670 5        35.548                                                                    39175009.030 4 165762261.98304     -1175.583 4        29.175
R22        41.000                                                                                                                                    22958084.334 5                       876.352 5        31.525
C30        43.000                                                                                                                                    24918392.321 4                       328.449 4        27.365                                                                    24918355.083 3                       267.364 3        23.733
C42        45.000                                                                                                                                    24891973.364 8 129619303.21508      1096.934 8        48.256                                                                    24891985.712 7 105326175.14007       891.242 7        46.599
C26        48.000                                                                                                                                    25113324.554 5 130771580.94505      1809.690 5        35.652                                                                    25113327.874 5 106262723.45505      1470.416 5        32.018
C22        51.000                                                                                                                                    24571165.196 5 127948467.73505     -4152.407 5        33.108                                                                    24571161.684 6 103968668.13306     -3374.172 6        36.306
C14        53.000                                                                                                                                    26856312.504 4                      2036.657 4        28.379    26856275.572 6 108139147.31906      1574.977 6        39.258    26856285.560 5 113637653.68905      1654.970 5        32.305
C21        55.000                                                                                                                                    23154872.307 6 120573494.12106     -1784.827 6        41.387                                                                    23154870.102 7  97975825.22707     -1450.411 7        45.087
I06        58.000    38362217.022 6 150541594.81006      -742.896 6        37.342
I02        59.000    37146915.316 6 145772464.66206      -448.719 6        39.571
