     3.04           OBSERVATION DATA    M                   RINEX VERSION / TYPE
ssrcrin-15.6.1x                         20250102 031500 UTC PGM / RUN BY / DATE 
(00000000023479385599111004) Septentrio proprietary         COMMENT             
ract                                                        MARKER NAME         
01                                                          MARKER NUMBER       
geodetic                                                    MARKER TYPE         
NFB                 CLIMERS@TUW                             OBSERVER / AGENCY   
3296359             SEPT ASTERX SB3 PROB4.14.4              REC # / TYPE / VERS 
Unknown             Unknown                                 ANT # / TYPE        
  4127447.6749  1206915.0644  4695543.6993                  APPROX POSITION XYZ 
        0.0000        0.0000        0.0000                  ANTENNA: DELTA H/E/N
G   23 X1  C1C L1C D1C S1C C1W S1W C2W L2W D2W S2W C2L L2L  SYS / # / OBS TYPES 
       D2L S2L C5Q L5Q D5Q S5Q C1L L1L D1L S1L              SYS / # / OBS TYPES 
E   21 X1  C1C L1C D1C S1C C6C L6C D6C S6C C5Q L5Q D5Q S5Q  SYS / # / OBS TYPES 
       C7Q L7Q D7Q S7Q C8Q L8Q D8Q S8Q                      SYS / # / OBS TYPES 
S    9 X1  C1C L1C D1C S1C C5I L5I D5I S5I                  SYS / # / OBS TYPES 
R   17 X1  C1C L1C D1C S1C C2P L2P D2P S2P C2C L2C D2C S2C  SYS / # / OBS TYPES 
       C3Q L3Q D3Q S3Q                                      SYS / # / OBS TYPES 
C   25 X1  C1P L1P D1P S1P C5P L5P D5P S5P C2I L2I D2I S2I  SYS / # / OBS TYPES 
       C7I L7I D7I S7I C6I L6I D6I S6I C7D L7D D7D S7D      SYS / # / OBS TYPES 
J   17 X1  C1C L1C D1C S1C C2L L2L D2L S2L C5Q L5Q D5Q S5Q  SYS / # / OBS TYPES 
       C1L L1L D1L S1L                                      SYS / # / OBS TYPES 
I    5 X1  C5A L5A D5A S5A                                  SYS / # / OBS TYPES 
SEPTENTRIO RECEIVERS OUTPUT ALIGNED CARRIER PHASES.         COMMENT             
NO FURTHER PHASE SHIFT APPLIED IN THE RINEX ENCODER.        COMMENT             
G L1C                                                       SYS / PHASE SHIFT   
G L2W                                                       SYS / PHASE SHIFT   
G L2L  0.00000                                              SYS / PHASE SHIFT   
G L5Q  0.00000                                              SYS / PHASE SHIFT   
G L1L  0.00000                                              SYS / PHASE SHIFT   
E L1C  0.00000                                              SYS / PHASE SHIFT   
E L6C  0.00000                                              SYS / PHASE SHIFT   
E L5Q  0.00000                                              SYS / PHASE SHIFT   
E L7Q  0.00000                                              SYS / PHASE SHIFT   
E L8Q  0.00000                                              SYS / PHASE SHIFT   
S L1C                                                       SYS / PHASE SHIFT   
S L5I                                                       SYS / PHASE SHIFT   
R L1C                                                       SYS / PHASE SHIFT   
R L2P  0.00000                                              SYS / PHASE SHIFT   
R L2C                                                       SYS / PHASE SHIFT   
R L3Q  0.00000                                              SYS / PHASE SHIFT   
C L1P  0.00000                                              SYS / PHASE SHIFT   
C L5P  0.00000                                              SYS / PHASE SHIFT   
C L2I                                                       SYS / PHASE SHIFT   
C L7I                                                       SYS / PHASE SHIFT   
C L6I                                                       SYS / PHASE SHIFT   
C L7D                                                       SYS / PHASE SHIFT   
J L1C                                                       SYS / PHASE SHIFT   
J L2L  0.00000                                              SYS / PHASE SHIFT   
J L5Q  0.00000                                              SYS / PHASE SHIFT   
J L1L  0.00000                                              SYS / PHASE SHIFT   
I L5A                                                       SYS / PHASE SHIFT   
  2025     1     2     3    15    0.0000000     GPS         TIME OF FIRST OBS   
 C1C    0.000 C2C    0.000 C2P    0.000                     GLONASS COD/PHS/BIS 
DBHZ                                                        SIGNAL STRENGTH UNIT
    18                                                      LEAP SECONDS        
 24 R01  1 R02 -4 R03  5 R04  6 R05  1 R06 -4 R07  5 R08  6 GLONASS SLOT / FRQ #
    R09 -2 R10 -7 R11  0 R12 -1 R13 -2 R14 -7 R15  0 R16 -1 GLONASS SLOT / FRQ #
    R17  4 R18 -3 R19  3 R20  2 R21  4 R22 -3 R23  3 R24  2 GLONASS SLOT / FRQ #
                                                            END OF HEADER       
> 2025 01 02 03 15  0.0000000  0 40
G03         1.000    21421626.207 6 112571392.11906     -3281.288 6        41.759                                    21421621.800 5  87717901.57305     -2556.854 5        33.156    21421624.034 6  87717994.56806     -2556.740 6        37.887
G19         2.000    23512348.515 5 123558216.30005     -3507.897 5        30.981
G07         5.000    23611301.562 7 124078299.54907      2430.319 7        42.449                                    23611294.501 5  96684329.77205      1893.760 5        34.352    23611295.232 6  96684300.75406      1893.744 6        38.345
G09         6.000    20151099.846 8 105894739.56208       238.820 8        48.456                                    20151095.617 8  82515395.53708       186.090 8        49.040    20151096.723 7  82515382.55407       186.066 7        43.977
G31        10.000    23653397.928 5                     -3866.641 5        32.509                                                                                                    23653378.712 4                     -3013.503 4        24.015
G17        11.000    24877183.219 3                     -3766.728 3        22.952
G04        12.000    20118130.586 7 105721539.70407     -1649.017 7        46.576                                    20118125.768 5  82380343.30005     -1284.946 5        33.006    20118126.768 7  82380367.30707     -1284.907 7        44.491
E12        13.000    23946935.934 8 125842019.86308     -1454.919 8        49.780                                                                    23946931.299 7  93972917.75207     -1086.439 7        45.688    23946931.351 8  96424407.48808     -1114.834 8        48.981
E29        14.000    25016106.923 6 131460531.85006     -2949.069 6        39.375                                                                    25016105.813 7  98168571.25507     -2202.281 7        43.881    25016107.262 7 100729535.33607     -2259.736 7        47.050
G06        15.000    21334684.403 6 112114586.01606       367.162 6        37.013
E11        16.000    25648661.302 7 134784979.11607      1317.201 7        42.540                                                                    25648657.201 6 100650864.24206       983.561 6        37.966    25648657.886 6 103276521.02306      1009.659 6        37.081
E04        17.000    25839726.655 5 135788744.10505      1510.419 5        35.867                                                                    25839725.249 6 101400697.00006      1127.817 6        39.961    25839724.625 6 104045908.51906      1157.321 6        41.695
R08        18.000    20091401.554 7 107588684.35807       718.328 7        45.315                                                                    20091400.876 5  83679966.43705       558.377 5        34.533
E19        20.000    22783042.488 7 119725702.81007      -914.689 7        42.631                                                                    22783039.373 7  89405568.92207      -683.027 7        43.989    22783040.255 7  91737875.11807      -700.766 7        47.479
S36        23.000    38147261.402 5 200465296.40105      -851.740 5        35.548
S23        24.000    38091025.195 6 200169642.84206      -847.526 6        40.965
G11        25.000                                                                                                                                                                    24005811.142 5                      1798.490 5        30.370
R16        26.000                                                                                                                                    22256232.115 6  92469061.47806     -1514.776 6        37.146
E33        28.000    25911448.383 6 136165593.19306     -3842.961 6        40.193                                                                    25911448.021 6 101682093.05306     -2869.638 6        36.665    25911449.954 5 104334654.59905     -2944.450 5        35.995
E10        29.000    24198261.700 7 127162734.90607       -22.659 7        46.608                                                                    24198259.041 6  94959227.66706       -16.861 6        39.141    24198260.330 7  97436511.04007       -17.333 7        42.925
C20        31.000                                                                                                                                    21973024.955 7 114419461.87107      -121.848 7        45.797                                                                    21973018.575 6  92975063.35006       -99.339 6        39.051
R23        33.000    20007683.701 6 107027635.69806     -1677.113 6        41.740
R07        34.000    19803566.778 7 106010025.56207     -2378.996 7        47.178                                                                    19803567.217 7  82452264.38707     -1850.317 7        44.548
R22        35.000    21480675.137 5                     -4787.711 5        31.170                                                                    21480650.454 3                     -3723.855 3        23.029
C32        36.000                                                                                                                                    23278741.511 7 121218488.88307     -2832.862 7        43.975                                                                    23278742.298 6  98500001.09406     -2302.351 6        41.185
R09        37.000    21712148.841 6 115941634.90306      1673.753 6        41.459                                                                    21712140.098 5  90176941.77005      1301.783 5        33.611
C30        38.000                                                                                                                                    26055339.356 4                     -4206.540 4        24.436                                                                    26055330.804 3                     -3418.255 3        21.357
C23        40.000                                                                                                                                    24450969.049 6 127322632.10506      -567.682 6        36.881                                                                    24450957.521 6 103460068.90906      -461.244 6        38.667
C35        41.000                                                                                                                                    24748895.739 6 128873983.62506       316.413 6        38.622                                                                    24748895.023 6 104720690.29606       256.802 6        36.786
C37        42.000                                                                                                                                                                                                                                                                    24694104.042 6 104488817.29106      1487.138 6        38.390
R24        43.000                                                                                                                                    22609605.179 4                      1905.103 4        26.323
C16        45.000                                                                                                                                    39067826.064 4                     -1575.677 4        28.635    39067826.361 5                     -1218.285 5        30.347    39067833.761 4                     -1280.627 4        27.509
C39        46.000                                                                                                                                    39723344.277 3                     -1892.723 3        23.657
C09        47.000                                                                                                                                    38428535.164 6 200107497.27306     -1039.631 6        37.104    38428532.100 6 154735799.24006      -803.668 6        38.901    38428528.784 5 162603698.88305      -844.831 5        31.411
C19        48.000                                                                                                                                    24929849.150 6 129816539.71006      1691.888 6        36.745                                                                    24929844.597 6 105486320.50306      1374.743 6        39.601
C06        50.000                                                                                                                                    38520795.761 5 200587941.24205     -1515.837 5        31.238    38520807.619 5 155107353.05305     -1172.659 5        33.593    38520789.955 4 162994067.94504     -1232.193 4        28.863
C25        51.000                                                                                                                                    26307887.309 3                     -3030.377 3        23.467
C29        54.000                                                                                                                                    23591468.598 5 122846946.89805     -2811.175 5        34.338                                                                    23591474.483 6  99823270.77706     -2284.935 6        37.516
I01        57.000   380514720.202 6 190080699.11306     -3037.727 6        37.119
I09        58.000    37471611.795 5 147046654.19005      -932.071 5        32.988
> 2025 01 02 03 15  5.0000000  0 40
G03         1.000    21424748.730 7 112587803.51107     -3283.020 7        42.798                                    21424745.027 5  87730689.67305     -2558.198 5        34.362    21424747.155 6  87730782.66506     -2558.094 6        39.147
G19         2.000    23515685.799 4 123575762.36204     -3510.061 4        29.640
G07         5.000    23608989.461 7 124066150.95107      2429.414 7        42.973                                    23608982.945 5  96674863.32605      1893.050 5        34.724    23608982.926 6  96674834.33206      1892.980 6        38.826
G09         6.000    20150873.467 8 105893552.30608       236.387 8        48.451                                    20150869.326 8  82514470.41008       184.195 8        48.600    20150870.849 7  82514457.42107       184.196 7        43.958
G31        10.000    23657077.009 5                     -3868.748 5        30.483                                                                                                    23657062.479 4                     -3014.136 4        24.015
G17        11.000    24880766.952 3                     -3770.399 3        20.381
G04        12.000    20119700.938 7 105729791.38507     -1651.353 7        46.875                                    20119696.085 5  82386773.18005     -1286.769 5        33.904    20119696.987 7  82386797.19407     -1286.782 7        44.951
E12        13.000    23948321.594 8 125849301.46608     -1457.406 8        50.021                                                                    23948316.919 7  93978355.31007     -1088.260 7        45.726    23948316.988 8  96429986.89208     -1116.674 8        48.894
E29        14.000    25018914.475 6 131475280.58106     -2950.035 6        39.147                                                                    25018912.105 7  98179584.92807     -2202.954 7        43.344    25018913.907 7 100740836.32607     -2260.410 7        46.937
G06        15.000    21334335.219 5 112112759.65305       363.864 5        34.586
E11        16.000    25647409.048 7 134778398.14507      1315.542 7        42.874                                                                    25647404.698 6 100645949.88206       982.493 6        37.974    25647405.410 6 103271478.48906      1008.062 6        37.267
E04        17.000    25838289.917 5 135781195.97605      1509.299 5        35.181                                                                    25838289.022 6 101395060.40606      1126.960 6        39.796    25838287.988 6 104040124.88406      1156.345 6        41.254
R08        18.000    20090733.242 7 107585098.72807       716.270 7        45.199                                                                    20090731.760 5  83677177.60705       556.840 5        35.010
E19        20.000    22783913.887 7 119730281.02407      -916.409 7        42.205                                                                    22783910.668 7  89408987.71207      -684.292 7        44.111    22783911.467 7  91741383.09007      -702.120 7        47.622
S36        23.000    38148069.760 5 200469557.16105      -851.982 5        35.076
S23        24.000    38091834.129 6 200173881.99906      -847.727 6        40.841
G11        25.000    24003608.247 4 126139902.10214      2306.757 4        29.801                                                                                                    24003618.370 5  98290804.51115      1797.040 5        34.881
R16        26.000    22258047.559 4 118898674.77614     -1952.240 4        29.318                                                                    22258067.463 6  92476644.96406     -1518.281 6        36.212
E33        28.000    25915105.564 6 136184811.56006     -3844.108 6        40.694                                                                    25915105.673 6 101696444.41206     -2870.364 6        37.406    25915107.196 5 104349380.37705     -2945.788 5        35.476
E10        29.000    24198284.902 7 127162854.97007       -25.045 7        47.233                                                                    24198282.641 6  94959317.32506       -18.700 6        38.420    24198282.605 7  97436603.04507       -19.166 7        42.900
C20        31.000                                                                                                                                    21973142.807 7 114420075.96107      -123.401 7        45.896                                                                    21973136.661 6  92975562.32006      -100.257 6        40.141
R23        33.000    20009253.482 6 107036033.81606     -1681.827 6        40.296
R07        34.000    19805790.085 7 106021926.14207     -2380.804 7        46.386                                                                    19805790.164 7  82461520.37307     -1851.732 7        44.068
R22        35.000    21485153.396 5 114689224.01015     -4789.880 5        35.762                                                                    21485137.768 3                     -3726.904 3        19.791
C32        36.000                                                                                                                                    23281463.126 7 121232656.80207     -2833.946 7        43.507                                                                    23281463.289 6  98511513.67906     -2302.840 6        41.540
R09        37.000    21710585.182 6 115933274.74806      1670.626 6        41.268                                                                    21710577.749 5  90170439.47705      1299.144 5        34.143
C30        38.000                                                                                                                                    26059375.134 4                     -4206.503 4        24.526                                                                    26059368.370 3                     -3418.162 3        21.548
C23        40.000                                                                                                                                    24451516.018 6 127325477.27106      -570.416 6        38.673                                                                    24451503.747 6 103462380.87906      -463.562 6        38.027
C35        41.000                                                                                                                                    24748593.642 6 128872409.63406       313.524 6        38.736                                                                    24748592.483 6 104719411.28306       254.737 6        36.919
C37        42.000                                                                                                                                                                                                                                                                    24692347.444 6 104481384.26606      1486.042 6        38.667
R24        43.000                                                                                                                                    22607319.626 4                      1902.713 4        29.005
C16        45.000                                                                                                                                    39069339.002 4                     -1576.203 4        29.460    39069340.032 5                     -1218.696 5        30.332    39069347.271 4                     -1280.502 4        28.493
C39        46.000                                                                                                                                    39725162.483 4                     -1892.935 4        24.241
C09        47.000                                                                                                                                    38429534.306 6 200112697.71306     -1040.343 6        37.180    38429530.948 6 154739820.56806      -804.519 6        38.616    38429527.795 5 162607924.69005      -845.641 5        32.299
C19        48.000                                                                                                                                    24928230.001 5 129808082.42905      1691.275 5        34.033                                                                    24928220.095 6 105479448.24006      1374.211 6        39.574
C06        50.000                                                                                                                                    38522251.587 5 200595523.13505     -1516.737 5        32.497    38522264.564 5 155113215.83705     -1172.420 5        33.138    38522245.721 4 163000228.84304     -1232.705 4        28.787
C25        51.000                                                                                                                                    26310803.411 4                     -3032.000 4        24.586
C29        54.000                                                                                                                                    23594168.490 6 122861010.68606     -2813.950 6        36.953                                                                    23594172.352 5  99834698.79505     -2286.430 5        35.100
I01        57.000   380518591.141 6 190095889.69106     -3038.066 6        36.786
I09        58.000    37472799.889 5 147051315.65805      -932.042 5        33.210
> 2025 01 02 03 15 10.0000000  0 39
G03         1.000    21427872.944 7 112604222.92607     -3284.492 7        43.966                                    21427869.962 5  87743484.02105     -2559.344 5        35.910    21427871.483 6  87743577.03206     -2559.398 6        40.265
G19         2.000    23519026.144 4 123593317.30604     -3511.657 4        27.820
G07         5.000    23606678.392 7 124054006.51107      2428.739 7        43.202                                    23606672.149 5  96665400.12005      1892.527 5        35.067    23606672.137 6  96665371.11906      1892.485 6        39.390
G09         6.000    20150649.738 8 105892376.75708       234.158 8        48.689                                    20150645.356 8  82513554.39608       182.459 8        48.282    20150647.095 7  82513541.40007       182.383 7        44.056
G31        10.000    23660762.928 4                     -3870.957 4        24.842                                                                                                    23660744.928 3                     -3014.844 3        21.167
G17        11.000    24884346.629 3                     -3761.924 3        18.388
G04        12.000    20121273.911 7 105738054.42007     -1653.514 7        47.598                                    20121268.648 5  82393211.90805     -1288.457 5        34.890    20121269.804 7  82393235.92407     -1288.488 7        45.719
E12        13.000    23949709.619 8 125856594.94208     -1459.609 8        49.709                                                                    23949704.647 7  93983801.73907     -1089.998 7        45.734    23949704.882 8  96435575.40308     -1118.434 8        48.919
E29        14.000    25021722.869 6 131490033.18306     -2950.815 6        39.195                                                                    25021719.110 7  98190601.48407     -2203.390 7        42.851    25021721.353 7 100752140.27607     -2260.951 7        46.757
G06        15.000    21333991.005 5 112110948.93605       360.684 5        31.396                                                                                                    21333976.919 3                       280.982 3        22.724
E11        16.000    25646158.305 7 134771824.84707      1314.179 7        42.275                                                                    25646153.991 6 100641041.26606       981.257 6        38.093    25646155.002 6 103266441.81406      1007.069 6        37.028
E04        17.000    25836853.955 5 135773652.46005      1508.840 5        33.431                                                                    25836853.676 6 101389427.26906      1126.404 6        40.000    25836852.248 6 104034344.79706      1155.814 6        41.066
R08        18.000    20090066.211 7 107581522.58007       714.612 7        46.631                                                                    20090065.248 6  83674396.11106       555.549 6        36.544
E19        20.000    22784786.521 6 119734867.07506      -917.723 6        41.352                                                                    22784783.392 7  89412412.35807      -685.335 7        44.492    22784784.100 7  91744897.07307      -703.252 7        47.806
S36        23.000    38148879.423 5 200473817.97805      -851.650 5        35.048
S23        24.000    38092638.208 6 200178121.18006      -847.655 6        40.727
G11        25.000    24001421.385 5 126128373.69005      2305.267 5        32.479                                    24001414.236 1  98281779.24611      1796.348 1         7.500    24001423.617 6  98281821.20406      1796.293 6        36.711
R16        26.000                                                                                                                                    22259901.134 5  92484245.24605     -1521.691 5        35.995
E33        28.000    25918764.179 6 136204034.93706     -3844.871 6        40.682                                                                    25918764.094 6 101710799.52906     -2871.213 6        38.447    25918764.605 5 104364109.96405     -2946.184 5        34.795
E10        29.000    24198310.482 7 127162986.32407       -27.199 7        47.547                                                                    24198307.847 6  94959415.41706       -20.395 6        37.716    24198307.429 7  97436703.69707       -20.925 7        42.802
C20        31.000                                                                                                                                    21973261.826 7 114420697.16207      -124.725 7        45.977                                                                    21973256.228 6  92976067.07206      -101.354 6        40.536
R23        33.000    20010829.823 6 107044455.57206     -1686.478 6        40.193
R07        34.000    19808014.322 7 106033835.48107     -2382.536 7        46.133                                                                    19808015.192 7  82470783.20807     -1853.074 7        44.804
R22        35.000    21489636.732 6 114713178.95906     -4791.947 6        38.384                                                                    21489627.313 3                     -3727.766 3        19.940
C32        36.000                                                                                                                                    23284186.050 7 121246829.34607     -2834.682 7        44.352                                                                    23284185.015 7  98523030.01607     -2303.458 7        42.102
R09        37.000    21709023.017 6 115924930.97706      1667.460 6        40.682                                                                    21709015.348 5  90163949.91105      1297.043 5        34.900
C30        38.000                                                                                                                                    26063409.673 4                     -4206.118 4        26.491                                                                    26063408.338 3                     -3422.664 3        19.612
C23        40.000                                                                                                                                    24452063.925 6 127328336.41306      -573.022 6        40.439                                                                    24452053.056 6 103464704.16306      -465.601 6        37.248
C35        41.000                                                                                                                                    24748292.353 6 128870848.88606       311.175 6        38.664                                                                    24748292.909 6 104718143.03806       252.591 6        36.722
C37        42.000                                                                                                                                                                                                                                                                    24690592.421 6 104473956.74206      1485.196 6        38.724
R24        43.000                                                                                                                                    22605035.588 5                      1900.739 5        32.108
C16        45.000                                                                                                                                    39070853.361 4                     -1576.509 4        29.763    39070854.043 5                     -1219.076 5        30.792    39070860.920 4                     -1281.305 4        28.863
C39        46.000                                                                                                                                    39726979.630 4                     -1893.547 4        24.857
C09        47.000                                                                                                                                    38430533.676 6 200117901.49406     -1040.945 6        36.809    38430529.990 6 154743844.43106      -804.799 6        37.962    38430527.035 5 162612153.16705      -845.719 5        31.955
C19        48.000                                                                                                                                    24926606.501 5 129799627.94905      1691.791 5        30.264                                                                    24926596.082 6 105472578.22606      1374.075 6        39.192
C06        50.000                                                                                                                                    38523710.327 5 200603107.95505     -1517.117 5        32.910    38523720.179 5 155119080.95305     -1173.210 5        32.287    38523701.375 4 163006392.11904     -1232.712 4        27.533
C29        54.000                                                                                                                                    23596875.041 6 122875085.32706     -2815.923 6        38.919                                                                    23596870.384 5  99846135.62105     -2288.128 5        33.760
I01        57.000   380522462.885 6 190111080.89206     -3038.073 6        37.248
I09        58.000    37473987.959 5 147055977.83305      -932.409 5        32.802
> 2025 01 02 03 15 15.0000000  0 39
G03         1.000    21430999.380 7 112620650.03507     -3286.035 7        44.612                                    21430996.454 6  87756284.36906     -2560.551 6        37.304    21430997.128 6  87756377.37406     -2560.496 6        40.269
G19         2.000    23522368.372 3                     -3513.238 3        20.500
G07         5.000    23604368.022 7 124041865.86407      2427.942 7        43.236                                    23604362.064 5  96655939.87005      1891.898 5        35.429    23604362.261 6  96655910.87206      1891.819 6        39.688
G09         6.000    20150428.106 8 105891212.55608       231.855 8        48.076                                    20150423.698 8  82512647.22808       180.668 8        48.259    20150425.763 7  82512634.22207       180.728 7        44.590
G31        10.000                                                                                                                                                                    23664420.356 3                     -3017.569 3        19.343
G04        12.000    20122848.550 8 105746328.48008     -1655.776 8        48.739                                    20122843.477 5  82399659.23005     -1290.215 5        35.790    20122844.528 7  82399683.24307     -1290.192 7        46.234
E12        13.000    23951099.556 8 125863899.92208     -1461.902 8        49.585                                                                    23951094.716 7  93989256.75607     -1091.670 7        45.622    23951095.018 8  96441172.72908     -1120.203 8        48.898
E29        14.000    25024531.077 6 131504789.30606     -2951.364 6        39.703                                                                    25024526.941 7  98201620.67907     -2203.895 7        42.326    25024529.385 7 100763446.93107     -2261.460 7        46.652
G06        15.000                                                                                                                                                                    21333638.324 3                       279.549 3        23.676
E11        16.000    25644908.847 7 134765258.91207      1312.557 7        42.027                                                                    25644904.561 6 100636138.14406       980.088 6        38.066    25644905.697 6 103261410.78606      1005.839 6        36.983
E04        17.000    25835419.481 5 135766113.33805      1507.452 5        33.180                                                                    25835419.175 6 101383797.38306      1125.761 6        40.000    25835417.460 6 104028568.03906      1155.273 6        41.042
R08        18.000    20089401.670 7 107577955.78307       712.663 7        46.929                                                                    20089399.010 6  83671621.95906       554.127 6        38.520
E19        20.000    22785660.661 6 119739460.76406      -919.302 6        40.925                                                                    22785657.629 7  89415842.70107      -686.442 7        44.722    22785658.257 7  91748416.90707      -704.400 7        47.834
S36        23.000    38149685.375 5 200478078.39105      -851.993 5        35.000
S23        24.000    38093446.503 6 200182360.34906      -847.605 6        41.159
G11        25.000    23999230.173 5 126116852.75905      2303.523 5        35.448                                    23999222.600 1  98272801.88201      1794.924 1         8.762    23999229.998 6  98272843.86106      1795.100 6        38.432
R16        26.000                                                                                                                                    22261734.176 5  92491862.14105     -1525.038 5        33.647
E33        28.000    25922423.839 6 136223262.97606     -3845.915 6        40.992                                                                    25922423.171 6 101725158.12906     -2871.972 6        38.925    25922422.880 5 104378843.12005     -2946.777 5        34.362
E10        29.000    24198337.417 7 127163128.64207       -29.397 7        47.579                                                                    24198335.090 6  94959521.68006       -21.981 6        36.628    24198334.339 7  97436812.74507       -22.562 7        42.542
C20        31.000                                                                                                                                    21973382.962 7 114421325.12007      -126.060 7        45.898                                                                    21973377.064 6  92976577.35106      -102.538 6        40.982
R23        33.000    20012408.951 6 107052900.68106     -1691.143 6        39.237
R07        34.000    19810241.470 7 106045753.58507     -2384.325 7        46.062                                                                    19810241.405 7  82480052.84707     -1854.498 7        45.649
R22        35.000    21494125.979 6 114737144.39306     -4793.974 6        39.766                                                                    21494122.237 4                     -3728.904 4        25.143
C32        36.000                                                                                                                                    23286909.077 7 121261006.19007     -2835.582 7        45.112                                                                    23286907.921 7  98534549.87907     -2304.256 7        42.480
R09        37.000    21707464.556 6 115916603.14106      1664.208 6        39.321                                                                    21707455.196 5  90157472.76105      1294.256 5        35.124
C30        38.000                                                                                                                                    26067450.974 4                     -4205.232 4        24.767                                                                    26067448.431 3                     -3415.729 3        20.071
C23        40.000                                                                                                                                    24452614.759 6 127331209.20806      -575.803 6        41.611                                                                    24452605.384 6 103467038.57606      -468.046 6        36.953
C35        41.000                                                                                                                                    24747994.131 6 128869301.12506       308.402 6        39.051                                                                    24747996.001 6 104716885.35406       250.611 6        36.389
C37        42.000                                                                                                                                    24688849.175 4                      1825.125 4        26.108                                                                    24688838.791 6 104466534.51706      1484.178 6        38.769
R24        43.000                                                                                                                                    22602754.126 5                      1898.698 5        33.713
C16        45.000                                                                                                                                    39072366.272 5                     -1577.025 5        30.219    39072368.931 5                     -1219.411 5        31.525    39072374.354 4                     -1281.726 4        29.071
C39        46.000                                                                                                                                    39728792.135 4                     -1892.602 4        25.098
C09        47.000                                                                                                                                    38431532.924 6 200123108.27406     -1041.495 6        36.696    38431529.684 6 154747870.67306      -805.315 6        37.819    38431526.826 5 162616384.12505      -846.739 5        31.826
C19        48.000                                                                                                                                    24924981.049 4 129791175.93204      1690.252 4        27.964                                                                    24924972.770 6 105465710.27306      1373.453 6        39.048
C06        50.000                                                                                                                                    38525167.112 5 200610695.32405     -1517.610 5        33.054    38525177.225 5 155124948.00105     -1173.608 5        32.473    38525159.337 4 163012557.52504     -1234.006 4        27.042
C25        51.000                                                                                                                                    26316652.222 4                     -3036.774 4        26.647
C29        54.000                                                                                                                                    23599580.762 6 122889170.52006     -2817.895 6        39.580                                                                    23599575.710 5  99857581.01305     -2290.079 5        35.048
I01        57.000   380526333.156 6 190126272.49106     -3038.237 6        37.297
I09        58.000    37475176.290 5 147060640.38805      -932.511 5        32.886
> 2025 01 02 03 15 20.0000000  0 37
G03         1.000    21434126.867 7 112637084.75007     -3287.857 7        45.339                                    21434124.475 6  87769090.64606     -2561.968 6        38.054    21434124.530 6  87769183.65406     -2561.963 6        40.107
G07         5.000    23602058.484 7 124029728.90107      2426.891 7        43.374                                    23602052.641 5  96646482.49705      1891.081 5        35.395    23602052.241 6  96646453.50806      1891.100 6        39.964
G09         6.000    20150208.282 8 105890059.59208       229.361 8        48.112                                    20150204.324 8  82511748.81208       178.723 8        48.072    20150206.074 7  82511735.81007       178.767 7        45.025
G31        10.000                                                                                                                                                                    23668098.900 3                     -3018.521 3        20.238
G04        12.000    20124425.381 8 105754613.45708     -1658.184 8        49.924                                    20124420.489 6  82406115.05606     -1292.089 6        36.839    20124421.328 7  82406139.06707     -1292.132 7        46.485
E12        13.000    23952491.688 8 125871216.35308     -1464.491 8        49.311                                                                    23952486.980 7  93994720.33007     -1093.634 7        45.657    23952487.255 8  96446778.82608     -1122.151 8        48.938
E29        14.000    25027339.876 6 131519548.85806     -2952.193 6        40.336                                                                    25027335.564 7  98212642.43807     -2204.693 7        42.059    25027337.959 7 100774756.21607     -2262.276 7        46.556
G06        15.000                                                                                                                                                                    21333300.564 4                       276.022 4        27.940
E11        16.000    25643660.892 6 134758700.26306      1310.820 6        41.776                                                                    25643656.280 6 100631240.44906       978.883 6        38.195    25643657.101 6 103256385.32206      1004.355 6        37.074
E04        17.000    25833987.041 5 135758578.39905      1506.576 5        33.012                                                                    25833985.456 6 101378170.66406      1124.899 6        39.907    25833983.682 6 104022794.54006      1154.211 6        40.956
R08        18.000    20088737.285 7 107574398.07707       710.548 7        45.892                                                                    20088733.468 6  83668854.84606       552.596 6        39.186
E19        20.000    22786536.182 6 119744061.87606      -921.034 6        40.479                                                                    22786533.422 7  89419278.60007      -687.796 7        44.936    22786533.735 7  91751942.42607      -705.772 7        47.775
S36        23.000    38150503.378 5 200482338.40305      -852.465 5        35.100
S23        24.000    38094253.948 6 200186599.19206      -847.866 6        40.853
G11        25.000    23997039.559 6 126105339.15406      2301.825 6        36.930                                    23997032.770 1  98263830.28601      1793.661 1         9.238    23997038.352 6  98263872.25606      1793.674 6        38.844
E33        28.000    25926083.620 6 136242495.56306     -3846.930 6        41.118                                                                    25926082.933 6 101739520.11806     -2872.724 6        39.072    25926082.101 5 104393579.81205     -2947.721 5        34.109
E10        29.000    24198366.280 7 127163281.82507       -31.824 7        47.594                                                                    24198364.023 5  94959636.06405       -23.759 5        35.719    24198363.589 7  97436930.12007       -24.379 7        42.531
C20        31.000                                                                                                                                    21973505.332 7 114421959.76507      -127.718 7        46.092                                                                    21973499.113 6  92977093.03106      -103.764 6        41.628
R23        33.000    20013993.075 6 107061368.93106     -1696.105 6        40.312
R07        34.000    19812469.538 7 106057680.19207     -2386.231 7        46.683                                                                    19812469.479 7  82489329.09807     -1855.934 7        46.240
R22        35.000    21498617.057 6                     -4796.413 6        40.129                                                                    21498621.838 4                     -3730.815 4        26.060
C32        36.000                                                                                                                                    23289633.281 7 121275187.24807     -2836.751 7        45.345                                                                    23289631.335 7  98546073.13707     -2305.243 7        42.976
R09        37.000    21705909.447 5 115908291.23205      1660.879 5        35.519                                                                    21705900.038 6  90151007.99206      1291.669 6        36.681
C30        38.000                                                                                                                                    26071489.614 4                     -4206.147 4        25.158                                                                    26071487.804 3                     -3415.854 3        20.571
C23        40.000                                                                                                                                    24453174.038 6 127334095.53506      -578.674 6        41.707                                                                    24453159.728 6 103469383.96806      -470.455 6        36.839
C35        41.000                                                                                                                                    24747701.816 6 128867766.20906       305.707 6        40.396                                                                    24747700.931 6 104715638.11306       248.236 6        36.287
C37        42.000                                                                                                                                    24687092.132 4                      1825.079 4        28.209                                                                    24687086.175 6 104459117.50606      1482.531 6        39.132
R24        43.000                                                                                                                                    22600469.195 5  93998243.27215      1896.525 5        34.719
C16        45.000                                                                                                                                    39073881.991 5                     -1577.504 5        30.151    39073882.141 5                     -1219.753 5        32.090    39073888.638 4                     -1281.955 4        28.948
C39        46.000                                                                                                                                    39730603.813 3                     -1893.367 3        23.429
C09        47.000                                                                                                                                    38432534.558 6 200128318.00306     -1042.340 6        36.813    38432530.753 6 154751899.17606      -805.939 6        37.607    38432527.624 5 162620617.42605      -846.943 5        31.766
C19        48.000                                                                                                                                    24923356.638 4 129782726.28904      1689.405 4        26.575                                                                    24923350.197 6 105458844.23306      1372.726 6        38.811
C06        50.000                                                                                                                                    38526624.896 5 200618285.13905     -1518.362 5        33.419    38526634.454 5 155130816.90605     -1173.681 5        31.585    38526617.656 4 163018724.84804     -1234.099 4        27.904
C25        51.000                                                                                                                                    26319563.038 4                     -3038.558 4        24.722
C29        54.000                                                                                                                                    23602288.833 6 122903266.14806     -2820.337 6        39.841                                                                    23602286.873 6  99869034.83806     -2291.675 6        37.365
I01        57.000   380530204.865 6 190141464.42506     -3038.566 6        37.198
I09        58.000    37476364.976 5 147065303.29905      -932.598 5        32.754
> 2025 01 02 03 15 25.0000000  0 38
G03         1.000    21437255.835 7 112653527.54307     -3289.229 7        45.437                                    21437254.078 6  87781903.21806     -2563.037 6        38.492    21437253.715 6  87781996.22606     -2563.123 6        39.997
G07         5.000    23599749.498 7 124017596.18007      2426.280 7        43.107                                    23599743.911 5  96637028.42305      1890.604 5        35.305    23599743.021 6  96636999.42506      1890.623 6        39.964
G09         6.000    20149991.079 8 105888918.40908       227.159 8        48.376                                    20149987.267 8  82510859.57408       177.005 8        48.068    20149988.779 7  82510846.58107       176.917 7        45.088
G31        10.000    23671813.742 3                     -3877.865 3        21.143                                                                                                    23671794.830 3                     -3021.271 3        19.493
G04        12.000    20126003.591 8 105762909.84008     -1660.334 8        50.026                                    20125999.718 6  82412579.77306     -1293.765 6        37.384    20126000.068 7  82412603.78507     -1293.764 7        46.837
E12        13.000    23953886.545 8 125878544.73608     -1466.757 8        49.155                                                                    23953881.444 7  94000192.82907     -1095.364 7        45.375    23953881.869 8  96452394.08308     -1123.912 8        49.114
E29        14.000    25030149.230 6 131534312.35806     -2953.024 6        40.930                                                                    25030145.048 6  98223667.12606     -2205.146 6        41.840    25030147.228 7 100786068.50107     -2262.674 7        46.466
G06        15.000    21333036.634 6 112105607.52816       351.365 6        36.885                                                                                                    21332968.121 4                       273.745 4        29.649
E11        16.000    25642414.127 6 134752149.38106      1309.351 6        41.449                                                                    25642409.758 6 100626348.56006       977.916 6        38.513    25642410.004 6 103251365.80406      1003.542 6        37.017
E04        17.000    25832554.863 5 135751048.22805      1505.559 5        32.431                                                                    25832552.654 6 101372547.46406      1124.480 6        39.532    25832550.810 6 104017024.67506      1153.634 6        41.082
R08        18.000    20088072.746 7 107570849.91007       708.728 7        46.013                                                                    20088072.087 6  83666095.18506       551.242 6        39.970
E19        20.000    22787413.189 6 119748670.91606      -922.636 6        40.203                                                                    22787410.492 7  89422720.41207      -688.924 7        45.177    22787410.604 7  91755474.01707      -706.823 7        47.665
S36        23.000    38151312.120 5 200486598.36605      -852.019 5        35.109
S23        24.000    38095059.716 6 200190838.05606      -847.565 6        40.667
G11        25.000    23994849.738 6 126093833.43106      2300.385 6        38.090                                    23994844.166 1  98254864.78101      1792.459 1        10.444    23994848.249 6  98254906.76206      1792.515 6        39.126
R16        26.000    22265391.497 5                     -1969.385 5        33.808                                                                    22265399.454 5  92507145.99515     -1531.892 5        34.457
E33        28.000    25929744.152 6 136261733.22606     -3847.879 6        41.025                                                                    25929743.655 6 101753885.89806     -2873.552 6        38.709    25929741.516 5 104408320.32805     -2948.252 5        33.910
E10        29.000    24198397.541 7 127163446.38107       -33.860 7        47.346                                                                    24198394.797 5  94959758.94305       -25.377 5        34.490    24198395.103 7  97437056.21507       -25.999 7        42.296
C20        31.000                                                                                                                                    21973628.612 7 114422601.56507      -128.973 7        46.622                                                                    21973622.429 6  92977614.58106      -104.768 6        41.809
R23        33.000    20015580.256 6 107069860.90306     -1700.625 6        41.728
R07        34.000    19814699.711 7 106069615.60907     -2387.914 7        47.457                                                                    19814699.118 7  82498612.19207     -1857.322 7        46.355
R22        35.000    21503110.510 6                     -4798.109 6        39.808
C32        36.000                                                                                                                                    23292357.842 7 121289372.99607     -2837.581 7        45.728                                                                    23292355.901 7  98557600.23507     -2305.730 7        43.441
R09        37.000    21704352.664 4 115899995.73604      1656.890 4        28.218                                                                    21704347.497 6  90144555.94006      1289.114 6        38.715
C30        38.000                                                                                                                                    26075522.821 4                     -4205.150 4        24.677                                                                    26075524.906 3                     -3416.461 3        21.452
C23        40.000                                                                                                                                                                                                                                                                    24453716.461 6 103471740.82406      -472.559 6        37.119
C35        41.000                                                                                                                                    24747412.090 7 128866244.68907       302.980 7        42.064                                                                    24747408.388 5 104714401.74305       246.448 5        35.933
C37        42.000                                                                                                                                    24685335.795 4                      1823.859 4        27.952                                                                    24685334.626 6 104451706.13106      1481.751 6        38.952
R24        43.000    22598329.634 6 120842741.19216      2435.789 6        36.665                                                                    22598189.050 5  93988766.69905      1894.204 5        34.695
C16        45.000                                                                                                                                    39075398.909 5                     -1577.957 5        30.332    39075398.321 5                     -1220.242 5        32.719    39075403.364 4                     -1282.048 4        29.583
C39        46.000                                                                                                                                    39732420.539 3                     -1896.129 3        21.429
C09        47.000                                                                                                                                    38433535.267 6 200133531.15106     -1042.822 6        36.696    38433531.262 6 154755930.31906      -806.411 6        37.244    38433528.891 5 162624853.62105      -847.793 5        31.940
C19        48.000                                                                                                                                    24921735.160 4 129774279.54704      1688.537 4        26.683                                                                    24921728.563 6 105451980.57006      1372.626 6        38.598
C06        50.000                                                                                                                                    38528083.851 5 200625877.95005     -1518.532 5        33.731    38528091.401 5 155136688.17105     -1174.308 5        30.996    38528076.317 4 163024894.66304     -1234.200 4        27.126
C25        51.000                                                                                                                                    26322478.088 4                     -3040.074 4        26.168
C29        54.000                                                                                                                                    23604998.474 6 122917372.63606     -2822.103 6        39.414                                                                    23604996.860 6  99880497.55706     -2293.264 6        38.859
I01        57.000   380534076.569 6 190156657.05206     -3038.503 6        37.301
I09        58.000    37477552.278 5 147069966.90405      -932.558 5        32.431
> 2025 01 02 03 15 30.0000000  0 37
G03         1.000    21440386.150 7 112669978.15307     -3290.763 7        44.990                                    21440385.180 6  87794721.88706     -2564.229 6        38.535    21440384.597 6  87794814.88506     -2564.202 6        40.081
G07         5.000    23597441.489 7 124005467.43807      2425.352 7        42.523                                    23597435.883 5  96627577.45705      1889.881 5        35.210    23597434.323 6  96627548.46206      1890.103 6        39.835
G09         6.000    20149776.038 7 105887788.68607       224.895 7        47.955                                    20149772.469 8  82509979.26908       175.245 8        48.003    20149774.122 7  82509966.28307       175.283 7        45.449
G31        10.000    23675498.494 3                     -3877.837 3        22.857
G04        12.000    20127583.960 8 105771217.34908     -1662.474 8        49.832                                    20127581.117 6  82419053.16106     -1295.434 6        38.009    20127581.096 7  82419077.17207     -1295.434 7        47.118
E12        13.000    23955283.334 8 125885884.76308     -1469.077 8        49.106                                                                    23955278.312 7  94005674.02207     -1097.003 7        45.538    23955278.746 8  96458018.26708     -1125.677 8        49.066
E29        14.000    25032959.588 6 131549079.49606     -2953.727 6        41.652                                                                    25032955.285 6  98234694.53706     -2205.601 6        41.754    25032957.235 7 100797383.59107     -2263.216 7        46.380
G06        15.000                                                                                                                                                                    21332637.481 5                       271.407 5        30.264
E11        16.000    25641168.840 6 134745605.99306      1308.026 6        40.779                                                                    25641164.620 6 100621462.28106       976.643 6        38.637    25641164.510 6 103246352.07106      1002.116 6        36.904
E04        17.000    25831122.146 5 135743522.53405      1504.537 5        30.491                                                                    25831120.436 6 101366927.62006      1123.765 6        39.444    25831118.791 6 104011258.22106      1152.990 6        41.235
R08        18.000    20087411.730 7 107567311.16707       706.917 7        45.901                                                                    20087411.961 6  83663342.82806       549.853 6        40.451
E19        20.000    22788291.785 6 119753287.55806      -923.923 6        40.210                                                                    22788289.012 7  89426167.92707      -690.090 7        45.398    22788289.059 7  91759011.46307      -708.035 7        47.362
S36        23.000    38152129.640 5 200490858.48405      -851.804 5        35.124
S23        24.000    38095866.513 6 200195076.68006      -847.635 6        40.639
G11        25.000    23992663.652 6 126082335.31106      2298.985 6        38.513                                    23992656.934 1  98245905.22801      1791.436 1        11.185    23992659.193 6  98245947.18006      1791.433 6        39.435
R16        26.000    22267242.690 5                     -1973.582 5        32.976                                                                    22267247.502 5  92514813.01505     -1535.006 5        30.785
E33        28.000    25933405.535 6 136280975.66406     -3848.871 6        41.366                                                                    25933404.834 6 101768255.23606     -2874.177 6        38.492    25933402.535 5 104423064.52205     -2948.998 5        33.563
E10        29.000    24198430.674 7 127163622.04507       -36.138 7        47.026                                                                    24198427.107 5  94959890.12905       -26.908 5        32.934    24198428.740 7  97437190.82107       -27.777 7        42.332
C20        31.000                                                                                                                                    21973753.055 7 114423250.28007      -130.360 7        47.705                                                                    21973746.856 7  92978141.69507      -105.976 7        42.017
R23        33.000    20017171.587 7 107078376.20007     -1705.243 7        42.391
R07        34.000    19816931.492 7 106081559.90007     -2389.655 7        47.934                                                                    19816930.236 7  82507902.18207     -1858.682 7        46.366
R22        35.000    21507606.056 6 114809104.31916     -4800.485 6        38.889                                                                    21507595.043 4                     -3733.493 4        28.919
C32        36.000                                                                                                                                    23295083.033 7 121303563.16107     -2838.367 7        45.937                                                                    23295081.121 7  98569130.89907     -2306.551 7        43.820
R09        37.000                                                                                                                                    21702796.642 6  90138116.43306      1286.778 6        38.823
C30        38.000                                                                                                                                    26079559.466 3                     -4203.667 3        23.524                                                                    26079563.796 3                     -3417.906 3        21.071
C23        40.000                                                                                                                                    24454311.007 6 127339910.20906      -584.100 6        37.709                                                                    24454276.098 6 103474108.83706      -474.828 6        37.149
C35        41.000                                                                                                                                    24747122.991 7 128864736.27207       300.598 7        42.620                                                                    24747118.326 5 104713176.00605       244.093 5        34.862
C37        42.000                                                                                                                                    24683591.343 4                      1821.266 4        25.263                                                                    24683584.530 6 104444300.08206      1480.685 6        38.808
R24        43.000                                                                                                                                    22595909.475 5  93979300.96605      1892.087 5        34.652
C16        45.000                                                                                                                                    39076916.770 5                     -1578.197 5        31.147    39076913.472 5                     -1220.409 5        32.383    39076918.413 4                     -1282.584 4        29.848
C09        47.000                                                                                                                                    38434536.398 6 200138747.45506     -1043.344 6        36.665    38434533.258 6 154759963.88706      -806.937 6        36.968    38434530.661 5 162629092.24705      -848.349 5        32.263
C19        48.000                                                                                                                                    24920117.171 4 129765835.24104      1688.816 4        26.335                                                                    24920107.261 6 105445118.96606      1372.121 6        38.399
C06        50.000                                                                                                                                    38529543.348 5 200633473.42905     -1519.454 5        34.786    38529551.024 5 155142561.49905     -1174.952 5        31.645    38529534.857 4 163031066.61804     -1234.776 4        26.719
C25        51.000                                                                                                                                    26325391.091 4                     -3041.435 4        24.797
C29        54.000                                                                                                                                    23607708.701 6 122931489.80306     -2824.445 6        37.769                                                                    23607706.107 6  99891968.84706     -2295.197 6        39.138
I01        57.000   380537948.511 6 190171850.14206     -3038.608 6        37.501
I09        58.000    37478742.049 5 147074630.99505      -932.570 5        32.659
> 2025 01 02 03 15 35.0000000  0 38
G03         1.000    21443517.968 7 112686436.29407     -3292.650 7        44.512                                    21443517.695 6  87807546.42206     -2565.702 6        38.571    21443517.037 6  87807639.41106     -2565.637 6        40.114
G07         5.000    23595134.010 6 123993342.37106      2424.419 6        41.759                                    23595128.467 5  96618129.35205      1889.161 5        34.986    23595127.382 6  96618100.36306      1889.277 6        39.799
G09         6.000    20149562.875 7 105886670.17507       222.326 7        47.527                                    20149559.852 8  82509107.70108       173.241 8        48.105    20149561.366 7  82509094.71207       173.201 7        45.714
G31        10.000    23679190.703 4                     -3881.422 4        24.361
G04        12.000    20129167.140 8 105779535.69408     -1665.003 8        49.205                                    20129164.563 6  82425534.99506     -1297.406 6        38.357    20129164.325 7  82425559.00607     -1297.372 7        47.401
E12        13.000    23956682.107 8 125893236.15508     -1471.614 8        48.967                                                                    23956677.255 7  94011163.69707     -1098.943 7        45.532    23956677.662 8  96463651.15108     -1127.639 8        49.195
E29        14.000    25035770.202 6 131563849.99406     -2954.727 6        41.783                                                                    25035766.312 6  98245724.45606     -2206.500 6        41.931    25035767.708 7 100808701.25407     -2264.047 7        46.133
G06        15.000                                                                                                                                                                    21332307.605 4                       269.325 4        29.896
E11        16.000    25639925.219 6 134739069.84606      1306.235 6        40.253                                                                    25639921.042 6 100616581.40006       975.573 6        38.979    25639920.029 6 103241343.86006      1000.976 6        36.605
E04        17.000    25829690.599 4 135736001.03104      1503.107 4        28.190                                                                    25829689.019 6 101361310.90906      1122.572 6        39.222    25829687.610 6 104005494.97906      1152.172 6        41.373
R08        18.000    20086752.352 7 107563781.45907       704.744 7        45.100                                                                    20086753.150 6  83660597.51006       548.014 6        41.304
E19        20.000    22789171.773 6 119757911.63706      -925.882 6        40.420                                                                    22789168.909 7  89429620.95707      -691.308 7        45.550    22789168.836 7  91762554.57507      -709.326 7        47.115
S36        23.000    38152936.544 5 200495118.07005      -851.985 5        35.276
S23        24.000    38096672.649 6 200199315.04806      -847.888 6        40.532
G11        25.000    23990475.929 6 126070844.55406      2297.204 6        37.384                                    23990470.807 2  98236951.38302      1790.019 2        12.606    23990471.989 6  98236993.32006      1790.062 6        39.324
R16        26.000    22269092.095 5 118957496.93315     -1978.031 5        34.638                                                                    22269093.368 4  92522496.54104     -1538.571 4        29.431
E33        28.000    25937067.822 6 136300222.56406     -3850.088 6        41.144                                                                    25937066.492 6 101782627.91606     -2875.098 6        37.713    25937064.548 5 104437812.14305     -2950.047 5        33.599
E10        29.000    24198465.766 7 127163808.53307       -38.685 7        46.056                                                                    24198461.828 5  94960029.38105       -28.751 5        31.819    24198464.472 7  97437333.71707       -29.656 7        42.318
C20        31.000                                                                                                                                    21973879.068 8 114423905.59708      -131.912 8        48.712                                                                    21973872.595 7  92978674.20007      -107.146 7        42.186
R23        33.000    20018767.802 7 107086914.69507     -1710.340 7        42.796
R07        34.000    19819164.352 8 106093512.57108     -2391.628 8        48.276                                                                    19819163.202 7  82517198.68707     -1860.164 7        47.175
R22        35.000    21512103.053 5 114833111.89905     -4802.730 5        35.519                                                                    21512097.596 5                     -3735.270 5        32.886
C32        36.000                                                                                                                                    23297809.374 7 121317757.47507     -2839.502 7        45.372                                                                    23297806.954 7  98580664.92507     -2307.205 7        43.913
R09        37.000                                                                                                                                    21701248.961 6  90131689.31516      1284.023 6        38.492
C30        38.000                                                                                                                                    26083594.032 3                     -4203.210 3        22.476                                                                    26083601.814 3                     -3418.594 3        21.810
C23        40.000                                                                                                                                                                                                                                                                    24454838.167 6 103476487.80906      -477.003 6        37.176
C35        41.000                                                                                                                                    24746835.233 7 128863240.69607       297.595 7        42.580                                                                    24746830.856 5 104711960.72005       241.831 5        33.539
C37        42.000                                                                                                                                                                                                                                                                    24681835.575 6 104436899.25706      1479.537 6        38.637
R24        43.000                                                                                                                                    22593636.650 6  93969845.86406      1889.883 6        36.302
C16        45.000                                                                                                                                    39078432.002 5                     -1578.756 5        30.755    39078429.683 5                     -1221.044 5        33.383    39078432.911 5                     -1282.994 5        30.506
C39        46.000                                                                                                                                    39736021.416 3                     -1891.919 3        19.851
C09        47.000                                                                                                                                    38435539.721 6 200143966.60806     -1044.306 6        36.983    38435535.484 6 154763999.66106      -807.485 6        36.503    38435532.975 5 162633333.20505      -848.443 5        31.917
C19        48.000                                                                                                                                    24918504.006 4 129757393.31004      1688.109 4        29.649                                                                    24918486.471 6 105438259.28106      1371.427 6        38.069
C06        50.000                                                                                                                                    38531002.529 5 200641071.28405     -1519.985 5        35.119    38531010.993 5 155148436.67605     -1175.768 5        31.653    38530995.375 4 163037240.48104     -1235.386 4        26.826
C25        51.000                                                                                                                                    26328312.210 4                     -3043.973 4        25.218
C29        54.000                                                                                                                                    23610422.220 6 122945617.29406     -2826.928 6        36.703                                                                    23610417.576 6  99903448.52406     -2296.848 6        39.189
I01        57.000   380541820.138 6 190187043.53206     -3039.007 6        37.875
I09        58.000    37479929.846 5 147079295.38605      -933.133 5        32.635
> 2025 01 02 03 15 40.0000000  0 39
G03         1.000    21446651.331 7 112702902.56107     -3294.192 7        44.736                                    21446651.604 6  87820377.27906     -2566.900 6        38.342    21446650.855 6  87820470.27606     -2567.070 6        39.754
G19         2.000    23539123.752 3                     -3521.767 3        23.619
G07         5.000    23592827.019 6 123981221.66106      2423.617 6        40.696                                    23592821.745 5  96608684.64805      1888.531 5        34.633    23592820.322 6  96608655.65406      1888.450 6        39.141
G09         6.000    20149352.570 7 105885563.47107       220.010 7        46.947                                    20149349.556 8  82508245.33308       171.436 8        48.291    20149350.781 7  82508232.34107       171.386 7        45.901
G31        10.000    23682886.853 4                     -3883.526 4        24.977
G17        11.000    24905873.668 3                     -3769.077 3        22.076
G04        12.000    20130752.381 8 105787865.48908     -1667.259 8        49.343                                    20130750.142 6  82432025.75406     -1299.164 6        38.625    20130749.399 7  82432049.75207     -1299.154 7        47.235
E12        13.000    23958083.298 8 125900599.55108     -1474.040 8        48.766                                                                    23958078.485 7  94016662.34507     -1100.772 7        45.592    23958078.839 8  96469293.23908     -1129.433 8        49.216
E29        14.000    25038581.811 7 131578624.43907     -2955.490 7        42.504                                                                    25038578.050 7  98256757.31607     -2206.927 7        42.212    25038579.016 7 100820021.93407     -2264.577 7        46.210
G06        15.000    21331961.628 6 112100405.74006       341.882 6        40.455                                                                                                    21331976.857 4                       266.623 4        28.464
E11        16.000    25638682.951 6 134732541.53306      1304.860 6        40.086                                                                    25638678.436 6 100611706.37406       974.266 6        39.150    25638677.120 6 103236341.66006       999.871 6        36.518
E04        17.000    25828259.390 4 135728484.26704      1503.360 4        25.083                                                                    25828258.439 6 101355697.73806      1122.223 6        39.000    25828257.329 6 103999735.40306      1151.525 6        41.538
R08        18.000    20086094.586 7 107560261.44107       702.935 7        44.700                                                                    20086094.914 6  83657859.70706       546.664 6        41.085
E19        20.000    22790053.343 6 119762543.66806      -927.263 6        40.703                                                                    22790050.441 7  89433079.94507      -692.500 7        45.675    22790050.099 7  91766103.79407      -710.527 7        46.720
S36        23.000    38153744.513 5 200499378.19405      -852.307 5        34.990
S23        24.000    38097478.475 6 200203553.78006      -847.698 6        40.515
G11        25.000    23988286.959 5 126059361.72005      2295.837 5        34.219                                    23988286.527 2  98228003.68702      1788.965 2        12.303    23988287.381 6  98228045.64606      1788.644 6        39.135
R16        26.000    22270947.644 5 118967397.74605     -1982.358 5        34.867                                                                    22270948.142 4  92530197.04204     -1541.482 4        29.147
E33        28.000    25940730.946 6 136319474.57506     -3851.030 6        40.627                                                                    25940728.779 6 101797004.39806     -2875.652 6        36.586    25940728.046 5 104452563.67005     -2950.739 5        33.599
E10        29.000    24198503.815 7 127164006.45807       -40.846 7        45.673                                                                    24198499.189 5  94960177.18205       -30.978 5        30.362    24198502.250 7  97437485.36807       -31.297 7        42.542
C20        31.000                                                                                                                                    21974006.401 8 114424568.15808      -133.370 8        49.451                                                                    21973999.671 7  92979212.58207      -108.271 7        42.252
R23        33.000    20020367.871 7 107095476.82607     -1714.887 7        43.397
R07        34.000    19821399.361 8 106105474.24708     -2393.457 8        48.496                                                                    19821398.205 8  82526502.20608     -1861.612 8        48.094
R22        35.000    21516601.874 5 114857130.32215     -4804.509 5        30.725                                                                    21516597.439 5  89333265.92915     -3737.334 5        34.943
C32        36.000                                                                                                                                    23300537.081 7 121331956.53407     -2840.389 7        44.906                                                                    23300533.621 7  98592202.83307     -2308.045 7        44.062
R09        37.000    21699762.792 5                      1647.981 5        30.143                                                                    21699704.730 6  90125274.97206      1281.577 6        38.105
C30        38.000                                                                                                                                    26087629.792 3                     -4206.261 3        23.048                                                                    26087639.913 3                     -3416.802 3        23.105
C23        40.000                                                                                                                                    24455402.341 5 127345779.71705      -589.943 5        31.042                                                                    24455402.683 6 103478878.27606      -479.144 6        37.248
C35        41.000                                                                                                                                    24746550.464 7 128861758.53407       294.951 7        42.138                                                                    24746545.581 5 104710756.33905       239.830 5        32.563
C37        42.000                                                                                                                                    24680118.265 4                      1819.659 4        27.413                                                                    24680087.984 6 104429504.14006      1478.311 6        38.402
R24        43.000                                                                                                                                    22591366.189 6  93960401.97806      1887.785 6        36.060
C16        45.000                                                                                                                                    39079952.228 5                     -1579.311 5        30.996    39079946.202 5                     -1221.256 5        33.293    39079949.538 5                     -1283.371 5        30.257
C09        47.000                                                                                                                                    38436543.707 6 200149189.23906     -1045.129 6        37.758    38436537.916 6 154768038.13506      -808.096 6        36.450    38436535.932 5 162637577.02505      -849.019 5        32.485
C19        48.000                                                                                                                                    24916883.730 4 129748954.41404      1687.585 4        29.223                                                                    24916865.648 6 105431401.98706      1371.136 6        38.123
C06        50.000                                                                                                                                    38532462.273 5 200648672.15105     -1520.472 5        35.824    38532470.900 5 155154314.11805     -1175.725 5        31.758    38532454.531 4                     -1235.560 4        25.744
C25        51.000                                                                                                                                    26331236.888 4                     -3046.050 4        25.383
C29        54.000                                                                                                                                    23613140.957 6 122959755.70306     -2828.869 6        36.862                                                                    23613131.642 6  99914937.08406     -2298.555 6        38.757
I01        57.000   380545691.900 6 190202237.65806     -3039.069 6        38.138
I09        58.000    37481119.112 5 147083960.54105      -933.326 5        32.443
> 2025 01 02 03 15 45.0000000  0 38
G03         1.000    21449786.347 7 112719376.50607     -3295.576 7        44.953                                    21449786.865 6  87833214.12206     -2567.983 6        37.996    21449785.193 6  87833307.10706     -2568.028 6        39.252
G07         5.000    23590521.191 6 123969104.82106      2423.140 6        40.613                                    23590515.586 5  96599242.96105      1888.163 5        34.019    23590514.840 6  96599213.96606      1887.985 6        38.715
G09         6.000    20149144.783 7 105884468.11607       217.921 7        46.420                                    20149141.451 8  82507391.81108       169.809 8        48.555    20149142.284 7  82507378.82007       169.740 7        45.880
G31        10.000    23686586.226 4                     -3885.400 4        27.437
G04        12.000    20132340.025 8 105796206.27008     -1669.210 8        49.703                                    20132337.676 6  82438525.07106     -1300.683 6        38.796    20132336.517 7  82438549.06507     -1300.748 7        47.129
E12        13.000    23959486.521 8 125907974.46408     -1476.116 8        48.574                                                                    23959481.998 7  94022169.58507     -1102.293 7        45.603    23959482.294 8  96474944.14708     -1131.047 8        49.456
E29        14.000    25041394.143 7 131593402.38807     -2955.891 7        42.502                                                                    25041390.482 7  98267792.81407     -2207.334 7        42.588    25041391.124 7 100831345.31807     -2265.002 7        46.103
G06        15.000                                                                                                                                                                    21331650.902 4                       264.246 4        28.502
E11        16.000    25637442.530 6 134726020.63006      1303.670 6        39.501                                                                    25637437.526 6 100606836.87606       973.454 6        39.544    25637436.258 6 103231345.13506       998.837 6        36.484
E04        17.000    25826824.541 3                      1500.999 3        20.167                                                                    25826829.076 6 101350087.85106      1121.803 6        38.850    25826827.775 6 103993979.18506      1150.908 6        41.678
R08        18.000    20085438.974 7 107556750.64907       701.292 7        45.506                                                                    20085439.414 6  83655129.09106       545.368 6        41.328
E19        20.000    22790936.503 6 119767183.23206      -928.674 6        40.327                                                                    22790933.329 7  89436544.55907      -693.521 7        45.767    22790932.805 7  91769658.78607      -711.490 7        46.368
S36        23.000    38154557.320 5 200503637.62105      -851.861 5        35.224
S23        24.000    38098283.649 6 200207792.20206      -847.437 6        40.417
G11        25.000    23986101.390 4 126047886.38104      2293.927 4        28.825                                    23986103.472 2  98219061.87602      1787.480 2        13.212    23986104.686 6  98219103.85406      1787.752 6        39.474
R16        26.000    22272804.950 5 118977319.80105     -1986.556 5        35.048                                                                    22272803.263 4  92537914.21304     -1544.623 4        29.327
E33        28.000    25944395.108 6 136338731.20506     -3851.753 6        39.474                                                                    25944392.207 5 101811384.33905     -2876.039 5        35.624    25944391.832 5 104467318.73405     -2951.477 5        33.737
E10        29.000    24198544.191 7 127164215.38307       -42.910 7        45.591                                                                    24198538.140 4  94960333.20504       -31.713 4        29.469    24198542.053 7  97437645.44807       -32.769 7        42.637
C20        31.000                                                                                                                                    21974134.577 8 114425237.50508      -134.558 8        49.802                                                                    21974128.127 7  92979756.50707      -109.490 7        42.330
R23        33.000    20021972.275 7 107104062.31507     -1719.338 7        44.679
R07        34.000    19823635.599 8 106117444.37308     -2394.849 8        48.597                                                                    19823634.570 8  82535812.29408     -1862.670 8        48.173
R22        35.000    21521101.983 4 114881159.24804     -4806.993 4        27.964                                                                    21521099.450 6  89351955.09306     -3738.872 6        36.178
C32        36.000                                                                                                                                    23303265.101 7 121346159.89907     -2841.076 7        44.372                                                                    23303261.193 7  98603744.24407     -2308.639 7        44.284
R09        37.000    21698216.478 5                      1644.459 5        32.796                                                                    21698163.892 6  90118873.12506      1279.117 6        38.099
C30        38.000                                                                                                                                    26091669.778 3                     -4204.870 3        22.038                                                                    26091676.335 3                     -3413.635 3        22.952
C23        40.000                                                                                                                                    24455978.881 4 127348735.24804      -592.286 4        29.384                                                                    24455970.466 6 103481279.87206      -481.520 6        37.214
C35        41.000                                                                                                                                    24746267.942 6 128860289.39206       292.576 6        41.883                                                                    24746261.848 5 104709562.56605       237.833 5        30.558
C37        42.000                                                                                                                                    24678369.570 4                      1818.292 4        29.118                                                                    24678341.667 6 104422114.35606      1477.366 6        38.390
R24        43.000                                                                                                                                    22589099.061 6  93950968.85906      1885.453 6        36.113
C16        45.000                                                                                                                                                                                                    39081463.334 5                     -1221.767 5        33.126    39081465.847 5                     -1283.720 5        31.313
C39        46.000                                                                                                                                    39739658.764 3                     -1893.516 3        20.381
C09        47.000                                                                                                                                    38437548.078 6 200154414.86106     -1045.231 6        38.186    38437541.213 6 154772078.93406      -808.319 6        36.382    38437539.522 5 162641823.30205      -849.514 5        32.641
C19        48.000                                                                                                                                                                                                                                                                    24915245.416 6 105424546.72406      1370.836 6        37.977
C06        50.000                                                                                                                                    38533922.416 6 200656275.56606     -1521.007 6        36.042    38533929.601 5 155160193.56905     -1176.125 5        31.472    38533915.816 4 163049596.23614     -1236.396 4        25.414
C25        51.000                                                                                                                                    26334165.948 3                     -3047.173 3        23.219
C29        54.000                                                                                                                                    23615861.816 6 122973904.60906     -2830.782 6        37.883                                                                    23615847.621 6  99926434.20406     -2300.320 6        38.072
I01        57.000   380549563.733 6 190217432.15806     -3038.896 6        38.420
I09        58.000    37482307.674 5 147088626.10005      -933.247 5        32.449
> 2025 01 02 03 15 50.0000000  0 40
G03         1.000    21452922.585 7 112735858.35407     -3297.262 7        44.855                                    21452923.337 6  87846057.11706     -2569.295 6        37.146    21452920.727 6  87846150.09506     -2569.445 6        38.234
G19         2.000    23545851.464 4                     -3526.007 4        29.043
G07         5.000    23588216.971 6 123956992.07606      2422.178 6        41.106                                    23588210.138 5  96589804.46205      1887.411 5        33.198    23588210.100 6  96589775.46206      1887.373 6        37.921
G09         6.000    20148939.116 7 105883384.33307       215.557 7        46.279                                    20148935.533 8  82506547.30208       167.966 8        48.718    20148936.133 7  82506534.31007       167.962 7        45.854
G31        10.000    23690287.062 4                     -3887.998 4        29.014
G17        11.000    24913037.230 4                     -3770.613 4        25.248
G04        12.000    20133929.418 8 105804558.24508     -1671.567 8        49.531                                    20133927.230 6  82445033.11206     -1302.525 6        38.643    20133925.979 7  82445057.10107     -1302.485 7        46.845
E12        13.000    23960892.180 8 125915361.15808     -1478.551 8        48.481                                                                    23960887.650 7  94027685.62407     -1104.177 7        45.690    23960887.944 8  96480604.08008     -1132.957 8        49.386
E29        14.000    25044207.084 7 131608184.05607     -2956.770 7        42.546                                                                    25044203.417 7  98278831.07207     -2207.910 7        42.514    25044203.861 7 100842671.53407     -2265.552 7        46.063
G06        15.000    21331336.860 6 112097015.17206       336.081 6        38.976                                                                                                    21331330.721 4                       261.605 4        28.464
E11        16.000    25636203.982 6 134719507.36406      1301.845 6        39.504                                                                    25636198.275 6 100601973.06306       972.245 6        39.655    25636196.454 6 103226354.43206       997.461 6        36.030
E04        17.000                                                                                                                                    25825400.603 6 101344481.36506      1121.089 6        38.745    25825398.946 6 103988226.45006      1150.112 6        41.549
R08        18.000    20084786.288 7 107553249.37907       699.275 7        45.859                                                                    20084785.224 6  83652405.85606       543.792 6        41.077
E19        20.000    22791820.197 6 119771830.52206      -930.339 6        40.353                                                                    22791817.783 7  89440014.93807      -694.740 7        45.591    22791816.942 7  91773219.70207      -712.834 7        45.911
S36        23.000    38155373.400 5 200507896.67505      -851.683 5        35.214
S23        24.000    38099093.107 6 200212030.58906      -847.758 6        40.162
G11        25.000    23983919.850 4 126036418.83204      2292.570 4        26.395                                    23983921.678 2  98210126.13302      1786.376 2        14.000    23983921.990 6  98210168.08206      1786.429 6        39.697
R16        26.000    22274667.341 5 118987263.48805     -1990.956 5        33.629                                                                    22274666.691 4  92545648.24304     -1548.699 4        27.521
E33        28.000    25948060.433 6 136357992.67306     -3852.808 6        38.631                                                                    25948057.035 5 101825767.90405     -2877.030 5        34.490    25948057.346 5 104482077.52505     -2952.386 5        34.062
E10        29.000    24198585.667 7 127164435.50907       -45.146 7        45.508                                                                    24198578.866 4  94960497.58204       -33.985 4        27.856    24198584.153 7  97437814.12507       -34.583 7        42.567
C20        31.000                                                                                                                                    21974264.203 8 114425913.85608      -136.059 8        49.605                                                                    21974258.046 7  92980306.10807      -110.664 7        42.074
R23        33.000    20023581.852 7 107112671.29607     -1724.220 7        44.951
R07        34.000    19825873.695 8 106129423.37308     -2396.671 8        48.324                                                                    19825872.497 8  82545129.28708     -1864.060 8        48.418
R22        35.000    21525597.104 3 114905198.74303     -4808.312 3        23.695                                                                    21525603.494 6  89370652.49306     -3740.458 6        37.017
C32        36.000                                                                                                                                    23305993.864 7 121360367.76307     -2842.045 7        43.841                                                                    23305989.667 7  98615289.29607     -2309.314 7        43.951
R09        37.000    21696675.557 4                      1641.368 4        27.365                                                                    21696625.860 6  90112484.01006      1276.460 6        38.483
C30        38.000                                                                                                                                    26095705.449 3                     -4205.016 3        19.313                                                                    26095714.586 3                     -3414.258 3        23.162
C23        40.000                                                                                                                                    24456548.611 4 127351704.55404      -595.057 4        26.192                                                                    24456540.888 6 103483692.73706      -483.765 6        37.115
C35        41.000                                                                                                                                    24745988.383 6 128858833.46406       289.858 6        41.821                                                                    24745978.431 4 104708379.53104       235.393 4        29.128
C37        42.000                                                                                                                                    24676614.727 5                      1816.818 5        31.411                                                                    24676596.729 6 104414730.09006      1475.997 6        37.308
R24        43.000    22586806.142 6 120782029.50306      2421.367 6        41.168                                                                    22586832.255 5  93941546.58005      1883.339 5        35.762
C16        45.000                                                                                                                                                                                                    39082980.887 5                     -1222.038 5        33.437    39082982.134 5                     -1284.202 5        31.079
C39        46.000                                                                                                                                    39741478.312 3                     -1892.595 3        20.500
C09        47.000                                                                                                                                    38438552.237 6 200159643.71306     -1046.120 6        38.562    38438545.322 6 154776122.21506      -808.775 6        36.363    38438543.636 5 162646072.16305      -850.069 5        32.138
C19        48.000                                                                                                                                    24913623.226 4 129732084.50204      1686.980 4        26.036                                                                    24913625.596 6 105417693.69006      1370.091 6        37.633
C06        50.000                                                                                                                                    38535382.675 6 200663881.69606     -1521.396 6        36.231    38535390.996 5 155166075.13805     -1176.828 5        31.404    38535378.124 4 163055776.84104     -1235.668 4        24.556
C25        51.000                                                                                                                                    26337101.041 3                     -3048.638 3        18.716
C29        54.000                                                                                                                                    23618581.828 5 122988064.18605     -2833.070 5        35.514                                                                    23618566.297 6  99937939.97806     -2302.147 6        37.025
I01        57.000   380553436.298 6 190232627.30806     -3039.228 6        38.664
I09        58.000    37483496.838 5 147093292.25505      -933.443 5        32.988
> 2025 01 02 03 15 55.0000000  0 40
G03         1.000    21456060.371 7 112752348.12307     -3299.087 7        44.755                                    21456060.980 6  87858906.28706     -2570.715 6        36.208    21456058.005 6  87858999.27106     -2570.540 6        37.055
G19         2.000    23549205.056 5                     -3527.536 5        32.569
G07         5.000    23585913.331 6 123944883.50106      2420.847 6        41.878                                    23585905.531 5  96580369.21805      1886.372 5        32.784    23585905.658 6  96580340.22906      1886.462 6        37.750
G09         6.000    20148735.253 7 105882312.18707       213.018 7        46.446                                    20148731.801 8  82505711.86408       165.990 8        49.072    20148732.371 7  82505698.86607       165.935 7        46.296
G31        10.000    23693986.247 4                     -3889.979 4        27.820
G17        11.000    24916630.791 4                     -3769.763 4        24.692
G04        12.000    20135520.825 8 105812921.46408     -1674.071 8        49.098                                    20135518.792 6  82451549.91706     -1304.473 6        38.580    20135517.385 7  82451573.90607     -1304.491 7        47.002
E12        13.000    23962300.029 8 125922759.61008     -1481.179 8        48.527                                                                    23962295.579 7  94033210.44307     -1106.088 7        46.035    23962295.767 8  96486273.02608     -1134.985 8        49.380
E29        14.000    25047020.498 7 131622969.49907     -2957.837 7        42.705                                                                    25047017.185 7  98289872.15307     -2208.712 7        43.067    25047017.390 7 100854000.63807     -2266.337 7        46.006
G06        15.000    21331017.360 6 112095343.34306       332.470 6        38.111                                                                                                    21331011.930 4                       259.397 4        29.592
E11        16.000    25634965.683 6 134713001.78106      1300.035 6        40.174                                                                    25634960.309 6 100597115.00506       970.650 6        40.088    25634959.030 5 103221369.63405       996.201 5        35.757
E04        17.000                                                                                                                                    25823973.123 6 101338878.34006      1120.126 6        38.826    25823971.085 6 103982477.24806      1149.297 6        41.282
R08        18.000    20084133.287 7 107549757.58907       697.041 7        44.853                                                                    20084132.144 6  83649690.00606       542.250 6        41.433
E19        20.000    22792705.606 6 119776485.60806      -932.148 6        39.871                                                                    22792703.629 7  89443491.13707      -696.091 7        45.813    22792702.725 7  91776786.58307      -714.265 7        45.496
S36        23.000    38156178.037 5 200512155.91005      -852.363 5        35.438
S23        24.000    38099897.274 6 200216269.01406      -848.082 6        40.093
G11        25.000    23981742.291 5 126024959.09605      2291.089 5        31.736                                    23981741.274 2  98201196.43402      1785.279 2        15.286    23981740.925 6  98201238.38606      1785.124 6        39.592
R16        26.000    22276534.977 4                     -1995.793 4        28.275                                                                    22276531.416 4                     -1551.839 4        25.684
E33        28.000    25951726.693 6 136377259.00806     -3854.010 6        38.423                                                                    25951722.924 5 101840155.12205     -2877.987 5        33.778    25951723.824 5 104496840.01105     -2953.028 5        35.114
E10        29.000    24198629.474 7 127164666.90507       -47.701 7        45.375                                                                    24198622.136 4  94960670.41504       -36.236 4        27.162    24198628.484 7  97437991.43607       -36.570 7        42.711
C20        31.000                                                                                                                                    21974395.710 8 114426597.24508      -137.667 8        49.480                                                                    21974389.453 7  92980861.39207      -111.696 7        42.061
R23        33.000    20025196.192 7 107121303.80607     -1729.156 7        46.398
R07        34.000    19828112.810 7 106141411.05507     -2398.755 7        47.949                                                                    19828111.885 8  82554453.04908     -1865.747 8        48.422
R22        35.000                                                                                                                                    21530109.279 6  89389358.13906     -3742.253 6        37.618
C32        36.000                                                                                                                                    23308723.235 7 121374580.17307     -2843.227 7        43.972                                                                    23308718.945 7  98626838.04707     -2310.285 7        43.903
R09        37.000                                                                                                                                    21695090.717 6  90106107.70606      1273.614 6        38.069
C30        38.000                                                                                                                                                                                                                                                                    26099751.509 4                     -3417.120 4        24.000
C23        40.000                                                                                                                                    24457123.867 4 127354687.88904      -598.460 4        26.790                                                                    24457114.163 6 103486116.87706      -486.073 6        36.783
C35        41.000                                                                                                                                    24745710.948 7 128857390.80907       286.763 7        42.036                                                                    24745698.016 4 104707207.22704       233.531 4        27.760
C37        42.000                                                                                                                                    24674862.302 5                      1815.417 5        33.581                                                                    24674852.985 6 104407351.35106      1475.013 6        36.480
R24        43.000                                                                                                                                    22584570.349 5  93932135.47605      1880.730 5        34.552
C16        45.000                                                                                                                                    39084549.593 4                     -1580.713 4        29.223    39084499.691 5                     -1222.709 5        33.820    39084498.886 5                     -1284.407 5        31.245
C39        46.000                                                                                                                                    39743296.576 3                     -1898.985 3        21.000
C09        47.000                                                                                                                                    38439558.287 6 200164875.84506     -1046.922 6        39.135    38439550.155 6 154780168.03606      -809.658 6        36.250    38439548.470 5 162650323.71105      -850.736 5        32.299
C19        48.000                                                                                                                                    24912005.352 5 129723653.48105      1685.687 5        30.302                                                                    24912006.053 6 105410842.83606      1369.792 6        37.690
C06        50.000                                                                                                                                    38536843.361 6 200671490.67106     -1522.265 6        36.461    38536853.565 5 155171958.90005     -1177.216 5        32.222
C25        51.000                                                                                                                                    26340056.922 3                     -3050.065 3        18.328
C29        54.000                                                                                                                                    23621300.881 5 123002234.56105     -2835.626 5        30.875                                                                    23621286.907 6  99949454.43506     -2303.853 6        36.026
I01        57.000   380557308.704 6 190247823.06706     -3039.468 6        38.952
I09        58.000    37484686.477 5 147097958.96105      -933.617 5        32.820
> 2025 01 02 03 16  0.0000000  0 39
G03         1.000    21459199.591 7 112768846.32107     -3300.040 7        43.509                                    21459199.863 5  87871762.02605     -2571.457 5        35.062    21459197.298 6  87871854.99006     -2571.525 6        36.079
G19         2.000    23552550.876 5                     -3529.079 5        34.114
G07         5.000    23583609.630 7 123932779.60807      2420.621 7        42.083                                    23583601.854 5  96570937.62405      1886.193 5        32.545    23583602.296 6  96570908.62606      1886.191 6        37.009
G09         6.000    20148533.735 7 105881252.14607       211.237 7        46.274                                    20148530.301 8  82504885.86208       164.604 8        49.283    20148530.499 7  82504872.86207       164.594 7        45.914
G31        10.000    23697689.260 4                     -3891.791 4        25.789                                                                                                    23697673.702 3                     -3033.134 3        20.714
G17        11.000    24920221.916 4                     -3768.563 4        25.128
G04        12.000    20137114.395 8 105821296.42108     -1675.808 8        48.129                                    20137112.519 6  82458075.87306     -1305.827 6        38.165    20137111.239 7  82458099.84507     -1305.768 7        46.808
E12        13.000    23963710.255 8 125930170.37008     -1482.992 8        48.370                                                                    23963705.855 7  94038744.45707     -1107.435 7        46.379    23963705.958 8  96491951.40308     -1136.319 8        49.158
E29        14.000    25049834.897 7 131637759.17807     -2957.990 7        43.151                                                                    25049831.817 7  98300916.40607     -2208.912 7        43.706    25049831.866 7 100865333.01107     -2266.509 7        46.060
G06        15.000    21330703.121 6 112093687.59606       330.017 6        38.793                                                                                                    21330697.847 4                       257.034 4        27.904
E11        16.000    25633728.664 6 134706504.39306      1299.084 6        40.577                                                                    25633723.873 6 100592263.07006       970.012 6        40.493    25633723.038 5 103216391.11905       995.380 5        35.952
E04        17.000                                                                                                                                    25822546.081 6 101333279.14006      1119.723 6        38.571    25822544.479 6 103976731.98806      1148.882 6        40.510
R08        18.000    20083481.671 7 107546275.81707       695.792 7        44.804                                                                    20083481.611 6  83646981.95706       541.153 6        41.509
E19        20.000    22793592.791 6 119781149.03806      -933.154 6        39.559                                                                    22793591.015 7  89446973.57007      -696.860 7        45.794    22793590.143 7  91780359.86207      -715.027 7        45.046
S36        23.000    38156991.242 5 200516415.67205      -851.696 5        35.576
S23        24.000    38100703.772 6 200220508.00606      -847.393 6        40.193
G11        25.000    23979565.112 5 126013507.54405      2289.818 5        33.377                                    23979562.190 2  98192273.15702      1784.298 2        15.381    23979560.863 6  98192315.18606      1784.179 6        38.997
R16        26.000    22278405.065 5                     -1999.196 5        30.755                                                                    22278410.736 5                     -1555.620 5        30.030
E33        28.000    25955394.237 6 136396530.71906     -3854.415 6        37.550                                                                    25955390.064 5 101854546.32405     -2878.434 5        33.048    25955390.858 5 104511606.66105     -2953.475 5        35.310
E10        29.000    24198675.739 7 127164910.07907       -49.401 7        45.120                                                                    24198668.738 4  94960851.98704       -37.228 4        25.925    24198674.866 7  97438177.76107       -37.850 7        42.463
C20        31.000                                                                                                                                    21974528.477 8 114427288.18008      -138.540 8        48.900                                                                    21974522.335 7  92981422.83007      -112.646 7        42.233
R23        33.000    20026815.665 7 107129960.34907     -1733.202 7        47.582
R07        34.000    19830353.378 7 106153408.05207     -2399.886 7        47.609                                                                    19830352.946 8  82563784.04008     -1866.567 8        48.289
R22        35.000    21534613.825 4                     -4813.644 4        24.586                                                                    21534618.327 6  89408072.44406     -3743.361 6        37.127
C32        36.000                                                                                                                                    23311453.522 7 121388797.59007     -2843.494 7        44.337                                                                    23311449.180 7  98638390.89307     -2310.759 7        44.006
R09        37.000    21693556.882 5                      1634.577 5        32.862                                                                    21693557.624 6  90099744.52916      1271.599 6        36.246
C30        38.000                                                                                                                                                                                                                                                                    26103787.063 3                     -3416.873 3        23.752
C23        40.000                                                                                                                                    24457701.936 4 127357685.56904      -600.470 4        28.085                                                                    24457690.004 6 103488552.78506      -488.013 6        37.093
C35        41.000                                                                                                                                    24745436.734 7 128855961.89507       284.888 7        42.667                                                                    24745422.448 4 104706046.11804       231.479 4        27.413
C37        42.000                                                                                                                                    24673109.377 5                      1814.293 5        34.776                                                                    24673109.259 5 104399978.64305      1474.124 5        35.233
R24        43.000    22582319.182 6 120757844.08506      2415.951 6        41.116                                                                    22582308.848 5  93922735.75305      1878.954 5        35.052
C16        45.000                                                                                                                                    39086066.430 4                     -1581.520 4        28.578    39086016.556 5 157383198.36415     -1222.597 5        34.357    39086017.194 5                     -1285.074 5        31.366
C39        46.000                                                                                                                                    39745116.670 3                     -1897.451 3        20.786
C09        47.000                                                                                                                                    38440564.037 6 200170111.80306     -1047.306 6        39.571    38440555.360 6 154784216.83506      -809.773 6        36.514    38440554.654 5 162654578.36605      -851.072 5        32.180
C19        48.000                                                                                                                                                                                                                                                                    24910387.663 6 105403994.68006      1369.447 6        38.276
C06        50.000                                                                                                                                    38538305.116 6 200679102.94506     -1522.260 6        36.824    38538315.067 5 155177845.20405     -1176.861 5        32.006    38538295.444 4                     -1237.490 4        24.662
C29        54.000                                                                                                                                    23624021.500 4 123016416.13904     -2836.386 4        27.329                                                                    23624010.473 5  99960978.03305     -2305.340 5        34.986
I01        57.000   380561181.425 6 190263019.80106     -3039.245 6        39.216
I09        58.000    37485875.974 5 147102626.66405      -933.301 5        33.341
> 2025 01 02 03 16  5.0000000  0 38
G03         1.000    21462340.560 7 112785352.43607     -3302.042 7        42.167                                    21462340.028 5  87884623.92705     -2573.016 5        33.778    21462339.252 5  87884716.87205     -2572.820 5        34.814
G07         5.000    23581306.733 7 123920679.88907      2419.569 7        42.258                                    23581299.009 5  96561509.28205      1885.374 5        32.245    23581300.733 6  96561480.29106      1885.373 6        37.323
G09         6.000    20148334.114 7 105880203.72607       208.455 7        46.295                                    20148330.871 8  82504068.91108       162.435 8        49.180    20148330.652 7  82504055.91107       162.462 7        45.579
G31        10.000    23701395.784 4                     -3893.949 4        24.045                                                                                                    23701387.291 3                     -3034.883 3        22.171
G17        11.000    24923811.886 3                     -3770.888 3        23.790
G04        12.000    20138710.110 7 105829682.59407     -1678.305 7        47.857                                    20138708.307 6  82464610.56106     -1307.774 6        37.482    20138706.770 7  82464634.52907     -1307.753 7        46.683
E12        13.000    23965122.658 8 125937592.93708     -1485.697 8        48.123                                                                    23965118.332 7  94044287.29007     -1109.493 7        46.563    23965118.322 8  96497638.82108     -1138.329 8        49.151
E29        14.000    25052650.039 7 131652552.59507     -2958.962 7        43.592                                                                    25052647.062 7  98311963.43207     -2209.603 7        44.006    25052647.085 7 100876668.23007     -2267.310 7        46.172
G06        15.000    21330391.606 6 112092047.46206       326.325 6        39.420                                                                                                    21330382.325 4                       254.418 4        28.152
E11        16.000    25632493.339 6 134700014.70306      1297.069 6        40.973                                                                    25632489.048 6 100587416.85706       968.668 6        40.708    25632488.544 5 103211418.50105       993.787 5        35.957
E04        17.000                                                                                                                                    25821120.049 6 101327683.36806      1118.681 6        38.333    25821118.478 6 103970990.23006      1147.985 6        40.467
R08        18.000    20082835.247 7 107542803.49607       693.553 7        45.527                                                                    20082831.544 6  83644281.25606       539.488 6        39.703
E19        20.000    22794482.114 6 119785820.23006      -934.923 6        39.126                                                                    22794480.003 7  89450461.80607      -698.249 7        45.794    22794479.154 7  91783939.09807      -716.356 7        44.987
S36        23.000    38157804.143 5 200520675.31505      -851.697 5        35.800
S23        24.000    38101511.101 6 200224747.05706      -847.917 6        40.138
G11        25.000    23977387.583 5 126002063.94805      2288.019 5        34.910                                    23977384.684 2  98183356.07202      1782.872 2        16.377    23977381.690 6  98183398.05006      1782.727 6        39.075
R16        26.000                                                                                                                                    22280287.368 5                     -1558.472 5        31.026
E33        28.000    25959062.697 6 136415807.27506     -3855.827 6        37.577                                                                    25959058.245 5 101868941.17305     -2879.611 5        32.485    25959059.026 6 104526377.00806     -2954.381 6        36.208
E10        29.000    24198724.082 7 127165164.51907       -52.119 7        45.561                                                                    24198716.809 4  94961041.91704       -38.489 4        25.008    24198723.557 7  97438372.71807       -39.843 7        42.533
C20        31.000                                                                                                                                    21974663.147 8 114427986.13608      -140.290 8        48.462                                                                    21974656.554 7  92981989.98007      -113.948 7        42.324
R23        33.000    20028438.176 7 107138640.34307     -1738.309 7        47.651
R07        34.000    19832597.491 7 106165414.02507     -2402.025 7        47.048                                                                    19832595.737 7  82573122.01807     -1868.260 7        47.822
R22        35.000    21539131.166 5                     -4815.162 5        34.262                                                                    21539127.434 5  89426794.98005     -3745.556 5        35.752
C32        36.000                                                                                                                                    23314184.074 7 121403019.55107     -2844.800 7        44.922                                                                    23314180.321 7  98649947.42607     -2311.583 7        43.894
R09        37.000    21692032.122 6 115834227.70816      1631.335 6        36.427                                                                    21692027.032 5  90093394.10805      1268.774 5        34.357
C30        38.000                                                                                                                                    26107818.010 3                     -4206.010 3        21.214                                                                    26107824.013 3                     -3416.076 3        23.162
C23        40.000                                                                                                                                    24458278.100 4 127360697.09204      -603.441 4        28.787                                                                    24458268.330 6 103490999.97106      -490.422 6        37.096
C35        41.000                                                                                                                                    24745164.889 7 128854546.26807       281.821 7        42.701                                                                    24745150.182 4 104704895.75904       229.341 4        27.257
C37        42.000                                                                                                                                    24671364.094 6 128470307.76116      1812.618 6        36.476                                                                    24671365.862 5 104392611.48205      1473.012 5        32.940
R24        43.000    22580057.606 7 120745772.87607      2412.720 7        42.779                                                                    22580050.525 5  93913347.03705      1876.676 5        33.665
C16        45.000                                                                                                                                                                                                    39087535.126 5 157389313.72605     -1223.219 5        34.348    39087535.717 5                     -1285.173 5        31.608
C39        46.000                                                                                                                                    39746936.714 3                     -1897.939 3        21.024
C09        47.000                                                                                                                                    38441570.195 6 200175350.98206     -1048.258 6        39.523    38441561.277 6 154788268.10206      -810.570 6        36.159    38441559.946 5 162658835.64805      -851.682 5        32.377
C19        48.000                                                                                                                                                                                                                                                                    24908769.385 6 105397148.71906      1369.176 6        38.168
C06        50.000                                                                                                                                    38539767.178 6 200686718.02106     -1523.320 6        36.836    38539777.439 5 155183733.67005     -1177.803 5        31.660    38539751.928 3                     -1238.148 3        22.705
C29        54.000                                                                                                                                    23626740.689 4 123030608.37104     -2839.282 4        27.880                                                                    23626736.070 5  99972510.30505     -2307.341 5        34.276
I01        57.000   380565054.234 6 190278217.07906     -3039.627 6        39.267
I09        58.000    37487065.542 5 147107294.96805      -933.559 5        33.419
> 2025 01 02 03 16 10.0000000  0 37
G03         1.000    21465483.675 6 112801866.41206     -3303.742 6        40.081                                    21465481.594 5  87897491.94605     -2574.341 5        32.635    21465480.735 5  87897584.87305     -2574.128 5        32.916
G07         5.000    23579004.785 7 123908584.30907      2418.573 7        42.237                                    23578997.111 5  96552084.16105      1884.601 5        32.257    23578998.439 6  96552055.18106      1884.342 6        37.989
G09         6.000    20148136.723 7 105879166.84607       206.098 7        46.680                                    20148133.512 8  82503260.95108       160.591 8        49.343    20148133.555 7  82503247.95207       160.601 7        45.335
G31        10.000    23705110.227 3                     -3894.640 3        22.724                                                                                                    23705103.504 4                     -3035.879 4        24.632
G17        11.000    24927396.679 3                     -3767.147 3        20.786
G04        12.000    20140308.314 8 105838079.92508     -1680.714 8        48.061                                    20140306.111 6  82471153.94206     -1309.649 6        36.836    20140304.444 7  82471177.91207     -1309.644 7        46.762
E12        13.000    23966537.461 7 125945027.26907     -1488.215 7        47.717                                                                    23966533.118 7  94049838.90507     -1111.356 7        46.739    23966532.895 8  96503335.26808     -1140.309 8        48.775
E29        14.000    25055465.801 7 131667349.70907     -2959.871 7        43.357                                                                    25055463.050 7  98323013.23207     -2210.402 7        44.417    25055463.007 7 100888006.28807     -2268.059 7        46.243
G06        15.000    21330082.379 6 112090422.89206       323.027 6        40.069                                                                                                    21330079.038 5                       251.980 5        32.701
E11        16.000    25631259.603 6 134693532.65006      1295.542 6        40.675                                                                    25631255.632 6 100582576.37206       967.363 6        40.717    25631255.429 6 103206451.73706       992.620 6        36.170
E04        17.000                                                                                                                                    25819694.714 6 101322091.01506      1117.931 6        37.698    25819693.269 6 103965251.97906      1147.220 6        40.098
R08        18.000    20082191.055 7 107539340.66107       691.490 7        44.700                                                                    20082182.394 6  83641587.89506       537.874 6        36.673
E19        20.000    22795372.446 6 119790499.11206      -936.721 6        38.703                                                                    22795370.429 7  89453955.78107      -699.484 7        45.500    22795369.525 7  91787524.23107      -717.776 7        44.510
S36        23.000    38158612.862 5 200524934.90205      -852.303 5        35.262
S23        24.000    38102315.237 6 200228985.87906      -847.906 6        40.222
G11        25.000    23975211.687 5 125990628.08105      2286.107 5        35.214                                    23975208.627 2  98174445.01602      1781.416 2        16.679    23975205.697 6  98174486.98806      1781.497 6        38.865
E33        28.000    25962732.093 6 136435088.62006     -3856.913 6        37.214                                                                    25962727.453 5 101883339.57105     -2880.011 5        32.263    25962728.504 6 104541151.03906     -2955.222 6        37.081
E10        29.000    24198774.504 7 127165430.16807       -54.473 7        45.685                                                                    24198767.700 4  94961240.31704       -41.067 4        26.060    24198774.207 7  97438576.27707       -41.669 7        42.474
C20        31.000                                                                                                                                    21974799.094 8 114428691.09108      -141.882 8        48.290                                                                    21974792.359 7  92982562.80007      -115.197 7        42.400
R23        33.000    20030064.258 7 107147343.81007     -1743.220 7        47.261
R07        34.000    19834842.070 7 106177428.55907     -2403.977 7        46.802                                                                    19834840.036 7  82582466.66307     -1869.808 7        47.925
R22        35.000    21543643.954 6 115001425.63416     -4817.695 6        36.113                                                                    21543638.377 5  89445525.67305     -3747.098 5        32.228
C32        36.000                                                                                                                                    23316915.071 7 121417245.99907     -2845.905 7        45.004                                                                    23316912.404 7  98661507.59507     -2312.535 7        44.035
R09        37.000    21690507.981 6 115826079.16106      1627.756 6        37.853                                                                    21690500.459 5  90087056.41805      1265.990 5        35.376
C30        38.000                                                                                                                                    26111856.525 3                     -4205.401 3        21.476                                                                    26111861.691 3                     -3416.214 3        23.810
C23        40.000                                                                                                                                    24458858.280 4 127363722.56004      -606.710 4        27.844                                                                    24458849.300 6 103493458.44606      -493.124 6        37.187
C35        41.000                                                                                                                                    24744895.340 7 128853143.86807       278.965 7        42.466                                                                    24744881.478 4 104703756.19004       226.997 4        26.982
C37        42.000                                                                                                                                    24669624.108 6 128461248.19206      1811.146 6        37.732                                                                    24669624.924 5 104385249.88105      1471.606 5        32.443
R24        43.000    22577799.803 7 120733715.92607      2409.853 7        42.658                                                                    22577795.446 5  93903969.43005      1874.534 5        31.857
C16        45.000                                                                                                                                                                                                    39089054.933 5 157395430.99505     -1223.836 5        34.848    39089054.361 5                     -1285.732 5        32.042
C39        46.000                                                                                                                                    39748759.866 3                     -1898.048 3        21.929
C09        47.000                                                                                                                                    38442576.347 6 200180593.37006     -1049.013 6        40.021    38442568.688 6 154792321.85906      -810.993 6        36.522    38442566.723 5 162663095.49805      -852.678 5        32.341
C19        48.000                                                                                                                                    24907184.956 6 129698378.65206      1683.982 6        40.300                                                                    24907151.503 6 105390304.98106      1368.441 6        38.309
C06        50.000                                                                                                                                    38541230.312 6 200694335.80906     -1523.854 6        37.089    38541240.012 5 155189624.27805     -1178.273 5        32.192    38541213.925 3                     -1238.110 3        22.952
C29        54.000                                                                                                                                    23629463.672 5 123044811.13005     -2841.764 5        31.841                                                                    23629464.012 5  99984051.18505     -2309.264 5        33.341
I01        57.000   380568926.829 6 190293414.86606     -3039.780 6        39.495
I09        58.000    37488254.899 5 147111963.81805      -933.744 5        34.190
> 2025 01 02 03 16 15.0000000  0 39
G03         1.000    21468627.856 6 112818388.16306     -3305.492 6        39.583                                    21468624.621 5  87910366.01705     -2575.706 5        32.018    21468624.586 5  87910458.97105     -2575.427 5        31.381
G19         2.000    23562600.991 5 123822486.21615     -3534.758 5        33.892
G07         5.000    23576703.700 6 123896492.79306      2417.718 6        41.795                                    23576696.184 5  96542662.21005      1883.940 5        32.569    23576697.559 6  96542633.21606      1883.942 6        38.604
G09         6.000    20147941.591 7 105878141.46407       203.647 7        47.454                                    20147938.263 8  82502461.95608       158.687 8        49.449    20147938.475 7  82502448.95807       158.667 7        45.378
G31        10.000                                                                                                                                                                    23708807.957 4                     -3037.704 4        26.084
G04        12.000    20141908.119 7 105846488.33007     -1682.958 7        47.707                                    20141905.973 6  82477705.95506     -1311.398 6        36.219    20141904.424 7  82477729.92807     -1311.409 7        46.158
E12        13.000    23967954.396 7 125952473.24107     -1490.591 7        47.407                                                                    23967950.009 7  94055399.20707     -1113.084 7        47.118    23967949.721 8  96509040.62508     -1142.126 8        48.553
E29        14.000    25058282.074 7 131682150.41707     -2960.707 7        43.473                                                                    25058279.659 7  98334065.69507     -2210.939 7        44.828    25058279.752 7 100899347.08707     -2268.672 7        46.458
G06        15.000    21329776.065 6 112088813.79806       319.979 6        40.274                                                                                                    21329773.840 5  87341862.18015       249.321 5        34.500
E11        16.000    25630027.706 6 134687058.17306      1293.949 6        40.770                                                                    25630023.617 6 100577741.54306       966.198 6        40.896    25630023.747 6 103201490.77806       991.409 6        36.541
E04        17.000                                                                                                                                    25818269.689 6 101316501.99706      1117.290 6        36.794    25818269.403 6 103959517.14706      1146.620 6        39.904
R08        18.000    20081545.252 7 107535887.07407       689.508 7        42.409                                                                    20081537.013 5  83638901.74005       536.360 5        35.476
E19        20.000    22796264.067 6 119795185.57406      -938.489 6        39.144                                                                    22796262.168 7  89457455.41007      -700.728 7        45.455    22796261.559 7  91791115.14807      -718.941 7        44.384
S36        23.000    38159422.418 5 200529194.25005      -852.463 5        35.181
S23        24.000    38103123.224 6 200233224.48606      -848.002 6        40.167
G11        25.000    23973036.462 6 125979199.92006      2284.747 6        36.628                                    23973033.921 2  98165539.93402      1780.341 2        16.755    23973031.901 6  98165581.94406      1780.324 6        38.658
R16        26.000    22284072.446 5 119037307.34315     -2012.607 5        32.222                                                                    22284015.163 3                     -1567.925 3        18.507
E33        28.000    25966402.617 6 136454374.70006     -3858.014 6        37.660                                                                    25966397.518 5 101897741.52005     -2880.981 5        32.060    25966400.715 6 104555928.66506     -2956.059 6        37.463
E10        29.000    24198827.137 7 127165706.95007       -56.701 7        45.756                                                                    24198821.477 4  94961447.02104       -42.304 4        26.838    24198826.933 7  97438788.35507       -43.452 7        42.396
C20        31.000                                                                                                                                    21974935.773 8 114429402.93808      -143.332 8        48.673                                                                    21974929.512 7  92983141.24207      -116.346 7        42.840
R23        33.000    20031695.883 8 107156070.58308     -1747.910 8        48.181
R07        34.000    19837087.351 7 106189451.92907     -2405.768 7        47.669                                                                    19837085.862 7  82591818.17907     -1871.219 7        47.665
R22        35.000    21548160.673 5 115025518.46305     -4820.026 5        34.010
C32        36.000                                                                                                                                    23319647.148 7 121431476.84307     -2846.827 7        44.922                                                                    23319645.450 7  98673071.34407     -2313.295 7        44.456
R09        37.000    21688986.382 6 115817946.88706      1624.560 6        36.733                                                                    21688977.891 6  90080731.35106      1263.568 6        36.745
C30        38.000                                                                                                                                                                                                                                                                    26115896.356 3                     -3415.323 3        23.657
C23        40.000                                                                                                                                    24459440.297 4 127366761.91804      -609.425 4        26.084                                                                    24459432.796 6 103495928.12906      -495.244 6        37.539
C35        41.000                                                                                                                                    24744628.824 7 128851754.59207       276.347 7        42.104                                                                    24744616.932 4 104702627.35704       224.447 4        28.275
C37        42.000                                                                                                                                    24667886.162 6 128452195.36106      1809.635 6        38.805                                                                    24667887.060 5 104377893.75205      1470.433 5        32.000
R24        43.000    22575546.644 6 120721673.11006      2406.902 6        41.578                                                                    22575540.820 4  93894602.78004      1872.136 4        27.689
C16        45.000                                                                                                                                                                                                    39090575.049 5 157401550.07405     -1224.199 5        35.157    39090574.176 5                     -1286.397 5        32.084
C39        46.000                                                                                                                                    39750578.985 3                     -1898.583 3        21.548
C09        47.000                                                                                                                                    38443583.218 6 200185838.90706     -1049.618 6        40.219    38443575.235 6 154796378.03106      -811.719 6        36.427    38443574.377 5 162667357.96205      -853.257 5        32.593
C19        48.000                                                                                                                                    24905570.578 6 129689959.03306      1683.471 6        40.784                                                                    24905534.090 6 105383463.36506      1368.094 6        38.042
C06        50.000                                                                                                                                    38542694.184 6 200701956.29206     -1524.638 6        37.365    38542702.856 5 155195516.94105     -1178.762 5        32.431    38542678.596 3                     -1238.944 3        21.857
C25        51.000                                                                                                                                    26351787.245 3                     -3059.550 3        22.933
C29        54.000                                                                                                                                    23632196.183 5 123059024.41405     -2843.861 5        34.690                                                                    23632193.784 5  99995600.66405     -2311.137 5        33.922
I01        57.000   380572800.201 6 190308613.07206     -3039.758 6        39.682
I09        58.000    37489444.580 5 147116633.17005      -934.136 5        34.029
> 2025 01 02 03 16 20.0000000  0 39
G03         1.000    21471773.352 6 112834917.87906     -3306.705 6        40.017                                    21471769.303 5  87923246.29905     -2576.656 5        31.691    21471770.823 5  87923339.29105     -2576.771 5        32.024
G19         2.000    23565972.044 5 123840162.89605     -3536.188 5        31.547
G07         5.000    23574403.417 7 123884405.59807      2416.904 7        42.008                                    23574396.223 5  96533243.62405      1883.302 5        32.748    23574397.269 6  96533214.61806      1883.340 6        39.081
G09         6.000    20147748.960 7 105877127.79707       201.487 7        47.841                                    20147745.227 8  82501672.09008       157.002 8        49.229    20147745.926 7  82501659.09307       157.013 7        45.381
G31        10.000                                                                                                                                                                    23712512.661 4                     -3039.162 4        28.294
G04        12.000    20143509.889 7 105854908.03207     -1685.122 7        47.719                                    20143507.869 5  82484266.76905     -1313.085 5        35.457    20143506.358 7  82484290.73607     -1313.059 7        45.631
E12        13.000    23969373.547 7 125959931.06807     -1492.779 7        47.038                                                                    23969369.207 7  94060968.36807     -1114.785 7        47.389    23969368.833 8  96514755.06608     -1143.836 8        48.376
E29        14.000    25061099.175 7 131696954.95107     -2961.377 7        43.554                                                                    25061096.872 7  98345121.02007     -2211.360 7        45.264    25061097.201 7 100910690.81407     -2269.060 7        46.603
G06        15.000    21329471.625 6 112087220.44306       317.187 6        38.607                                                                                                    21329469.654 5  87340620.55305       247.067 5        35.814
E11        16.000    25628797.211 6 134680591.49706      1292.562 6        40.856                                                                    25628792.826 6 100572912.53006       965.112 6        41.087    25628793.713 6 103196535.79006       990.586 6        37.221
E04        17.000    25816859.266 5 135668490.64715      1495.566 5        32.976                                                                    25816846.063 6 101310916.49506      1117.102 6        36.136    25816846.081 6 103953785.93906      1146.073 6        39.790
R08        18.000    20080900.374 6 107532443.06906       687.866 6        41.437                                                                    20080895.065 5  83636223.11505       534.888 5        35.648
E19        20.000    22797157.582 6 119799879.97606      -939.582 6        39.429                                                                    22797155.499 7  89460960.98007      -701.724 7        45.538    22797154.887 7  91794712.16707      -719.965 7        44.309
S36        23.000    38160233.808 5 200533453.67405      -851.761 5        35.176
S23        24.000    38103929.113 6 200237463.31206      -847.788 6        40.274
G11        25.000    23970864.040 6 125967779.71506      2283.247 6        38.297                                    23970860.582 2  98156641.08502      1779.156 2        16.679    23970857.747 6  98156683.07606      1779.102 6        38.408
R16        26.000    22285964.375 5 119047380.91205     -2017.000 5        33.186                                                                    22285907.657 4                     -1568.268 4        25.008
E33        28.000    25970073.570 6 136473665.70406     -3858.720 6        38.003                                                                    25970068.382 5 101912147.12305     -2881.559 5        32.557    25970073.885 6 104570710.08006     -2956.714 6        37.970
E10        29.000    24198881.971 7 127165995.11507       -58.880 7        45.372                                                                                                                                    24198881.576 7  97439009.15807       -44.985 7        42.360
C20        31.000                                                                                                                                    21975073.840 8 114430121.90808      -144.570 8        49.479                                                                    21975067.746 7  92983725.46507      -117.595 7        42.866
R23        33.000    20033332.017 7 107164820.92407     -1752.493 7        47.588
R07        34.000    19839334.929 8 106201484.02608     -2407.374 8        49.391                                                                    19839333.863 8  82601176.47208     -1872.418 8        48.025
R22        35.000                                                                                                                                    21552695.936 5  89483011.83305     -3750.141 5        30.657
C32        36.000                                                                                                                                    23322380.276 7 121445712.31807     -2847.593 7        44.694                                                                    23322379.369 7  98684638.82107     -2313.886 7        44.828
R09        37.000    21687469.792 5 115809831.32705      1621.506 5        35.643                                                                    21687458.890 6  90074419.24606      1261.271 6        36.367
C30        38.000                                                                                                                                    26119949.509 3                     -4203.767 3        23.067                                                                    26119934.347 4                     -3414.829 4        24.165
C23        40.000                                                                                                                                    24460027.439 4 127369815.19804      -612.383 4        27.581                                                                    24460019.323 6 103498409.18806      -497.348 6        37.902
C35        41.000                                                                                                                                    24744364.904 6 128850378.71106       273.766 6        41.509
C37        42.000                                                                                                                                    24666149.038 6 128443149.51706      1808.472 6        39.586                                                                    24666150.780 5 104370543.22305      1469.724 5        32.784
R24        43.000    22573297.379 6 120709644.64706      2404.241 6        41.697
C16        45.000                                                                                                                                    39092069.341 4                     -1583.092 4        26.707    39092095.315 5 157407671.15005     -1224.404 5        35.471    39092092.944 5                     -1286.454 5        32.707
C39        46.000                                                                                                                                    39752400.321 4                     -1898.193 4        24.241
C09        47.000                                                                                                                                    38444592.132 6 200191087.79106     -1050.222 6        40.436    38444583.169 6 154800436.80406      -812.133 6        36.491    38444582.042 5 162671623.05005      -853.310 5        32.593
C19        48.000                                                                                                                                    24903947.936 6 129681542.27306      1683.045 6        40.739                                                                    24903917.669 6 105376624.06306      1367.578 6        38.201
C06        50.000                                                                                                                                    38544157.908 6 200709579.62606     -1525.065 6        37.508    38544167.452 5 155201411.81005     -1179.463 5        32.701    38544140.758 3                     -1239.305 3        22.476
C25        51.000                                                                                                                                    26354722.615 4                     -3061.288 4        24.797
C29        54.000                                                                                                                                    23634928.995 6 123073248.44406     -2845.857 6        36.688                                                                    23634926.146 5 100007158.81305     -2312.550 5        34.690
I01        57.000   380576673.082 6 190323811.91806     -3039.875 6        39.958
I09        58.000    37490634.409 5 147121303.20905      -934.086 5        34.662
> 2025 01 02 03 16 25.0000000  0 40
G03         1.000    21474921.817 6 112851455.81406     -3308.479 6        41.750                                    21474915.810 5  87936132.98405     -2578.037 5        31.713    21474918.328 5  87936225.99505     -2577.909 5        34.019
G19         2.000    23569343.489 4 123857848.50704     -3537.706 4        27.641
G07         5.000    23572104.586 7 123872322.84607      2416.233 7        42.277                                    23572097.165 5  96523828.49905      1882.781 5        32.976    23572097.949 6  96523799.51306      1882.624 6        39.940
G09         6.000    20147557.898 7 105876126.01707       199.224 7        47.839                                    20147554.481 8  82500891.48408       155.239 8        49.052    20147555.129 7  82500878.48307       155.235 7        45.488
G31        10.000    23716228.442 3                     -3902.649 3        22.571                                                                                                    23716224.474 4                     -3040.665 4        29.640
G17        11.000    24938130.348 3                     -3768.945 3        23.029
G04        12.000    20145113.972 7 105863339.22207     -1687.354 7        47.689                                    20145111.872 5  82490836.52805     -1314.825 5        34.810    20145110.572 7  82490860.49407     -1314.813 7        45.165
E12        13.000    23970794.964 7 125967401.01707     -1495.168 7        46.819                                                                    23970790.669 8  94066546.58308     -1116.465 8        48.026    23970790.243 8  96520478.80808     -1145.702 8        48.252
E29        14.000    25063917.144 7 131711763.47107     -2962.046 7        43.664                                                                    25063914.819 7  98356179.33107     -2211.909 7        45.943    25063915.355 7 100922037.60407     -2269.575 7        47.033
G06        15.000    21329170.306 6 112085642.98006       314.169 6        38.378                                                                                                    21329168.461 5  87339391.37605       244.819 5        35.433
E11        16.000    25627568.236 6 134674132.82606      1291.125 6        40.532                                                                    25627563.717 6 100568089.50506       964.080 6        41.385    25627564.740 6 103191586.94506       989.327 6        37.970
E04        17.000    25815440.009 5 135661015.77705      1494.246 5        32.443                                                                    25815423.062 5 101305334.68405      1116.071 5        35.271    25815423.701 6 103948058.48906      1145.159 6        40.007
R08        18.000    20080261.334 7 107529008.93107       685.930 7        42.906                                                                    20080254.692 5  83633552.09405       533.440 5        34.624
E19        20.000    22798052.327 6 119804582.37206      -941.215 6        39.814                                                                    22798050.247 7  89464472.52107      -702.917 7        45.615    22798049.851 7  91798315.32207      -721.248 7        44.531
S36        23.000    38161046.583 5 200537713.40105      -851.784 5        35.614
S23        24.000    38104736.706 6 200241702.57406      -847.824 6        40.513
G11        25.000    23968692.591 6 125956367.66406      2281.626 6        40.513                                    23968688.814 2  98147748.55902      1777.884 2        16.415    23968684.747 6  98147790.57106      1778.088 6        38.237
R16        26.000    22287858.016 5 119057476.24705     -2021.249 5        30.491                                                                    22287800.115 4                     -1572.180 4        26.874
E33        28.000    25973746.161 6 136492961.79806     -3859.563 6        38.583                                                                    25973740.498 5 101926556.54305     -2881.898 5        33.467    25973746.609 6 104585495.39706     -2957.379 6        38.405
E10        29.000    24198938.674 7 127166294.85207       -61.091 7        44.510                                                                    24198934.370 4  94961886.10104       -45.810 4        28.749    24198938.476 7  97439238.82007       -46.700 7        42.516
C20        31.000                                                                                                                                    21975213.117 8 114430848.17708      -145.873 8        50.020                                                                    21975207.444 7  92984315.63107      -118.614 7        42.971
R23        33.000    20034971.125 7 107173595.19807     -1757.204 7        46.767
R07        34.000    19841584.856 8 106213525.18408     -2409.041 8        50.140                                                                    19841583.578 8  82610541.80308     -1873.724 8        48.037
R22        35.000                                                                                                                                    21557205.584 5  89501767.41415     -3751.865 5        33.874
C32        36.000                                                                                                                                    23325114.135 7 121459952.59607     -2848.387 7        44.190                                                                    23325114.221 7  98696210.22107     -2314.583 7        44.980
R09        37.000    21685961.527 5 115801732.55905      1618.161 5        33.251                                                                    21685940.823 6  90068120.13706      1258.567 6        36.813
C30        38.000                                                                                                                                    26123982.872 4                     -4203.692 4        24.286                                                                    26123969.146 3                     -3415.078 3        23.867
C23        40.000                                                                                                                                    24460619.840 5 127372882.61205      -614.737 5        34.229                                                                    24460607.811 6 103500901.79906      -499.675 6        37.573
C35        41.000                                                                                                                                    24744103.794 6 128849016.36706       271.245 6        41.783                                                                    24744117.603 5 104700402.54205       220.201 5        35.114
C37        42.000                                                                                                                                    24664412.978 6 128434110.84206      1807.081 6        40.243                                                                    24664415.785 5 104363198.58305      1468.318 5        33.982
R24        43.000    22571051.008 6 120697630.75106      2401.374 6        41.576                                                                    22571050.863 5  93875903.24005      1868.001 5        32.156
C16        45.000                                                                                                                                    39093598.963 4                     -1584.345 4        26.766    39093615.364 6 157413794.37006     -1224.945 6        36.000    39093613.318 5                     -1287.128 5        32.772
C39        46.000                                                                                                                                    39754222.941 3                     -1898.116 3        23.390
C09        47.000                                                                                                                                    38445600.409 6 200196340.21106     -1050.768 6        40.610    38445591.953 6 154804498.31606      -812.567 6        36.764    38445590.459 5 162675891.07005      -853.854 5        32.144
C19        48.000                                                                                                                                    24902323.810 6 129673128.53206      1682.692 6        40.551                                                                    24902302.094 6 105369787.23206      1367.155 6        38.054
C06        50.000                                                                                                                                    38545623.974 6 200717206.03406     -1525.517 6        37.800    38545631.502 5 155207309.02905     -1179.332 5        32.287    38545606.292 3                     -1238.058 3        21.429
C25        51.000                                                                                                                                    26357659.737 4                     -3065.979 4        24.120
C29        54.000                                                                                                                                    23637663.449 6 123087483.40406     -2848.094 6        38.453                                                                    23637661.317 5 100018725.87405     -2314.490 5        35.424
I01        57.000   380580546.935 6 190339011.54606     -3039.920 6        39.805
I09        58.000    37491824.795 5 147125974.06505      -934.260 5        34.614
> 2025 01 02 03 16 30.0000000  0 39
G03         1.000    21478070.537 7 112868001.73107     -3309.732 7        44.036                                    21478064.042 5  87949025.90205     -2579.013 5        31.841    21478066.190 5  87949118.90905     -2579.161 5        35.029
G07         5.000    23569806.015 7 123860244.43507      2415.391 7        42.724                                    23569799.024 5  96514416.76105      1882.121 5        32.934    23569799.650 6  96514387.76706      1882.046 6        40.017
G09         6.000    20147369.291 8 105875135.92808       197.019 8        48.268                                    20147366.020 8  82500119.98708       153.518 8        48.859    20147366.698 7  82500106.99107       153.575 7        45.567
G31        10.000    23719946.145 3                     -3904.974 3        23.714                                                                                                    23719937.450 5                     -3042.422 5        30.362
G17        11.000    24941724.093 4                     -3769.869 4        24.571
G04        12.000    20146720.523 7 105871781.68707     -1689.416 7        47.682                                    20146717.962 5  82497415.07405     -1316.428 5        34.062    20146717.036 7  82497439.04607     -1316.484 7        44.886
E12        13.000    23972218.553 7 125974882.81407     -1497.361 7        46.479                                                                    23972214.433 8  94072133.65108     -1118.232 8        48.353    23972214.030 7  96526211.61507     -1147.328 7        47.843
E29        14.000    25066735.663 7 131726575.80707     -2962.642 7        43.786                                                                    25066733.449 7  98367240.48707     -2212.381 7        46.240    25066734.295 7 100933387.31907     -2270.066 7        47.038
G06        15.000    21328873.363 6 112084081.28706       310.965 6        40.353                                                                                                    21328871.400 6  87338174.49406       242.258 6        36.193
E11        16.000    25626341.084 6 134667681.99706      1289.541 6        40.622                                                                    25626336.049 6 100563272.31506       963.051 6        41.442    25626337.402 6 103186644.12206       988.034 6        38.438
E04        17.000    25814017.832 5 135653545.60205      1493.805 5        31.736                                                                    25814001.257 5 101299756.37505      1115.446 5        34.443    25814002.108 6 103942334.63706      1144.454 6        39.892
R08        18.000    20079629.677 6 107525584.30206       683.983 6        40.853                                                                    20079615.691 5  83630888.52205       531.750 5        33.796
E19        20.000    22798948.917 6 119809292.63806      -942.591 6        39.844                                                                    22798946.398 7  89467989.91807      -703.948 7        45.737    22798946.302 7  91801924.47507      -722.271 7        44.316
S36        23.000    38161853.952 5 200541973.16705      -851.674 5        35.638
S23        24.000    38105544.321 6 200245941.72406      -847.648 6        40.372
G11        25.000    23966523.375 6 125944963.58206      2280.157 6        41.213                                    23966518.328 2  98138862.27202      1776.758 2        16.264    23966514.829 6  98138904.28006      1776.542 6        37.251
R16        26.000    22289748.254 4 119067593.14204     -2025.338 4        28.370                                                                    22289693.038 4                     -1575.060 4        26.491
E33        28.000    25977419.458 6 136512262.82706     -3860.490 6        39.222                                                                    25977413.585 5 101940969.65405     -2883.020 5        34.138    25977417.876 6 104600284.50506     -2958.080 6        38.066
E10        29.000    24198997.489 7 127166605.97007       -63.282 7        43.784                                                                    24198994.607 5  94962118.38805       -47.238 5        30.415    24198997.435 7  97439477.20907       -48.350 7        42.269
C20        31.000                                                                                                                                    21975353.517 8 114431581.58008      -147.263 8        50.151                                                                    21975348.148 7  92984911.59107      -119.698 7        42.931
R23        33.000    20036615.772 7 107182393.04407     -1761.756 7        46.648
R07        34.000    19843835.381 8 106225575.29108     -2410.720 8        50.516                                                                    19843834.514 7  82619914.10407     -1875.027 7        47.461
R22        35.000    21561723.847 5                     -4826.073 5        32.251                                                                    21561721.872 5  89520531.16805     -3753.345 5        35.976
C32        36.000                                                                                                                                    23327849.232 7 121474197.49807     -2849.201 7        43.113                                                                    23327849.868 7  98707785.37807     -2315.345 7        45.260
R09        37.000    21684451.259 5 115793650.41105      1614.986 5        30.234                                                                    21684429.712 6  90061833.87506      1256.095 6        38.066
C30        38.000                                                                                                                                    26128014.697 4                     -4202.530 4        24.556                                                                    26128004.351 3                     -3416.081 3        22.362
C23        40.000                                                                                                                                    24461215.081 6 127375964.10406      -617.696 6        38.799                                                                    24461199.440 6 103503405.80306      -501.669 6        37.221
C35        41.000                                                                                                                                    24743845.351 7 128847667.39607       268.661 7        42.557                                                                    24743853.967 5 104699306.33205       218.394 5        35.924
C37        42.000                                                                                                                                    24662678.784 6 128425079.18506      1805.721 6        41.392                                                                    24662681.963 5 104355859.63005      1467.499 5        34.733
R24        43.000    22568807.139 6 120685631.30706      2398.463 6        41.986                                                                    22568808.150 6  93866570.32406      1865.656 6        36.023
C16        45.000                                                                                                                                    39095121.859 4                     -1583.920 4        27.593    39095137.213 5 157419919.59105     -1224.975 5        35.952    39095133.943 5                     -1287.586 5        32.934
C39        46.000                                                                                                                                    39756045.365 4                     -1898.190 4        24.195
C09        47.000                                                                                                                                    38446609.259 6 200201595.97406     -1051.269 6        40.696    38446601.341 6 154808562.40406      -813.009 6        37.062    38446600.052 5 162680161.81105      -854.271 5        32.377
C19        48.000                                                                                                                                    24900707.107 6 129664717.63406      1682.072 6        39.610                                                                    24900686.830 6 105362952.73606      1366.753 6        37.822
C06        50.000                                                                                                                                    38547089.103 6 200724835.31506     -1526.250 6        37.705    38547098.389 5 155213208.46505     -1179.958 5        32.916    38547071.160 3                     -1240.405 3        21.833
C25        51.000                                                                                                                                    26360608.915 3                     -3066.598 3        20.905
C29        54.000                                                                                                                                    23640399.916 6 123101729.10006     -2849.995 6        39.078                                                                    23640398.782 6 100030301.63606     -2316.014 6        36.302
I01        57.000   380584420.412 6 190354211.90006     -3040.038 6        40.250
I09        58.000    37493015.866 5 147130645.55805      -934.153 5        35.105
> 2025 01 02 03 16 35.0000000  0 39
G03         1.000    21481220.037 7 112884555.51107     -3311.486 7        45.275                                    21481213.902 5  87961924.95305     -2580.380 5        32.545    21481214.794 5  87962017.98005     -2580.783 5        35.100
G07         5.000    23567508.434 7 123848170.20707      2414.430 7        43.012                                    23567501.674 5  96505008.27505      1881.371 5        33.072    23567501.833 6  96504979.27806      1881.344 6        40.203
G09         6.000    20147183.189 8 105874157.43408       194.539 8        48.907                                    20147179.809 8  82499357.52408       151.588 8        49.103    20147180.362 7  82499344.52407       151.536 7        46.114
G31        10.000                                                                                                                                                                    23723648.960 5                     -3044.302 5        30.453
G17        11.000    24945311.953 4                     -3770.358 4        24.406
G04        12.000    20148329.001 7 105880235.31207     -1691.804 7        47.814                                    20148326.221 5  82504002.30905     -1318.289 5        33.814    20148325.606 7  82504026.27507     -1318.341 7        44.763
E12        13.000    23973644.679 7 125982376.35107     -1499.859 7        46.236                                                                    23973640.436 8  94077729.47908     -1120.044 8        48.676    23973640.085 7  96531953.42607     -1149.221 7        47.766
E29        14.000    25069554.832 7 131741391.82207     -2963.507 7        43.655                                                                    25069552.820 7  98378304.38607     -2213.001 7        46.427    25069553.882 7 100944739.84107     -2270.727 7        47.207
G06        15.000    21328579.311 6 112082535.17106       307.702 6        41.466                                                                                                    21328577.644 6  87336969.73506       239.884 6        36.582
E11        16.000    25625115.010 6 134661238.86006      1288.085 6        40.405                                                                    25625109.920 6 100558460.87606       961.875 6        41.549    25625111.348 6 103181707.17106       986.903 6        39.186
E04        17.000    25812595.440 5 135646080.01905      1492.490 5        31.117                                                                    25812579.621 5 101294181.49605      1114.692 5        33.533    25812581.565 6 103936614.31606      1143.697 6        39.661
R08        18.000    20078994.728 6 107522169.12206       682.185 6        36.246                                                                    20078979.936 5  83628232.21505       530.738 5        34.481
E19        20.000    22799846.914 6 119814010.59306      -944.435 6        39.853                                                                    22799844.204 7  89471513.06607      -705.206 7        45.731    22799844.028 7  91805539.53107      -723.585 7        44.436
S36        23.000    38162666.066 5 200546232.94805      -852.026 5        35.471
S23        24.000    38106350.340 6 200250180.78506      -847.888 6        40.434
G11        25.000    23964353.309 6 125933567.34206      2278.569 6        41.297                                    23964349.261 2  98129982.08002      1775.517 2        16.302    23964346.276 6  98130024.07806      1775.452 6        36.968
R16        26.000                                                                                                                                    22291594.488 4                     -1579.131 4        27.389
E33        28.000    25981093.230 6 136531568.62606     -3861.587 6        40.324                                                                    25981087.572 5 101955386.33905     -2883.864 5        34.890    25981090.256 6 104615077.27006     -2958.872 6        38.033
E10        29.000    24199059.134 7 127166928.35007       -65.596 7        43.731                                                                    24199056.708 5  94962359.12905       -48.842 5        31.064    24199058.239 6  97439724.21906       -50.243 6        41.821
C20        31.000                                                                                                                                    21975495.069 8 114432322.01008      -148.740 8        49.439                                                                    21975490.162 7  92985513.25007      -120.994 7        42.635
R23        33.000    20038265.165 7 107191214.19007     -1766.514 7        46.604
R07        34.000    19846087.612 8 106237633.95908     -2412.614 8        50.868                                                                    19846086.477 7  82629293.06307     -1876.515 7        46.610
R22        35.000    21566246.124 5 115122082.63415     -4827.819 5        34.962                                                                    21566240.830 6  89539303.03706     -3755.423 6        36.930
C32        36.000                                                                                                                                    23330585.281 6 121488446.90106     -2850.418 6        41.669                                                                    23330586.524 7  98719364.16007     -2316.032 7        45.752
R09        37.000    21682929.073 5 115785584.54805      1611.500 5        34.595                                                                    21682922.661 6  90055560.40606      1253.548 6        38.973
C30        38.000                                                                                                                                    26132050.622 4                     -4202.366 4        24.617                                                                    26132040.559 3                     -3415.272 3        23.810
C23        40.000                                                                                                                                    24461809.407 6 127379059.49206      -620.446 6        41.106                                                                    24461793.573 6 103505921.09306      -503.988 6        36.571
C35        41.000                                                                                                                                    24743589.258 7 128846331.70407       265.768 7        43.086                                                                    24743589.788 6 104698220.84406       216.087 6        37.100
C37        42.000                                                                                                                                    24660946.023 6 128416054.41006      1804.172 6        41.666                                                                    24660948.776 5 104348526.26705      1466.127 5        35.395
R24        43.000    22566565.956 7 120673646.08907      2395.646 7        42.262                                                                    22566567.548 6  93857248.50006      1863.277 6        38.183
C16        45.000                                                                                                                                    39096641.571 4                     -1584.619 4        26.754    39096658.417 5 157426046.71105     -1225.702 5        35.933    39096655.278 5                     -1287.837 5        33.048
C39        46.000                                                                                                                                    39757869.031 4                     -1898.011 4        24.271
C09        47.000                                                                                                                                    38447619.000 6 200206854.94906     -1052.128 6        40.577    38447611.223 6 154812628.97806      -813.517 6        37.112    38447609.963 5 162684435.11205      -854.626 5        32.048
C19        48.000                                                                                                                                    24899094.537 6 129656309.46406      1681.406 6        38.000                                                                    24899072.049 6 105356120.42506      1366.220 6        37.947
C06        50.000                                                                                                                                    38548553.904 6 200732467.33406     -1526.541 6        37.611    38548564.576 5 155219110.06005     -1180.702 5        32.766    38548537.325 3                     -1240.525 3        23.276
C25        51.000                                                                                                                                    26363559.542 3                     -3064.039 3        20.310
C29        54.000                                                                                                                                    23643137.194 6 123115985.38606     -2852.301 6        38.961                                                                    23643138.753 6 100041886.00706     -2317.285 6        36.461
I01        57.000   380588293.837 6 190369412.86206     -3040.247 6        40.312
I09        58.000    37494205.832 5 147135317.61905      -934.367 5        35.490
> 2025 01 02 03 16 40.0000000  0 38
G03         1.000    21484370.892 7 112901116.94807     -3313.515 7        46.313                                    21484365.385 5  87974829.97305     -2581.951 5        33.347    21484365.538 5  87974922.98105     -2581.834 5        35.467
G07         5.000    23565211.214 7 123836099.97807      2413.282 7        42.766                                    23565205.053 5  96495602.89905      1880.477 5        32.802    23565204.657 6  96495573.90906      1880.579 6        40.212
G09         6.000    20146999.152 8 105873190.29908       191.895 8        49.975                                    20146995.783 8  82498603.91408       149.529 8        49.373    20146995.819 7  82498590.91707       149.507 7        46.398
G31        10.000    23727348.902 4                     -3909.448 4        24.421                                                                                                    23727363.326 5                     -3045.584 5        31.117
G17        11.000    24948900.296 4                     -3770.545 4        24.376
G04        12.000    20149940.013 7 105888699.86607     -1694.396 7        47.597                                    20149936.663 5  82510598.06005     -1320.310 5        33.455    20149935.688 7  82510622.03707     -1320.304 7        44.522
E12        13.000    23975072.600 7 125989881.39407     -1502.521 7        45.874                                                                    23975068.781 8  94083333.89908     -1122.033 8        48.837    23975068.402 7  96537704.05607     -1151.268 7        47.657
E29        14.000    25072375.118 7 131756211.27807     -2964.618 7        43.577                                                                    25072372.834 7  98389370.86707     -2213.872 7        46.576    25072373.997 7 100956095.01007     -2271.609 7        47.302
G06        15.000    21328290.829 6 112081004.44506       304.214 6        40.515                                                                                                    21328286.815 6  87335777.01206       237.015 6        37.561
E11        16.000    25623890.951 6 134654803.20906      1285.948 6        40.241                                                                    25623885.417 6 100553655.02406       960.401 6        41.576    25623886.688 6 103176775.94706       985.375 6        39.952
E04        17.000    25811172.811 5 135638618.79305      1491.280 5        32.000                                                                    25811158.892 5 101288609.88105      1113.646 5        32.778    25811161.800 6 103930897.34006      1142.600 6        39.498
R08        18.000    20078354.186 5 107518763.10405       679.908 5        32.826                                                                    20078346.042 5  83625583.16505       528.753 5        34.671
E19        20.000    22800746.323 6 119818736.04806      -946.286 6        39.541                                                                    22800743.324 7  89475041.82107      -706.630 7        45.514    22800743.137 7  91809160.34007      -725.041 7        44.423
S36        23.000    38163475.233 5 200550492.70805      -852.395 5        35.362
S23        24.000    38107156.739 6 200254419.75406      -848.239 6        40.465
G11        25.000    23962184.290 6 125922178.78306      2276.413 6        40.148                                    23962181.490 2  98121107.87602      1773.850 2        15.857    23962178.984 6  98121149.86406      1774.119 6        37.554
R16        26.000                                                                                                                                    22293499.220 4                     -1582.386 4        29.934
E33        28.000    25984767.290 6 136550878.99806     -3862.877 6        41.068                                                                    25984762.484 5 101969806.40705     -2884.631 5        35.400    25984764.206 6 104629873.53706     -2959.779 6        37.883
E10        29.000    24199123.043 7 127167261.75807       -68.203 7        43.858                                                                    24199120.632 5  94962608.11705       -51.045 5        32.389    24199121.294 6  97439979.70306       -52.337 6        41.366
C20        31.000                                                                                                                                    21975637.980 8 114433069.22708      -150.495 8        48.917                                                                    21975633.227 7  92986120.44407      -122.264 7        42.332
R23        33.000    20039917.970 7 107200058.61107     -1771.667 7        46.585
R07        34.000    19848342.073 8 106249701.13508     -2414.677 8        51.673                                                                    19848340.635 7  82638678.64007     -1878.090 7        46.226
R22        35.000    21570766.207 5 115146228.01805     -4830.874 5        30.891                                                                    21570763.659 6  89558082.79506     -3757.037 6        37.108
C32        36.000                                                                                                                                    23333322.404 6 121502700.55106     -2851.573 6        40.327                                                                    23333323.811 7  98730946.44007     -2317.094 7        46.055
R09        37.000    21681420.587 5 115777534.88905      1607.960 5        34.629                                                                    21681416.255 6  90049299.55006      1250.739 6        38.264
C30        38.000                                                                                                                                    26136085.417 4                     -4202.668 4        25.850                                                                    26136075.402 3                     -3414.107 3        22.495
C23        40.000                                                                                                                                    24462409.944 7 127382168.62007      -623.564 7        42.351                                                                    24462390.617 5 103508447.55305      -506.558 5        35.310
C35        41.000                                                                                                                                    24743335.031 7 128845009.04007       262.818 7        44.014                                                                    24743330.242 6 104697146.09206       213.592 6        38.264
C37        42.000                                                                                                                                    24659214.133 6 128407036.30606      1802.631 6        41.626                                                                    24659216.604 5 104341198.34405      1464.784 5        35.767
R24        43.000    22564326.745 6 120661674.93906      2392.484 6        41.402                                                                    22564326.932 6  93847937.63906      1860.754 6        38.934
C16        45.000                                                                                                                                    39098162.728 4                     -1585.082 4        27.365    39098180.621 5 157432175.56905     -1226.347 5        35.824    39098176.587 5                     -1288.343 5        33.222
C39        46.000                                                                                                                                    39759692.867 4                     -1898.752 4        24.962
C09        47.000                                                                                                                                    38448628.816 6 200212116.92206     -1053.122 6        40.594    38448621.556 6 154816697.86606      -814.203 6        37.384    38448620.745 5 162688710.93605      -855.593 5        32.425
C19        48.000                                                                                                                                    24897478.831 6 129647903.79206      1680.630 6        36.650                                                                    24897457.837 6 105349290.18206      1365.465 6        38.009
C06        50.000                                                                                                                                    38550019.626 6 200740101.87106     -1527.436 6        37.395    38550030.549 5 155225013.58405     -1181.213 5        33.431    38550003.435 3                     -1240.432 3        23.010
C29        54.000                                                                                                                                    23645874.327 6 123130252.01406     -2854.736 6        38.411                                                                    23645880.160 6 100053478.84406     -2319.605 6        36.405
I01        57.000   380592167.736 6 190384614.23106     -3040.655 6        40.529
I09        58.000    37495396.282 5 147139990.12505      -934.968 5        35.924
> 2025 01 02 03 16 45.0000000  0 39
G03         1.000    21487523.597 7 112917686.07107     -3314.781 7        46.958                                    21487518.434 5  87987740.97905     -2582.945 5        34.214    21487518.478 6  87987833.99106     -2582.935 6        36.004
G19         2.000    23582862.444 4 123928676.67304     -3544.610 4        28.104
G07         5.000    23562914.387 7 123824033.84307      2412.709 7        42.063                                    23562909.112 5  96486200.72005      1880.026 5        32.204    23562908.574 6  96486171.72506      1880.040 6        40.052
G09         6.000    20146817.359 8 105872234.59008       189.850 8        50.481                                    20146813.954 8  82497859.20308       147.937 8        49.508    20146813.691 7  82497846.20207       147.925 7        46.136
G31        10.000                                                                                                                                                                    23731083.833 5                     -3047.465 5        30.951
G17        11.000    24952488.809 4                     -3774.339 4        25.128
G04        12.000    20151552.868 7 105897175.40607     -1696.212 7        46.960                                    20151549.331 5  82517202.37505     -1321.719 5        33.138    20151548.792 7  82517226.34307     -1321.762 7        44.658
E12        13.000    23976502.624 7 125997398.07107     -1504.568 7        44.751                                                                    23976499.148 8  94088947.00908     -1123.502 8        49.012    23976498.917 7  96543463.59307     -1152.813 7        47.629
E29        14.000    25075195.612 7 131771034.25007     -2965.086 7        43.509                                                                    25075193.500 7  98400439.95907     -2214.091 7        46.705    25075194.713 7 100967452.86207     -2271.874 7        47.240
G06        15.000    21328000.437 5 112079489.23905       301.123 5        35.629                                                                                                    21327997.519 6  87334596.33906       234.830 6        38.171
E11        16.000    25622667.898 6 134648375.14706      1284.718 6        40.007                                                                    25622662.332 6 100548854.84706       959.490 6        41.681    25622663.178 6 103171850.55606       984.418 6        40.610
E04        17.000    25809750.008 5 135631162.04105      1490.807 5        33.934                                                                    25809739.805 5 101283041.55905      1113.206 5        33.311    25809742.693 6 103925183.74506      1142.264 6        39.468
R08        18.000    20077726.309 5 107515366.47005       678.327 5        35.086                                                                    20077710.318 5  83622941.34405       527.773 5        33.018
E19        20.000    22801646.836 6 119823469.06906      -947.495 6        39.417                                                                    22801643.934 7  89478576.22207      -707.542 7        45.427    22801643.810 7  91812786.94107      -725.899 7        44.506
S36        23.000    38164287.790 5 200554752.24505      -852.259 5        35.814
S23        24.000    38107963.979 6 200258658.48106      -847.957 6        40.505
G11        25.000    23960017.187 6 125910797.92606      2275.340 6        38.495                                    23960015.328 2  98112239.65802      1772.998 2        15.000    23960013.416 6  98112281.68306      1772.856 6        37.051
R16        26.000                                                                                                                                    22295405.079 4                     -1585.475 4        28.777
E33        28.000    25988442.205 6 136570193.96806     -3863.621 6        41.485                                                                    25988438.343 6 101984229.91406     -2885.035 6        36.208    25988439.134 6 104644673.31706     -2960.239 6        37.762
E10        29.000    24199188.844 7 127167606.27907       -70.082 7        44.348                                                                    24199186.422 5  94962865.37505       -52.304 5        33.533    24199186.499 6  97440243.68606       -53.735 6        40.775
C20        31.000                                                                                                                                    21975782.689 8 114433823.28308      -151.577 8        48.760                                                                    21975777.511 6  92986733.17106      -123.213 6        41.621
R23        33.000    20041575.707 7 107208926.37107     -1775.969 7        46.864
R07        34.000    19850598.855 8 106261776.97808     -2416.115 8        52.113                                                                    19850596.435 7  82648070.93907     -1879.207 7        45.998
R22        35.000                                                                                                                                    21575288.012 6  89576870.57106     -3758.286 6        36.420
C32        36.000                                                                                                                                    23336061.038 6 121516958.54406     -2852.278 6        38.246                                                                    23336061.994 7  98742532.21107     -2317.696 7        46.304
R09        37.000    21679918.002 5 115769501.76405      1604.648 5        33.305                                                                    21679910.926 6  90043051.48206      1248.246 6        36.896
C30        38.000                                                                                                                                    26140122.746 4                     -4202.356 4        25.353                                                                    26140111.551 3                     -3415.133 3        23.238
C23        40.000                                                                                                                                    24463014.167 7 127385291.52107      -626.069 7        42.582                                                                    24462990.146 5 103510985.16305      -509.039 5        34.152
C35        41.000                                                                                                                                    24743083.023 7 128843699.49207       260.482 7        44.606                                                                    24743079.725 6 104696081.98806       211.675 6        39.613
C37        42.000                                                                                                                                    24657482.253 6 128398024.99606      1801.534 6        41.473                                                                    24657485.339 5 104333875.87805      1463.694 5        35.733
R24        43.000    22562089.387 6 120649717.98406      2389.796 6        41.416                                                                    22562089.300 6  93838637.78806      1858.809 6        40.017
C16        45.000                                                                                                                                    39099690.144 4                     -1586.011 4        27.665    39099702.735 5 157438306.19905     -1226.623 5        35.305    39099699.147 5                     -1288.673 5        33.329
C39        46.000                                                                                                                                    39761515.456 4                     -1899.150 4        25.368
C09        47.000                                                                                                                                    38449639.708 6 200217381.96406     -1053.378 6        40.439    38449632.821 6 154820769.13306      -814.664 6        37.807    38449631.819 5 162692989.20205      -855.909 5        32.317
C19        48.000                                                                                                                                    24895861.161 6 129639500.74506      1680.336 6        36.117                                                                    24895844.548 6 105342462.01206      1365.183 6        38.210
C06        50.000                                                                                                                                    38551485.756 6 200747739.00806     -1527.837 6        37.240    38551496.513 5 155230919.11505     -1181.406 5        33.198    38551469.247 3                     -1238.158 3        22.686
C29        54.000                                                                                                                                    23648613.576 6 123144529.06306     -2856.417 6        36.783                                                                    23648621.164 5 100065080.12105     -2321.165 5        35.752
I01        57.000   380596041.579 6 190399815.99706     -3040.480 6        40.467
I09        58.000    37496587.187 6 147144663.02106      -934.736 6        36.272
> 2025 01 02 03 16 50.0000000  0 38
G03         1.000    21490678.207 7 112934263.06807     -3316.181 7        46.763                                    21490673.119 5  88000658.12205     -2584.038 5        34.971    21490673.294 5  88000751.13105     -2583.895 5        35.962
G19         2.000    23586226.346 3 123946404.86503     -3546.940 3        23.886
G07         5.000    23560618.368 6 123811971.97906      2411.917 6        40.417                                    23560613.842 5  96476801.86705      1879.409 5        31.177    23560613.001 6  96476772.86206      1879.604 6        39.363
G09         6.000    20146637.454 8 105871290.48708       187.689 8        50.372                                    20146634.302 8  82497123.53308       146.253 8        49.594    20146634.024 7  82497110.53407       146.235 7        45.956
G31        10.000                                                                                                                                                                    23734806.445 5                     -3048.909 5        30.732
G04        12.000    20153167.723 7 105905662.11307     -1698.361 7        46.043                                    20153164.235 5  82523815.38305     -1323.391 5        33.012    20153164.088 7  82523839.36407     -1323.406 7        44.820
E12        13.000    23977935.057 7 126004926.51407     -1506.763 7        43.551                                                                    23977931.862 8  94094568.89808     -1125.171 8        49.233    23977931.543 7  96549232.14907     -1154.557 7        47.436
E29        14.000    25078017.029 7 131785860.90507     -2965.779 7        43.117                                                                    25078014.941 7  98411511.81007     -2214.612 7        46.961    25078016.175 7 100978813.54607     -2272.355 7        47.145
G06        15.000    21327717.155 4 112077989.70504       298.361 4        27.808                                                                                                    21327712.776 6  87333427.85906       232.702 6        38.249
E11        16.000    25621446.167 6 134641954.81806      1283.324 6        40.136                                                                    25621440.534 6 100544060.45706       958.273 6        41.673    25621441.501 6 103166931.08706       983.393 6        41.006
E04        17.000    25808328.622 5 135623709.94105      1490.218 5        35.914                                                                    25808321.880 5 101277476.69705      1112.630 5        34.048    25808324.604 6 103919473.67706      1141.812 6        39.150
R08        18.000                                                                                                                                    20077074.667 5  83620306.88605       526.321 5        34.705
E19        20.000    22802549.238 6 119828209.82706      -948.741 6        39.345                                                                    22802546.117 7  89482116.40007      -708.566 7        45.226    22802545.953 7  91816419.47807      -726.995 7        44.396
S36        23.000    38165095.029 5 200559012.04805      -851.689 5        35.324
S23        24.000    38108771.688 6 200262897.13806      -847.682 6        40.415
G11        25.000    23957852.668 6 125899425.00006      2273.855 6        36.397                                    23957850.705 2  98103377.63602      1771.846 2        13.939    23957848.406 6  98103419.64706      1771.925 6        36.904
R16        26.000                                                                                                                                    22297313.510 3                     -1590.083 3        20.405
E33        28.000    25992118.534 6 136589513.74006     -3864.396 6        41.342                                                                    25992115.043 6 101998657.00506     -2885.663 6        36.586    25992115.250 6 104659476.78406     -2961.030 6        37.210
E10        29.000    24199256.265 7 127167962.11807       -72.253 7        44.027                                                                    24199254.155 5  94963131.10705       -54.096 5        34.590    24199253.859 6  97440516.32506       -55.227 6        40.150
C20        31.000                                                                                                                                    21975928.796 8 114434584.37008      -152.830 8        48.247                                                                    21975923.485 6  92987351.60706      -124.096 6        41.089
R23        33.000    20043238.421 7 107217817.49907     -1780.472 7        47.573
R07        34.000    19852855.423 8 106273861.45508     -2417.799 8        51.921                                                                    19852853.387 7  82657469.98407     -1880.505 7        45.595
R22        35.000    21579811.064 3                     -4834.067 3        19.343                                                                    21579812.531 6  89595666.46416     -3759.994 6        36.363
C32        36.000                                                                                                                                    23338800.844 5 121531221.06005     -2852.914 5        35.038                                                                    23338800.931 7  98754121.62407     -2318.013 7        46.409
R09        37.000    21678416.377 5 115761485.09505      1601.927 5        35.648                                                                    21678405.377 5  90036816.23705      1245.679 5        35.790
C30        38.000                                                                                                                                    26144158.927 4                     -4202.458 4        26.132                                                                    26144147.271 4                     -3416.034 4        24.075
C23        40.000                                                                                                                                    24463615.413 6 127388428.35706      -628.711 6        41.962                                                                    24463591.936 5 103513534.05905      -511.143 5        32.868
C35        41.000                                                                                                                                    24742834.354 7 128842403.24407       258.028 7        44.482                                                                    24742832.018 6 104695028.65906       209.677 6        40.486
C37        42.000                                                                                                                                    24655751.912 6 128389020.63906      1800.239 6        41.385                                                                    24655755.745 6 104326559.05706      1463.060 6        36.102
R24        43.000    22559856.520 6 120637775.35906      2387.152 6        41.967                                                                    22559856.546 6  93829349.10506      1856.669 6        40.343
C16        45.000                                                                                                                                    39101212.888 4                     -1586.578 4        27.569    39101224.992 5 157444438.72705     -1226.578 5        35.338    39101221.869 5                     -1289.010 5        33.898
C39        46.000                                                                                                                                    39763339.730 3                     -1900.684 3        23.962
C09        47.000                                                                                                                                    38450651.218 6 200222650.25106     -1053.825 6        40.596    38450644.649 6 154824842.91006      -815.018 6        38.141    38450643.242 5 162697270.10405      -856.094 5        32.401
C19        48.000                                                                                                                                    24894248.037 5 129631100.48505      1679.780 5        35.905                                                                    24894231.552 6 105335636.05206      1365.209 6        38.501
C06        50.000                                                                                                                                    38552952.997 6 200755378.91306     -1528.030 6        37.164    38552962.471 5 155236826.80205     -1181.636 5        33.329    38552938.506 4                     -1243.173 4        24.045
C29        54.000                                                                                                                                    23651354.465 5 123158816.75105     -2858.720 5        34.681                                                                    23651364.877 5 100076690.02105     -2322.757 5        34.757
I01        57.000   380599915.797 6 190415018.26506     -3040.500 6        40.555
I09        58.000    37497778.462 6 147149336.55606      -934.658 6        36.548
> 2025 01 02 03 16 55.0000000  0 36
G03         1.000    21493834.180 7 112950847.91807     -3317.698 7        46.484                                    21493829.302 5  88013581.38005     -2585.219 5        35.219    21493830.325 5  88013674.39805     -2585.111 5        35.767
G07         5.000    23558322.934 6 123799914.30006      2411.315 6        38.664                                    23558319.242 4  96467406.26904      1878.937 4        29.659    23558318.311 6  96467377.28006      1878.864 6        38.739
G09         6.000    20146459.774 8 105870357.93008       185.492 8        50.280                                    20146456.823 8  82496396.86008       144.541 8        49.413    20146456.431 7  82496383.86407       144.565 7        45.833
G31        10.000    23738555.012 4                     -3914.821 4        29.393                                                                                                    23738531.843 5                     -3050.582 5        30.936
G04        12.000    20154785.205 7 105914159.92907     -1700.533 7        45.594                                    20154781.411 5  82530437.04405     -1325.089 5        32.844    20154780.642 7  82530461.02307     -1325.073 7        44.865
E12        13.000    23979369.918 7 126012466.70007     -1509.072 7        42.790                                                                    23979366.767 8  94100199.56608     -1126.874 8        49.128    23979366.395 7  96555009.70507     -1156.252 7        47.672
E29        14.000    25080839.435 7 131800691.18007     -2966.204 7        43.270                                                                    25080837.109 7  98422586.37507     -2215.075 7        47.004    25080838.339 7 100990177.00607     -2272.824 7        47.274
G06        15.000                                                                                                                                                                    21327429.776 6  87332271.57506       230.154 6        37.750
E11        16.000    25620226.006 6 134635542.21506      1281.863 6        40.572                                                                    25620220.383 6 100539271.82106       957.279 6        41.521    25620221.224 6 103162017.53706       982.313 6        41.807
E04        17.000    25806912.125 6 135616262.41106      1489.337 6        37.369                                                                    25806905.789 5 101271915.25805      1111.997 5        34.424    25806907.402 6 103913767.14306      1141.123 6        39.411
R08        18.000                                                                                                                                    20076442.259 5  83617679.71105       524.823 5        33.281
E19        20.000    22803453.262 6 119832958.29806      -950.339 6        39.733                                                                    22803449.633 7  89485662.34007      -709.607 7        44.895    22803449.652 7  91820057.92407      -728.179 7        44.614
S36        23.000    38165910.488 5 200563271.94705      -851.729 5        35.824
S23        24.000    38109577.832 6 200267135.68606      -847.536 6        40.527
G11        25.000    23955690.792 5 125888059.95805      2272.463 5        34.505                                    23955687.607 2  98094521.75102      1770.763 2        12.061    23955685.981 6  98094563.78406      1770.663 6        36.427
E33        28.000    25995796.119 6 136608838.23106     -3865.236 6        41.635                                                                    25995792.588 6 102013087.62906     -2886.290 6        36.646    25995792.527 6 104674283.88606     -2961.671 6        37.508
E10        29.000    24199325.535 7 127168329.21507       -74.391 7        43.797                                                                    24199324.109 5  94963405.23405       -55.605 5        35.562    24199323.341 6  97440797.60806       -57.007 6        39.399
C20        31.000                                                                                                                                    21976075.918 7 114435352.45607      -154.090 7        47.109                                                                    21976070.744 6  92987975.75006      -125.305 6        40.229
R23        33.000    20044905.416 8 107226732.07908     -1785.124 8        48.095
R07        34.000    19855114.296 8 106285954.74008     -2419.337 8        51.739                                                                    19855112.591 7  82666875.86807     -1881.663 7        45.497
R22        35.000    21584345.307 4                     -4837.265 4        24.992                                                                    21584338.603 6  89614470.33706     -3761.495 6        38.480
C32        36.000                                                                                                                                    23341545.333 5 121545488.04305     -2853.350 5        33.886                                                                    23341540.823 7  98765714.68407     -2318.751 7        46.285
R09        37.000    21676920.996 5 115753484.93405      1598.598 5        34.238                                                                    21676904.159 5  90030593.81805      1243.268 5        33.120
C30        38.000                                                                                                                                    26148193.260 4                     -4201.764 4        26.575                                                                    26148182.244 3                     -3416.494 3        23.086
C23        40.000                                                                                                                                    24464213.149 6 127391579.07106      -631.484 6        40.687                                                                    24464195.905 5 103516094.27505      -512.830 5        31.502
C35        41.000                                                                                                                                    24742588.372 7 128841120.25707       255.504 7        43.522                                                                    24742585.786 6 104693986.13606       207.482 6        41.302
C37        42.000                                                                                                                                    24654024.466 6 128380023.16106      1798.980 6        41.850                                                                    24654028.073 6 104319247.87106      1461.667 6        36.541
R24        43.000    22557626.907 6 120625847.08206      2384.401 6        41.661                                                                    22557626.000 6  93820071.55506      1854.537 6        39.808
C16        45.000                                                                                                                                    39102737.197 4                     -1586.695 4        28.796    39102747.986 5 157450573.14505     -1227.214 5        35.124    39102745.092 5                     -1289.271 5        33.695
C39        46.000                                                                                                                                    39765163.723 4                     -1899.391 4        24.662
C09        47.000                                                                                                                                    38451663.042 6 200227921.75906     -1054.513 6        40.546    38451657.561 6 154828919.18706      -815.342 6        38.360    38451655.588 5 162701553.62805      -856.774 5        32.473
C19        48.000                                                                                                                                    24892636.375 5 129622702.91905      1679.443 5        35.338                                                                    24892619.073 6 105328812.35406      1364.604 6        38.721
C06        50.000                                                                                                                                    38554419.719 6 200763021.54106     -1528.632 6        36.673    38554429.680 5 155242736.58105     -1182.159 5        33.335    38554407.308 4                     -1242.057 4        24.241
C29        54.000                                                                                                                                    23654101.006 5 123173114.91505     -2860.837 5        31.826                                                                    23654110.773 5 100088308.50005     -2324.112 5        33.377
I01        57.000   380603789.590 6 190430221.00706     -3040.559 6        40.505
I09        58.000    37498969.153 6 147154010.65006      -934.870 6        36.957
> 2025 01 02 03 17  0.0000000  0 37
G03         1.000    21496991.379 7 112967440.55907     -3319.466 7        46.132                                    21496986.835 5  88026510.70705     -2586.593 5        34.971    21496987.218 5  88026603.69705     -2586.377 5        35.262
G07         5.000    23556029.351 6 123787860.85906      2410.052 6        36.280                                    23556025.411 4  96458013.97104      1877.959 4        27.677    23556024.849 6  96457984.97206      1878.017 6        38.501
G09         6.000    20146284.179 8 105869436.92808       182.791 8        49.896                                    20146281.527 8  82495679.18808       142.435 8        49.065    20146281.446 7  82495666.19507       142.489 7        45.410
G31        10.000    23742283.746 5                     -3916.730 5        30.702                                                                                                    23742261.056 5                     -3051.943 5        30.181
G04        12.000    20156405.008 7 105922668.82207     -1703.042 7        46.224                                    20156400.773 5  82537067.33605     -1327.044 5        32.994    20156399.991 7  82537091.33207     -1327.087 7        45.153
E12        13.000    23980806.632 7 126020018.58407     -1511.701 7        42.157                                                                    23980803.808 8  94105838.97008     -1128.922 8        49.292    23980803.467 7  96560796.22607     -1158.349 7        47.608
E29        14.000    25083662.460 7 131815525.08007     -2967.364 7        43.395                                                                    25083659.927 7  98433663.62807     -2215.873 7        47.108    25083661.070 7 101001543.23507     -2273.682 7        47.238
G06        15.000    21327177.260 4 112075037.25304       291.858 4        29.403                                                                                                    21327150.021 6  87331127.45106       227.459 6        37.486
E11        16.000    25619007.360 6 134629137.30706      1279.963 6        40.956                                                                    25619001.472 6 100534488.94306       955.727 6        41.421    25619002.263 7 103157109.88707       980.717 7        42.161
E04        17.000    25805497.202 6 135608819.43806      1487.849 6        39.150                                                                    25805490.279 5 101266357.18605      1110.942 5        35.686    25805490.900 6 103908064.08406      1140.027 6        39.670
R08        18.000                                                                                                                                    20075810.498 5  83615059.85605       523.055 5        31.781
E19        20.000    22804358.443 6 119837714.35506      -952.189 6        40.246                                                                    22804354.642 7  89489213.94707      -711.070 7        44.731    22804354.748 7  91823702.17707      -729.631 7        44.600
S36        23.000    38166718.040 5 200567532.15805      -852.311 5        35.386
S23        24.000    38110384.987 6 200271374.31006      -847.836 6        40.365
G11        25.000    23953529.446 5 125876702.79205      2270.750 5        33.036                                    23953526.154 1  98085672.05201      1769.391 1        10.518    23953524.508 6  98085714.03806      1769.057 6        36.760
R16        26.000    22301135.904 4 119128590.58914     -2051.245 4        28.085
E33        28.000    25999473.874 6 136628167.41806     -3866.468 6        41.445                                                                    25999471.160 6 102027521.77806     -2887.429 6        36.904    25999470.505 6 104689094.56406     -2962.609 6        37.486
E10        29.000    24199397.253 7 127168707.53407       -76.956 7        43.242                                                                    24199396.430 6  94963687.75606       -57.706 6        36.541    24199394.907 6  97441087.50006       -58.913 6        38.517
C20        31.000                                                                                                                                    21976224.948 7 114436127.50207      -155.923 7        47.213                                                                    21976219.430 6  92988605.52706      -126.673 6        39.387
R23        33.000    20046576.605 8 107235670.05608     -1790.123 8        48.162
R07        34.000    19857375.705 8 106298056.59808     -2421.409 8        51.517                                                                    19857372.906 7  82676288.43607     -1883.351 7        44.910
R22        35.000    21588880.771 5                     -4838.212 5        31.706                                                                    21588869.187 6  89633282.17516     -3763.245 6        39.300
C32        36.000                                                                                                                                    23344288.944 5 121559759.31805     -2854.889 5        34.829                                                                    23344281.475 7  98777311.33607     -2319.965 7        46.329
R09        37.000    21675427.008 5 115745501.30505      1594.886 5        33.599                                                                    21675408.985 5  90024384.20105      1240.355 5        30.853
C30        38.000                                                                                                                                    26152230.000 4                     -4201.034 4        26.886                                                                    26152216.399 3                     -3416.761 3        23.219
C23        40.000                                                                                                                                    24464813.269 6 127394743.63006      -634.557 6        39.892                                                                    24464802.224 5 103518665.71905      -515.801 5        30.430
C35        41.000                                                                                                                                    24742345.017 7 128839850.52307       252.520 7        42.891                                                                    24742342.041 7 104692954.34807       205.053 7        42.093
C37        42.000                                                                                                                                    24652299.425 7 128371032.58707      1797.337 7        43.126                                                                    24652301.957 6 104311942.30406      1460.181 6        36.926
R24        43.000    22555398.919 6 120613933.14706      2381.176 6        40.810                                                                    22555396.634 6  93810805.17306      1852.136 6        38.907
C16        45.000                                                                                                                                    39104263.541 4                     -1587.307 4        28.948    39104271.194 5 157456709.38805     -1227.497 5        34.667    39104266.798 5                     -1290.214 5        33.982
C39        46.000                                                                                                                                    39766989.419 4                     -1900.564 4        25.744
C09        47.000                                                                                                                                    38452676.122 6 200233196.41806     -1055.469 6        40.675    38452671.239 6 154832997.86006      -815.916 6        38.763    38452668.631 5 162705839.73805      -857.960 5        32.305
C19        48.000                                                                                                                                    24891023.152 5 129614308.05405      1678.575 5        35.538                                                                    24891007.045 6 105321990.83106      1363.710 6        39.312
C06        50.000                                                                                                                                    38555887.273 6 200770666.84706     -1529.551 6        36.726    38555898.867 5 155248648.41705     -1182.832 5        33.395    38555875.552 4                     -1243.529 4        24.436
C29        54.000                                                                                                                                    23656852.019 4 123187423.57204     -2862.627 4        28.929                                                                    23656855.693 5 100099935.54605     -2326.517 5        31.147
I01        57.000   380607664.039 6 190445424.29606     -3040.867 6        40.665
I09        58.000    37500160.640 6 147158685.26506      -935.167 6        37.191
> 2025 01 02 03 17  5.0000000  0 36
G03         1.000    21500150.382 7 112984040.97107     -3321.003 7        44.978                                    21500145.589 5  88039446.09605     -2587.795 5        34.390    21500146.277 5  88039539.10405     -2587.499 5        35.310
G07         5.000    23553736.792 5 123775811.64205      2409.254 5        32.293                                    23553732.265 4  96448624.95304      1877.350 4        25.805    23553733.031 6  96448595.95206      1877.496 6        38.225
G09         6.000    20146110.966 8 105868527.42108       180.576 8        49.065                                    20146108.435 8  82494970.47308       140.707 8        48.660    20146108.199 7  82494957.48807       140.771 7        45.242
G31        10.000    23746013.379 4                     -3918.885 4        29.166                                                                                                    23745991.010 4                     -3053.824 4        29.062
G04        12.000    20158026.598 7 105931188.75907     -1705.146 7        46.549                                    20158022.148 5  82543706.24105     -1328.683 5        33.126    20158021.186 7  82543730.24007     -1328.810 7        45.065
E12        13.000    23982245.734 6 126027582.12806     -1513.903 6        41.726                                                                    23982243.156 8  94111487.09008     -1130.560 8        49.516    23982242.764 7  96566591.68607     -1159.983 7        47.579
E29        14.000    25086485.859 7 131830362.54707     -2967.936 7        43.553                                                                    25086483.406 7  98444743.54807     -2216.265 7        47.344    25086484.570 7 101012912.19807     -2274.170 7        47.216
G06        15.000    21326890.989 5 112073584.54505       288.881 5        32.120                                                                                                    21326873.962 6  87329995.46106       225.156 6        38.411
E11        16.000    25617789.725 6 134622740.03506      1278.699 6        41.528                                                                    25617784.096 6 100529711.76206       954.824 6        41.414    25617784.804 7 103152208.10107       979.569 7        42.540
E04        17.000    25804082.930 6 135601380.96706      1487.138 6        40.291                                                                    25804075.382 6 101260802.48406      1110.586 6        37.112    25804075.455 6 103902364.49706      1139.372 6        40.072
R08        18.000    20075221.857 5                       670.777 5        34.843                                                                    20075184.358 5  83612447.32405       521.508 5        31.849
E19        20.000    22805265.060 6 119842478.08106      -953.582 6        40.644                                                                    22805261.182 7  89492771.27807      -712.071 7        44.904    22805261.315 7  91827352.30307      -730.590 7        44.766
S36        23.000    38167530.691 5 200571792.56305      -852.017 5        35.638
S23        24.000    38111192.159 6 200275613.03606      -847.826 6        40.482
G11        25.000    23951370.532 5 125865353.54205      2269.173 5        30.332                                    23951366.316 1  98076828.40701      1768.169 1         9.238    23951365.793 6  98076870.40306      1767.805 6        37.142
E33        28.000    26003152.630 6 136647501.29406     -3867.373 6        40.884                                                                    26003150.130 6 102041959.39906     -2887.911 6        37.036    26003149.397 6 104703908.82406     -2963.264 6        37.766
E10        29.000    24199472.104 7 127169097.05807       -79.084 7        43.198                                                                    24199471.216 6  94963978.62706       -58.904 6        37.909    24199468.344 6  97441385.97206       -60.517 6        37.531
C20        31.000                                                                                                                                    21976376.062 8 114436909.45708      -157.146 8        48.048                                                                    21976369.542 6  92989240.96906      -127.701 6        38.928
R23        33.000    20048252.237 7 107244631.34207     -1794.670 7        47.798
R07        34.000    19859638.396 8 106310167.09008     -2423.083 8        52.079                                                                    19859635.522 7  82685707.69307     -1884.604 7        44.224
R22        35.000    21593415.886 5 115267122.70815     -4840.403 5        34.914                                                                    21593401.584 6  89652101.99406     -3764.806 6        39.234
C32        36.000                                                                                                                                                                                                                                                                    23347022.889 7  98788911.58107     -2320.457 7        46.175
R09        37.000    21673940.143 5 115737534.19205      1591.784 5        35.043                                                                    21673921.539 5  90018187.42305      1238.103 5        32.018
C30        38.000                                                                                                                                    26156265.666 4                     -4201.653 4        26.671                                                                    26156250.656 3                     -3415.218 3        23.505
C23        40.000                                                                                                                                    24465422.501 6 127397922.04106      -637.165 6        39.688                                                                    24465410.693 4 103521248.46004      -518.155 4        29.441
C35        41.000                                                                                                                                    24742104.301 7 128838593.96807       249.931 7        43.082                                                                    24742101.076 7 104691933.32407       203.088 7        42.739
C37        42.000                                                                                                                                    24650576.863 7 128362048.89807      1795.949 7        43.922                                                                    24650577.031 6 104304642.32706      1459.374 6        37.380
R24        43.000    22553171.515 6 120602033.44406      2378.347 6        39.459                                                                    22553169.539 6  93801549.86206      1849.742 6        37.130
C16        45.000                                                                                                                                    39105792.112 4                     -1587.792 4        29.194    39105794.986 5 157462847.49405     -1228.074 5        34.205    39105790.939 5 165469409.91315     -1290.284 5        34.133
C39        46.000                                                                                                                                    39768815.549 4                     -1900.770 4        25.805
C09        47.000                                                                                                                                    38453689.891 6 200238474.18906     -1056.002 6        40.987    38453684.678 6 154837078.99706      -816.647 6        39.405    38453681.919 5 162710128.36305      -858.038 5        32.545
C19        48.000                                                                                                                                    24889412.257 6 129605915.87106      1677.774 6        36.405                                                                    24889395.815 6 105315171.47406      1363.635 6        39.748
C06        50.000                                                                                                                                    38557356.876 6 200778314.82406     -1530.025 6        36.367    38557369.031 5 155254562.31105     -1183.102 5        33.976    38557345.630 4                     -1244.106 4        24.887
C29        54.000                                                                                                                                    23659601.485 4 123201742.74604     -2864.568 4        26.048                                                                    23659602.665 5 100111571.08505     -2328.208 5        30.287
I01        57.000   380611538.881 6 190460628.09606     -3040.833 6        40.434
I09        58.000    37501351.936 6 147163360.39006      -935.115 6        37.535
> 2025 01 02 03 17 10.0000000  0 39
G03         1.000    21503310.817 7 113000649.48307     -3322.304 7        43.827                                    21503305.815 5  88052387.78605     -2588.804 5        33.437    21503306.671 5  88052480.75905     -2588.692 5        35.524
G19         2.000    23599679.927 4                     -3553.259 4        26.922
G07         5.000    23551441.897 4 123763766.96604      2409.041 4        27.186                                    23551440.013 4  96439239.48104      1877.205 4        26.000    23551440.935 6  96439210.44806      1876.693 6        38.330
G09         6.000    20145940.369 8 105867629.73408       178.492 8        48.137                                    20145937.605 8  82494270.97308       139.084 8        48.232    20145937.738 7  82494257.98907       139.151 7        45.202
G31        10.000    23749744.456 4                     -3921.124 4        26.982                                                                                                    23749715.402 4                     -3055.586 4        26.754
G17        11.000    24970410.182 3                     -3774.030 3        20.405
G04        12.000    20159649.730 7 105939720.06207     -1707.226 7        47.133                                    20159645.665 5  82550353.99905     -1330.309 5        33.234    20159644.777 7  82550377.99207     -1330.298 7        44.665
E12        13.000    23983686.926 6 126035157.67806     -1516.151 6        40.732                                                                    23983684.652 8  94117144.15708     -1132.189 8        49.445    23983684.385 7  96572396.32807     -1161.717 7        47.590
E29        14.000    25089310.400 7 131845203.90307     -2968.552 7        43.649                                                                    25089307.571 7  98455826.37807     -2216.753 7        47.289    25089308.659 7 101024284.13707     -2274.510 7        47.051
G06        15.000    21326617.107 5 112072147.67005       285.979 5        32.066                                                                                                    21326602.274 6  87328875.86906       222.857 6        38.889
E11        16.000    25616574.024 7 134616350.78707      1277.293 7        42.030                                                                    25616568.344 6 100524940.56906       953.744 6        41.237    25616568.902 7 103147312.43707       978.656 7        42.847
E04        17.000    25802668.628 6 135593947.34706      1486.527 6        40.946                                                                    25802661.208 6 101255251.42306      1110.070 6        38.258    25802660.805 6 103896668.60906      1138.926 6        40.150
R08        18.000    20074592.566 5 107498549.22115       668.960 5        34.771                                                                    20074558.798 5  83609842.43105       520.035 5        30.106
E19        20.000    22806172.868 6 119847249.77406      -955.008 6        40.813                                                                    22806169.148 7  89496334.54607      -713.100 7        44.629    22806169.376 7  91831008.53307      -731.711 7        44.760
S36        23.000    38168339.844 5 200576052.85605      -851.914 5        35.543
S23        24.000    38111997.351 6 200279851.88706      -847.694 6        40.572
G11        25.000    23949209.162 4 125854012.34904      2267.829 4        25.008                                    23949208.038 1  98067991.19801      1767.508 1         4.000    23949207.382 6  98068033.14706      1766.762 6        37.694
R16        26.000    22304988.471 3                     -2060.836 3        20.929                                                                    22305085.695 5                     -1601.911 5        31.192
E33        28.000    26006832.103 6 136666840.13106     -3868.115 6        40.079                                                                    26006830.417 6 102056400.75006     -2888.667 6        36.945    26006829.982 6 104718726.89906     -2963.770 6        37.894
E10        29.000    24199549.420 7 127169498.13507       -81.130 7        43.956                                                                    24199547.720 6  94964278.13006       -60.549 6        38.535    24199544.660 6  97441693.30606       -62.381 6        36.790
C20        31.000                                                                                                                                    21976527.819 8 114437698.66008      -158.357 8        48.034                                                                    21976521.119 6  92989882.25306      -128.889 6        38.745
R23        33.000    20049931.063 7 107253616.22707     -1799.196 7        47.103
R07        34.000    19861902.951 8 106322286.45808     -2424.625 8        52.853                                                                    19861899.684 7  82695133.86407     -1885.809 7        44.406
R22        35.000    21597948.470 5 115291330.14605     -4842.384 5        34.681                                                                    21597935.694 6  89670930.01406     -3766.392 6        38.571
C32        36.000                                                                                                                                    23349798.189 6 121588315.35306     -2856.620 6        36.034                                                                    23349765.161 7  98800515.62307     -2321.299 7        45.857
R09        37.000    21672460.339 5 115729583.96005      1588.320 5        33.012
C30        38.000                                                                                                                                    26160298.815 4                     -4201.187 4        26.778                                                                    26160286.027 3                     -3413.556 3        22.438
C23        40.000                                                                                                                                    24466036.356 6 127401114.57606      -639.870 6        38.447                                                                    24466022.503 4 103523842.68104      -520.465 4        28.531
C35        41.000                                                                                                                                    24741866.186 7 128837350.94407       247.439 7        43.280                                                                    24741862.482 7 104690923.26207       200.862 7        43.014
C37        42.000                                                                                                                                    24648854.583 7 128353072.41707      1794.678 7        44.212                                                                    24648853.067 6 104297348.17506      1458.321 6        37.486
R24        43.000    22550948.816 6 120590148.49006      2375.501 6        37.966                                                                    22550946.864 6  93792306.00306      1847.782 6        36.495
C16        45.000                                                                                                                                    39107320.794 4                     -1588.174 4        29.251    39107319.373 5 157468987.66205     -1227.942 5        34.133    39107315.626 5 165475862.29405     -1290.497 5        34.605
C39        46.000                                                                                                                                    39770639.967 4                     -1901.272 4        25.985
C09        47.000                                                                                                                                    38454703.982 6 200243755.44106     -1056.416 6        40.915    38454699.049 6 154841162.78606      -816.911 6        39.682    38454695.855 5 162714419.78405      -858.619 5        32.473
C19        48.000                                                                                                                                    24887800.148 6 129597526.63406      1677.741 6        36.163                                                                    24887784.881 6 105308354.50306      1363.103 6        40.045
C06        50.000                                                                                                                                    38558826.194 5 200785965.74605     -1530.464 5        35.500    38558836.172 5 155260478.51505     -1183.333 5        34.410    38558815.971 4                     -1243.808 4        25.789
C29        54.000                                                                                                                                    23662350.111 3                     -2865.976 3        23.924                                                                    23662355.114 5 100123215.33505     -2329.612 5        30.113
I01        57.000   380615413.387 6 190475832.60806     -3040.865 6        40.350
I09        58.000    37502542.917 6 147168036.30506      -935.170 6        37.388
> 2025 01 02 03 17 15.0000000  0 38
G03         1.000    21506472.872 7 113017265.90607     -3323.945 7        43.299                                    21506467.426 5  88065335.64805     -2590.085 5        32.641    21506469.141 5  88065428.64505     -2590.199 5        35.090
G19         2.000    23603063.639 5                     -3555.147 5        30.219
G07         5.000    23549152.610 5 123751726.60605      2407.668 5        32.635                                    23549148.575 4  96429857.36004      1876.113 4        27.162    23549149.922 6  96429828.35506      1875.978 6        38.042
G09         6.000    20145772.030 7 105866743.75607       176.115 7        47.768                                    20145769.012 7  82493580.60307       137.233 7        47.792    20145768.939 7  82493567.61607       137.209 7        44.664
G31        10.000                                                                                                                                                                    23753446.694 4                     -3057.111 4        26.695
G17        11.000    24974000.524 3                     -3771.907 3        23.048
G04        12.000    20161275.395 7 105948262.58807     -1709.536 7        47.583                                    20161271.225 5  82557010.50405     -1332.106 5        33.563    20161270.712 7  82557034.50207     -1332.204 7        44.200
E12        13.000    23985130.448 6 126042745.10906     -1518.615 6        39.841                                                                    23985128.528 8  94122810.10108     -1134.013 8        49.602    23985128.352 7  96578210.08607     -1163.641 7        47.534
E29        14.000    25092135.284 7 131860049.01907     -2969.451 7        43.530                                                                    25092132.502 7  98466912.00207     -2217.326 7        47.419    25092133.474 7 101035658.95407     -2275.190 7        46.776
G06        15.000    21326345.168 5 112070726.55505       282.783 5        32.132                                                                                                    21326330.992 6  87327768.58506       220.371 6        38.417
E11        16.000    25615359.825 7 134609969.38007      1275.726 7        42.440                                                                    25615353.921 6 100520175.25106       952.598 6        41.421    25615354.211 7 103142422.80407       977.457 7        42.944
E04        17.000    25801254.314 6 135586518.43706      1485.446 6        41.058                                                                    25801247.565 6 101249703.88306      1109.174 6        39.372    25801247.009 6 103890976.34906      1138.065 6        40.102
R08        18.000                                                                                                                                    20073937.423 4  83607244.92304       518.773 4        29.583
E19        20.000    22807082.006 6 119852029.22706      -956.466 6        40.956                                                                    22807078.600 7  89499903.63107      -714.321 7        44.761    22807078.758 7  91834670.72407      -733.005 7        44.971
S36        23.000    38169152.606 5 200580312.74905      -851.753 5        35.629
S23        24.000    38112804.210 6 200284090.76206      -847.715 6        40.546
G11        25.000                                                                                                                                                                    23947050.596 6  98059202.17306      1765.671 6        38.348
E33        28.000    26010512.566 6 136686183.82606     -3869.159 6        38.874                                                                    26010511.175 6 102070845.71006     -2889.206 6        37.270    26010511.156 6 104733548.67806     -2964.654 6        37.796
E10        29.000    24199627.897 7 127169910.61607       -83.669 7        44.414                                                                    24199626.619 6  94964586.15506       -62.372 6        39.483    24199623.509 6  97442009.37406       -64.188 6        36.227
C20        31.000                                                                                                                                    21976680.556 7 114438495.00607      -159.932 7        47.909                                                                    21976674.233 6  92990529.36906      -130.016 6        38.574
R23        33.000    20051614.011 7 107262624.62307     -1803.883 7        45.595
R07        34.000    19864168.681 8 106334414.65008     -2426.476 8        52.451                                                                    19864165.033 7  82704566.89907     -1887.229 7        44.397
R22        35.000                                                                                                                                    21602473.249 6  89689766.08406     -3768.080 6        37.297
C32        36.000                                                                                                                                    23352538.057 5 121602600.40305     -2857.239 5        35.981                                                                    23352508.357 7  98812123.41707     -2321.874 7        45.348
R09        37.000                                                                                                                                    21670962.910 6  90005833.24106      1233.153 6        36.174
C30        38.000                                                                                                                                    26164331.324 4                     -4200.404 4        26.443                                                                    26164320.316 3                     -3414.121 3        22.895
C23        40.000                                                                                                                                    24466651.516 6 127404321.15906      -642.721 6        38.733                                                                    24466637.611 4 103526448.29404      -522.587 4        28.768
C35        41.000                                                                                                                                    24741629.831 7 128836121.36107       244.644 7        42.681                                                                    24741626.130 7 104689924.13707       198.751 7        43.156
C37        42.000                                                                                                                                    24647132.553 7 128344103.01207      1793.226 7        44.330                                                                    24647130.604 6 104290059.82906      1457.005 6        37.637
R24        43.000    22548729.920 6 120578278.07106      2372.579 6        40.100                                                                    22548726.573 5  93783073.44405      1845.615 5        34.543
C16        45.000                                                                                                                                    39108853.398 4                     -1589.009 4        29.185    39108842.625 5 157475129.79705     -1228.660 5        33.449    39108840.940 5 165482316.77205     -1290.917 5        34.752
C39        46.000                                                                                                                                    39772465.368 4                     -1901.773 4        26.048
C09        47.000                                                                                                                                    38455718.440 6 200249039.99206     -1057.219 6        40.830    38455714.452 6 154845249.14506      -817.515 6        40.210    38455710.655 5 162718713.91905      -858.945 5        32.126
C19        48.000                                                                                                                                    24886189.415 6 129589140.23806      1677.031 6        36.159                                                                    24886174.203 6 105301539.89306      1362.821 6        39.943
C06        50.000                                                                                                                                    38560294.780 5 200793619.54605     -1531.092 5        35.400    38560303.790 5 155266396.91405     -1183.654 5        34.495    38560286.321 4                     -1244.356 4        26.108
C29        54.000                                                                                                                                    23665107.828 4                     -2869.223 4        26.790                                                                    23665110.969 4 100134868.26404     -2331.589 4        29.479
I01        57.000   380619288.110 6 190491037.77806     -3041.087 6        40.145
I09        58.000    37503735.222 6 147172712.84806      -935.501 6        37.750
> 2025 01 02 03 17 20.0000000  0 38
G03         1.000    21509636.716 7 113033890.38707     -3325.245 7        42.916                                    21509630.491 5  88078289.78505     -2591.105 5        32.281    21509631.655 5  88078382.77305     -2591.177 5        34.152
G19         2.000    23606448.161 5                     -3556.701 5        33.245
G07         5.000    23546867.481 6 123739690.69906      2407.062 6        37.380                                    23546857.977 4  96420478.75204      1875.632 4        28.986    23546859.445 6  96420449.75706      1875.605 6        37.909
G09         6.000    20145606.252 7 105865869.57507       174.035 7        46.979                                    20145602.632 7  82492899.42307       135.614 7        47.359    20145602.707 7  82492886.42607       135.653 7        44.569
G31        10.000                                                                                                                                                                    23757186.267 4                     -3058.595 4        26.551
G04        12.000    20162902.821 7 105956816.42607     -1711.554 7        47.888                                    20162898.850 5  82563675.82505     -1333.678 5        33.790    20162898.765 7  82563699.82107     -1333.591 7        44.153
E12        13.000    23986576.470 6 126050344.49206     -1520.631 6        39.057                                                                    23986574.617 8  94128484.96508     -1135.577 8        49.643    23986574.489 7  96584032.99007     -1165.243 7        47.485
E29        14.000    25094961.141 7 131874897.95507     -2969.857 7        43.843                                                                    25094958.249 7  98478000.50007     -2217.711 7        47.413    25094958.877 7 101047036.71207     -2275.583 7        46.631
G06        15.000                                                                                                                                                                    21326061.654 6  87326673.70706       218.026 6        36.991
E11        16.000    25614146.667 7 134603595.99207      1274.226 7        42.815                                                                    25614141.254 6 100515415.89506       951.599 6        41.218    25614141.182 7 103137539.29407       976.404 7        42.864
E04        17.000    25799840.171 6 135579094.35906      1484.579 6        40.603                                                                    25799835.202 6 101244159.92006      1108.755 6        40.293    25799833.767 6 103885287.77406      1137.563 6        39.928
R08        18.000    20073326.926 6 107491879.49806       665.379 6        37.187                                                                    20073317.420 5  83604654.94405       517.544 5        32.054
E19        20.000    22807992.775 6 119856816.64006      -957.854 6        40.791                                                                    22807989.583 7  89503478.64207      -715.364 7        44.676    22807989.774 7  91838338.98907      -733.945 7        45.035
S36        23.000    38169964.443 6 200584572.35106      -851.337 6        36.076
S23        24.000    38113611.137 6 200288329.86806      -847.389 6        40.746
G11        25.000                                                                                                                                                                    23944895.768 6  98050377.57706      1764.657 6        38.697
R16        26.000    22308848.818 3                     -2069.630 3        19.851
E33        28.000    26014194.208 6 136705532.45606     -3870.062 6        37.331                                                                    26014193.090 6 102085294.34106     -2889.643 6        37.372    26014192.696 6 104748374.26006     -2965.378 6        38.024
E10        29.000    24199708.082 7 127170334.60807       -85.601 7        44.086                                                                    24199707.514 6  94964902.78006       -63.945 6        40.203    24199704.359 5  97442334.24505       -65.835 5        35.405
C20        31.000                                                                                                                                    21976835.159 8 114439298.56308      -161.051 8        48.641                                                                    21976828.779 6  92991182.28506      -131.092 6        38.483
R23        33.000    20053302.011 7 107271656.53107     -1808.378 7        44.093
R07        34.000    19866435.545 8 106346551.74208     -2427.902 8        52.100                                                                    19866432.303 7  82714006.85907     -1888.319 7        44.528
R22        35.000                                                                                                                                    21607014.048 5  89708610.33905     -3768.996 5        35.900
C32        36.000                                                                                                                                    23355270.532 6 121616890.14406     -2857.998 6        36.450                                                                    23355252.482 7  98823734.96207     -2322.708 7        44.783
R09        37.000    21669465.647 5 115713733.57605      1581.743 5        33.868                                                                    21669473.029 6  89999675.73606      1230.364 6        36.057
C30        38.000                                                                                                                                    26168364.696 4                     -4200.884 4        26.874                                                                    26168353.957 3                     -3415.021 3        21.905
C23        40.000                                                                                                                                    24467272.071 6 127407541.85206      -645.278 6        38.754                                                                    24467258.624 4 103529065.34304      -524.805 4        29.573
C35        41.000                                                                                                                                    24741395.241 6 128834905.30606       242.147 6        41.111                                                                    24741392.425 7 104688935.94307       196.546 7        43.101
C37        42.000                                                                                                                                    24645409.907 7 128335140.82307      1792.088 7        43.873                                                                    24645409.846 6 104282777.28406      1455.866 6        37.675
R24        43.000    22546519.018 7 120566422.37707      2370.065 7        42.345                                                                    22546510.912 5  93773852.36205      1843.507 5        34.224
C16        45.000                                                                                                                                    39110387.509 4                     -1589.786 4        29.024    39110366.450 5 157481274.00805     -1229.070 5        32.790    39110366.825 5 165488773.36905     -1291.683 5        35.090
C39        46.000                                                                                                                                    39774293.135 4                     -1901.573 4        26.922
C09        47.000                                                                                                                                    38456734.262 6 200254327.93706     -1057.655 6        40.975    38456729.640 6 154849338.11306      -817.721 6        40.493    38456726.017 5 162723010.80505      -859.755 5        32.096
C19        48.000                                                                                                                                    24884583.601 5 129580756.78605      1676.911 5        34.276                                                                    24884563.973 6 105294727.63606      1362.255 6        40.145
C06        50.000                                                                                                                                    38561764.159 5 200801276.24605     -1531.154 5        34.843    38561773.223 5 155272317.61405     -1184.345 5        34.714    38561757.498 4                     -1244.746 4        26.623
C29        54.000                                                                                                                                    23667865.786 4                     -2871.303 4        29.251                                                                    23667867.291 4 100146529.85804     -2333.542 4        29.744
I01        57.000   380623162.336 6 190506243.67906     -3041.016 6        40.043
I09        58.000    37504926.606 6 147177390.14506      -935.486 6        37.883
> 2025 01 02 03 17 25.0000000  0 39
G03         1.000    21512801.986 7 113050522.71407     -3327.311 7        42.813                                    21512795.157 5  88091250.03305     -2592.710 5        31.985    21512796.843 5  88091343.01905     -2592.764 5        33.611
G19         2.000    23609832.536 5 124070505.49515     -3558.513 5        34.095
G07         5.000    23544580.336 6 123727659.12906      2405.760 6        40.679                                    23544568.247 5  96411103.49905      1874.622 5        31.230    23544569.402 6  96411074.49806      1874.793 6        37.463
G09         6.000    20145442.077 7 105865006.99807       171.125 7        46.355                                    20145438.389 7  82492227.28107       133.350 7        47.058    20145438.826 7  82492214.28107       133.375 7        44.360
G31        10.000    23760982.949 5                     -3927.103 5        31.140                                                                                                    23760919.513 3                     -3061.106 3        23.924
G17        11.000    24981199.179 3                     -3771.223 3        22.762
G04        12.000    20164532.486 8 105965381.37508     -1714.231 8        48.429                                    20164528.650 5  82570349.80205     -1335.764 5        34.014    20164529.243 7  82570373.80207     -1335.828 7        44.600
E12        13.000    23988025.080 6 126057955.66706     -1523.605 6        38.363                                                                    23988023.058 8  94134168.62808     -1137.722 8        49.694    23988022.914 7  96589864.91507     -1167.410 7        47.399
E29        14.000    25097787.557 7 131889750.54407     -2970.947 7        44.373                                                                    25097784.698 7  98489091.71807     -2218.571 7        47.476    25097785.119 7 101058417.25307     -2276.440 7        46.365
G06        15.000                                                                                                                                                                    21325796.812 5  87325591.01805       215.311 5        35.586
E11        16.000    25612935.681 7 134597230.40407      1272.254 7        42.775                                                                    25612929.969 6 100510662.38306       950.094 6        41.154    25612929.649 7 103132661.77307       974.722 7        42.895
E04        17.000    25798427.031 6 135571674.87306      1483.262 6        40.505                                                                    25798423.443 6 101238619.40506      1107.831 6        40.880    25798421.442 6 103879602.73706      1136.424 6        39.535
R08        18.000    20072715.250 6 107488558.92006       663.028 6        36.888                                                                    20072698.419 5  83602072.31505       515.500 5        33.581
E19        20.000    22808905.049 6 119861611.76306      -959.902 6        40.377                                                                    22808902.070 7  89507059.42507      -716.849 7        44.734    22808902.116 7  91842013.18407      -735.506 7        44.913
S36        23.000    38170773.458 6 200588831.31606      -852.132 6        36.060
S23        24.000    38114418.412 6 200292568.99906      -848.176 6        40.977
G11        25.000    23942816.097 4                      2262.604 4        27.952                                                                                                    23942742.169 6  98041559.22106      1762.965 6        38.757
R16        26.000                                                                                                                                    22310807.355 5  92695828.43815     -1612.424 5        35.552
E33        28.000    26017877.441 6 136724885.79506     -3871.328 6        36.049                                                                    26017875.953 6 102099746.51606     -2890.716 6        37.463    26017875.150 6 104763203.42106     -2966.352 6        37.871
E10        29.000    24199790.016 7 127170769.91507       -88.371 7        43.306                                                                    24199790.492 6  94965227.85706       -65.927 6        40.653    24199787.121 5  97442667.78805       -67.602 5        35.181
C20        31.000                                                                                                                                    21976991.203 8 114440109.13108      -162.962 8        49.536                                                                    21976984.444 6  92991840.92906      -132.145 6        38.405
R23        33.000    20054995.315 7 107280711.98307     -1813.601 7        43.060
R07        34.000    19868704.587 8 106358697.51208     -2430.208 8        51.961                                                                    19868701.552 7  82723453.57607     -1890.210 7        44.924
R22        35.000    21611537.226 4 115364014.55104     -4848.468 4        27.593                                                                    21611553.351 5  89727462.62805     -3771.523 5        34.243
C32        36.000                                                                                                                                                                                                                                                                    23357997.308 7  98835350.16807     -2323.496 7        44.081
R09        37.000                                                                                                                                    21667988.324 5  89993531.31905      1227.217 5        34.976
C30        38.000                                                                                                                                    26172400.116 4                     -4199.525 4        26.539                                                                    26172388.268 3                     -3418.170 3        22.190
C23        40.000                                                                                                                                    24467893.654 6 127410776.45406      -648.269 6        37.444                                                                    24467883.005 5 103531693.74505      -527.059 5        31.366
C35        41.000                                                                                                                                    24741162.742 6 128833702.57006       239.142 6        40.157                                                                    24741161.124 7 104687958.59607       194.272 7        42.745
C37        42.000                                                                                                                                    24643687.524 7 128326185.66107      1790.205 7        43.009                                                                    24643690.106 6 104275500.46506      1454.640 6        37.705
R24        43.000    22544309.480 7 120554581.08407      2366.611 7        42.732                                                                    22544296.404 6  93764642.46206      1840.790 6        36.159
C16        45.000                                                                                                                                    39111912.252 4                     -1589.910 4        28.616    39111891.683 5 157487420.07605     -1229.410 5        31.623    39111892.979 5 165495231.95205     -1292.141 5        35.129
C39        46.000                                                                                                                                    39776119.806 4                     -1902.045 4        27.425
C09        47.000                                                                                                                                    38457750.920 6 200259619.15906     -1058.713 6        41.149    38457746.330 6 154853429.61706      -818.609 6        40.858    38457742.136 5 162727310.33705      -860.515 5        32.479
C19        48.000                                                                                                                                    24882974.109 4 129572376.10904      1675.728 4        29.744                                                                    24882954.311 6 105287917.63706      1361.679 6        40.038
C06        50.000                                                                                                                                    38563235.589 5 200808935.75105     -1532.480 5        34.700    38563244.238 5 155278240.41605     -1184.656 5        34.614    38563229.820 4                     -1245.293 4        27.413
C29        54.000                                                                                                                                    23670622.546 5                     -2873.542 5        30.838                                                                    23670624.099 4 100158199.92104     -2334.561 4        29.062
I01        57.000   380627038.207 6 190521450.13306     -3041.379 6        40.036
I09        58.000    37506118.681 6 147182068.00406      -935.676 6        37.913
> 2025 01 02 03 17 30.0000000  0 40
G03         1.000    21515967.936 7 113067162.35507     -3328.478 7        43.039                                    21515961.392 5  88104215.98205     -2593.616 5        32.198    21515964.318 5  88104308.95705     -2593.655 5        33.790
G19         2.000    23613220.727 6 124088301.19806     -3559.611 6        36.034
G07         5.000    23542289.658 7 123715631.41507      2405.445 7        42.593                                    23542279.286 5  96401731.24505      1874.369 5        33.096    23542280.854 6  96401702.25006      1874.347 6        37.531
G09         6.000    20145279.877 7 105864155.46407       169.396 7        45.720                                    20145276.208 7  82491563.74907       131.999 7        46.654    20145276.547 7  82491550.76107       131.992 7        43.625
G31        10.000    23764718.221 5                     -3929.010 5        30.053                                                                                                    23764653.528 3                     -3061.519 3        23.429
G17        11.000    24984776.906 3                     -3769.525 3        22.171
G04        12.000    20166164.290 8 105973956.90608     -1715.950 8        48.084                                    20166160.497 5  82577032.03005     -1337.102 5        34.057    20166161.094 7  82577056.02307     -1337.051 7        44.935
E12        13.000    23989475.979 6 126065578.08506     -1525.636 6        37.924                                                                    23989473.536 8  94139860.68608     -1139.089 8        49.684    23989473.440 7  96595705.45907     -1168.750 7        47.248
E29        14.000    25100614.272 7 131904606.25307     -2971.248 7        45.023                                                                    25100611.678 7  98500185.26007     -2218.800 7        47.515    25100611.898 7 101069800.19507     -2276.670 7        46.130
G06        15.000    21325584.790 5 112066557.74605       273.686 5        31.351                                                                                                    21325535.361 5  87324520.19005       213.402 5        34.852
E11        16.000    25611725.291 7 134590872.11007      1271.127 7        42.573                                                                    25611720.038 6 100505914.30406       949.309 6        41.206    25611719.661 7 103127789.82607       973.979 7        42.809
E04        17.000    25797015.749 6 135564259.50106      1482.766 6        40.448                                                                    25797012.252 6 101233081.97206      1107.231 6        41.375    25797009.754 6 103873920.83606      1136.147 6        39.000
R08        18.000    20072094.112 6 107485247.41706       661.829 6        37.418                                                                    20072079.833 5  83599496.74805       514.564 5        33.569
E19        20.000    22809818.535 6 119866414.04806      -961.026 6        39.925                                                                    22809815.964 7  89510645.54707      -717.543 7        44.755    22809815.829 7  91845692.85807      -736.359 7        44.870
S36        23.000    38171582.423 6 200593089.83706      -851.831 6        36.011
S23        24.000    38115225.048 6 200296807.58306      -847.444 6        41.015
G11        25.000                                                                                                                                                                    23940590.273 6  98032746.67206      1762.077 6        38.562
R16        26.000    22312735.745 5                     -2076.423 5        35.848                                                                    22312745.741 6  92703897.05416     -1614.931 6        37.641
E33        28.000    26021561.859 5 136744243.34105     -3871.579 5        35.467                                                                    26021559.472 6 102114201.84106     -2891.257 6        37.686    26021558.574 6 104778035.82006     -2966.630 6        37.962
E10        29.000    24199874.440 7 127171216.01707       -90.016 7        42.466                                                                    24199875.540 6  94965560.99606       -67.354 6        40.913    24199872.462 5  97443009.62805       -69.057 5        34.976
C20        31.000                                                                                                                                    21977148.153 8 114440926.21908      -163.891 8        50.223                                                                    21977141.680 6  92992504.89506      -133.226 6        38.123
R23        33.000    20056692.716 7 107289790.25507     -1817.756 7        42.576
R07        34.000    19870974.549 8 106370851.59308     -2431.386 8        51.584                                                                    19870971.856 7  82732906.75907     -1891.032 7        45.175
R22        35.000    21616082.482 4 115388262.67904     -4850.033 4        25.098                                                                    21616092.096 5  89746322.39005     -3772.742 5        34.257
C32        36.000                                                                                                                                    23360737.399 6 121645482.70506     -2859.898 6        40.217                                                                    23360742.866 7  98846968.58507     -2323.893 7        43.297
R09        37.000    21666524.012 5 115697949.80405      1575.501 5        34.600                                                                    21666516.274 5  89987399.39705      1225.204 5        33.617
C30        38.000                                                                                                                                    26176432.639 4                     -4200.305 4        26.994                                                                    26176422.213 3                     -3416.539 3        21.238
C23        40.000                                                                                                                                    24468512.588 5 127414024.58205      -650.819 5        35.400                                                                    24468508.002 5 103534333.04405      -528.719 5        31.992
C35        41.000                                                                                                                                    24740933.309 6 128832512.59806       237.001 6        40.570                                                                    24740932.184 7 104686991.64407       192.465 7        42.106
C37        42.000                                                                                                                                    24641968.638 7 128317237.00607      1789.221 7        42.298                                                                    24641971.346 6 104268228.93806      1453.828 6        37.728
R24        43.000    22542098.696 7 120542753.80407      2364.280 7        43.075                                                                    22542085.480 6  93755443.50506      1838.904 6        38.742
C16        45.000                                                                                                                                    39113436.869 4                     -1590.412 4        28.995    39113416.719 5 157493567.63705     -1229.378 5        31.253    39113419.632 5 165501692.09705     -1291.913 5        35.114
C39        46.000                                                                                                                                    39777947.631 4                     -1902.526 4        28.313
C09        47.000                                                                                                                                    38458767.559 6 200264913.05106     -1058.847 6        41.499    38458762.971 6 154857523.19706      -818.824 6        41.180    38458759.149 5 162731612.01905      -860.227 5        32.084
C19        48.000                                                                                                                                                                                                                                                                    24881344.970 6 105281109.46206      1361.495 6        39.568
C06        50.000                                                                                                                                    38564707.087 5 200816597.40205     -1531.965 5        34.852    38564715.198 5 155284164.94505     -1185.252 5        34.376    38564701.256 4                     -1245.324 4        27.892
C25        51.000                                                                                                                                    26396066.597 3                     -3089.454 3        21.310
C29        54.000                                                                                                                                    23673381.644 5                     -2875.186 5        33.323                                                                    23673381.790 4 100169878.16804     -2336.493 4        28.758
I01        57.000   380630913.910 6 190536656.76106     -3041.279 6        39.781
I09        58.000    37507311.562 6 147186746.07506      -935.566 6        38.093
